~Version
 VERS              .         2.0                           : CWLS LOG ASCII STANDARD - VERSION 2.0
 WRAP              .         NO                            : ONE LINE PER DEPTH STEP
 DLM               .         SPACE                         : DELIMITING CHARACTER(SPACE TAB OR COMMA)
~Well Information
#_______________________________________________________________________________
#
#PARAMETER_NAME    .UNIT     VALUE                         : DESCRIPTION
#_______________________________________________________________________________
STRT               .m        2898                          : First reference value
STOP               .m        3121.600112                   : Last reference value
STEP               .m        0.2000001                     : Step increment
NULL               .         -9999                         : Missing value
COMP               .                                       : Company
WELL               .         200                           : Well name
FLD                .                                       : Field
LOC                .                                       : Location
CNTY               .                                       : County
STAT               .                                       : State
CTRY               .                                       : Country
SRVC               .                                       : Service Company
DATE               .                                       : Date
API                .                                       : API number
EREF               .m        139.76                        : 
Pad                .         2                             : 
X                  .m        228492                        : 
Y                  .m        241733                        : 
group              .         Pad2                          : 
Интер-р            .         Зайцев                        : 
Куст               .         2                             : 
Статус             .         Не проверено                  : 
Тип                .         Разведка                      : 
~Parameter Information Block
#_______________________________________________________________________________
#
#PARAMETER_NAME    .UNIT     VALUE                         : DESCRIPTION
#_______________________________________________________________________________
SET                .         LAS4                          : 
REAL_CREATION_DATE .         Ср апр 11 2012-13_17_06       : 
TLFamily_DEPTH     .         Measured Depth                : 
TLFamily_GR        .         Gamma Ray                     : 
TLFamily_TNPH      .         Neutron Porosity              : 
group              .         INI                           : 
~Curve Information
#_______________________________________________________________________________
#
#LOGNAME           .UNIT     LOG_ID                        : DESCRIPTION
#_______________________________________________________________________________
DEPTH              .m                                      : 1 Depth 
GR                 .gAPI                                   :  
TNPH               .v/v                                    : 4 Суммарное водородосодержание 
~Ascii
# ...
3039.800071 117.731    0.262677  
3040.000071 115.198    0.251174  
3040.200071 118.632    0.246003  
3040.400071 124.502    0.245799  
3040.600071 126.434    0.248341  
3040.800071 131.591    0.249696  
3041.000072 127.619    0.241602  
3041.200072 109.508    0.238303  
3041.400072 99.89101   0.254852  
3041.600072 120.073    0.264761  
3041.800072 129.72     0.265198  
3042.000072 131.149    0.27373   
3042.200072 128.089    0.285158  
3042.400072 125.743    0.294914  
3042.600072 126.892    0.308093  
3042.800072 128.588    0.3172    
3043.000072 129.231    0.341953  
3043.200073 128.597    0.364317  
3043.400073 127.442    0.332437  
3043.600073 125.349    0.29389   
3043.800073 127.528    0.275013  
3044.000073 134.867    0.297159  
3044.200073 134.155    0.327802  
3044.400073 131.225    0.311094  
3044.600073 133.899    0.292801  
3044.800073 137.794    0.279442  
3045.000073 136.057    0.267206  
3045.200074 129.927    0.258412  
3045.400074 123.969    0.260795  
3045.600074 124.269    0.272496  
3045.800074 124.525    0.270362  
3046.000074 120.229    0.271355  
3046.200074 113.446    0.277758  
3046.400074 113.398    0.28603   
3046.600074 124.533    0.289437  
3046.800074 131.453    0.246553  
3047.000074 145.651    0.19876   
3047.200075 165.157    0.1564    
3047.400075 152.553    0.115324  
3047.600075 108.47     0.097056  
3047.800075 70.408     0.101837  
3048.000075 54.626     0.105792  
3048.200075 48.737     0.100474  
3048.400075 45.242     0.105659  
3048.600075 48.18      0.111215  
3048.800075 52.013     0.10929   
3049.000076 51.585     0.105916  
3049.200076 49.347     0.101036  
3049.400076 46.393     0.088784  
3049.600076 41.258     0.066274  
3049.800076 36.698     0.051147  
3050.000076 32.054     0.051258  
3050.200076 25.823     0.057435  
3050.400076 23.757     0.060089  
3050.600076 30.106     0.052079  
3050.800076 34.149     0.041812  
3051.000076 30.574     0.03234   
3051.200077 27.596     0.032021  
3051.400077 32.651     0.050013  
3051.600077 39.71      0.077085  
3051.800077 43.12      0.083464  
3052.000077 39.586     0.067298  
3052.200077 33.331     0.059121  
3052.400077 34.699     0.074614  
3052.600077 40.503     0.101582  
3052.800077 44.686     0.128079  
3053.000077 45.03      0.144439  
3053.200078 44.842     0.147952  
3053.400078 45.417     0.144877  
3053.600078 42.117     0.132715  
3053.800078 43.645     0.12564   
3054.000078 49.845     0.116502  
3054.200078 52.026     0.100914  
3054.400078 45.781     0.082254  
3054.600078 39.431     0.067274  
3054.800078 39.781     0.061379  
3055.000079 42.892     0.067246  
3055.200079 48.825     0.077997  
3055.400079 57.765     0.086994  
3055.600079 65.431     0.100216  
3055.800079 66.817     0.114828  
3056.000079 64.903     0.127446  
3056.200079 64.861     0.137985  
3056.400079 64.464     0.14682   
3056.600079 59.276     0.158477  
3056.800079 56.716     0.163741  
3057.00008 58.545     0.157067  
3057.20008 59.758     0.149191  
3057.40008 61.944     0.152693  
3057.60008 64.40601   0.157567  
3057.80008 60.999     0.156276  
3058.00008 54.095     0.152889  
3058.20008 53.242     0.15126   
3058.40008 59.972     0.154086  
3058.60008 64.677     0.156068  
3058.80008 63.938     0.149638  
3059.00008 63.404     0.146601  
3059.200081 62.58099   0.147315  
3059.400081 57.702     0.147401  
3059.600081 53.31      0.145927  
3059.800081 53.376     0.147238  
3060.000081 53.076     0.148827  
3060.200081 51.32      0.144152  
3060.400081 48.476     0.115863  
3060.600081 43.792     0.082766  
3060.800081 41.962     0.076765  
3061.000081 45.349     0.093445  
3061.200082 49.676     0.126844  
3061.400082 53.023     0.158829  
3061.600082 54.844     0.166051  
3061.800082 51.575     0.164909  
3062.000082 48.627     0.163063  
3062.200082 49.831     0.16026   
3062.400082 49.754     0.16102   
3062.600082 48.991     0.1586    
3062.800082 51.255     0.151518  
3063.000083 51.95      0.144758  
3063.200083 46.929     0.138263  
3063.400083 36.546     0.133299  
3063.600083 29.285     0.127832  
3063.800083 30.924     0.121904  
3064.000083 42.948     0.140432  
3064.200083 43.478     0.159531  
3064.400083 37.613     0.164418  
3064.600083 33.601     0.161568  
3064.800083 33.734     0.151825  
3065.000084 37.046     0.130861  
3065.200084 38.949     0.083499  
3065.400084 37.335     0.04518   
3065.600084 34.409     0.030861  
3065.800084 33.386     0.022374  
3066.000084 34.234     0.015083  
3066.200084 31.082     0.013738  
3066.400084 24.913     0.01998   
3066.600084 22.85      0.024872  
3066.800084 22.918     0.036856  
3067.000084 26.97      0.05542   
3067.200085 30.34      0.087028  
3067.400085 33.993     0.130653  
3067.600085 48.463     0.171877  
3067.800085 76.168     0.184634  
3068.000085 99.721     0.183331  
3068.200085 109.013    0.195404  
3068.400085 109.876    0.211526  
3068.600085 109.11     0.21325   
3068.800085 107.564    0.215515  
3069.000085 107.154    0.214637  
3069.200086 106.868    0.220167  
3069.400086 110.366    0.225723  
3069.600086 113.957    0.228173  
3069.800086 111.681    0.234745  
3070.000086 108.554    0.227237  
3070.200086 108.86     0.216991  
3070.400086 110.554    0.212602  
3070.600086 113.655    0.194506  
3070.800086 117.703    0.171874  
3071.000087 119.077    0.170898  
3071.200087 113.526    0.180696  
3071.400087 99.851     0.189013  
3071.600087 85.839     0.200642  
3071.800087 79.865     0.203375  
3072.000087 78.483     0.200245  
3072.200087 77.205     0.195539  
3072.400087 74.748     0.179698  
3072.600087 74.495     0.171765  
3072.800087 73.658     0.177383  
3073.000088 71.23399   0.174101  
3073.200088 71.251     0.163423  
3073.400088 74.19501   0.165072  
3073.600088 76.931     0.174444  
3073.800088 78.204     0.181242  
3074.000088 80.933     0.193508  
3074.200088 88.03001   0.218845  
3074.400088 97.06801   0.250952  
3074.600088 98.083     0.24566   
3074.800088 97.747     0.244048  
3075.000088 98.082     0.243738  
3075.200089 97.95399   0.247234  
3075.400089 94.52599   0.259369  
3075.600089 90.591     0.246568  
3075.800089 87.772     0.221993  
3076.000089 87.211     0.212606  
3076.200089 91.717     0.211571  
3076.400089 95.377     0.209978  
3076.600089 93.64999   0.216301  
3076.800089 85.01099   0.219138  
3077.000089 71.762     0.20651   
3077.20009 62.902     0.19335   
3077.40009 63.502     0.19418   
3077.60009 72.46001   0.20904   
3077.80009 78.912     0.223367  
3078.00009 90.54401   0.256761  
3078.20009 96.326     0.275922  
3078.40009 102.114    0.274969  
3078.60009 111.129    0.282007  
3078.80009 114.334    0.29614   
3079.000091 108.526    0.285015  
3079.200091 102.742    0.266094  
3079.400091 105.286    0.266663  
3079.600091 98.423     0.22983   
3079.800091 81.888     0.186759  
3080.000091 65.33      0.151485  
3080.200091 57.4       0.125924  
3080.400091 57.88      0.123766  
3080.600091 64.85699   0.132023  
3080.800091 72.661     0.138683  
3081.000092 71.757     0.138585  
3081.200092 67.089     0.135064  
3081.400092 65.946     0.141392  
3081.600092 66.993     0.149324  
3081.800092 66.203     0.146258  
3082.000092 63.376     0.13747   
3082.200092 59.694     0.146271  
3082.400092 61.36501   0.169503  
3082.600092 74.537     0.188132  
3082.800092 88.151     0.195846  
3083.000092 88.67699   0.181496  
3083.200093 82.296     0.171929  
3083.400093 82.045     0.182075  
3083.600093 85.742     0.236319  
3083.800093 81.332     0.313446  
3084.000093 58.96      0.40717   
3084.200093 25.866     0.508337  
3084.400093 6.127      0.545229  
3084.600093 2.890999   0.541899  
3084.800093 10.492     0.527158  
3085.000093 17.007     0.506184  
3085.200094 26.025     0.484213  
3085.400094 40.952     0.45071   
3085.600094 60.966     0.373923  
3085.800094 78.011     0.319947  
3086.000094 83.29601   0.339654  
3086.200094 79.99699   0.362123  
3086.400094 81.423     0.332455  
3086.600094 86.616     0.283443  
3086.800094 82.05499   0.219534  
