~Version
 VERS              .         2.0                           : CWLS LOG ASCII STANDARD - VERSION 2.0
 WRAP              .         NO                            : ONE LINE PER DEPTH STEP
 DLM               .         SPACE                         : DELIMITING CHARACTER(SPACE TAB OR COMMA)
~Well Information
#_______________________________________________________________________________
#
#PARAMETER_NAME    .UNIT     VALUE                         : DESCRIPTION
#_______________________________________________________________________________
STRT               .m        2898                          : First reference value
STOP               .m        3121.600112                   : Last reference value
STEP               .m        0.2000001                     : Step increment
NULL               .         -9999                         : Missing value
COMP               .                                       : Company
WELL               .         200                           : Well name
FLD                .                                       : Field
LOC                .                                       : Location
CNTY               .                                       : County
STAT               .                                       : State
CTRY               .                                       : Country
SRVC               .                                       : Service Company
DATE               .                                       : Date
API                .                                       : API number
EREF               .m        139.76                        : 
Pad                .         2                             : 
X                  .m        228492                        : 
Y                  .m        241733                        : 
group              .         Pad2                          : 
Интер-р            .         Зайцев                        : 
Куст               .         2                             : 
Статус             .         Не проверено                  : 
Тип                .         Разведка                      : 
~Parameter Information Block
#_______________________________________________________________________________
#
#PARAMETER_NAME    .UNIT     VALUE                         : DESCRIPTION
#_______________________________________________________________________________
SET                .         LAS1                          : 
REAL_CREATION_DATE .         Ср апр 11 2012-13_17_06       : 
TLFamily_DEPTH     .         Measured Depth                : 
TLFamily_GZ1       .         Extra Shallow Resistivity     : 
TLFamily_GZ2       .         Shallow Resistivity           : 
TLFamily_GZ3       .         Medium Resistivity            : 
TLFamily_GZ4       .         Deep Resistivity              : 
TLFamily_GZ5       .         Extra Deep Resistivity        : 
TLFamily_GZr       .         Medium Resistivity Inverted   : 
TLFamily_LLD       .         Lateral Log Resistivity       : 
TLFamily_PS        .         Spontaneous Potential         : 
TLFamily_PZ        .         Potential Resistivity         : 
TLFamily_RS        .         Mud Resistivity               : 
group              .         INI                           : 
~Curve Information
#_______________________________________________________________________________
#
#LOGNAME           .UNIT     LOG_ID                        : DESCRIPTION
#_______________________________________________________________________________
DEPTH              .m                                      : 1 Depth 
GZ1                .ohm.m                                  : 3 Подошвенный градиент-зонд А0.4М0.1N 
GZ2                .ohm.m                                  : 4 Подошвенный градиент-зонд А1.0М0.1N 
GZ3                .ohm.m                                  : 5 Подошвенный градиент-зонд А2.0М0.5N 
GZ4                .ohm.m                                  : 6 Подошвенный градиент-зонд А4.0М0.5N 
GZ5                .ohm.m                                  : 7 Подошвенный градиент-зонд А8.0М1.0N 
GZr                .ohm.m                                  : 8 Кровельный градиент-зонд N0.5M2.0A 
LLD                .ohm.m                                  : 11 Трехэлектродный  бокового каротажа БК-3 
PS                 .mV                                     : 2 Потенциал самопроизвольной поляризации 
PZ                 .ohm.m                                  : 9 Однополюсный потенциал-зонд N6.0М0.5А 
RS                 .ohm.m                                  : 10 УЭС жидкости в стволе скажины 
~Ascii
# ...
2911.200007 2.0748     6.2318     8.6365     7.1881     3.8504     9.2392     3.7591     46.2368    5.366      0.4263    
2911.400007 2.0493     6.1921     8.5597     7.1485     3.8504     9.2961     3.7478     46.955     5.3344     0.4257    
2911.600007 2.0493     6.1794     8.4969     7.128      3.8504     9.3527     3.7789     46.0851    5.366      0.4276    
2911.800007 2.0493     6.1546     8.4698     7.1453     3.8887     9.3676     3.866      44.6075    5.366      0.4255    
2912.000007 2.0493     6.1794     8.5214     7.1485     3.9033     9.3676     3.9299     41.9319    5.366      0.4198    
2912.200007 2.0493     6.1794     8.5214     7.1485     3.9177     9.3676     3.8866     39.0672    5.366      0.4198    
2912.400007 2.0493     6.1517     8.5214     7.1485     3.9563     9.3921     3.8294     38.0671    5.3845     0.4198    
2912.600007 2.0493     6.1657     8.5367     7.1732     4.0093     9.4475     3.986      38.5598    5.374      0.4198    
2912.800007 2.0493     6.2667     8.5932     7.1874     4.0093     9.4742     3.9348     39.7868    5.3883     0.4198    
2913.000007 2.0493     6.2702     8.5516     7.1308     4.0622     9.4209     3.8749     42.0435    5.4193     0.4139    
2913.200008 2.0493     6.2318     8.5214     7.0507     4.0522     9.4209     3.8945     44.3343    5.4193     0.4139    
2913.400008 2.0493     6.2318     8.5214     7.0433     4.0093     9.4209     3.9353     45.4991    5.4193     0.4139    
2913.600008 2.0493     6.279      8.5214     7.0174     4.0093     9.3781     3.9753     45.3133    5.4193     0.4142    
2913.800008 2.0493     6.2343     8.5214     6.9906     4.0093     9.3676     3.9475     43.7576    5.4193     0.4198    
2914.000008 2.0493     6.283      8.5214     6.9906     4.0093     9.3676     3.9125     41.2587    5.4193     0.4195    
2914.200008 2.0493     6.2318     8.5214     6.9906     4.0093     9.3929     3.9315     38.7104    5.4193     0.4139    
2914.400008 2.0336     6.2252     8.5214     6.9523     4.0093     9.3676     3.9219     36.6211    5.4193     0.4091    
2914.600008 2.0138     6.2039     8.4964     6.938      4.0093     9.3676     3.9207     35.9498    5.4193     0.4081    
2914.800008 2.0239     6.2171     8.5441     6.958      4.0622     9.4016     3.9425     37.6811    5.4193     0.4081    
2915.000009 2.0493     6.2568     8.5746     6.9906     4.0622     9.4209     3.9899     40.5922    5.4193     0.4081    
2915.200009 2.0493     6.2318     8.5746     6.9906     4.1152     9.4363     3.938      42.5235    5.4224     0.4081    
2915.400009 2.0493     6.2108     8.5746     6.9906     4.1152     9.518      3.8981     42.8111    5.444      0.4083    
2915.600009 2.0493     6.1794     8.5813     6.9959     4.1152     9.574      3.9577     42.2588    5.4725     0.4139    
2915.800009 2.0493     6.2056     8.6278     7.0433     4.1682     9.5808     4.0264     41.1605    5.4725     0.4139    
2916.000009 2.0493     6.2318     8.6409     7.0798     4.2188     9.6325     4.0091     39.1509    5.4725     0.4139    
2916.200009 2.0493     6.2318     8.6811     7.1099     4.2211     9.6341     3.995      36.9742    5.4725     0.4139    
2916.400009 2.0493     6.265      8.6992     7.1485     4.2741     9.6341     4.0794     35.9375    5.4725     0.4139    
2916.600009 2.0493     6.2714     8.7343     7.1928     4.2741     9.6341     4.0246     36.599     5.4725     0.4139    
2916.800009 2.0493     6.2725     8.6847     7.2011     4.2741     9.6341     3.9676     38.7062    5.4725     0.4156    
2917.00001 2.0493     6.2842     8.6811     7.2011     4.3024     9.6341     3.9603     41.1495    5.4789     0.4198    
2917.20001 2.0493     6.2387     8.6529     7.2011     4.3271     9.6157     3.9997     42.6149    5.5258     0.4198    
2917.40001 2.0493     6.2083     8.6278     7.2291     4.3271     9.5589     4.0223     43.2578    5.5258     0.4198    
2917.60001 2.0493     6.2318     8.6616     7.2604     4.38       9.4526     4.0596     43.1483    5.5258     0.4198    
2917.80001 2.0493     6.237      8.694      7.3164     4.433      9.3942     4.1262     41.3254    5.5701     0.4203    
2918.00001 2.0666     6.2914     8.7918     7.3718     4.486      9.3643     4.155      38.6903    5.5791     0.4257    
2918.20001 2.0819     6.3725     8.894      7.4642     4.5389     9.2812     4.1208     37.2016    5.5791     0.4257    
2918.40001 2.0989     6.389      8.894      7.4837     4.5919     9.2249     4.0857     36.5529    5.5791     0.4257    
2918.60001 2.1032     6.3642     8.9458     7.5168     4.6449     9.1695     4.1224     36.4979    5.5791     0.4257    
2918.80001 2.0774     6.389      9.0047     7.5673     4.6978     9.1695     4.0911     38.0903    5.5717     0.4257    
2919.00001 2.1032     6.4124     9.0601     7.6502     4.7911     9.1641     4.1468     40.1323    5.5258     0.4257    
2919.200011 2.0775     6.4413     9.1495     7.7352     4.8496     9.2017     4.1694     40.5501    5.5258     0.4257    
2919.400011 2.1032     6.5765     9.298      7.8395     4.8567     9.2583     4.1255     39.6183    5.4661     0.4177    
2919.600011 2.1431     6.6756     9.3578     7.8742     4.8537     9.2068     4.088      38.5496    5.3973     0.4198    
2919.800011 2.1135     6.5416     9.2391     7.7642     4.8038     9.151      3.7725     37.3403    5.366      0.4198    
2920.000011 2.0558     6.3587     9.0464     7.6153     4.7862     9.1387     3.5834     36.0768    5.3364     0.4192    
2920.200011 1.9986     6.2842     8.9277     7.5056     4.6978     9.2421     3.6885     35.009     5.3128     0.4197    
2920.400011 1.9954     6.1994     8.8424     7.4642     4.6696     9.261      3.7862     34.6391    5.3128     0.4139    
2920.600011 1.9954     6.2255     8.813      7.4379     4.6449     9.2436     3.911      36.3624    5.3128     0.4139    
2920.800011 1.9954     6.2075     8.7563     7.3826     4.6053     9.2077     3.7881     39.1198    5.3128     0.4139    
2921.000011 1.9954     6.1277     8.6915     7.3211     4.5466     9.1836     3.7348     40.0722    5.3128     0.4139    
2921.200012 1.9954     6.1205     8.5691     7.2117     4.5389     9.1265     3.764      39.1473    5.3548     0.41      
2921.400012 1.9558     5.9601     8.4681     7.1485     4.5389     9.0478     3.7547     38.4583    5.3863     0.4076    
2921.600012 2.0008     6.1216     8.4865     7.2035     4.5389     9.0547     3.9759     38.1019    5.4193     0.4075    
2921.800012 2.0493     6.2318     8.615      7.2969     4.5389     9.1264     4.0084     36.3313    5.3906     0.4081    
2922.000012 2.0493     6.2703     8.6278     7.2855     4.5716     9.0636     3.9738     33.5127    5.4182     0.4081    
2922.200012 2.0761     6.2842     8.5753     7.2537     4.5389     9.0071     3.8912     31.8703    5.4193     0.4081    
2922.400012 2.0493     6.2638     8.5746     7.2537     4.5389     8.9762     3.824      31.9395    5.4193     0.4081    
2922.600012 2.0541     6.2553     8.6126     7.2567     4.5389     8.8749     3.9372     32.9133    5.41       0.4108    
2922.800012 2.1032     6.3353     8.7157     7.3124     4.5389     8.7402     4.0284     34.5966    5.366      0.4139    
2923.000013 2.1141     6.4413     8.7716     7.3589     4.5389     8.5699     3.9781     36.8701    5.366      0.4183    
2923.200013 2.1179     6.4413     8.813      7.3479     4.5382     8.4009     3.8605     38.829     5.3433     0.4198    
2923.400013 2.1032     6.4075     8.7686     7.2375     4.433      8.1873     3.6735     38.8704    5.2838     0.4206    
2923.600013 2.1032     6.3402     8.6895     7.1811     4.4188     8.1061     3.5972     35.9773    5.2595     0.4198    
2923.800013 2.0498     6.2433     8.6025     7.1006     4.38       8.0366     3.7494     32.1024    5.2595     0.4198    
2924.000013 2.0539     6.2318     8.5746     7.0452     4.3271     7.9235     3.8258     30.5657    5.2595     0.4201    
2924.200013 2.1032     6.2555     8.6067     7.07       4.3271     7.8303     3.9554     30.7226    5.2482     0.4257    
