~Version
 VERS              .         2.0                           : CWLS LOG ASCII STANDARD - VERSION 2.0
 WRAP              .         NO                            : ONE LINE PER DEPTH STEP
 DLM               .         SPACE                         : DELIMITING CHARACTER(SPACE TAB OR COMMA)
~Well Information
#_______________________________________________________________________________
#
#PARAMETER_NAME    .UNIT     VALUE                         : DESCRIPTION
#_______________________________________________________________________________
STRT               .m        2898                          : First reference value
STOP               .m        3121.600112                   : Last reference value
STEP               .m        0.2000001                     : Step increment
NULL               .         -9999                         : Missing value
COMP               .                                       : Company
WELL               .         200                           : Well name
FLD                .                                       : Field
LOC                .                                       : Location
CNTY               .                                       : County
STAT               .                                       : State
CTRY               .                                       : Country
SRVC               .                                       : Service Company
DATE               .                                       : Date
API                .                                       : API number
EREF               .m        139.76                        : 
Pad                .         2                             : 
X                  .m        228492                        : 
Y                  .m        241733                        : 
group              .         Pad2                          : 
Интер-р            .         Зайцев                        : 
Куст               .         2                             : 
Статус             .         Не проверено                  : 
Тип                .         Разведка                      : 
~Parameter Information Block
#_______________________________________________________________________________
#
#PARAMETER_NAME    .UNIT     VALUE                         : DESCRIPTION
#_______________________________________________________________________________
SET                .         LAS1                          : 
REAL_CREATION_DATE .         Ср апр 11 2012-13_17_06       : 
TLFamily_DEPTH     .         Measured Depth                : 
TLFamily_GZ1       .         Extra Shallow Resistivity     : 
TLFamily_GZ2       .         Shallow Resistivity           : 
TLFamily_GZ3       .         Medium Resistivity            : 
TLFamily_GZ4       .         Deep Resistivity              : 
TLFamily_GZ5       .         Extra Deep Resistivity        : 
TLFamily_GZr       .         Medium Resistivity Inverted   : 
TLFamily_LLD       .         Lateral Log Resistivity       : 
TLFamily_PS        .         Spontaneous Potential         : 
TLFamily_PZ        .         Potential Resistivity         : 
TLFamily_RS        .         Mud Resistivity               : 
group              .         INI                           : 
~Curve Information
#_______________________________________________________________________________
#
#LOGNAME           .UNIT     LOG_ID                        : DESCRIPTION
#_______________________________________________________________________________
DEPTH              .m                                      : 1 Depth 
GZ1                .ohm.m                                  : 3 Подошвенный градиент-зонд А0.4М0.1N 
GZ2                .ohm.m                                  : 4 Подошвенный градиент-зонд А1.0М0.1N 
GZ3                .ohm.m                                  : 5 Подошвенный градиент-зонд А2.0М0.5N 
GZ4                .ohm.m                                  : 6 Подошвенный градиент-зонд А4.0М0.5N 
GZ5                .ohm.m                                  : 7 Подошвенный градиент-зонд А8.0М1.0N 
GZr                .ohm.m                                  : 8 Кровельный градиент-зонд N0.5M2.0A 
LLD                .ohm.m                                  : 11 Трехэлектродный  бокового каротажа БК-3 
PS                 .mV                                     : 2 Потенциал самопроизвольной поляризации 
PZ                 .ohm.m                                  : 9 Однополюсный потенциал-зонд N6.0М0.5А 
RS                 .ohm.m                                  : 10 УЭС жидкости в стволе скажины 
~Ascii
# ...
3109.200106 2.3726     7.3844     7.7228     10.5683    30.3829    13.2053    8.5958     128.7335   6.6443     0.4022    
3109.400106 2.3726     7.3795     7.7228     10.5683    34.1341    13.2053    9.4197     137.2739   6.6443     0.4022    
3109.600106 2.3726     7.3844     7.7228     10.579     37.5956    13.2053    14.2105    139.5943   6.6443     0.4022    
3109.800106 2.3726     7.3844     7.7228     10.5683    39.94      13.2053    51.9412    127.6922   6.6443     0.4022    
3110.000106 2.3726     7.3787     7.7228     10.5683    40.1836    13.2053    138.2888   116.4726   6.6443     0.4022    
3110.200106 2.3726     7.3684     7.7228     10.5683    38.8588    13.2053    33.2932    116.7538   6.6443     0.4022    
3110.400106 2.3726     7.3844     7.7228     10.5683    36.2992    13.2053    7.285      124.1084   6.6443     0.4022    
3110.600106 2.3726     7.3582     7.7228     10.5683    32.6708    13.2053    5.1978     136.5457   6.6443     0.4022    
3110.800106 2.3726     7.3436     7.7228     10.5683    24.6729    13.2053    4.129      148.8761   6.6443     0.4022    
3111.000107 2.3726     7.3739     7.7228     10.5683    19.7058    13.2053    4.3054     152.2358   6.6443     0.4022    
3111.200107 2.3726     7.3667     7.7228     10.5683    15.8878    13.2053    4.4798     145.8582   6.6443     0.4022    
3111.400107 2.3726     7.3808     7.7228     10.5683    13.0941    13.2053    4.7283     134.3631   6.6443     0.4022    
3111.600107 2.3726     7.3741     7.7228     10.5683    10.881     13.2053    5.0429     123.4719   6.6187     0.4022    
3111.800107 2.3726     7.3484     7.7228     10.5683    9.2706     13.2053    5.0471     121.929    6.6443     0.4022    
3112.000107 2.3726     7.3329     7.7228     10.5683    8.2623     13.2053    5.3479     129.5875   6.6443     0.4022    
3112.200107 2.3726     7.37       7.7228     10.5721    7.6696     13.2053    5.6769     135.7182   6.6123     0.4022    
3112.400107 2.3726     7.3547     7.7228     10.5683    7.3462     13.2053    5.7577     141.5971   6.6443     0.4022    
3112.600107 2.3726     7.3844     7.7228     10.5683    7.3462     13.2053    7.4098     151.0958   6.6443     0.4022    
3112.800107 2.3726     7.332      7.7228     10.5683    7.3462     13.2047    7.911      150.3733   6.6443     0.4022    
3113.000108 2.3726     7.332      7.7228     10.5683    7.3462     13.2053    6.3217     135.6429   6.6443     0.4022    
3113.200108 2.3726     7.332      7.7228     10.5683    7.3462     13.2053    5.9142     125.6527   6.6443     0.4022    
3113.400108 2.3726     7.34       7.7228     10.5683    7.3462     13.2053    5.6498     128.2868   6.6443     0.4022    
3113.600108 2.3726     7.3604     7.7228     10.5683    7.3992     13.2053    5.4658     134.8245   6.6443     0.4022    
3113.800108 2.3726     7.3475     7.7228     10.5683    7.3648     13.2053    5.3835     141.9152   6.6295     0.4022    
3114.000108 2.3726     7.3639     7.7228     10.5683    7.3992     13.2053    5.5416     151.8226   6.6443     0.4022    
3114.200108 2.3726     7.3795     7.7228     10.5683    7.3992     13.2053    5.5864     163.1876   6.6443     0.4022    
3114.400108 2.3726     7.3582     7.7216     10.5683    7.3992     13.2053    5.6454     169.9842   6.6443     0.4022    
3114.600108 2.3726     7.3372     7.7228     10.5683    7.3462     13.1956    6.1766     165.7434   6.6443     0.4022    
3114.800108 2.3726     7.332      7.7228     10.5683    7.3489     13.1865    6.7416     146.9922   6.6443     0.4022    
3115.000108 2.3726     7.3411     7.7228     10.5683    7.3992     13.2053    6.8144     124.2789   6.6237     0.4022    
3115.200109 2.3726     7.332      7.697      10.5683    7.3992     13.2053    7.0638     119.9072   6.6443     0.4022    
3115.400109 2.3726     7.332      7.7228     10.5683    7.3462     13.2036    7.0764     136.8738   6.62       0.4022    
3115.600109 2.3726     7.3564     7.7218     10.5683    7.3474     13.2053    6.9798     152.7819   6.6443     0.4022    
3115.800109 2.3726     7.332      7.7052     10.5683    7.3735     13.2053    7.0347     150.6811   6.6443     0.4022    
3116.000109 2.3726     7.3577     7.6911     10.5683    7.3992     13.2053    6.9348     137.4104   6.6443     0.4022    
3116.200109 2.3726     7.3582     7.7069     10.5683    7.3992     13.2053    6.8069     130.2881   6.6443     0.4022    
3116.400109 2.3726     7.3381     7.6994     10.5683    7.3948     13.2053    6.743      133.943    6.6379     0.4022    
3116.600109 2.3726     7.3479     7.7139     10.5683    7.3702     13.2053    6.7897     137.0795   6.6443     0.4022    
3116.800109 2.3726     7.3626     7.6921     10.5683    7.3506     13.2053    6.7809     130.3393   6.6443     0.4022    
3117.000109 2.3726     7.3526     7.7228     10.5683    7.3992     13.1986    6.8001     120.0245   6.6443     0.4022    
3117.20011 2.3726     7.3503     7.6962     10.5683    7.3992     13.2053    6.3444     115.6264   6.6443     0.4022    
3117.40011 2.3726     7.332      7.7031     10.5683    7.3775     13.2053    6.6126     115.5742   6.6443     0.4022    
3117.60011 2.3726     7.332      7.7166     10.5683    7.3913     6.5784     6.8165     116.5296   6.6306     0.4022    
3117.80011 2.3726     7.332      7.6962     10.5683    7.3992     0          6.2362     118.8198   6.6443     0.4022    
3118.00011 2.3726     7.3397     7.7007     10.5683    7.3958     0          5.2678     123.3745   6.6132     0.4022    
3118.20011 2.3726     7.3581     7.6905     10.5683    7.3992     0          4.8044     133.1462   6.6443     0.4022    
3118.40011 2.3726     7.3503     7.7034     10.5683    7.3992     0          4.3498     145.7966   6.6423     0.4022    
3118.60011 2.3726     7.3566     7.6962     10.5683    7.3992     0          4.9299     150.9848   6.6443     0.4022    
3118.80011 2.3726     7.332      7.694      10.5683    7.392      0          6.1396     92.2207    6.6418     0.4022    
3119.000111 2.3726     7.332      7.7053     10.5683    7.3462     0          6.9005     0          6.6273     0.4019    
3119.200111 2.3726     7.332      7.6892     10.5683    7.39       0          8.4963     0          6.6173     0.3975    
3119.400111 2.3726     7.332      7.6962     10.5683    7.3866     0          8.8438     0          6.6333     0.4022    
3119.600111 2.3726     7.332      7.7042     10.5683    7.3825     0          8.7776     0          6.603      0.3987    
3119.800111 2.3726     7.332      7.7063     10.5683    7.3462     0          8.748      0          6.6443     0.3619    
3120.000111 2.3726     7.332      7.6696     10.5683    7.3624     0          8.7438     0          6.5976     0         
3120.200111 2.3726     7.332      7.686      10.5683    7.3927     0          8.7481     0          0          0         
3120.400111 0          7.332      7.708      10.5683    7.3462     0          8.6763     0          0          0         
3120.600111 0          7.332      7.6962     10.5683    7.3968     0          8.6299     0          0          0         
3120.800111 0          7.332      7.6962     10.5683    7.3758     0          8.6753     0          0          0         
3121.000112 0          0          7.6962     10.5683    7.3902     0          8.6765     0          0          0         
3121.200112 0          0          7.6751     10.5683    7.3992     0          8.6736     0          0          0         
3121.400112 0          0          7.6696     10.5683    7.3976     0          8.6677     0          0          0         
3121.600112 0          0          7.6895     10.5683    7.3683     0          8.6749     0          0          0         
