~Version
 VERS              .         2.0                           : CWLS LOG ASCII STANDARD - VERSION 2.0
 WRAP              .         NO                            : ONE LINE PER DEPTH STEP
 DLM               .         SPACE                         : DELIMITING CHARACTER(SPACE TAB OR COMMA)
~Well Information
#_______________________________________________________________________________
#
#PARAMETER_NAME    .UNIT     VALUE                         : DESCRIPTION
#_______________________________________________________________________________
STRT               .m        2898                          : First reference value
STOP               .m        3121.600112                   : Last reference value
STEP               .m        0.2000001                     : Step increment
NULL               .         -9999                         : Missing value
COMP               .                                       : Company
WELL               .         200                           : Well name
FLD                .                                       : Field
LOC                .                                       : Location
CNTY               .                                       : County
STAT               .                                       : State
CTRY               .                                       : Country
SRVC               .                                       : Service Company
DATE               .                                       : Date
API                .                                       : API number
EREF               .m        139.76                        : 
Pad                .         2                             : 
X                  .m        228492                        : 
Y                  .m        241733                        : 
group              .         Pad2                          : 
Интер-р            .         Зайцев                        : 
Куст               .         2                             : 
Статус             .         Не проверено                  : 
Тип                .         Разведка                      : 
~Parameter Information Block
#_______________________________________________________________________________
#
#PARAMETER_NAME    .UNIT     VALUE                         : DESCRIPTION
#_______________________________________________________________________________
SET                .         LAS1                          : 
REAL_CREATION_DATE .         Ср апр 11 2012-13_17_06       : 
TLFamily_DEPTH     .         Measured Depth                : 
TLFamily_GZ1       .         Extra Shallow Resistivity     : 
TLFamily_GZ2       .         Shallow Resistivity           : 
TLFamily_GZ3       .         Medium Resistivity            : 
TLFamily_GZ4       .         Deep Resistivity              : 
TLFamily_GZ5       .         Extra Deep Resistivity        : 
TLFamily_GZr       .         Medium Resistivity Inverted   : 
TLFamily_LLD       .         Lateral Log Resistivity       : 
TLFamily_PS        .         Spontaneous Potential         : 
TLFamily_PZ        .         Potential Resistivity         : 
TLFamily_RS        .         Mud Resistivity               : 
group              .         INI                           : 
~Curve Information
#_______________________________________________________________________________
#
#LOGNAME           .UNIT     LOG_ID                        : DESCRIPTION
#_______________________________________________________________________________
DEPTH              .m                                      : 1 Depth 
GZ1                .ohm.m                                  : 3 Подошвенный градиент-зонд А0.4М0.1N 
GZ2                .ohm.m                                  : 4 Подошвенный градиент-зонд А1.0М0.1N 
GZ3                .ohm.m                                  : 5 Подошвенный градиент-зонд А2.0М0.5N 
GZ4                .ohm.m                                  : 6 Подошвенный градиент-зонд А4.0М0.5N 
GZ5                .ohm.m                                  : 7 Подошвенный градиент-зонд А8.0М1.0N 
GZr                .ohm.m                                  : 8 Кровельный градиент-зонд N0.5M2.0A 
LLD                .ohm.m                                  : 11 Трехэлектродный  бокового каротажа БК-3 
PS                 .mV                                     : 2 Потенциал самопроизвольной поляризации 
PZ                 .ohm.m                                  : 9 Однополюсный потенциал-зонд N6.0М0.5А 
RS                 .ohm.m                                  : 10 УЭС жидкости в стволе скажины 
~Ascii
# ...
3056.400079 2.3938     8.5935     15.6447    22.2094    6.5096     8.0351     3.9164     89.4428    6.2858     0.399     
3056.600079 2.2532     7.9133     14.4005    19.757     5.9552     7.9983     3.9624     88.9916    6.1098     0.3963    
3056.800079 2.1983     7.4103     13.5984    17.5467    5.5205     7.9409     4.0056     89.3648    5.9942     0.401     
3057.00008 2.1399     6.9392     12.9896    15.7062    5.1544     7.9944     3.5916     91.0121    5.8795     0.4027    
3057.20008 2.057      6.5511     12.2188    14.1955    4.9229     8.0351     3.9165     92.4522    5.816      0.4021    
3057.40008 2.0493     6.4174     11.5127    13.1258    4.7508     8.0351     4.2987     92.7769    5.7366     0.3965    
3057.60008 2.0493     6.3264     11.0553    12.3026    4.7067     8.0938     3.8507     92.7038    5.6775     0.3966    
3057.80008 2.0807     6.3179     10.6221    11.5521    4.7868     8.3475     3.8862     92.8105    5.5789     0.4001    
3058.00008 2.0669     6.1711     10.054     10.7798    4.9416     8.519      3.8675     92.1215    5.5019     0.4031    
3058.20008 1.9919     5.8615     9.3431     10.047     5.2098     8.7219     3.5065     90.9079    5.5258     0.4081    
3058.40008 1.9415     5.6488     8.7616     9.5444     5.3864     9.0607     3.6746     91.077     5.5258     0.4021    
3058.60008 1.8931     5.4972     8.4353     9.4109     5.5619     9.4182     3.9531     91.7762    5.5803     0.3945    
3058.80008 1.9199     5.583      8.352      9.6889     5.9844     9.1426     4.7717     90.7558    5.669      0.3966    
3059.00008 2.0283     5.7743     8.3616     9.9149     6.3337     8.6343     4.36       88.8933    5.6856     0.406     
3059.200081 2.037      5.7379     8.3106     10.0028    6.8262     8.3507     4.0383     88.4077    5.666      0.4033    
3059.400081 2.0368     5.8686     8.2837     10.1884    7.4329     8.1782     4.4442     88.7129    5.6323     0.3964    
3059.600081 2.0493     5.9095     8.3084     10.4762    8.3531     8.0641     4.28       88.6035    5.6638     0.3964    
3059.800081 1.9721     5.7686     8.3224     10.91      9.7098     8.1458     4.0655     89.3792    5.7192     0.4024    
3060.000081 1.9661     5.7442     8.5796     11.781     11.9259    8.3546     4.0514     92.5115    5.749      0.405     
3060.200081 1.9415     5.7283     9.1891     13.4983    14.6974    9.0222     3.8412     96.8099    5.8474     0.3979    
3060.400081 1.904      5.9362     10.2648    16.2294    17.5559    10.1236    4.0214     99.1455    5.9619     0.3904    
3060.600081 1.8629     6.323      11.6186    18.7079    20.2974    10.9299    7.1151     98.4788    6.1242     0.3916    
3060.800081 2.089      7.0923     12.928     20.3191    21.8774    10.7954    18.2087    97.1417    6.246      0.4091    
3061.000081 2.5158     8.1219     13.9506    20.6294    21.6279    9.7471     12.6998    96.7872    6.1434     0.4097    
3061.200082 2.9599     8.9478     14.0015    19.2808    20.0049    8.6162     4.7535     96.2332    5.8223     0.4053    
3061.400082 2.7753     8.4567     13.0507    16.5786    17.6392    7.5291     3.3338     95.7972    5.438      0.3992    
3061.600082 2.4949     8.1509     11.4989    13.6024    14.6873    6.6642     3.0463     97.556     5.1556     0.4081    
3061.800082 2.2199     7.3533     10.2953    11.3732    12.0126    6.1965     2.689      101.1659   4.9568     0.4026    
3062.000082 2.1241     7.1369     9.2696     9.5822     9.9215     5.9037     2.926      104.4948   4.757      0.4021    
3062.200082 2.0326     6.436      8.5682     8.2872     8.3669     5.6999     2.5543     106.1928   4.64       0.3945    
3062.400082 1.9399     5.9261     7.931      7.0835     7.1953     5.5481     2.7971     106.7916   4.5216     0.4025    
3062.600082 1.8876     5.5506     7.5902     6.304      6.2214     5.5299     2.768      106.6822   4.4606     0.4081    
3062.800082 1.863      5.2035     7.4854     5.7254     5.5662     5.6089     2.7798     104.8587   4.4164     0.4027    
3063.000083 1.863      5.0779     7.5071     5.2834     5.0861     5.8297     2.8139     102.151    4.3597     0.3912    
3063.200083 1.8408     4.9746     7.3689     4.9271     4.6908     6.222      2.8424     101.3152   4.2725     0.3977    
3063.400083 1.8846     4.9597     6.9775     4.5857     4.3606     6.6729     2.7386     102.4256   4.2146     0.4057    
3063.600083 1.8056     4.6349     6.4335     4.2391     4.203      7.362      2.4043     103.097    4.2313     0.4015    
3063.800083 1.7045     4.3308     6.0025     4.0443     4.087      8.5433     2.3745     102.0104   4.2639     0.3946    
3064.000083 1.6373     4.2709     5.8325     4.2218     4.0622     10.57      4.0834     100.3297   4.3008     0.4015    
3064.200083 1.8311     4.7457     6.0109     4.4128     4.1188     11.4818    3.7561     100.0481   4.2798     0.4021    
3064.400083 1.9915     4.8397     5.81       4.4652     4.1912     12.3207    2.5822     101.2405   4.2993     0.3961    
3064.600083 1.7562     4.292      5.4112     4.4181     4.4407     13.8371    2.454      102.5143   4.2476     0.3957    
3064.800083 1.6579     4.0754     4.9514     4.5958     4.9808     16.0823    2.4287     102.3536   4.2988     0.4022    
3065.000084 1.4934     3.8076     4.6564     4.9185     6.0154     18.9748    2.3396     100.3621   4.4716     0.398     
3065.200084 1.4137     3.5605     4.5295     5.5689     7.4571     23.0684    2.4021     96.9291    4.7437     0.3911    
3065.400084 1.2582     3.2352     4.608      6.7352     8.8802     28.3708    2.6697     92.9072    5.2651     0.3912    
3065.600084 1.0689     2.949      4.9105     7.9594     10.2587    33.4294    4.3181     90.1709    6.0864     0.3961    
3065.800084 1.029      3.1017     5.3387     8.942      11.4311    34.7515    15.0065    89.2372    7.2118     0.3901    
3066.000084 1.2647     3.5129     5.9063     9.5831     12.1718    33.1703    23.0104    88.5367    8.5882     0.3855    
3066.200084 1.5782     4.2682     6.6497     10.2583    12.5384    31.1036    24.4567    88.0044    9.784      0.4058    
3066.400084 1.8409     5.0365     7.5113     10.9353    12.8228    29.5044    39.2572    90.3749    10.6651    0.4016    
3066.600084 2.174      6.4358     8.427      11.5241    12.9592    27.5692    45.689     95.69      11.3494    0.4011    
3066.800084 2.5011     8.1821     9.4737     11.987     13.0065    25.2897    58.383     96.1855    11.7082    0.4092    
3067.000084 2.8249     9.9488     10.7304    12.4302    12.8277    23.1093    38.1196    87.9495    11.7973    0.4102    
3067.200085 3.1204     11.6906    12.3613    12.931     12.1552    21.0521    34.9844    81.4959    11.4663    0.4104    
3067.400085 3.4616     13.4709    14.003     12.8716    11.3243    19.2222    13.0406    81.8347    11.0157    0.4148    
3067.600085 3.3249     13.2115    15.1458    11.8916    10.2703    17.5914    6.499      78.6101    10.6087    0.4198    
3067.800085 2.9265     11.9454    15.8961    10.5966    9.05       16.3705    6.4913     70.1504    10.2233    0.4133    
3068.000085 2.7155     11.3824    17.1179    9.7854     7.8587     15.5884    6.3793     67.448     9.9386     0.3988    
3068.200085 2.511      10.6113    18.0358    9.3091     7.0498     14.9179    6.4114     74.9209    9.8025     0.4102    
3068.400085 2.3945     9.7275     18.2868    8.9403     6.4527     14.4489    6.8964     86.9187    9.6971     0.4099    
3068.600085 2.3268     9.1202     18.4606    8.8384     6.1153     14.0861    7.6561     94.8874    9.6801     0.4022    
3068.800085 2.3339     8.78       18.7372    8.9503     6.022      14.121     7.5971     93.0817    9.6339     0.408     
3069.000085 2.3837     8.7989     18.9954    9.3189     6.1762     14.2386    8.1668     85.3012    9.5708     0.4138    
3069.200086 2.5027     9.0127     19.0969    10.3108    6.6309     14.7625    7.1085     80.8866    9.4101     0.4041    
3069.400086 2.4497     8.8143     18.7745    11.4126    7.0446     15.3887    6.3024     79.3742    9.3605     0.4084    
