~Version
 VERS              .         2.0                           : CWLS LOG ASCII STANDARD - VERSION 2.0
 WRAP              .         NO                            : ONE LINE PER DEPTH STEP
 DLM               .         SPACE                         : DELIMITING CHARACTER(SPACE TAB OR COMMA)
~Well Information
#_______________________________________________________________________________
#
#PARAMETER_NAME    .UNIT     VALUE                         : DESCRIPTION
#_______________________________________________________________________________
STRT               .m        2898                          : First reference value
STOP               .m        3121.600112                   : Last reference value
STEP               .m        0.2000001                     : Step increment
NULL               .         -9999                         : Missing value
COMP               .                                       : Company
WELL               .         200                           : Well name
FLD                .                                       : Field
LOC                .                                       : Location
CNTY               .                                       : County
STAT               .                                       : State
CTRY               .                                       : Country
SRVC               .                                       : Service Company
DATE               .                                       : Date
API                .                                       : API number
EREF               .m        139.76                        : 
Pad                .         2                             : 
X                  .m        228492                        : 
Y                  .m        241733                        : 
group              .         Pad2                          : 
Интер-р            .         Зайцев                        : 
Куст               .         2                             : 
Статус             .         Не проверено                  : 
Тип                .         Разведка                      : 
~Parameter Information Block
#_______________________________________________________________________________
#
#PARAMETER_NAME    .UNIT     VALUE                         : DESCRIPTION
#_______________________________________________________________________________
SET                .         LAS4                          : 
REAL_CREATION_DATE .         Ср апр 11 2012-13_17_06       : 
TLFamily_DEPTH     .         Measured Depth                : 
TLFamily_GR        .         Gamma Ray                     : 
TLFamily_TNPH      .         Neutron Porosity              : 
group              .         INI                           : 
~Curve Information
#_______________________________________________________________________________
#
#LOGNAME           .UNIT     LOG_ID                        : DESCRIPTION
#_______________________________________________________________________________
DEPTH              .m                                      : 1 Depth 
GR                 .gAPI                                   :  
TNPH               .v/v                                    : 4 Суммарное водородосодержание 
~Ascii
# ...
2945.200024 70.15199   0.179454  
2945.400024 64.119     0.184977  
2945.600024 63.818     0.185134  
2945.800024 68.866     0.183386  
2946.000024 72.823     0.186515  
2946.200024 72.248     0.185964  
2946.400024 71.02      0.183147  
2946.600024 76.924     0.187914  
2946.800024 91.05699   0.19291   
2947.000025 102.416    0.197151  
2947.200025 106.621    0.203756  
2947.400025 102.279    0.20617   
2947.600025 88.92      0.204188  
2947.800025 75.694     0.199482  
2948.000025 69.791     0.192443  
2948.200025 72.049     0.186799  
2948.400025 74.832     0.182085  
2948.600025 69.645     0.172718  
2948.800025 65.345     0.160896  
2949.000025 69.07899   0.170273  
2949.200026 76.143     0.193664  
2949.400026 78.322     0.201366  
2949.600026 72.62901   0.190037  
2949.800026 67.013     0.182995  
2950.000026 64.398     0.171619  
2950.200026 60.92      0.160654  
2950.400026 57.078     0.148807  
2950.600026 55.463     0.144026  
2950.800026 57.715     0.158096  
2951.000026 61.748     0.184526  
2951.200027 66.075     0.189668  
2951.400027 70.822     0.18035   
2951.600027 74.868     0.180208  
2951.800027 80.582     0.18741   
2952.000027 91.608     0.197137  
2952.200027 103.387    0.203725  
2952.400027 109.426    0.204272  
2952.600027 110.914    0.20222   
2952.800027 109.306    0.202209  
2953.000028 105.405    0.20935   
2953.200028 102.074    0.210373  
2953.400028 103.313    0.201772  
2953.600028 111.757    0.206242  
2953.800028 117.84     0.214735  
2954.000028 114.665    0.207941  
2954.200028 110.141    0.202674  
2954.400028 109.869    0.206662  
2954.600028 109.257    0.206275  
2954.800028 109.361    0.196752  
2955.000029 108.027    0.195264  
2955.200029 104.435    0.199091  
2955.400029 102.649    0.202309  
2955.600029 100.792    0.214658  
2955.800029 91.904     0.217771  
2956.000029 77.262     0.188981  
2956.200029 66.193     0.161446  
2956.400029 63.158     0.150643  
2956.600029 66.833     0.156514  
2956.800029 78.14101   0.179988  
2957.000029 91.016     0.201316  
2957.20003 91.926     0.215676  
2957.40003 82.688     0.215695  
2957.60003 73.527     0.21192   
2957.80003 71.348     0.213803  
2958.00003 78.18401   0.212724  
2958.20003 90.446     0.21229   
2958.40003 101.205    0.212187  
2958.60003 105.918    0.206622  
2958.80003 99.452     0.203394  
2959.00003 83.014     0.201068  
2959.200031 68.975     0.192173  
2959.400031 66.202     0.178143  
2959.600031 70.738     0.16855   
2959.800031 70.155     0.161109  
2960.000031 61.696     0.154468  
2960.200031 55.437     0.156307  
2960.400031 53.941     0.163896  
2960.600031 57.792     0.169663  
2960.800031 65.29      0.176238  
2961.000032 67.991     0.181299  
2961.200032 62.518     0.170016  
2961.400032 58.25      0.155839  
2961.600032 55.701     0.141924  
2961.800032 51.222     0.127322  
2962.000032 49.362     0.124184  
2962.200032 51.734     0.137182  
2962.400032 52.859     0.16053   
2962.600032 56.344     0.184789  
2962.800032 67.732     0.202378  
2963.000033 80.569     0.204285  
2963.200033 85.32401   0.192808  
2963.400033 77.827     0.186423  
2963.600033 67.554     0.192894  
2963.800033 64.681     0.198781  
2964.000033 73.996     0.190784  
2964.200033 86.88599   0.178997  
2964.400033 88.461     0.179842  
2964.600033 77.37      0.191568  
2964.800033 66.053     0.181206  
2965.000033 58.844     0.155501  
2965.200034 53.306     0.143752  
2965.400034 48.502     0.138421  
2965.600034 45.739     0.13245   
2965.800034 46.54      0.136592  
2966.000034 51.851     0.145004  
2966.200034 59.859     0.152728  
2966.400034 71.075     0.159835  
2966.600034 84.633     0.164152  
2966.800034 85.089     0.165659  
2967.000034 70.323     0.164844  
2967.200035 56.15      0.158916  
2967.400035 51.373     0.156121  
2967.600035 55.099     0.160116  
2967.800035 61.227     0.163072  
2968.000035 66.953     0.167174  
2968.200035 71.877     0.173541  
2968.400035 72.565     0.176587  
2968.600035 69.084     0.18512   
2968.800035 64.346     0.189723  
2969.000036 62.48901   0.173702  
2969.200036 66.66199   0.161593  
2969.400036 72.558     0.164892  
2969.600036 77.953     0.174242  
2969.800036 81.34      0.190128  
2970.000036 82.746     0.209183  
2970.200036 87.346     0.21867   
2970.400036 96.685     0.227252  
2970.600036 105.192    0.227441  
2970.800036 105.278    0.211889  
2971.000037 97.676     0.205562  
2971.200037 86.436     0.205696  
2971.400037 72.611     0.189081  
2971.600037 63.78101   0.170386  
2971.800037 62.614     0.164253  
2972.000037 69.537     0.171667  
2972.200037 88.499     0.196729  
2972.400037 108.196    0.218468  
2972.600037 115.237    0.217399  
2972.800037 115.034    0.213556  
2973.000037 111.101    0.207678  
2973.200038 104.857    0.198888  
2973.400038 103.51     0.201213  
2973.600038 105.664    0.204615  
2973.800038 106.17     0.200609  
2974.000038 106.083    0.197496  
2974.200038 107.505    0.195265  
2974.400038 108.559    0.183658  
2974.600038 109.189    0.173906  
2974.800038 109.703    0.181226  
2975.000038 109.363    0.191671  
2975.200039 110.32     0.194513  
2975.400039 110.629    0.192639  
2975.600039 111.023    0.198087  
2975.800039 112.979    0.209799  
2976.000039 111.809    0.221873  
2976.200039 110.602    0.22346   
2976.400039 110.697    0.220196  
2976.600039 113.871    0.219397  
2976.800039 114.882    0.218276  
2977.00004 113.724    0.209989  
2977.20004 109.701    0.212264  
2977.40004 105.548    0.222627  
2977.60004 105.435    0.220614  
2977.80004 104.814    0.217458  
2978.00004 99.612     0.213413  
2978.20004 94.015     0.208403  
2978.40004 93.408     0.208059  
2978.60004 95.80499   0.203631  
2978.80004 99.188     0.204809  
2979.000041 105.329    0.221822  
2979.200041 111.844    0.239059  
2979.400041 116.246    0.231748  
2979.600041 116.081    0.215231  
2979.800041 109.998    0.216686  
2980.000041 102.484    0.230076  
2980.200041 99.778     0.241948  
2980.400041 102.756    0.236233  
2980.600041 103.965    0.220306  
2980.800041 99.45599   0.19673   
2981.000041 97.84      0.175814  
2981.200042 102.865    0.175193  
2981.400042 110.915    0.195119  
2981.600042 118.911    0.217537  
2981.800042 122        0.208923  
2982.000042 123.288    0.217027  
2982.200042 127.932    0.23778   
2982.400042 136.457    0.2446    
2982.600042 144.09     0.247246  
2982.800042 146.925    0.253371  
2983.000042 149.155    0.267201  
2983.200043 152.844    0.284324  
2983.400043 153.074    0.280687  
2983.600043 146.874    0.254071  
2983.800043 138.666    0.24035   
2984.000043 135.877    0.252277  
2984.200043 133.593    0.262829  
2984.400043 131.554    0.268134  
2984.600043 132.249    0.282035  
2984.800043 134.601    0.284842  
2985.000044 133.668    0.27241   
2985.200044 123.877    0.266457  
2985.400044 112.009    0.263757  
2985.600044 105.797    0.248041  
2985.800044 107.225    0.232264  
2986.000044 110.402    0.236433  
2986.200044 109.126    0.233998  
2986.400044 107.661    0.233375  
2986.600044 112.846    0.244057  
2986.800044 120.451    0.256792  
2987.000045 132.962    0.271456  
2987.200045 162.428    0.29258   
2987.400045 194.812    0.297277  
2987.600045 208.52     0.272983  
2987.800045 197.068    0.251552  
2988.000045 184.508    0.262877  
2988.200045 186.504    0.284971  
2988.400045 193.488    0.271761  
2988.600045 196.75     0.251349  
2988.800045 207.352    0.255852  
2989.000045 225.635    0.267334  
2989.200046 230.556    0.27921   
2989.400046 220.975    0.286067  
2989.600046 209.991    0.284783  
2989.800046 199.967    0.287342  
2990.000046 190.523    0.296199  
2990.200046 187.783    0.296423  
2990.400046 196.129    0.291389  
2990.600046 202.047    0.288145  
2990.800046 198.276    0.292362  
2991.000046 208.277    0.307635  
2991.200047 226.521    0.311378  
2991.400047 238.192    0.296346  
2991.600047 252.105    0.301871  
2991.800047 265.182    0.326564  
2992.000047 269.3      0.337952  
2992.200047 262.171    0.326549  
