~Version
 VERS              .         2.0                           : CWLS LOG ASCII STANDARD - VERSION 2.0
 WRAP              .         NO                            : ONE LINE PER DEPTH STEP
 DLM               .         SPACE                         : DELIMITING CHARACTER(SPACE TAB OR COMMA)
~Well Information
#_______________________________________________________________________________
#
#PARAMETER_NAME    .UNIT     VALUE                         : DESCRIPTION
#_______________________________________________________________________________
STRT               .m        2898                          : First reference value
STOP               .m        3121.600112                   : Last reference value
STEP               .m        0.2000001                     : Step increment
NULL               .         -9999                         : Missing value
COMP               .                                       : Company
WELL               .         200                           : Well name
FLD                .                                       : Field
LOC                .                                       : Location
CNTY               .                                       : County
STAT               .                                       : State
CTRY               .                                       : Country
SRVC               .                                       : Service Company
DATE               .                                       : Date
API                .                                       : API number
EREF               .m        139.76                        : 
Pad                .         2                             : 
X                  .m        228492                        : 
Y                  .m        241733                        : 
group              .         Pad2                          : 
Интер-р            .         Зайцев                        : 
Куст               .         2                             : 
Статус             .         Не проверено                  : 
Тип                .         Разведка                      : 
~Parameter Information Block
#_______________________________________________________________________________
#
#PARAMETER_NAME    .UNIT     VALUE                         : DESCRIPTION
#_______________________________________________________________________________
SET                .         LAS1                          : 
REAL_CREATION_DATE .         Ср апр 11 2012-13_17_06       : 
TLFamily_DEPTH     .         Measured Depth                : 
TLFamily_GZ1       .         Extra Shallow Resistivity     : 
TLFamily_GZ2       .         Shallow Resistivity           : 
TLFamily_GZ3       .         Medium Resistivity            : 
TLFamily_GZ4       .         Deep Resistivity              : 
TLFamily_GZ5       .         Extra Deep Resistivity        : 
TLFamily_GZr       .         Medium Resistivity Inverted   : 
TLFamily_LLD       .         Lateral Log Resistivity       : 
TLFamily_PS        .         Spontaneous Potential         : 
TLFamily_PZ        .         Potential Resistivity         : 
TLFamily_RS        .         Mud Resistivity               : 
group              .         INI                           : 
~Curve Information
#_______________________________________________________________________________
#
#LOGNAME           .UNIT     LOG_ID                        : DESCRIPTION
#_______________________________________________________________________________
DEPTH              .m                                      : 1 Depth 
GZ1                .ohm.m                                  : 3 Подошвенный градиент-зонд А0.4М0.1N 
GZ2                .ohm.m                                  : 4 Подошвенный градиент-зонд А1.0М0.1N 
GZ3                .ohm.m                                  : 5 Подошвенный градиент-зонд А2.0М0.5N 
GZ4                .ohm.m                                  : 6 Подошвенный градиент-зонд А4.0М0.5N 
GZ5                .ohm.m                                  : 7 Подошвенный градиент-зонд А8.0М1.0N 
GZr                .ohm.m                                  : 8 Кровельный градиент-зонд N0.5M2.0A 
LLD                .ohm.m                                  : 11 Трехэлектродный  бокового каротажа БК-3 
PS                 .mV                                     : 2 Потенциал самопроизвольной поляризации 
PZ                 .ohm.m                                  : 9 Однополюсный потенциал-зонд N6.0М0.5А 
RS                 .ohm.m                                  : 10 УЭС жидкости в стволе скажины 
~Ascii
# ...
3082.800092 2.2465     7.7708     13.8921    18.2586    16.8499    32.2332    9.0758     83.6944    10.0236    0.4125    
3083.000092 2.2897     8.0281     14.309     19.7414    20.121     34.4208    7.5302     76.0359    10.2888    0.4079    
3083.200093 2.2013     7.6447     14.3548    21.4661    24.2872    37.3925    7.0646     72.6691    10.6879    0.4082    
3083.400093 2.0097     7.2554     14.4701    23.3383    29.3394    39.4053    9.6885     72.8401    11.191     0.4135    
3083.600093 1.9682     7.3038     14.9162    25.62      34.5173    40.505     11.4392    73.2359    11.9056    0.4019    
3083.800093 1.9097     7.2986     15.7417    28.0178    39.2102    39.7524    23.2117    72.75      12.6969    0.3967    
3084.000093 2.0181     7.9548     16.7912    29.8067    43.2497    36.6345    57.5434    73.4415    13.4476    0.4111    
3084.200093 2.3104     8.9236     18.1358    31.1428    45.3633    31.6491    59.1599    76.3009    14.1792    0.4029    
3084.400093 2.5596     9.8191     19.2878    31.596     43.8584    26.4373    53.6802    80.1546    14.7463    0.4152    
3084.600093 2.7192     10.6724    19.2319    29.3824    43.9997    21.0378    47.3017    81.4108    15.1807    0.4099    
3084.800093 2.1247     8.7761     19.552     28.179     43.6377    14.654     45.0299    78.6061    15.5471    0.378     
3085.000093 3.1014     13.4275    22.6004    30.9251    43.9218    12.9356    64.5026    75.2202    15.0891    0.412     
3085.200094 3.3087     14.5012    27.42      35.0558    45.9334    12.67      38.8018    73.705     14.2854    0.4044    
3085.400094 3.6195     16.8031    30.8862    36.9616    46.8857    11.671     27.9832    74.1978    13.4737    0.4249    
3085.600094 3.8225     17.8825    34.2071    38.2056    46.5492    11.432     12.7678    78.4319    12.5967    0.4139    
3085.800094 3.6947     17.3112    36.4838    38.4954    46.3566    11.5772    11.4064    88.6307    11.6945    0.4189    
3086.000094 3.7359     17.3816    39.46      39.3894    44.516     11.5248    18.6634    102.0028   10.6535    0.4162    
3086.200094 3.9367     18.2359    42.7005    41.0012    42.3003    11.1199    14.6713    109.0935   9.5595     0.4144    
3086.400094 3.9164     17.8546    43.7946    41.0293    39.4931    10.2332    7.2986     104.0076   8.5183     0.4246    
3086.600094 3.664      16.4268    42.1635    39.3437    35.4553    9.11       6.4806     94.3615    7.5108     0.413     
3086.800094 3.4402     15.0651    38.5293    36.6783    30.2542    8.1743     4.3374     89.2356    6.7062     0.4157    
3087.000095 2.959      12.6852    33.0418    32.5229    25.2729    7.4347     3.2575     89.3457    6.062      0.4132    
3087.200095 2.5345     10.5209    26.7022    28.0321    20.3835    6.9709     3.0704     93.4309    5.5841     0.3986    
3087.400095 2.2349     8.7915     22.0926    24.5739    16.0419    6.696      3.0162     98.6781    5.2801     0.4086    
3087.600095 2.0187     7.5231     18.1139    21.5303    12.7673    6.6806     2.7752     99.9958    5.0787     0.4071    
3087.800095 1.8442     6.2565     14.8871    19.0315    10.3183    6.9343     2.6232     98.0652    4.9937     0.3965    
3088.000095 1.698      5.3488     12.5566    17.2787    8.4796     7.3255     2.9705     98.7463    5.0012     0.4048    
3088.200095 1.6493     5.0447     11.2676    16.2311    7.2363     7.7421     3.5105     101.3001   5.1006     0.3982    
3088.400095 1.6721     4.8837     10.7446    16.0628    6.4117     8.071      4.0953     100.6022   5.2169     0.4015    
3088.600095 1.8316     5.2355     10.384     15.8229    5.8623     7.8861     5.9813     98.9068    5.3094     0.4129    
3088.800095 1.9415     5.2884     9.948      15.3341    5.443      7.5968     4.3501     100.6245   5.4752     0.3964    
3089.000096 1.9165     5.2268     9.4267     14.4678    5.0592     7.3825     4.7354     103.815    5.49       0.4041    
3089.200096 2.053      5.8299     9.203      13.8034    4.6326     7.3666     5.2011     104.7075   5.3829     0.4018    
3089.400096 2.1571     6.1475     8.8762     13.151     4.2898     7.2237     4.2804     102.3081   5.3106     0.4006    
3089.600096 2.094      6.0585     8.2711     11.8604    3.944      7.0592     3.9744     100.1448   5.2595     0.4075    
3089.800096 1.9536     5.7919     7.6434     10.6964    3.5738     6.8113     4.3522     101.6984   5.2343     0.397     
3090.000096 1.9774     5.7888     7.3073     9.6748     3.1851     6.6103     4.3255     103.5373   5.1505     0.4078    
3090.200096 1.9949     5.7354     7.2583     9.1927     3.0578     6.5426     4.4673     101.1655   5.0547     0.3996    
3090.400096 2.0029     5.7263     7.3158     8.8177     2.9412     6.5185     4.5849     98.8319    4.9398     0.4059    
3090.600096 2.0376     5.8087     7.3501     8.3198     2.897      6.6088     3.819      102.6369   4.8249     0.4029    
3090.800096 1.9388     5.4408     7.2695     7.9537     2.9749     6.852      3.488      110.4259   4.7096     0.4026    
3091.000096 1.8221     5.1737     7.0248     7.7994     3.1565     7.3666     3.5946     115.8081   4.5925     0.4053    
3091.200097 1.7799     5.0975     6.9879     7.9688     3.6882     8.0973     3.5202     117.0235   4.5338     0.4042    
3091.400097 1.7512     4.9193     7.1141     8.6841     4.8109     9.1927     3.2189     117.7971   4.5139     0.3987    
3091.600097 1.6925     4.762      7.5671     10.3066    6.4312     10.864     2.9455     119.4898   4.5139     0.399     
3091.800097 1.5968     4.6405     8.6161     13.3241    8.2134     13.616     2.935      117.7311   4.5789     0.4018    
3092.000097 1.5821     5.1417     9.6955     15.5377    9.996      15.7242    4.4158     109.2504   4.7715     0.3921    
3092.200097 1.6414     5.2236     9.9573     15.6511    11.7567    16.251     5.9418     98.2732    5.1564     0.4077    
3092.400097 1.7286     5.1474     9.4963     14.575     12.7312    15.2032    6.0118     91.335     5.6297     0.3965    
3092.600097 1.9285     5.2243     9.1837     13.8578    12.6873    14.4176    6.0476     89.9267    5.9311     0.4054    
3092.800097 2.1012     5.6604     8.9329     13.1813    12.2827    14.0245    5.9877     92.3492    6.0617     0.4033    
3093.000097 2.1729     6.0512     8.5636     12.0642    11.7547    13.3334    5.7498     95.8833    6.1782     0.4027    
3093.200098 2.1385     6.3469     7.9086     10.588     10.7963    12.2876    5.3252     97.5064    6.3439     0.4113    
3093.400098 2.1032     6.4744     7.4554     9.4094     9.7669     11.5234    5.3973     95.3606    6.4099     0.4043    
3093.600098 2.1068     6.6196     7.3257     8.7111     9.0214     11.2346    6.0977     91.5512    6.3948     0.4108    
3093.800098 2.1973     7.0469     7.5867     8.2118     8.4501     11.0405    6.7399     90.015     6.3232     0.4044    
3094.000098 2.3144     7.4839     8.0548     7.7935     7.8886     10.5973    6.4041     89.8817    6.185      0.4132    
3094.200098 2.3726     7.6016     8.603      7.1024     7.3706     9.9497     5.1037     89.0443    6.0363     0.4022    
3094.400098 2.2549     7.1496     9.1135     6.4562     6.8532     9.5288     4.2446     89.3974    5.8892     0.4079    
3094.600098 2.1838     6.9609     9.1355     5.8482     6.3936     9.6316     3.8703     93.233     5.7585     0.4001    
3094.800098 2.0121     6.4174     9.0719     5.3668     6.0849     10.1112    3.7327     98.7631    5.7388     0.4049    
3095.000099 1.8544     6.0363     8.9766     5.102      5.8061     10.5018    4.5891     102.8017   5.7801     0.3928    
3095.200099 1.8725     5.964      9.248      5.083      5.6852     10.7145    4.6939     104.8844   5.9276     0.396     
3095.400099 1.9096     5.855      9.4621     5.292      5.7391     10.6061    5.6318     106.3838   6.1385     0.4033    
3095.600099 1.9153     5.8538     9.5869     5.5882     5.8441     10.3758    5.1862     106.912    6.3592     0.4001    
3095.800099 1.863      5.7535     9.8999     6.2222     5.9161     10.0781    6.1697     103.6966   6.5849     0.4018    
