~Version
 VERS              .         2.0                           : CWLS LOG ASCII STANDARD - VERSION 2.0
 WRAP              .         NO                            : ONE LINE PER DEPTH STEP
 DLM               .         SPACE                         : DELIMITING CHARACTER(SPACE TAB OR COMMA)
~Well Information
#_______________________________________________________________________________
#
#PARAMETER_NAME    .UNIT     VALUE                         : DESCRIPTION
#_______________________________________________________________________________
STRT               .m        2898                          : First reference value
STOP               .m        3121.600112                   : Last reference value
STEP               .m        0.2000001                     : Step increment
NULL               .         -9999                         : Missing value
COMP               .                                       : Company
WELL               .         200                           : Well name
FLD                .                                       : Field
LOC                .                                       : Location
CNTY               .                                       : County
STAT               .                                       : State
CTRY               .                                       : Country
SRVC               .                                       : Service Company
DATE               .                                       : Date
API                .                                       : API number
EREF               .m        139.76                        : 
Pad                .         2                             : 
X                  .m        228492                        : 
Y                  .m        241733                        : 
group              .         Pad2                          : 
Интер-р            .         Зайцев                        : 
Куст               .         2                             : 
Статус             .         Не проверено                  : 
Тип                .         Разведка                      : 
~Parameter Information Block
#_______________________________________________________________________________
#
#PARAMETER_NAME    .UNIT     VALUE                         : DESCRIPTION
#_______________________________________________________________________________
SET                .         LAS4                          : 
REAL_CREATION_DATE .         Ср апр 11 2012-13_17_06       : 
TLFamily_DEPTH     .         Measured Depth                : 
TLFamily_GR        .         Gamma Ray                     : 
TLFamily_TNPH      .         Neutron Porosity              : 
group              .         INI                           : 
~Curve Information
#_______________________________________________________________________________
#
#LOGNAME           .UNIT     LOG_ID                        : DESCRIPTION
#_______________________________________________________________________________
DEPTH              .m                                      : 1 Depth 
GR                 .gAPI                                   :  
TNPH               .v/v                                    : 4 Суммарное водородосодержание 
~Ascii
2898.0000000 77.51099   0.243412  
2898.2     80.085     0.225956  
2898.4     87.439     0.209743  
2898.6     90.048     0.212285  
2898.8     87.53101   0.222645  
2899.000001 85.458     0.241361  
2899.200001 89.921     0.257757  
2899.400001 96.109     0.248995  
2899.600001 94.716     0.238727  
2899.800001 90.715     0.251734  
2900.000001 92.194     0.278491  
2900.200001 92.888     0.275926  
2900.400001 93.222     0.260286  
2900.600001 95.58501   0.263754  
2900.800001 96.73199   0.257526  
2901.000002 98.369     0.228499  
2901.200002 98.519     0.221425  
2901.400002 91.686     0.247981  
2901.600002 85.658     0.25992   
2901.800002 89.22      0.24705   
2902.000002 94.469     0.23036   
2902.200002 95.939     0.232621  
2902.400002 94.166     0.255412  
2902.600002 90.705     0.270722  
2902.800002 92.347     0.261806  
2903.000002 96.616     0.272294  
2903.200003 96.01401   0.290154  
2903.400003 93.274     0.265596  
2903.600003 95.685     0.226163  
2903.800003 96.479     0.216855  
2904.000003 93.704     0.240515  
2904.200003 93.786     0.259698  
2904.400003 96.479     0.253612  
2904.600003 99.894     0.251455  
2904.800003 103.296    0.25183   
2905.000003 102.005    0.243155  
2905.200004 95.371     0.236843  
2905.400004 88.54201   0.233635  
2905.600004 86.70999   0.235146  
2905.800004 90.56599   0.232843  
2906.000004 94.798     0.221707  
2906.200004 95.15601   0.225406  
2906.400004 91.42999   0.243464  
2906.600004 86.068     0.253095  
2906.800004 83.559     0.255705  
2907.000005 86.561     0.241467  
2907.200005 93.749     0.229561  
2907.400005 95.83701   0.234404  
2907.600005 91.19      0.245806  
2907.800005 87.828     0.256974  
2908.000005 90.657     0.275645  
2908.200005 93.982     0.280657  
2908.400005 94.991     0.262413  
2908.600005 92.43201   0.23758   
2908.800005 90.89      0.220868  
2909.000006 92.65601   0.211621  
2909.200006 93.54      0.213564  
2909.400006 91.192     0.235802  
2909.600006 89.894     0.260178  
2909.800006 90.337     0.260767  
2910.000006 91.062     0.238874  
2910.200006 90.356     0.213403  
2910.400006 86.713     0.193687  
2910.600006 85.141     0.185056  
2910.800006 86.773     0.195292  
2911.000006 92.51099   0.216603  
2911.200007 97.769     0.232855  
2911.400007 96.091     0.247147  
2911.600007 93.664     0.250756  
2911.800007 93.004     0.235115  
2912.000007 92.194     0.217405  
2912.200007 90.65601   0.213978  
2912.400007 88.45      0.217966  
2912.600007 87.659     0.215317  
2912.800007 87.95      0.212518  
2913.000007 92.995     0.238712  
2913.200008 92.748     0.24483   
2913.400008 90.024     0.24226   
2913.600008 89.949     0.24493   
2913.800008 91.765     0.254399  
2914.000008 92.304     0.259693  
2914.200008 89.878     0.265644  
2914.400008 89.789     0.27215   
2914.600008 90.647     0.26565   
2914.800008 90.88899   0.253554  
2915.000009 90.629     0.236275  
2915.200009 89.175     0.229189  
2915.400009 92.653     0.240899  
2915.600009 97.325     0.24657   
2915.800009 96.37801   0.236633  
2916.000009 95.075     0.230141  
2916.200009 96.495     0.237071  
2916.400009 94.89      0.236581  
2916.600009 93.082     0.22448   
2916.800009 92.104     0.229219  
2917.00001 88.032     0.250764  
2917.20001 87.7       0.258678  
2917.40001 93.94      0.244698  
2917.60001 95.088     0.226094  
2917.80001 89.265     0.218523  
2918.00001 84.146     0.216708  
2918.20001 86.343     0.215016  
2918.40001 93.5       0.223809  
2918.60001 97.991     0.231653  
2918.80001 95.883     0.223659  
2919.00001 91.389     0.211195  
2919.200011 91.657     0.211996  
2919.400011 94.722     0.217803  
2919.600011 97.518     0.22666   
2919.800011 97.085     0.240348  
2920.000011 91.21899   0.245039  
2920.200011 87.129     0.242305  
2920.400011 88.12      0.245618  
2920.600011 87.281     0.258262  
2920.800011 86.681     0.265276  
2921.000011 89.665     0.252985  
2921.200012 90.148     0.228997  
2921.400012 88.548     0.210174  
2921.600012 88.85101   0.209031  
2921.800012 92.429     0.217907  
2922.000012 95.517     0.2229    
2922.200012 94.495     0.230794  
2922.400012 93.322     0.244111  
2922.600012 92.743     0.230868  
2922.800012 91.504     0.208052  
2923.000013 92.15      0.203168  
2923.200013 94.75999   0.200074  
2923.400013 93.166     0.216678  
2923.600013 89.38      0.239777  
2923.800013 89.42001   0.247273  
2924.000013 93.329     0.241882  
2924.200013 97.36      0.226916  
2924.400013 97.759     0.214714  
2924.600013 95.518     0.222226  
2924.800013 97.854     0.241847  
2925.000014 104.882    0.250984  
2925.200014 108.57     0.249089  
2925.400014 107.951    0.259836  
2925.600014 109.042    0.271934  
2925.800014 113.495    0.260998  
2926.000014 114.089    0.241447  
2926.200014 107.753    0.232025  
2926.400014 105.619    0.239871  
2926.600014 109.557    0.245865  
2926.800014 112.739    0.240924  
2927.000014 112.21     0.238209  
2927.200015 110.685    0.230615  
2927.400015 102.863    0.217428  
2927.600015 96.328     0.212298  
2927.800015 95.149     0.207041  
2928.000015 89.878     0.202492  
2928.200015 85.991     0.204683  
2928.400015 85.78201   0.207637  
2928.600015 88.259     0.199532  
2928.800015 92.123     0.197462  
2929.000015 99.20999   0.206723  
2929.200016 104.173    0.204045  
2929.400016 104.263    0.193408  
2929.600016 103.613    0.185538  
2929.800016 104.051    0.191135  
2930.000016 106.092    0.208047  
2930.200016 106.187    0.217563  
2930.400016 105.306    0.200995  
2930.600016 106.667    0.20693   
2930.800016 108.923    0.201508  
2931.000017 109.893    0.198246  
2931.200017 107.519    0.201353  
2931.400017 104.804    0.204215  
2931.600017 107.091    0.205171  
2931.800017 109.352    0.210858  
2932.000017 104.708    0.207405  
2932.200017 99.766     0.193866  
2932.400017 100.524    0.191632  
2932.600017 103.807    0.191667  
2932.800017 103.056    0.184327  
2933.000018 100.764    0.181039  
2933.200018 98.405     0.187539  
2933.400018 95.01099   0.19641   
2933.600018 88.87901   0.196961  
2933.800018 84.733     0.188761  
2934.000018 86.817     0.190443  
2934.200018 82.998     0.186942  
2934.400018 75.297     0.162392  
2934.600018 68.347     0.131239  
2934.800018 66.567     0.114586  
2935.000018 75.10001   0.111153  
2935.200019 78.96      0.118433  
2935.400019 80.561     0.142948  
2935.600019 88.64      0.180323  
2935.800019 96.053     0.194729  
2936.000019 85.975     0.183171  
2936.200019 72.116     0.175304  
2936.400019 72.99      0.164935  
2936.600019 89.164     0.160574  
2936.800019 99.48399   0.172048  
2937.000019 95.458     0.190628  
2937.20002 88.68      0.211625  
2937.40002 83.933     0.209394  
2937.60002 85.87401   0.196441  
2937.80002 92.309     0.195044  
2938.00002 90.24001   0.206348  
2938.20002 82.35699   0.208104  
2938.40002 82.051     0.19598   
2938.60002 88.465     0.191846  
2938.80002 99.81599   0.204025  
2939.000021 106.782    0.212465  
2939.200021 100.942    0.214989  
2939.400021 92.791     0.227081  
2939.600021 86.159     0.222154  
2939.800021 76.102     0.208816  
2940.000021 67.44701   0.206759  
2940.200021 66.73199   0.214113  
2940.400021 71.86301   0.214628  
2940.600021 76.898     0.205494  
2940.800021 76.60699   0.199809  
2941.000022 73.328     0.198284  
2941.200022 70.737     0.198241  
2941.400022 68.11401   0.19098   
2941.600022 72.113     0.182565  
2941.800022 86.18201   0.192935  
2942.000022 99.156     0.209827  
2942.200022 107.457    0.216237  
2942.400022 113.496    0.219239  
2942.600022 112.952    0.217042  
2942.800022 101.834    0.192119  
2943.000022 86.678     0.174093  
2943.200023 75.01      0.178253  
2943.400023 67.664     0.180514  
2943.600023 61.753     0.185369  
2943.800023 60.164     0.200189  
2944.000023 63.608     0.207534  
2944.200023 66.973     0.202208  
2944.400023 67.296     0.195004  
2944.600023 69.834     0.181976  
2944.800023 75.73      0.171205  
2945.000023 76.31      0.172495  
