~Version
 VERS              .         2.0                           : CWLS LOG ASCII STANDARD - VERSION 2.0
 WRAP              .         NO                            : ONE LINE PER DEPTH STEP
 DLM               .         SPACE                         : DELIMITING CHARACTER(SPACE TAB OR COMMA)
~Well Information
#_______________________________________________________________________________
#
#PARAMETER_NAME    .UNIT     VALUE                         : DESCRIPTION
#_______________________________________________________________________________
STRT               .m        2779.78                       : First reference value
STOP               .m        3001.08                       : Last reference value
STEP               .m        0.1                           : Step increment
NULL               .         -9999                         : Missing value
COMP               .                                       : Company
WELL               .         201                           : Well name
FLD                .                                       : Field
LOC                .                                       : Location
CNTY               .                                       : County
STAT               .                                       : State
CTRY               .                                       : Country
SRVC               .                                       : Service Company
DATE               .                                       : Date
API                .                                       : API number
EREF               .m        139.76                        : 
Pad                .         2                             : 
X                  .m        228492                        : 
Y                  .m        241733                        : 
group              .         Pad2                          : 
Интер-р            .         Ярышев                        : 
Куст               .         2                             : 
Статус             .         Не проверено                  : 
Тип                .         Эксплуатация                  : 
~Parameter Information Block
#_______________________________________________________________________________
#
#PARAMETER_NAME    .UNIT     VALUE                         : DESCRIPTION
#_______________________________________________________________________________
SET                .         LAS4                          : 
REAL_CREATION_DATE .         Ср апр 11 2012-13_17_07       : 
TLFamily_DEPTH     .         Measured Depth                : 
TLFamily_GZ1       .         Extra Shallow Resistivity     : 
TLFamily_GZ2       .         Shallow Resistivity           : 
TLFamily_GZ3       .         Medium Resistivity            : 
TLFamily_GZ4       .         Deep Resistivity              : 
TLFamily_GZ5       .         Extra Deep Resistivity        : 
TLFamily_GZB       .         Medium Resistivity Inverted   : 
TLFamily_LLD       .         Lateral Log Resistivity       : 
TLFamily_PZ        .         Potential Resistivity         : 
TLFamily_SP        .         Spontaneous Potential         : 
group              .         INI                           : 
~Curve Information
#_______________________________________________________________________________
#
#LOGNAME           .UNIT     LOG_ID                        : DESCRIPTION
#_______________________________________________________________________________
DEPTH              .m                                      : 1 Depth 
GZ1                .ohm.m                                  : 2 КС ПО ГРАДИЕНТ-ЗОНДА  A0.4M0.1N 
GZ2                .ohm.m                                  : 3 КС ПО ГРАДИЕНТ-ЗОНДА  A1.0M0.1N 
GZ3                .ohm.m                                  : 4 КС ПО ГРАДИЕНТ-ЗОНДА  A2.0M0.5N 
GZ4                .ohm.m                                  : 5 КС ПО ГРАДИЕНТ-ЗОНДА  A4.0M0.5N 
GZ5                .ohm.m                                  : 6 КС ПО ГРАДИЕНТ-ЗОНДА  A8.0M0.5N 
GZB                .ohm.m                                  : 7 КС ПО ГРАДИЕНТ-ЗОНДА  N0.5M2.0A 
LLD                .ohm.m                                  : 11 ДАННЫЕ УЭС ЗОНДА БК-3 
PZ                 .ohm.m                                  : 9 КС ПО ПОТЕНЦИАЛ-ЗОНДУ  N6.0M0.5A 
SP                 .mV                                     : 8 ПОТЕНЦИАЛ ЕСТЕСТВ. САМОПОЛЯРИЗАЦИИ 
~Ascii
# ...
2969.58    2.3624     9.9524     22.9172    39.9179    43.8464    25.5441    33.6572    14.7793    48.3576   
2969.68    2.5391     10.8009    23.8705    39.5665    43.2518    22.6766    31.7494    14.7827    48.461    
2969.78    2.6019     11.1241    24.2155    39.3782    43.2878    21.6815    30.3659    14.7393    48.525    
2969.88    2.6745     11.6395    23.1971    37.2858    43.3499    18.6539    22.0741    14.748     48.5637   
2969.98    2.7057     11.8604    22.7606    36.3891    43.447     17.3563    17.3679    14.8961    48.6181   
2970.08    2.0048     9.6071     23.7831    36.9943    43.5052    15.5434    15.9268    14.6637    48.7055   
2970.18    2.2615     11.2498    24.9411    38.3015    43.6858    14.4093    15.9268    14.3615    48.7924   
2970.28    2.7997     13.5611    27.2208    41.3988    43.8271    14.0753    13.8061    14.0055    48.8221   
2970.38    3.0221     14.3096    30.0149    43.9785    44.6908    14.3932    12.4053    13.5325    48.7692   
2970.48    3.0465     14.4112    31.7719    44.7829    46.5693    14.9332    12.4053    13.144     48.6745   
2970.58    2.9934     14.4377    32.5824    44.7075    47.6044    15.0423    12.0643    12.8449    48.6142   
2970.68    2.9375     14.528     33.079     44.4478    47.6103    14.9744    12.5348    12.5595    48.6424   
2970.78    2.922      14.4287    33.5484    44.1863    47.4767    14.9294    12.9798    12.2967    48.7407   
2970.88    2.8965     14.1879    34.1264    43.975     47.4037    14.9187    13.5725    11.9958    48.8351   
2970.98    2.8732     14.0628    34.7861    43.8619    47.2917    14.9976    17.4942    11.711     48.8425   
2971.08    2.8711     14.0733    35.5486    44.1247    47.1259    15.1233    18.9358    11.3903    48.7283   
2971.18    2.8954     14.0125    36.5498    44.8712    46.7689    15.2354    15.6353    11.0597    48.5206   
2971.28    2.8791     13.8592    37.6958    45.8309    46.1962    15.2323    12.8373    10.6873    48.2935   
2971.38    2.9275     14.034     38.788     46.8026    45.489     15.161     8.646      10.3357    48.12     
2971.48    3.007      14.352     39.6645    47.5936    44.5635    14.9579    6.3031     9.9726     48.0289   
2971.58    3.0398     14.5554    40.0899    47.9225    43.3917    14.6247    5.3265     9.6071     47.9856   
2971.68    3.0905     14.5937    39.7142    47.3833    41.9954    14.1926    5.1752     9.3016     47.924    
2971.78    3.0493     14.1609    38.5839    46.1162    40.2866    13.7284    5.4159     8.9943     47.8061   
2971.88    2.8851     13.261     36.8619    44.2796    38.2785    13.344     5.5324     8.7352     47.6664   
2971.98    2.6939     12.3453    34.7246    42.1534    36.1266    13.052     5.446      8.4937     47.591    
2972.08    2.5429     11.4976    32.6158    40.2439    33.6897    12.8064    5.5433     8.236      47.648    
2972.18    2.4305     10.901     30.6894    38.7387    31.2475    12.5949    5.5168     8.064      47.8214   
2972.28    2.3197     10.4101    28.8559    37.443     29.4341    12.4717    5.2419     7.8921     48.0165   
2972.38    2.2855     10.2631    28.311     37.0653    29.0453    12.4447    5.2999     7.8566     48.1237   
2972.48    2.1633     9.7165     25.8909    35.3539    26.8648    12.2181    5.7775     7.681      48.0985   
2972.58    2.0901     9.1276     23.9086    33.9264    24.0902    12.0247    6.3066     7.5853     47.9832   
2972.68    2.0056     8.5587     22.6964    33.1176    22.752     11.8937    6.655      7.5206     47.8697   
2972.78    1.9187     8.0986     21.5843    32.3331    21.5516    11.8063    6.7576     7.4734     47.8236   
2972.88    1.9023     7.8826     20.617     31.6483    20.4035    11.6771    6.8289     7.4381     47.8397   
2972.98    1.9357     7.8166     19.8622    31.2565    19.3724    11.5269    6.8633     7.4154     47.8475   
2973.08    1.9251     7.606      19.2583    31.0701    18.5105    11.3999    6.6703     7.3686     47.7718   
2973.18    1.9008     7.4262     18.717     30.8104    17.7826    11.3172    6.3544     7.3579     47.5902   
2973.28    1.898      7.3979     18.1532    30.3451    17.1011    11.1839    6.3899     7.3333     47.3522   
2973.38    1.9339     7.4113     17.7386    29.8643    16.3888    10.9982    6.6448     7.309      47.1362   
2973.48    1.9706     7.4005     17.3591    29.4029    15.7194    10.8598    6.6872     7.3045     46.9892   
2973.58    1.9646     7.3054     16.9656    28.8824    15.1417    10.7774    6.6872     7.3045     46.8942   
2973.68    1.9495     7.2004     16.5398    28.1758    14.6482    10.6712    6.4899     7.2833     46.7892   
2973.78    1.9205     7.1266     16.0911    27.2957    14.2063    10.5869    7.0863     7.2565     46.6133   
2973.88    1.937      7.1319     15.6712    26.529     13.8167    10.5186    8.6936     7.2511     46.3433   
2973.98    1.9219     7.0632     15.3823    26.0495    13.4372    10.4496    10.9186    7.2511     45.9982   
2974.08    1.8994     7.0471     15.206     25.753     13.097     10.3731    10.9796    7.2356     45.6186   
2974.18    1.9378     7.2077     15.1194    25.4939    12.7763    10.2072    10.9796    7.1792     45.2392   
2974.28    2.0026     7.4906     15.1471    25.1428    12.4749    9.9795     8.8254     7.113      44.8701   
2974.38    2.0689     7.7438     15.2124    24.5947    12.237     9.7504     7.2614     7.0461     44.4939   
2974.48    2.1358     7.8839     15.1908    24.006     12.006     9.544      6.4171     6.9793     44.0817   
2974.58    2.1657     7.933      15.0823    23.3775    11.7556    9.3843     6.3933     6.9126     43.6207   
2974.68    2.1915     7.8726     14.9153    22.6968    11.4144    9.2746     6.6573     6.81       43.1334   
2974.78    2.1696     7.8647     14.6551    21.5952    10.94      9.1387     6.1682     6.5301     42.6733   
2974.88    2.1659     7.9861     14.4296    20.7249    10.2152    9.0468     5.0264     6.3576     42.2895   
2974.98    2.1911     8.0487     14.1494    19.8984    9.8954     8.9983     4.0898     6.2208     41.9935   
2975.08    2.1288     7.7312     13.7973    18.9922    9.6193     9.0518     3.9764     6.1338     41.7543   
2975.18    2.0011     7.2956     13.3602    18.1179    9.3181     9.2279     4.3973     6.0632     41.5332   
2975.28    1.8688     6.9383     12.8925    17.4129    9.0149     9.3768     5.3379     5.9938     41.3254   
2975.38    1.7995     6.7637     12.5509    16.8473    8.7003     9.4901     5.6518     5.9252     41.1629   
2975.48    1.7865     6.7311     12.3373    16.4224    8.4691     9.6202     5.0588     5.8721     41.0801   
2975.58    1.8214     6.6922     12.1728    16.084     8.3437     9.7644     4.6554     5.8623     41.0707   
2975.68    1.7879     6.4676     11.9894    15.8108    8.2608     9.8711     5.0115     5.8623     41.0885   
2975.78    1.7429     6.1944     11.8288    15.5685    8.2449     9.9616     5.3441     5.856      41.0819   
2975.88    1.7324     6.0605     11.6516    15.309     8.2622     10.062     5.4337     5.818      41.038    
2975.98    1.738      6.0626     11.4841    15.1577    8.3601     10.2445    5.0338     5.8089     40.9929   
2976.08    1.7568     6.0408     11.3908    15.0903    8.5616     10.4675    4.6909     5.8089     41.0111   
2976.18    1.7152     5.8201     11.3558    15.1196    8.8721     10.6948    4.96       5.8089     41.146    
2976.28    1.6832     5.7448     11.2709    15.2044    9.275      10.9741    4.9905     5.8089     41.4103   
2976.38    1.7065     5.7741     11.2159    15.4375    9.8314     11.3268    4.7106     5.8089     41.7707   
2976.48    1.6904     5.7519     11.2755    15.8681    10.5219    11.7978    4.9323     5.8516     42.1697   
2976.58    1.647      5.6913     11.3987    16.5203    11.2751    12.3257    6.3224     5.8623     42.561    
2976.68    1.6271     5.6707     11.5812    17.3335    12.0322    12.9366    7.8312     5.8895     42.9273   
2976.78    1.6382     5.8431     11.904     18.2908    12.6797    13.4921    8.4118     5.9118     43.273    
