~Version
 VERS              .         2.0                           : CWLS LOG ASCII STANDARD - VERSION 2.0
 WRAP              .         NO                            : ONE LINE PER DEPTH STEP
 DLM               .         SPACE                         : DELIMITING CHARACTER(SPACE TAB OR COMMA)
~Well Information
#_______________________________________________________________________________
#
#PARAMETER_NAME    .UNIT     VALUE                         : DESCRIPTION
#_______________________________________________________________________________
STRT               .m        2779.78                       : First reference value
STOP               .m        3001.08                       : Last reference value
STEP               .m        0.1                           : Step increment
NULL               .         -9999                         : Missing value
COMP               .                                       : Company
WELL               .         201                           : Well name
FLD                .                                       : Field
LOC                .                                       : Location
CNTY               .                                       : County
STAT               .                                       : State
CTRY               .                                       : Country
SRVC               .                                       : Service Company
DATE               .                                       : Date
API                .                                       : API number
EREF               .m        139.76                        : 
Pad                .         2                             : 
X                  .m        228492                        : 
Y                  .m        241733                        : 
group              .         Pad2                          : 
Интер-р            .         Ярышев                        : 
Куст               .         2                             : 
Статус             .         Не проверено                  : 
Тип                .         Эксплуатация                  : 
~Parameter Information Block
#_______________________________________________________________________________
#
#PARAMETER_NAME    .UNIT     VALUE                         : DESCRIPTION
#_______________________________________________________________________________
SET                .         LAS4                          : 
REAL_CREATION_DATE .         Ср апр 11 2012-13_17_07       : 
TLFamily_DEPTH     .         Measured Depth                : 
TLFamily_GZ1       .         Extra Shallow Resistivity     : 
TLFamily_GZ2       .         Shallow Resistivity           : 
TLFamily_GZ3       .         Medium Resistivity            : 
TLFamily_GZ4       .         Deep Resistivity              : 
TLFamily_GZ5       .         Extra Deep Resistivity        : 
TLFamily_GZB       .         Medium Resistivity Inverted   : 
TLFamily_LLD       .         Lateral Log Resistivity       : 
TLFamily_PZ        .         Potential Resistivity         : 
TLFamily_SP        .         Spontaneous Potential         : 
group              .         INI                           : 
~Curve Information
#_______________________________________________________________________________
#
#LOGNAME           .UNIT     LOG_ID                        : DESCRIPTION
#_______________________________________________________________________________
DEPTH              .m                                      : 1 Depth 
GZ1                .ohm.m                                  : 2 КС ПО ГРАДИЕНТ-ЗОНДА  A0.4M0.1N 
GZ2                .ohm.m                                  : 3 КС ПО ГРАДИЕНТ-ЗОНДА  A1.0M0.1N 
GZ3                .ohm.m                                  : 4 КС ПО ГРАДИЕНТ-ЗОНДА  A2.0M0.5N 
GZ4                .ohm.m                                  : 5 КС ПО ГРАДИЕНТ-ЗОНДА  A4.0M0.5N 
GZ5                .ohm.m                                  : 6 КС ПО ГРАДИЕНТ-ЗОНДА  A8.0M0.5N 
GZB                .ohm.m                                  : 7 КС ПО ГРАДИЕНТ-ЗОНДА  N0.5M2.0A 
LLD                .ohm.m                                  : 11 ДАННЫЕ УЭС ЗОНДА БК-3 
PZ                 .ohm.m                                  : 9 КС ПО ПОТЕНЦИАЛ-ЗОНДУ  N6.0M0.5A 
SP                 .mV                                     : 8 ПОТЕНЦИАЛ ЕСТЕСТВ. САМОПОЛЯРИЗАЦИИ 
~Ascii
# ...
2860.08    2.4213     8.4194     12.1542    11.9925    9.143      9.576      5.4696     6.4214     21.3001   
2860.18    2.4353     8.5832     12.3468    11.902     9.0287     9.293      4.5466     6.27       21.2952   
2860.28    2.3521     8.4433     12.3553    11.6433    8.8833     9.0749     4.1795     6.1086     21.2904   
2860.38    2.2253     8.1554     12.2119    11.2865    8.6623     8.9017     4.0735     5.9743     21.3036   
2860.48    2.1144     7.843      11.9826    10.9096    8.3738     8.8247     4.1016     5.8481     21.3543   
2860.58    2.0128     7.5213     11.7179    10.5595    8.0652     8.8128     4.0742     5.7655     21.4446   
2860.68    1.9588     7.3168     11.4365    10.2418    7.799      8.8439     3.8025     5.6601     21.5567   
2860.78    1.9078     7.0555     11.1759    9.8962     7.5494     8.9403     3.6348     5.5871     21.663    
2860.88    1.8096     6.7012     10.9551    9.6171     7.3251     9.0799     3.7479     5.5484     21.7482   
2860.98    1.7306     6.3235     10.7977    9.3989     7.1667     9.3009     4.0304     5.5093     21.8272   
2861.08    1.6883     6.1328     10.6668    9.1792     7.0345     9.5103     4.094      5.4497     21.9394   
2861.18    1.6784     6.0491     10.5709    9.0061     6.8855     9.6823     4.0136     5.4354     22.124    
2861.28    1.6784     5.8445     10.5695    8.9065     6.799      9.8957     3.8729     5.435      22.389    
2861.38    1.6405     5.7022     10.564     8.8393     6.756      10.1395    3.8094     5.435      22.7055   
2861.48    1.6243     5.5807     10.4409    8.7876     6.7767     10.3653    3.9513     5.4647     23.0327   
2861.58    1.6047     5.4106     10.35      8.825      6.8134     10.7005    4.3814     5.5224     23.3492   
2861.68    1.578      5.2454     10.32      8.954      6.8464     11.1956    5.3444     5.5422     23.6643   
2861.78    1.5702     5.2227     10.2896    9.1169     6.8705     11.6685    6.5479     5.594      23.9986   
2861.88    1.5718     5.2861     10.3341    9.3346     6.9282     11.9939    6.3126     5.6402     24.3602   
2861.98    1.6087     5.3217     10.4123    9.5748     6.9904     12.2352    6.0738     5.6736     24.7299   
2862.08    1.6545     5.4514     10.4345    9.7665     7.0536     12.2958    6.478      5.7309     25.0701   
2862.18    1.713      5.5695     10.4117    9.9273     7.1198     12.1226    6.2408     5.7948     25.3398   
2862.28    1.7029     5.5184     10.3904    10.1356    7.1726     11.8297    5.0652     5.8513     25.522    
2862.38    1.7189     5.5055     10.2709    10.2753    7.1656     11.5795    4.2755     5.8776     25.6419   
2862.48    1.8141     5.7416     10.1217    10.3123    7.1256     11.4245    4.2566     5.9088     25.7715   
2862.58    1.8676     5.8587     10.03      10.383     7.1256     11.4318    4.7078     5.9157     25.9972   
2862.68    1.851      5.7797     9.9415     10.4871    7.1256     11.513     4.6729     5.8778     26.3751   
2862.78    1.814      5.7195     9.7509     10.4947    7.1363     11.6532    4.4288     5.8635     26.9028   
2862.88    1.7914     5.7824     9.5488     10.5029    7.1915     11.8033    4.4185     5.8732     27.5353   
2862.98    1.7487     5.7939     9.3863     10.5549    7.2572     11.9712    4.7039     5.9267     28.2298   
2863.08    1.7227     5.7659     9.2871     10.636     7.3409     12.1297    5.0201     5.9632     28.9762   
2863.18    1.6904     5.6789     9.1877     10.7952    7.4322     12.3235    4.9841     6.0046     29.7963   
2863.28    1.6784     5.6884     9.155      11.0064    7.5053     12.5632    5.1513     6.0635     30.7133   
2863.38    1.7098     5.7758     9.1938     11.2178    7.6209     12.8153    5.6005     6.0935     31.7254   
2863.48    1.6927     5.7621     9.2726     11.4463    7.7516     12.9595    6.0103     6.1821     32.7929   
2863.58    1.7088     5.7695     9.3433     11.6433    7.903      12.99      6.0187     6.2529     33.8458   
2863.68    1.7057     5.7463     9.406      11.7858    8.0909     12.977     6.246      6.346      34.8049   
2863.78    1.7224     5.7316     9.4766     11.9152    8.2777     12.9266    6.4663     6.4282     35.6129   
2863.88    1.7324     5.7549     9.5877     12.0412    8.4643     12.8352    6.7798     6.5386     36.2613   
2863.98    1.7324     5.809      9.7366     12.2012    8.6506     12.7504    7.5049     6.6535     36.7931   
2864.08    1.7703     5.9095     9.9475     12.3875    8.8378     12.683     8.5619     6.727      37.2782   
2864.18    1.7956     6.0315     10.2332    12.6229    9.0256     12.6004    10.5154    6.7905     37.7712   
2864.28    1.8444     6.1835     10.5932    12.8585    9.2082     12.4247    11.5633    6.8538     38.2921   
2864.38    1.8853     6.4043     10.9749    13.0583    9.3467     12.1358    9.0009     6.833      38.8361   
2864.48    1.9552     6.7558     11.3333    13.2136    9.4223     11.7377    6.9557     6.8595     39.4071   
2864.58    2.0707     7.1535     11.6307    13.3028    9.4699     11.3319    5.9477     6.8327     40.0259   
2864.68    2.1546     7.3762     11.8578    13.2993    9.4699     10.9531    5.2705     6.8019     40.7102   
2864.78    2.1926     7.499      11.9299    13.1587    9.4631     10.6494    5.0564     6.7462     41.4353   
2864.88    2.1756     7.545      11.8993    12.9505    9.4238     10.4566    5.0964     6.6834     42.1297   
2864.98    2.139      7.484      11.8678    12.7366    9.3512     10.35      5.0405     6.5771     42.7035   
2865.08    2.0833     7.4271     11.8161    12.5037    9.2242     10.3161    4.8881     6.5023     43.1052   
2865.18    2.0591     7.4511     11.7521    12.2604    9.056      10.3166    4.8809     6.4189     43.3509   
2865.28    2.0471     7.461      11.7265    12.0685    8.9345     10.3517    4.9117     6.327      43.5204   
2865.38    2.0148     7.4154     11.7238    11.9109    8.8348     10.383     4.9402     6.2582     43.7063   
2865.48    2.0028     7.3727     11.7381    11.7601    8.7273     10.4108    5.0346     6.2381     43.9639   
2865.58    1.9716     7.337      11.7674    11.6603    8.6107     10.4196    4.9245     6.1825     44.2832   
2865.68    1.9516     7.2511     11.831     11.5549    8.5303     10.4193    4.6003     6.1188     44.6128   
2865.78    1.9487     7.1699     11.8753    11.441     8.4298     10.3892    4.3823     6.082      44.9019   
2865.88    1.9487     7.0951     11.9199    11.3485    8.3671     10.4066    4.7486     6.076      45.1368   
2865.98    1.9257     6.9504     11.8996    11.2571    8.3131     10.4196    5.1105     6.076      45.3393   
2866.08    1.8713     6.7465     11.8684    11.1846    8.2872     10.4196    5.3251     6.0332     45.5432   
2866.18    1.8441     6.6425     11.8401    11.1575    8.2342     10.4196    5.2783     6.0225     45.7648   
2866.28    1.847      6.6259     11.8308    11.1602    8.1872     10.4154    5.0336     6.0225     45.9919   
2866.38    1.8812     6.6627     11.8677    11.1937    8.1647     10.3337    4.8657     5.991      46.1941   
2866.48    1.8946     6.6785     11.9216    11.2068    8.1379     10.2548    4.8192     5.9719     46.3472   
2866.58    1.8946     6.6561     11.9379    11.1809    8.1379     10.2144    4.8121     5.9691     46.4533   
2866.68    1.8946     6.6321     11.9187    11.1259    8.1364     10.1744    4.7939     5.9691     46.5396   
2866.78    1.8946     6.5901     11.8665    11.0263    8.1212     10.1925    4.7224     5.9504     46.6385   
2866.88    1.8946     6.5737     11.7712    10.9477    8.0846     10.243     4.6922     5.9217     46.7641   
2866.98    1.8946     6.5733     11.6491    10.9013    8.0776     10.2589    4.6722     5.9157     46.9039   
2867.08    1.8946     6.5733     11.5207    10.866     8.0458     10.2795    4.6503     5.873      47.0265   
2867.18    1.8946     6.5733     11.3754    10.8116    8.0207     10.3052    4.6841     5.8623     47.0978   
2867.28    1.8568     6.5396     11.2199    10.7855    7.9781     10.3125    4.7394     5.8623     47.0997   
