~Version
 VERS              .         2.0                           : CWLS LOG ASCII STANDARD - VERSION 2.0
 WRAP              .         NO                            : ONE LINE PER DEPTH STEP
 DLM               .         SPACE                         : DELIMITING CHARACTER(SPACE TAB OR COMMA)
~Well Information
#_______________________________________________________________________________
#
#PARAMETER_NAME    .UNIT     VALUE                         : DESCRIPTION
#_______________________________________________________________________________
STRT               .m        2779.78                       : First reference value
STOP               .m        3001.08                       : Last reference value
STEP               .m        0.1                           : Step increment
NULL               .         -9999                         : Missing value
COMP               .                                       : Company
WELL               .         201                           : Well name
FLD                .                                       : Field
LOC                .                                       : Location
CNTY               .                                       : County
STAT               .                                       : State
CTRY               .                                       : Country
SRVC               .                                       : Service Company
DATE               .                                       : Date
API                .                                       : API number
EREF               .m        139.76                        : 
Pad                .         2                             : 
X                  .m        228492                        : 
Y                  .m        241733                        : 
group              .         Pad2                          : 
Интер-р            .         Ярышев                        : 
Куст               .         2                             : 
Статус             .         Не проверено                  : 
Тип                .         Эксплуатация                  : 
~Parameter Information Block
#_______________________________________________________________________________
#
#PARAMETER_NAME    .UNIT     VALUE                         : DESCRIPTION
#_______________________________________________________________________________
SET                .         LAS4                          : 
REAL_CREATION_DATE .         Ср апр 11 2012-13_17_07       : 
TLFamily_DEPTH     .         Measured Depth                : 
TLFamily_GZ1       .         Extra Shallow Resistivity     : 
TLFamily_GZ2       .         Shallow Resistivity           : 
TLFamily_GZ3       .         Medium Resistivity            : 
TLFamily_GZ4       .         Deep Resistivity              : 
TLFamily_GZ5       .         Extra Deep Resistivity        : 
TLFamily_GZB       .         Medium Resistivity Inverted   : 
TLFamily_LLD       .         Lateral Log Resistivity       : 
TLFamily_PZ        .         Potential Resistivity         : 
TLFamily_SP        .         Spontaneous Potential         : 
group              .         INI                           : 
~Curve Information
#_______________________________________________________________________________
#
#LOGNAME           .UNIT     LOG_ID                        : DESCRIPTION
#_______________________________________________________________________________
DEPTH              .m                                      : 1 Depth 
GZ1                .ohm.m                                  : 2 КС ПО ГРАДИЕНТ-ЗОНДА  A0.4M0.1N 
GZ2                .ohm.m                                  : 3 КС ПО ГРАДИЕНТ-ЗОНДА  A1.0M0.1N 
GZ3                .ohm.m                                  : 4 КС ПО ГРАДИЕНТ-ЗОНДА  A2.0M0.5N 
GZ4                .ohm.m                                  : 5 КС ПО ГРАДИЕНТ-ЗОНДА  A4.0M0.5N 
GZ5                .ohm.m                                  : 6 КС ПО ГРАДИЕНТ-ЗОНДА  A8.0M0.5N 
GZB                .ohm.m                                  : 7 КС ПО ГРАДИЕНТ-ЗОНДА  N0.5M2.0A 
LLD                .ohm.m                                  : 11 ДАННЫЕ УЭС ЗОНДА БК-3 
PZ                 .ohm.m                                  : 9 КС ПО ПОТЕНЦИАЛ-ЗОНДУ  N6.0M0.5A 
SP                 .mV                                     : 8 ПОТЕНЦИАЛ ЕСТЕСТВ. САМОПОЛЯРИЗАЦИИ 
~Ascii
# ...
2889.28    2.1109     7.9682     14.0317    12.758     7.4542     19.4453    9.9074     9.0412     51.2902   
2889.38    2.1109     8.0429     14.2601    12.8877    7.4817     19.3648    9.8472     9.0646     51.1569   
2889.48    2.1396     8.1761     14.467     13.0168    7.4589     19.3211    9.7032     9.11       51.0788   
2889.58    2.1611     8.3076     14.701     13.1701    7.4985     19.2507    9.664      9.1377     51.0716   
2889.68    2.165      8.4198     14.9556    13.3524    7.4985     19.1336    9.6088     9.1676     51.1087   
2889.78    2.165      8.4652     15.1971    13.5056    7.5086     19.0378    9.3159     9.1741     51.1479   
2889.88    2.1878     8.5264     15.4036    13.6919    7.5495     18.9406    8.8039     9.2168     51.1648   
2889.98    2.2126     8.6219     15.6309    13.9523    7.5518     18.864     8.5959     9.2275     51.1663   
2890.08    2.2191     8.7258     15.8902    14.2375    7.5518     18.7994    8.0902     9.2081     51.1864   
2890.18    2.2278     8.8475     16.2009    14.5408    7.5518     18.7805    7.7214     9.1799     51.256    
2890.28    2.2607     8.9755     16.5093    14.8907    7.5624     18.8142    7.4201     9.1352     51.3722   
2890.38    2.2731     9.0729     16.7544    15.167     7.6049     18.8286    7.3683     9.1159     51.4901   
2890.48    2.2731     9.0761     16.9567    15.3729    7.6051     18.8014    7.7909     9.0765     51.5581   
2890.58    2.2731     9.0519     17.1015    15.5339    7.6051     18.7794    8.2473     9.0672     51.5621   
2890.68    2.2731     9.0088     17.1866    15.7033    7.6051     18.7815    8.3681     9.0349     51.5385   
2890.78    2.2731     8.993      17.2274    15.8094    7.5944     18.8449    8.8055     9.0164     51.5373   
2890.88    2.2731     8.9764     17.2361    15.9212    7.5518     18.9854    9.1428     9.0138     51.5784   
2890.98    2.237      8.8739     17.2361    16.0258    7.5518     19.1715    8.8681     9.0138     51.6383   
2891.08    2.2144     8.6973     17.2251    16.1313    7.5445     19.3273    8.5342     9.0138     51.6777   
2891.18    2.1789     8.5874     17.1543    16.2189    7.5118     19.4586    8.4476     9.0138     51.6755   
2891.28    2.165      8.5073     17.0907    16.3465    7.4985     19.5704    8.4836     9.0168     51.6449   
2891.38    2.1337     8.4348     17.0755    16.507     7.4985     19.5988    8.5244     9.0573     51.6236   
2891.48    2.1164     8.4422     17.0755    16.6468    7.4985     19.5841    8.7578     9.0672     51.6581   
2891.58    2.1499     8.4983     17.0905    16.8508    7.4985     19.6195    9.1315     9.0984     51.7748   
2891.68    2.165      8.482      17.142     17.0914    7.4985     19.671     9.2868     9.1177     51.958    
2891.78    2.165      8.467      17.1461    17.2825    7.5025     19.7083    9.4953     9.1268     52.1422   
2891.88    2.165      8.445      17.1316    17.4227    7.5252     19.7651    9.6467     9.1649     52.2485   
2891.98    2.165      8.3599     17.0827    17.5518    7.5602     19.831     9.5341     9.1741     52.2379   
2892.08    2.1518     8.3147     17.0344    17.6843    7.596      19.885     9.4026     9.2082     52.1464   
2892.18    2.1215     8.3199     16.9965    17.8612    7.6181     19.9187    9.3258     9.2269     52.0589   
2892.28    2.1109     8.3696     17.0077    18.0751    7.6782     19.9454    9.2082     9.2823     52.0486   
2892.38    2.1488     8.4067     17.063     18.3505    7.7189     19.9533    9.3438     9.3265     52.123    
2892.48    2.165      8.4493     17.1416    18.6637    7.7611     19.9572    9.7202     9.3343     52.2246   
2892.58    2.1836     8.5451     17.2361    18.9358    7.8268     19.9925    9.9709     9.3343     52.2747   
2892.68    2.2108     8.6113     17.3108    19.1535    7.8908     20.0069    9.9695     9.3388     52.2332   
2892.78    2.2191     8.6248     17.3392    19.347     7.9552     20.0069    9.6534     9.3782     52.1181   
2892.88    2.2151     8.6542     17.3806    19.5382    8.019      20.0069    9.4146     9.3877     51.9841   
2892.98    2.1912     8.6742     17.3967    19.767     8.0829     20.0069    9.3855     9.4187     51.8687   
2893.08    2.1885     8.6874     17.419     19.9762    8.1471     20.0069    9.2411     9.4382     51.7701   
2893.18    2.1729     8.7366     17.4746    20.1717    8.2077     19.9811    9.3571     9.4411     51.6605   
2893.28    2.2009     8.8004     17.581     20.3952    8.2506     19.9583    9.6704     9.4411     51.5305   
2893.38    2.2182     8.8972     17.7097    20.6111    8.2968     19.8783    9.8867     9.4674     51.4034   
2893.48    2.2191     8.9374     17.8214    20.8007    8.3877     19.8214    9.7333     9.4904     51.3215   
2893.58    2.2191     8.9517     17.8705    20.9295    8.4189     19.7397    9.5697     9.4946     51.3104   
2893.68    2.2191     8.9444     17.8783    21.0281    8.4841     19.6629    9.6196     9.4946     51.3677   
2893.78    2.1829     8.8499     17.8837    21.1159    8.5489     19.6353    9.743      9.4946     51.4661   
2893.88    2.2036     8.8262     17.905     21.1486    8.6132     19.6415    9.6343     9.5221     51.5709   
2893.98    2.2191     8.8407     17.9102    21.1689    8.6771     19.6914    9.3795     9.5442     51.6464   
2894.08    2.2191     8.8748     17.9549    21.2331    8.7441     19.7824    9.454      9.5052     51.6722   
2894.18    2.2191     8.9104     18.0612    21.3079    8.8285     19.87      9.3662     9.4946     51.6543   
2894.28    2.2191     8.9957     18.227     21.3869    8.9236     19.9056    8.9736     9.4946     51.6386   
2894.38    2.2316     9.0404     18.3734    21.4938    8.989      19.9894    9.2474     9.4946     51.6803   
2894.48    2.2623     9.0545     18.477     21.5742    9.0563     20.0493    9.6938     9.4911     51.8057   
2894.58    2.2731     9.0862     18.5496    21.6381    9.1379     20.0604    9.7122     9.4509     51.9767   
2894.68    2.2731     9.122      18.5764    21.6737    9.2379     20.0604    9.4886     9.4411     52.1167   
2894.78    2.2731     9.1135     18.6132    21.6454    9.3111     20.0604    9.3817     9.4411     52.1596   
2894.88    2.2731     9.0969     18.6084    21.5862    9.4121     20.0443    8.9768     9.4411     52.0993   
2894.98    2.2463     9.0599     18.5819    21.5356    9.4947     19.9918    8.6405     9.4411     51.9852   
2895.08    2.258      9.0233     18.574     21.5       9.6053     19.8947    8.5743     9.4266     51.8876   
2895.18    2.2376     8.9992     18.5805    21.5061    9.6938     19.8508    8.4038     9.3948     51.8475   
2895.28    2.2586     9.0298     18.6143    21.5218    9.7922     19.8363    8.1215     9.3877     51.8611   
2895.38    2.2731     9.0456     18.6506    21.5602    9.8967     19.8221    7.8209     9.3854     51.889    
2895.48    2.2731     9.0456     18.6437    21.5749    9.9859     19.8892    7.8693     9.3444     51.8956   
2895.58    2.2711     9.0195     18.6269    21.548     10.1118    20.0455    8.2146     9.3343     51.8728   
2895.68    2.2344     8.9644     18.5332    21.4912    10.214     20.2752    9.2073     9.3049     51.845    
2895.78    2.2191     8.9419     18.405     21.3429    10.3255    20.502     10.6419    9.2842     51.8449   
2895.88    2.2191     8.9154     18.252     21.1796    10.4663    20.7509    11.1863    9.2857     51.8835   
2895.98    2.185      8.7923     18.0984    21.0669    10.6363    21.0737    11.1014    9.3248     51.9381   
2896.08    2.1288     8.6074     17.9575    20.9475    10.7709    21.5264    10.6068    9.3343     51.9591   
2896.18    2.1109     8.5632     17.8148    20.8964    10.9394    21.984     10.2927    9.3682     51.9087   
2896.28    2.1109     8.5345     17.7713    21.0029    11.1352    22.3869    10.593     9.3865     51.7876   
2896.38    2.1109     8.5373     17.836     21.2131    11.335     22.7741    10.8651    9.4307     51.6487   
2896.48    2.1118     8.5894     17.955     21.4431    11.5574    23.0678    10.8739    9.4614     51.5589   
