~Version
 VERS              .         2.0                           : CWLS LOG ASCII STANDARD - VERSION 2.0
 WRAP              .         NO                            : ONE LINE PER DEPTH STEP
 DLM               .         SPACE                         : DELIMITING CHARACTER(SPACE TAB OR COMMA)
~Well Information
#_______________________________________________________________________________
#
#PARAMETER_NAME    .UNIT     VALUE                         : DESCRIPTION
#_______________________________________________________________________________
STRT               .m        2779.78                       : First reference value
STOP               .m        3001.08                       : Last reference value
STEP               .m        0.1                           : Step increment
NULL               .         -9999                         : Missing value
COMP               .                                       : Company
WELL               .         201                           : Well name
FLD                .                                       : Field
LOC                .                                       : Location
CNTY               .                                       : County
STAT               .                                       : State
CTRY               .                                       : Country
SRVC               .                                       : Service Company
DATE               .                                       : Date
API                .                                       : API number
EREF               .m        139.76                        : 
Pad                .         2                             : 
X                  .m        228492                        : 
Y                  .m        241733                        : 
group              .         Pad2                          : 
Интер-р            .         Ярышев                        : 
Куст               .         2                             : 
Статус             .         Не проверено                  : 
Тип                .         Эксплуатация                  : 
~Parameter Information Block
#_______________________________________________________________________________
#
#PARAMETER_NAME    .UNIT     VALUE                         : DESCRIPTION
#_______________________________________________________________________________
SET                .         LAS4                          : 
REAL_CREATION_DATE .         Ср апр 11 2012-13_17_07       : 
TLFamily_DEPTH     .         Measured Depth                : 
TLFamily_GZ1       .         Extra Shallow Resistivity     : 
TLFamily_GZ2       .         Shallow Resistivity           : 
TLFamily_GZ3       .         Medium Resistivity            : 
TLFamily_GZ4       .         Deep Resistivity              : 
TLFamily_GZ5       .         Extra Deep Resistivity        : 
TLFamily_GZB       .         Medium Resistivity Inverted   : 
TLFamily_LLD       .         Lateral Log Resistivity       : 
TLFamily_PZ        .         Potential Resistivity         : 
TLFamily_SP        .         Spontaneous Potential         : 
group              .         INI                           : 
~Curve Information
#_______________________________________________________________________________
#
#LOGNAME           .UNIT     LOG_ID                        : DESCRIPTION
#_______________________________________________________________________________
DEPTH              .m                                      : 1 Depth 
GZ1                .ohm.m                                  : 2 КС ПО ГРАДИЕНТ-ЗОНДА  A0.4M0.1N 
GZ2                .ohm.m                                  : 3 КС ПО ГРАДИЕНТ-ЗОНДА  A1.0M0.1N 
GZ3                .ohm.m                                  : 4 КС ПО ГРАДИЕНТ-ЗОНДА  A2.0M0.5N 
GZ4                .ohm.m                                  : 5 КС ПО ГРАДИЕНТ-ЗОНДА  A4.0M0.5N 
GZ5                .ohm.m                                  : 6 КС ПО ГРАДИЕНТ-ЗОНДА  A8.0M0.5N 
GZB                .ohm.m                                  : 7 КС ПО ГРАДИЕНТ-ЗОНДА  N0.5M2.0A 
LLD                .ohm.m                                  : 11 ДАННЫЕ УЭС ЗОНДА БК-3 
PZ                 .ohm.m                                  : 9 КС ПО ПОТЕНЦИАЛ-ЗОНДУ  N6.0M0.5A 
SP                 .mV                                     : 8 ПОТЕНЦИАЛ ЕСТЕСТВ. САМОПОЛЯРИЗАЦИИ 
~Ascii
# ...
2816.28    105.2757   102.6799   104.6074   103.0386   0          0          0          104.4364   72.6943   
2816.38    105.2378   102.7167   104.6127   103.0356   0          0          0          104.0081   72.855    
2816.48    105.204    102.6957   104.5901   103.0003   0          0          0          77.2034    73.0896   
2816.58    104.9035   102.6799   104.5768   103.0018   0          0          0          14.1376    73.379    
2816.68    84.6899    102.6799   104.5883   103.0071   0          0          0          0.04       73.7168   
2816.78    22.8242    102.6799   104.6006   102.9919   0          0          0          0.04       74.0993   
2816.88    0          102.6449   104.6101   102.9857   0          0          0          0.04       74.5174   
2816.98    0          102.6215   104.5918   102.9857   0          0          0          0.04       74.9433   
2817.08    0          102.5706   104.5783   102.9725   0          0          0          0.04       75.343    
2817.18    0          102.2412   104.5764   102.9633   0          0          0          0.04       75.6914   
2817.28    0          78.8331    104.5764   102.9785   0          0          0          0.04       76.0005   
2817.38    0          20.6573    104.5764   102.9521   0          0          0          0.04       76.3161   
2817.48    0          0          104.5764   102.9378   0          0          0          0.04       76.6955   
2817.58    0          0          104.5764   102.9621   0          0          0          0.04       77.1611   
2817.68    0          0          104.5453   102.9604   0          0          0          0.04       77.6817   
2817.78    0          0          104.5631   102.9542   0          0          0          0.04       78.1888   
2817.88    0          0          104.5764   102.9974   0          0          0          0.04       78.6284   
2817.98    0          0          104.5764   102.9954   0          0          0          0.04       78.998    
2818.08    0          0          104.5764   103.023    0          0          0          0.04       79.3488   
2818.18    0          0          104.5456   103.0239   0          0          0          0.04       79.7503   
2818.28    0          0          104.5284   103.0175   0          0          0          0.04       80.2481   
2818.38    0          0          104.1676   103.0322   0          0          0          0.04       80.8355   
2818.48    0          0          76.9781    103.0386   0          0          0          0.04       81.4582   
2818.58    0          0          19.6174    103.0444   0          0          0          0.04       82.0445   
2818.68    0          0          0          103.0781   0          0          0          0.04       82.545    
2818.78    0          0          0          103.0733   0          0          0          0.04       82.951    
2818.88    0          0          0          103.0718   0          0          0          0.04       83.2884   
2818.98    0          0          0          103.0864   0          0          0          0.04       83.5935   
2819.08    0          0          0          103.0915   0          0          0          0.04       83.8987   
2819.18    0          0          0          103.0915   0          0          0          0.04       84.2235   
2819.28    0          0          0          103.074    0          0          0          0.04       84.5663   
2819.38    0          0          0          103.0469   0          0          0          0.04       84.8922   
2819.48    0          0          0          103.0386   0          0          0          0.04       85.1409   
2819.58    0          0          0          103.0756   0          0          0          0.04       85.2569   
2819.68    0          0          0          103.0544   0          0          0          0.04       85.2252   
2819.78    0          0          0          103.0386   0          0          0          0.04       85.0772   
2819.88    0          0          0          103.0386   0          0          0          0.04       84.8633   
2819.98    0          0          0          103.0386   0          0          0          0.04       84.6109   
2820.08    0          0          0          103.0386   0          0          0          0.04       84.3039   
2820.18    0          0          0          103.0015   0.0802     0          0          0.04       83.8917   
2820.28    0          0          0          102.9512   12.5397    0          0          0.04       83.3202   
2820.38    0          0          0          102.4118   69.6405    0          0          0.04       82.5658   
2820.48    0          0          0          63.2806    103.8266   0          0          0.04       81.659    
2820.58    0          0          0          13.982     103.8266   0          0          0.04       80.7031   
2820.68    0          0          0          0          103.8238   0          0          0.04       79.8759   
2820.78    0          0          0          0          103.8092   0          0          0.04       79.4046   
2820.88    0          0          0          0          103.7961   0          0          0.04       79.4802   
2820.98    0          0          0          0          103.7985   0          0          0.04       80.1249   
2821.08    0          0          0          0          103.8071   0          0          0.04       81.0542   
2821.18    0          0          0          0          103.7842   0          0          0.04       81.6417   
2821.28    0          0          0          0          103.8093   0.0364     0          0.04       81.08     
2821.38    0          0          0          0          103.7792   0.9233     0          0.04       78.7467   
2821.48    0          0          0          0          103.7996   4.7057     0          0.04       74.5961   
2821.58    0          0          0          0          103.7846   9.3612     0          0.04       69.2875   
2821.68    0          0          0          0          103.7744   13.4997    0          0.04       63.8949   
2821.78    0          0          0          0          103.7855   17.0177    0          0.04       59.3598   
2821.88    0          0          0          0          103.8099   19.642     0          0.1355     56.0854   
2821.98    0          0          0          0          103.7957   19.6862    0          0.752      53.9243   
2822.08    0          0          0          0          103.7986   18.4017    0          1.4917     52.481    
2822.18    0.1894     0          0          0          103.8176   17.0494    0          2.0858     51.4184   
2822.28    0.4755     0          0          0          103.8266   15.8357    0          2.5668     50.5691   
2822.38    0.7154     0          0          0          103.8266   14.7786    632.8072   2.9485     49.8696   
2822.48    0.9174     0          0          0          103.8266   13.8763    644.9822   3.2221     49.2717   
2822.58    1.0666     0          0          0          103.8266   13.1501    707.9539   3.4729     48.718    
2822.68    1.1802     0.0663     0          0          103.837    12.5467    676.7297   3.6611     48.1708   
2822.78    1.2775     0.7224     0          0          103.8699   12.0507    637.2975   3.7959     47.6313   
2822.88    1.3666     1.5896     0          0          103.844    11.6805    816.4144   3.9231     47.1263   
2822.98    1.4035     2.3487     0          0          103.8747   11.4016    769.7632   4.0386     46.6761   
2823.08    1.4492     2.9417     0          0          103.8556   11.1945    716.329    4.1121     46.2809   
2823.18    1.5013     3.3969     0          0          103.8663   11.0346    716.329    4.1758     45.9301   
2823.28    1.534      3.7254     0          0          103.8799   10.9266    716.329    4.2394     45.6238   
2823.38    1.5617     3.9851     0          0          103.8799   10.8635    747.6088   4.301      45.3762   
2823.48    1.5702     4.1781     0          0          103.8799   10.814     789.243    4.3221     45.1985   
