~Version
 VERS              .         2.0                           : CWLS LOG ASCII STANDARD - VERSION 2.0
 WRAP              .         NO                            : ONE LINE PER DEPTH STEP
 DLM               .         SPACE                         : DELIMITING CHARACTER(SPACE TAB OR COMMA)
~Well Information
#_______________________________________________________________________________
#
#PARAMETER_NAME    .UNIT     VALUE                         : DESCRIPTION
#_______________________________________________________________________________
STRT               .m        2779.78                       : First reference value
STOP               .m        3001.08                       : Last reference value
STEP               .m        0.1                           : Step increment
NULL               .         -9999                         : Missing value
COMP               .                                       : Company
WELL               .         201                           : Well name
FLD                .                                       : Field
LOC                .                                       : Location
CNTY               .                                       : County
STAT               .                                       : State
CTRY               .                                       : Country
SRVC               .                                       : Service Company
DATE               .                                       : Date
API                .                                       : API number
EREF               .m        139.76                        : 
Pad                .         2                             : 
X                  .m        228492                        : 
Y                  .m        241733                        : 
group              .         Pad2                          : 
Интер-р            .         Ярышев                        : 
Куст               .         2                             : 
Статус             .         Не проверено                  : 
Тип                .         Эксплуатация                  : 
~Parameter Information Block
#_______________________________________________________________________________
#
#PARAMETER_NAME    .UNIT     VALUE                         : DESCRIPTION
#_______________________________________________________________________________
SET                .         LAS4                          : 
REAL_CREATION_DATE .         Ср апр 11 2012-13_17_07       : 
TLFamily_DEPTH     .         Measured Depth                : 
TLFamily_GZ1       .         Extra Shallow Resistivity     : 
TLFamily_GZ2       .         Shallow Resistivity           : 
TLFamily_GZ3       .         Medium Resistivity            : 
TLFamily_GZ4       .         Deep Resistivity              : 
TLFamily_GZ5       .         Extra Deep Resistivity        : 
TLFamily_GZB       .         Medium Resistivity Inverted   : 
TLFamily_LLD       .         Lateral Log Resistivity       : 
TLFamily_PZ        .         Potential Resistivity         : 
TLFamily_SP        .         Spontaneous Potential         : 
group              .         INI                           : 
~Curve Information
#_______________________________________________________________________________
#
#LOGNAME           .UNIT     LOG_ID                        : DESCRIPTION
#_______________________________________________________________________________
DEPTH              .m                                      : 1 Depth 
GZ1                .ohm.m                                  : 2 КС ПО ГРАДИЕНТ-ЗОНДА  A0.4M0.1N 
GZ2                .ohm.m                                  : 3 КС ПО ГРАДИЕНТ-ЗОНДА  A1.0M0.1N 
GZ3                .ohm.m                                  : 4 КС ПО ГРАДИЕНТ-ЗОНДА  A2.0M0.5N 
GZ4                .ohm.m                                  : 5 КС ПО ГРАДИЕНТ-ЗОНДА  A4.0M0.5N 
GZ5                .ohm.m                                  : 6 КС ПО ГРАДИЕНТ-ЗОНДА  A8.0M0.5N 
GZB                .ohm.m                                  : 7 КС ПО ГРАДИЕНТ-ЗОНДА  N0.5M2.0A 
LLD                .ohm.m                                  : 11 ДАННЫЕ УЭС ЗОНДА БК-3 
PZ                 .ohm.m                                  : 9 КС ПО ПОТЕНЦИАЛ-ЗОНДУ  N6.0M0.5A 
SP                 .mV                                     : 8 ПОТЕНЦИАЛ ЕСТЕСТВ. САМОПОЛЯРИЗАЦИИ 
~Ascii
# ...
2801.68    -9999      -9999      -9999      -9999      -9999      0          74.9879    -9999      -9999     
2801.78    -9999      -9999      -9999      -9999      -9999      0          75.0079    -9999      -9999     
2801.88    -9999      -9999      -9999      -9999      -9999      0          75.0079    -9999      -9999     
2801.98    -9999      -9999      -9999      -9999      -9999      0          75.0079    -9999      -9999     
2802.08    -9999      -9999      -9999      -9999      -9999      0          74.9683    -9999      -9999     
2802.18    -9999      -9999      -9999      -9999      -9999      0          74.9683    -9999      -9999     
2802.28    -9999      -9999      -9999      -9999      -9999      0          74.9703    -9999      -9999     
2802.38    -9999      -9999      -9999      -9999      -9999      0          74.97      -9999      -9999     
2802.48    -9999      -9999      -9999      -9999      -9999      0          75.0009    -9999      -9999     
2802.58    -9999      -9999      -9999      -9999      -9999      0          74.9779    -9999      -9999     
2802.68    -9999      -9999      -9999      -9999      -9999      0          74.9725    -9999      -9999     
2802.78    -9999      -9999      -9999      -9999      -9999      0          74.9675    -9999      -9999     
2802.88    -9999      -9999      -9999      -9999      -9999      0          74.9393    -9999      -9999     
2802.98    -9999      -9999      -9999      -9999      -9999      0          74.9709    -9999      -9999     
2803.08    -9999      -9999      -9999      -9999      -9999      0          74.9706    -9999      -9999     
2803.18    -9999      -9999      -9999      -9999      -9999      0          74.9725    -9999      -9999     
2803.28    -9999      -9999      -9999      -9999      -9999      0          74.9725    -9999      -9999     
2803.38    -9999      -9999      -9999      -9999      -9999      0          74.9725    -9999      -9999     
2803.48    -9999      -9999      -9999      -9999      -9999      0          74.9725    -9999      -9999     
2803.58    -9999      -9999      -9999      -9999      -9999      0          74.9725    -9999      -9999     
2803.68    -9999      -9999      -9999      -9999      -9999      0          74.9725    0.04       -9999     
2803.78    -9999      -9999      -9999      -9999      -9999      0          74.9725    0.04       -9999     
2803.88    0          -9999      -9999      -9999      -9999      0          74.9725    0.04       -9999     
2803.98    0          -9999      -9999      -9999      -9999      0          75.0043    0.04       -9999     
2804.08    0          -9999      -9999      -9999      -9999      0          75.0121    0.04       -9999     
2804.18    0          -9999      -9999      -9999      -9999      0          75.0121    0.04       -9999     
2804.28    0          -9999      -9999      -9999      -9999      0          75.0121    0.04       -9999     
2804.38    0          -9999      -9999      -9999      -9999      0          74.9962    0.04       -9999     
2804.48    0          0          -9999      -9999      -9999      0          74.9703    0.04       -9999     
2804.58    0          0          -9999      -9999      -9999      0          74.9683    0.04       -9999     
2804.68    0          0          -9999      -9999      -9999      0          75.0025    0.04       -9999     
2804.78    0          0          -9999      -9999      -9999      0          74.9721    0.04       -9999     
2804.88    0          0          -9999      -9999      -9999      0          75.0103    0.04       -9999     
2804.98    0          0          -9999      -9999      -9999      0          74.9683    0.04       -9999     
2805.08    0          0          -9999      -9999      -9999      0          74.9683    0.04       -9999     
2805.18    0          0          -9999      -9999      -9999      0          74.9683    0.04       -9999     
2805.28    0          0          -9999      -9999      -9999      0          74.9683    0.04       -9999     
2805.38    0          0          -9999      -9999      -9999      0          74.9342    0.04       -9999     
2805.48    0          0          -9999      -9999      -9999      0          74.9633    0.04       -9999     
2805.58    0          0          -9999      -9999      -9999      0          74.9312    0.04       -9999     
2805.68    0          0          0          -9999      -9999      0          74.9794    0.04       -9999     
2805.78    0          0          0          -9999      -9999      0          74.9914    0.04       -9999     
2805.88    0          0          0          -9999      -9999      0          74.9659    0.04       -9999     
2805.98    0          0          0          -9999      -9999      0          74.9641    0.04       -9999     
2806.08    0          0          0          -9999      -9999      0          74.9641    0.04       -9999     
2806.18    0          0          0          -9999      -9999      0          74.9622    0.04       -9999     
2806.28    0          0          0          -9999      -9999      0          74.9246    0.04       -9999     
2806.38    0          0          0          -9999      -9999      0          74.9094    0.04       -9999     
2806.48    0          0          0          -9999      -9999      0          74.8404    0.04       -9999     
2806.58    0          0          0          -9999      -9999      0          73.7958    0.04       -9999     
2806.68    0          0          0          -9999      -9999      0          22.6853    0.04       -9999     
2806.78    0          0          0          -9999      -9999      0          0          0.04       -9999     
2806.88    0          0          0          -9999      -9999      0          0          0.04       -9999     
2806.98    0          0          0          -9999      -9999      0          0          0.04       -9999     
2807.08    0          0          0          -9999      -9999      0          0          0.04       -9999     
2807.18    0          0          0          -9999      -9999      0          0          0.04       -9999     
2807.28    0          0          0          -9999      -9999      0          0          0.04       -9999     
2807.38    0          0          0          -9999      -9999      0          0          0.04       -9999     
2807.48    0          0          0          -9999      -9999      0          0          0.04       -9999     
2807.58    0          0          0          -9999      -9999      0          0          0.04       -9999     
2807.68    0          0          0          0          -9999      0          0          0.04       -9999     
2807.78    0          0          0          0          -9999      0          0          0.04       -9999     
2807.88    0          0          0          0          -9999      0          0          0.04       -9999     
2807.98    0          0          0          0          -9999      0          0          0.04       -9999     
2808.08    0          0          0          0          -9999      0          0          0.04       -9999     
2808.18    0          0          0          0          -9999      0          0          0.04       -9999     
2808.28    0          0          0          0          -9999      0          0          0.04       -9999     
2808.38    0          0          0          0          -9999      0          0          0.04       -9999     
2808.48    0          0          0          0          -9999      0          0          0.04       -9999     
2808.58    0          0          0          0          -9999      0          0          0.04       -9999     
2808.68    0          0          0          0          -9999      0          0          0.04       -9999     
2808.78    0          0          0          0          -9999      0          0          0.04       -9999     
2808.88    0          0          0          0          -9999      0          0          0.04       -9999     
