~Version
 VERS              .         2.0                           : CWLS LOG ASCII STANDARD - VERSION 2.0
 WRAP              .         NO                            : ONE LINE PER DEPTH STEP
 DLM               .         SPACE                         : DELIMITING CHARACTER(SPACE TAB OR COMMA)
~Well Information
#_______________________________________________________________________________
#
#PARAMETER_NAME    .UNIT     VALUE                         : DESCRIPTION
#_______________________________________________________________________________
STRT               .m        2779.78                       : First reference value
STOP               .m        3001.08                       : Last reference value
STEP               .m        0.1                           : Step increment
NULL               .         -9999                         : Missing value
COMP               .                                       : Company
WELL               .         201                           : Well name
FLD                .                                       : Field
LOC                .                                       : Location
CNTY               .                                       : County
STAT               .                                       : State
CTRY               .                                       : Country
SRVC               .                                       : Service Company
DATE               .                                       : Date
API                .                                       : API number
EREF               .m        139.76                        : 
Pad                .         2                             : 
X                  .m        228492                        : 
Y                  .m        241733                        : 
group              .         Pad2                          : 
Интер-р            .         Ярышев                        : 
Куст               .         2                             : 
Статус             .         Не проверено                  : 
Тип                .         Эксплуатация                  : 
~Parameter Information Block
#_______________________________________________________________________________
#
#PARAMETER_NAME    .UNIT     VALUE                         : DESCRIPTION
#_______________________________________________________________________________
SET                .         LAS4                          : 
REAL_CREATION_DATE .         Ср апр 11 2012-13_17_07       : 
TLFamily_DEPTH     .         Measured Depth                : 
TLFamily_GZ1       .         Extra Shallow Resistivity     : 
TLFamily_GZ2       .         Shallow Resistivity           : 
TLFamily_GZ3       .         Medium Resistivity            : 
TLFamily_GZ4       .         Deep Resistivity              : 
TLFamily_GZ5       .         Extra Deep Resistivity        : 
TLFamily_GZB       .         Medium Resistivity Inverted   : 
TLFamily_LLD       .         Lateral Log Resistivity       : 
TLFamily_PZ        .         Potential Resistivity         : 
TLFamily_SP        .         Spontaneous Potential         : 
group              .         INI                           : 
~Curve Information
#_______________________________________________________________________________
#
#LOGNAME           .UNIT     LOG_ID                        : DESCRIPTION
#_______________________________________________________________________________
DEPTH              .m                                      : 1 Depth 
GZ1                .ohm.m                                  : 2 КС ПО ГРАДИЕНТ-ЗОНДА  A0.4M0.1N 
GZ2                .ohm.m                                  : 3 КС ПО ГРАДИЕНТ-ЗОНДА  A1.0M0.1N 
GZ3                .ohm.m                                  : 4 КС ПО ГРАДИЕНТ-ЗОНДА  A2.0M0.5N 
GZ4                .ohm.m                                  : 5 КС ПО ГРАДИЕНТ-ЗОНДА  A4.0M0.5N 
GZ5                .ohm.m                                  : 6 КС ПО ГРАДИЕНТ-ЗОНДА  A8.0M0.5N 
GZB                .ohm.m                                  : 7 КС ПО ГРАДИЕНТ-ЗОНДА  N0.5M2.0A 
LLD                .ohm.m                                  : 11 ДАННЫЕ УЭС ЗОНДА БК-3 
PZ                 .ohm.m                                  : 9 КС ПО ПОТЕНЦИАЛ-ЗОНДУ  N6.0M0.5A 
SP                 .mV                                     : 8 ПОТЕНЦИАЛ ЕСТЕСТВ. САМОПОЛЯРИЗАЦИИ 
~Ascii
# ...
2823.58    1.5702     4.3155     0          0          103.8799   10.796     880.9323   4.3741     45.0768   
2823.68    1.5702     4.4405     0          0          103.8799   10.8174    985.3505   4.4134     44.9712   
2823.78    1.5702     4.5558     0          0          103.8799   10.917     981.2369   4.4506     44.8435   
2823.88    1.5702     4.6329     0.1693     0          103.8799   11.0447    1820.808   4.4705     44.6875   
2823.98    1.5702     4.6712     1.014      0          103.8799   11.2038    0          4.5207     44.5368   
2824.08    1.5702     4.6795     2.0887     0          103.8799   11.386     0          4.5707     44.4346   
2824.18    1.5702     4.7178     3.0242     0          103.8799   11.5387    0          4.6026     44.399    
2824.28    1.5702     4.7772     3.8006     0          103.8799   11.7124    0          4.6596     44.4027   
2824.38    1.5702     4.8248     4.4081     0          103.8674   11.8805    0          4.7233     44.3907   
2824.48    1.5702     4.8573     4.8831     0          103.8034   12.0182    0          4.7438     44.308    
2824.58    1.6049     4.9091     5.3024     0          103.6173   12.1458    0          4.796      44.1279   
2824.68    1.6229     4.9381     5.6338     0          91.9212    12.2744    0          4.859      43.8654   
2824.78    1.6346     5.02       5.899      0          37.7907    12.4016    0          4.895      43.5751   
2824.88    1.6666     5.0748     6.1094     0          0          12.5275    0          4.9358     43.3287   
2824.98    1.6543     5.0395     6.2566     0          0          12.7048    0          4.9999     43.1785   
2825.08    1.6302     5.0027     6.3666     0          0          12.9393    0.8132     5.0648     43.1281   
2825.18    1.62       4.9951     6.4171     0          0          13.1129    2.8162     5.1285     43.1316   
2825.28    1.5846     4.9951     6.4897     0          0          13.2863    3.1743     5.2214     43.1272   
2825.38    1.5702     4.9851     6.567      0          0          13.4615    3.3744     5.3049     43.0794   
2825.48    1.5702     4.9707     6.632      0          0          13.6026    3.526      5.4136     42.9994   
2825.58    1.5702     5.0099     6.7084     0          0          13.7025    3.6861     5.4944     42.9217   
2825.68    1.5715     5.0721     6.8207     0          0          13.7741    4.063      5.6078     42.8662   
2825.78    1.6086     5.1017     6.9193     0          0          13.8313    4.4038     5.7104     42.8157   
2825.88    1.6243     5.1503     7.0241     0.0184     0          13.8619    4.5753     5.8099     42.7379   
2825.98    1.6243     5.2131     7.1514     0.6279     0          13.9124    4.7031     5.9334     42.6207   
2826.08    1.6507     5.2757     7.327      1.5313     0          14.0037    4.7457     6.0567     42.4907   
2826.18    1.6734     5.3694     7.5407     2.3731     0          14.0882    4.864      6.1327     42.3937   
2826.28    1.6857     5.5298     7.7608     3.1142     0          14.0306    5.1741     6.2184     42.363    
2826.38    1.7687     5.8121     7.9945     3.7633     0          13.9184    5.7186     6.3381     42.3956   
2826.48    1.8102     5.9433     8.2059     4.3141     0          13.8034    6.5412     6.427      42.4499   
2826.58    1.7946     5.9291     8.4319     4.7743     0          13.6332    6.3572     6.5358     42.4692   
2826.68    1.8194     6.0371     8.6356     5.1805     0          13.4407    5.7358     6.5999     42.4165   
2826.78    1.8417     6.2001     8.8253     5.5263     0          13.2483    6.0247     6.6272     42.3045   
2826.88    1.9261     6.516      9.0459     5.8419     0          13.0686    6.7671     6.682      42.1838   
2826.98    1.9902     6.6642     9.2353     6.1223     0          12.9446    7.3514     6.746      42.0994   
2827.08    1.9807     6.6599     9.4539     6.3884     0          12.8482    6.6161     6.7681     42.0479   
2827.18    1.9555     6.6592     9.6971     6.6501     0          12.7331    5.6855     6.7704     41.9851   
2827.28    1.9854     6.8338     9.9932     6.9166     0          12.5745    5.8112     6.7551     41.8696   
2827.38    2.0535     7.2017     10.3083    7.1358     0          12.3091    6.785      6.7012     41.7027   
2827.48    2.1518     7.6261     10.6208    7.3525     0          12.0047    8.5874     6.6685     41.521    
2827.58    2.1886     7.7525     10.8734    7.4926     0          11.7328    9.7319     6.6635     41.3625   
2827.68    2.1463     7.6203     11.0021    7.5469     0          11.5012    6.9562     6.6625     41.2429   
2827.78    2.1159     7.4755     11.0281    7.5569     0          11.3663    5.3038     6.6042     41.1665   
2827.88    2.0731     7.4217     11.0542    7.5569     0          11.2972    4.9644     6.5046     41.1427   
2827.98    2.0569     7.3781     11.1107    7.5607     0          11.3244    4.9341     6.4566     41.1815   
2828.08    2.0569     7.3492     11.1747    7.5955     0          11.3877    4.9986     6.4163     41.272    
2828.18    2.0351     7.3199     11.2391    7.629      0          11.453     5.0465     6.3563     41.374    
2828.28    2.0097     7.2585     11.3034    7.6819     0          11.5181    4.9244     6.3347     41.4401   
2828.38    2.0028     7.1824     11.3412    7.7451     0          11.582     4.8552     6.2982     41.4478   
2828.48    1.9649     7.1164     11.3818    7.7707     0          11.6457    4.8567     6.2896     41.4138   
2828.58    1.9487     7.041      11.4006    7.807      0          11.7269    4.9328     6.2896     41.3753   
2828.68    1.9272     6.8997     11.4027    7.8381     0          11.8435    4.9364     6.2896     41.3613   
2828.78    1.9016     6.7823     11.4027    7.8891     0          11.9712    4.8241     6.2896     41.3719   
2828.88    1.8946     6.7089     11.4027    7.9819     0          12.1372    4.8714     6.2896     41.3845   
2828.98    1.8946     6.6453     11.4321    8.0684     0          12.3224    4.9759     6.2896     41.3789   
2829.08    1.8946     6.6556     11.4528    8.1475     0          12.5078    5.0886     6.2896     41.3606   
2829.18    1.8946     6.6385     11.4562    8.2596     0          12.6946    5.2915     6.2896     41.3588   
2829.28    1.9209     6.6259     11.4562    8.3855     0          12.9064    5.3231     6.2896     41.4011   
2829.38    1.91       6.5983     11.4562    8.5101     0          13.1819    5.3096     6.2896     41.4874   
2829.48    1.9343     6.6112     11.4562    8.5971     0          13.4566    5.2373     6.2896     41.5866   
2829.58    1.9487     6.6573     11.4562    8.7041     0          13.7161    5.1998     6.2644     41.6552   
2829.68    1.9487     6.6399     11.4553    8.8396     0          13.9738    5.3173     6.2406     41.6651   
2829.78    1.9487     6.6259     11.4041    8.9734     0          14.1822    5.3122     6.2362     41.6173   
2829.88    1.9487     6.6259     11.2937    9.0562     0          14.3595    5.2112     6.2362     41.541    
2829.98    1.9487     6.5931     11.1657    9.1533     0          14.5065    5.1797     6.2362     41.4733   
2830.08    1.9455     6.5717     11.0364    9.2308     0          14.6276    5.0721     6.2362     41.4333   
2830.18    1.9095     6.5255     10.8699    9.2609     0.02       14.7061    4.9449     6.2362     41.4074   
2830.28    1.8946     6.448      10.6873    9.3101     0.1964     14.7905    4.8617     6.2362     41.3606   
2830.38    1.8689     6.3373     10.529     9.3475     0.6622     14.9074    4.768      6.2789     41.271    
2830.48    1.8458     6.2429     10.3729    9.3876     1.0645     15.036     4.647      6.3002     41.1508   
2830.58    1.8027     6.1754     10.2367    9.4449     1.4367     15.2084    4.6592     6.3533     41.0405   
2830.68    1.7865     6.0802     10.1108    9.5072     1.7542     15.4005    4.8191     6.4188     40.9722   
2830.78    1.7703     6.037      10.0214    9.5547     2.0676     15.5924    4.9619     6.4835     40.9458   
