~Version
 VERS              .         2.0                           : CWLS LOG ASCII STANDARD - VERSION 2.0
 WRAP              .         NO                            : ONE LINE PER DEPTH STEP
 DLM               .         SPACE                         : DELIMITING CHARACTER(SPACE TAB OR COMMA)
~Well Information
#_______________________________________________________________________________
#
#PARAMETER_NAME    .UNIT     VALUE                         : DESCRIPTION
#_______________________________________________________________________________
STRT               .m        2779.78                       : First reference value
STOP               .m        3001.08                       : Last reference value
STEP               .m        0.1                           : Step increment
NULL               .         -9999                         : Missing value
COMP               .                                       : Company
WELL               .         201                           : Well name
FLD                .                                       : Field
LOC                .                                       : Location
CNTY               .                                       : County
STAT               .                                       : State
CTRY               .                                       : Country
SRVC               .                                       : Service Company
DATE               .                                       : Date
API                .                                       : API number
EREF               .m        139.76                        : 
Pad                .         2                             : 
X                  .m        228492                        : 
Y                  .m        241733                        : 
group              .         Pad2                          : 
Интер-р            .         Ярышев                        : 
Куст               .         2                             : 
Статус             .         Не проверено                  : 
Тип                .         Эксплуатация                  : 
~Parameter Information Block
#_______________________________________________________________________________
#
#PARAMETER_NAME    .UNIT     VALUE                         : DESCRIPTION
#_______________________________________________________________________________
SET                .         LAS4                          : 
REAL_CREATION_DATE .         Ср апр 11 2012-13_17_07       : 
TLFamily_DEPTH     .         Measured Depth                : 
TLFamily_GZ1       .         Extra Shallow Resistivity     : 
TLFamily_GZ2       .         Shallow Resistivity           : 
TLFamily_GZ3       .         Medium Resistivity            : 
TLFamily_GZ4       .         Deep Resistivity              : 
TLFamily_GZ5       .         Extra Deep Resistivity        : 
TLFamily_GZB       .         Medium Resistivity Inverted   : 
TLFamily_LLD       .         Lateral Log Resistivity       : 
TLFamily_PZ        .         Potential Resistivity         : 
TLFamily_SP        .         Spontaneous Potential         : 
group              .         INI                           : 
~Curve Information
#_______________________________________________________________________________
#
#LOGNAME           .UNIT     LOG_ID                        : DESCRIPTION
#_______________________________________________________________________________
DEPTH              .m                                      : 1 Depth 
GZ1                .ohm.m                                  : 2 КС ПО ГРАДИЕНТ-ЗОНДА  A0.4M0.1N 
GZ2                .ohm.m                                  : 3 КС ПО ГРАДИЕНТ-ЗОНДА  A1.0M0.1N 
GZ3                .ohm.m                                  : 4 КС ПО ГРАДИЕНТ-ЗОНДА  A2.0M0.5N 
GZ4                .ohm.m                                  : 5 КС ПО ГРАДИЕНТ-ЗОНДА  A4.0M0.5N 
GZ5                .ohm.m                                  : 6 КС ПО ГРАДИЕНТ-ЗОНДА  A8.0M0.5N 
GZB                .ohm.m                                  : 7 КС ПО ГРАДИЕНТ-ЗОНДА  N0.5M2.0A 
LLD                .ohm.m                                  : 11 ДАННЫЕ УЭС ЗОНДА БК-3 
PZ                 .ohm.m                                  : 9 КС ПО ПОТЕНЦИАЛ-ЗОНДУ  N6.0M0.5A 
SP                 .mV                                     : 8 ПОТЕНЦИАЛ ЕСТЕСТВ. САМОПОЛЯРИЗАЦИИ 
~Ascii
# ...
2984.18    1.8946     9.4665     11.7773    9.2417     4.3611     -9999      3.8235     7.0909     42.6267   
2984.28    1.8946     9.4665     11.7773    8.7549     4.2098     -9999      4.08       7.0909     42.4951   
2984.38    1.8946     9.4665     11.7773    8.3825     4.1182     -9999      4.4106     7.0909     42.3701   
2984.48    1.8946     9.4665     11.7773    8.0982     4.0081     -9999      4.2225     7.0909     42.2535   
2984.58    1.8946     9.4665     11.7773    7.9398     3.9399     -9999      3.8384     7.0909     42.1574   
2984.68    1.8946     9.4665     11.7773    7.861      3.8829     -9999      3.8305     7.0909     42.0993   
2984.78    1.8946     9.4665     11.7773    7.8275     3.8756     -9999      3.6939     7.0909     42.0919   
2984.88    1.8946     9.4665     11.7773    7.8583     3.8756     -9999      3.1571     7.0909     42.1295   
2984.98    1.8946     9.4665     11.7773    7.8667     3.8854     -9999      2.9902     7.0909     42.1895   
2985.08    1.8946     9.4665     11.7773    7.8184     3.9385     -9999      3.2827     7.0909     42.248    
2985.18    1.8946     9.4665     11.7773    7.7533     4.0086     -9999      3.642      7.0909     42.2958   
2985.28    1.8946     9.4665     11.7773    7.6839     4.0896     -9999      4.2004     7.0909     42.3464   
2985.38    1.8946     9.4665     11.7773    7.6256     4.2074     -9999      4.8362     7.0909     42.4313   
2985.48    1.8946     9.4665     11.7773    7.5865     4.3327     -9999      5.3122     7.0909     42.5887   
2985.58    1.8946     9.4665     11.7722    7.579      4.5353     -9999      5.6757     7.0909     42.8434   
2985.68    1.8946     9.4665     11.7751    7.5738     4.7627     -9999      6.6584     7.0909     43.191    
2985.78    1.8946     9.4665     11.7773    7.5611     5.0106     -9999      6.9506     7.0909     43.5954   
2985.88    1.8946     9.4665     11.7592    7.5523     5.284      -9999      7.0057     7.0909     44.0084   
2985.98    1.8718     9.4665     11.7695    7.5179     5.5851     -9999      7.1254     7.0909     44.3941   
2986.08    1.8701     9.4665     11.7399    7.504      5.9036     -9999      7.2861     7.0909     44.7343   
2986.18    1.883      9.4665     11.7287    7.504      6.2296     -9999      7.8698     7.0909     45.0187   
2986.28    1.8603     9.4665     11.7634    7.504      6.5445     -9999      9.7058     -9999      45.2341   
2986.38    1.8697     9.4665     11.7557    7.504      6.8854     -9999      11.9184    -9999      45.3715   
2986.48    -9999      9.4665     11.758     7.504      7.1901     -9999      11.2912    -9999      45.4326   
2986.58    -9999      9.4665     11.773     7.504      7.4905     -9999      10.0964    -9999      45.4273   
2986.68    -9999      9.4665     11.7746    7.504      7.7526     -9999      8.9724     -9999      45.3652   
2986.78    -9999      9.4665     11.7668    7.504      8.0305     -9999      7.0218     -9999      45.2548   
2986.88    -9999      9.4665     11.7529    7.504      8.2855     -9999      5.3359     -9999      45.1119   
2986.98    -9999      9.4665     11.7311    7.504      8.4344     -9999      4.2543     -9999      44.9604   
2987.08    -9999      -9999      11.7613    7.504      8.5108     -9999      3.4066     -9999      44.8264   
2987.18    -9999      -9999      11.7773    7.504      8.4925     -9999      2.8594     -9999      44.7264   
2987.28    -9999      -9999      11.7773    7.504      8.3851     -9999      2.6164     -9999      44.6657   
2987.38    -9999      -9999      11.7399    7.504      8.1802     -9999      2.6404     -9999      44.6387   
2987.48    -9999      -9999      11.7613    7.504      7.8354     -9999      2.9375     -9999      44.6322   
2987.58    -9999      -9999      11.7773    7.5359     7.4901     -9999      3.1235     -9999      44.6274   
2987.68    -9999      -9999      11.7399    7.5177     7.1681     -9999      3.3559     -9999      44.6088   
2987.78    -9999      -9999      11.7386    7.504      6.8427     -9999      4.8977     -9999      44.5734   
2987.88    -9999      -9999      11.7302    7.5219     6.5073     -9999      5.3196     -9999      44.5327   
2987.98    -9999      -9999      11.7238    7.5222     6.2428     -9999      5.3638     -9999      44.5031   
2988.08    -9999      -9999      11.7238    7.5113     6.0729     -9999      5.4875     -9999      44.4925   
2988.18    -9999      -9999      11.7238    7.5052     5.9205     -9999      5.6174     -9999      44.4965   
2988.28    -9999      -9999      -9999      7.504      5.8362     -9999      5.754      -9999      44.5067   
2988.38    -9999      -9999      -9999      7.541      5.8025     -9999      5.9807     -9999      44.5224   
2988.48    -9999      -9999      -9999      7.5298     5.8503     -9999      6.7754     -9999      44.5459   
2988.58    -9999      -9999      -9999      7.5117     5.9231     -9999      6.99       -9999      44.5752   
2988.68    -9999      -9999      -9999      7.5398     6.0366     -9999      6.8775     -9999      44.6008   
2988.78    -9999      -9999      -9999      7.5187     6.1502     -9999      6.8091     -9999      44.6211   
2988.88    -9999      -9999      -9999      7.541      6.2755     -9999      6.966      -9999      44.644    
2988.98    -9999      -9999      -9999      7.5198     6.4447     -9999      7.1831     -9999      44.6786   
2989.08    -9999      -9999      -9999      7.504      6.6094     -9999      7.1896     -9999      44.7156   
2989.18    -9999      -9999      -9999      7.504      6.7759     -9999      7.1454     -9999      44.7339   
2989.28    -9999      -9999      -9999      7.541      6.8998     -9999      6.8339     -9999      44.7192   
2989.38    -9999      -9999      -9999      7.5437     7.0367     -9999      6.9586     -9999      44.6856   
2989.48    -9999      -9999      -9999      7.5512     7.1217     -9999      7.5296     -9999      44.6647   
2989.58    -9999      -9999      -9999      7.5208     7.1895     -9999      7.6187     -9999      44.6845   
2989.68    -9999      -9999      -9999      7.5414     7.2321     -9999      6.9676     -9999      44.7481   
2989.78    -9999      -9999      -9999      7.5569     7.2321     -9999      6.0633     -9999      44.8407   
2989.88    -9999      -9999      -9999      7.5569     7.2321     -9999      5.0575     -9999      44.9392   
2989.98    -9999      -9999      -9999      7.5569     7.2321     -9999      4.0519     -9999      45.0237   
2990.08    -9999      -9999      -9999      7.5569     7.2321     -9999      3.6086     -9999      45.0728   
2990.18    -9999      -9999      -9999      7.5569     7.2428     -9999      3.4216     -9999      45.0723   
2990.28    -9999      -9999      -9999      -9999      7.2854     -9999      3.3438     -9999      45.0246   
2990.38    -9999      -9999      -9999      -9999      7.2854     -9999      3.4474     -9999      44.9597   
2990.48    -9999      -9999      -9999      -9999      7.2854     -9999      3.556      -9999      44.9187   
2990.58    -9999      -9999      -9999      -9999      7.2854     -9999      3.5616     -9999      44.9321   
2990.68    -9999      -9999      -9999      -9999      7.2854     -9999      3.6169     -9999      45.0008   
2990.78    -9999      -9999      -9999      -9999      7.2854     -9999      3.7138     -9999      45.1041   
2990.88    -9999      -9999      -9999      -9999      7.2854     -9999      3.8341     -9999      45.2139   
2990.98    -9999      -9999      -9999      -9999      7.2854     -9999      3.9972     -9999      45.3097   
2991.08    -9999      -9999      -9999      -9999      7.2854     -9999      4.137      -9999      45.3801   
2991.18    -9999      -9999      -9999      -9999      7.2854     -9999      3.8698     -9999      45.4237   
2991.28    -9999      -9999      -9999      -9999      7.2854     -9999      3.5127     -9999      45.4473   
2991.38    -9999      -9999      -9999      -9999      7.2854     -9999      3.5807     -9999      45.4676   
