~Version
 VERS              .         2.0                           : CWLS LOG ASCII STANDARD - VERSION 2.0
 WRAP              .         NO                            : ONE LINE PER DEPTH STEP
 DLM               .         SPACE                         : DELIMITING CHARACTER(SPACE TAB OR COMMA)
~Well Information
#_______________________________________________________________________________
#
#PARAMETER_NAME    .UNIT     VALUE                         : DESCRIPTION
#_______________________________________________________________________________
STRT               .m        2779.78                       : First reference value
STOP               .m        3001.08                       : Last reference value
STEP               .m        0.1                           : Step increment
NULL               .         -9999                         : Missing value
COMP               .                                       : Company
WELL               .         201                           : Well name
FLD                .                                       : Field
LOC                .                                       : Location
CNTY               .                                       : County
STAT               .                                       : State
CTRY               .                                       : Country
SRVC               .                                       : Service Company
DATE               .                                       : Date
API                .                                       : API number
EREF               .m        139.76                        : 
Pad                .         2                             : 
X                  .m        228492                        : 
Y                  .m        241733                        : 
group              .         Pad2                          : 
Интер-р            .         Ярышев                        : 
Куст               .         2                             : 
Статус             .         Не проверено                  : 
Тип                .         Эксплуатация                  : 
~Parameter Information Block
#_______________________________________________________________________________
#
#PARAMETER_NAME    .UNIT     VALUE                         : DESCRIPTION
#_______________________________________________________________________________
SET                .         LAS4                          : 
REAL_CREATION_DATE .         Ср апр 11 2012-13_17_07       : 
TLFamily_DEPTH     .         Measured Depth                : 
TLFamily_GZ1       .         Extra Shallow Resistivity     : 
TLFamily_GZ2       .         Shallow Resistivity           : 
TLFamily_GZ3       .         Medium Resistivity            : 
TLFamily_GZ4       .         Deep Resistivity              : 
TLFamily_GZ5       .         Extra Deep Resistivity        : 
TLFamily_GZB       .         Medium Resistivity Inverted   : 
TLFamily_LLD       .         Lateral Log Resistivity       : 
TLFamily_PZ        .         Potential Resistivity         : 
TLFamily_SP        .         Spontaneous Potential         : 
group              .         INI                           : 
~Curve Information
#_______________________________________________________________________________
#
#LOGNAME           .UNIT     LOG_ID                        : DESCRIPTION
#_______________________________________________________________________________
DEPTH              .m                                      : 1 Depth 
GZ1                .ohm.m                                  : 2 КС ПО ГРАДИЕНТ-ЗОНДА  A0.4M0.1N 
GZ2                .ohm.m                                  : 3 КС ПО ГРАДИЕНТ-ЗОНДА  A1.0M0.1N 
GZ3                .ohm.m                                  : 4 КС ПО ГРАДИЕНТ-ЗОНДА  A2.0M0.5N 
GZ4                .ohm.m                                  : 5 КС ПО ГРАДИЕНТ-ЗОНДА  A4.0M0.5N 
GZ5                .ohm.m                                  : 6 КС ПО ГРАДИЕНТ-ЗОНДА  A8.0M0.5N 
GZB                .ohm.m                                  : 7 КС ПО ГРАДИЕНТ-ЗОНДА  N0.5M2.0A 
LLD                .ohm.m                                  : 11 ДАННЫЕ УЭС ЗОНДА БК-3 
PZ                 .ohm.m                                  : 9 КС ПО ПОТЕНЦИАЛ-ЗОНДУ  N6.0M0.5A 
SP                 .mV                                     : 8 ПОТЕНЦИАЛ ЕСТЕСТВ. САМОПОЛЯРИЗАЦИИ 
~Ascii
# ...
2947.68    1.4924     4.6887     8.4631     12.5655    9.3772     26.4656    4.6665     6.8271     27.3107   
2947.78    1.4303     4.5135     8.3979     13.0427    10.0592    28.4918    4.8227     7          27.3998   
2947.88    1.3786     4.4029     8.3871     13.6943    10.826     30.7208    5.351      7.1934     27.5606   
2947.98    1.3199     4.2651     8.5057     14.5975    11.604     33.2934    7.1194     7.4064     27.7803   
2948.08    1.2539     4.1111     8.6982     15.6555    12.33      35.8004    9.178      7.6854     28.0115   
2948.18    1.2044     4.0982     8.9429     16.8457    13.0852    37.7863    10.8299    8.0439     28.2043   
2948.28    1.2162     4.2032     9.229      17.9757    13.8041    39.2873    22.2249    8.4403     28.3449   
2948.38    1.1739     4.1969     9.5175     18.8983    14.542     39.7289    55.7387    8.9244     28.4619   
2948.48    1.1081     4.1607     9.7483     19.5929    15.2355    38.7097    90.6241    9.5015     28.5957   
2948.58    1.1368     4.2268     9.9607     20.1636    15.8509    36.6554    107.2796   10.0914    28.7635   
2948.68    1.2264     4.4747     10.2079    20.5385    16.4604    34.0521    167.2901   10.6771    28.947    
2948.78    1.3178     4.7778     10.5224    20.8893    16.9141    30.9543    167.2901   11.2407    29.1165   
2948.88    1.4673     5.1366     10.9646    21.4381    17.2551    28.0952    192.7674   11.7147    29.2594   
2948.98    1.6123     5.5874     11.5544    22.1204    17.6775    25.9691    136.1685   12.0812    29.3869   
2949.08    1.7435     6.1114     12.1396    22.697     18.1864    24.4285    64.3081    12.3582    29.5151   
2949.18    1.9261     6.8387     12.7008    23.2553    18.6834    23.0843    45.676     12.6208    29.6394   
2949.28    2.07       7.4759     13.3473    23.8978    19.1659    21.901     74.1892    12.8535    29.7378   
2949.38    2.119      7.9163     14.0595    24.5205    19.6834    20.9531    79.3333    12.9786    29.7885   
2949.48    2.232      8.6186     14.7308    24.8697    20.2155    20.0933    51.7684    13.0516    29.7948   
2949.58    2.3957     9.6115     15.401     25.1561    20.7817    19.0748    42.4798    13.1144    29.7832   
2949.68    2.5401     10.3342    16.1308    25.4868    21.2858    17.9897    39.0143    13.1268    29.7925   
2949.78    2.5576     10.6757    16.8577    25.7053    21.7987    17.0809    39.224     13.0998    29.852    
2949.88    2.5981     10.9364    17.6303    25.8982    22.3635    16.1341    50.591     13.0413    29.9688   
2949.98    2.6659     11.3735    18.5402    26.2417    22.8725    15.1603    78.5592    12.8867    30.1235   
2950.08    2.7635     11.9754    19.745     26.8618    23.3464    14.2907    153.4086   12.6851    30.2857   
2950.18    2.8884     12.6926    21.3135    27.6647    23.9081    13.5388    217.3069   12.4133    30.4332   
2950.28    3.0291     13.4508    23.1251    28.533     24.5962    12.8674    210.5711   12.0626    30.5591   
2950.38    3.1933     14.2955    25.2212    29.4366    25.4276    12.2176    153.0254   11.6747    30.6593   
2950.48    3.3109     15.0026    27.592     30.4311    26.0817    11.6261    95.9835    11.2229    30.7213   
2950.58    3.3856     15.5311    30.1148    31.4581    26.3872    11.1258    49.628     10.7118    30.7372   
2950.68    3.5031     16.1884    32.816     32.5004    26.3763    10.7113    22.571     10.1377    30.7228   
2950.78    3.6687     16.9851    35.4619    33.0838    26.0685    10.42      8.5407     9.4683     30.7247   
2950.88    3.8374     17.8629    37.0155    32.8593    25.5426    10.393     4.0077     8.8126     30.7927   
2950.98    4.0243     18.3365    37.2387    31.7067    24.807     10.6825    2.808      8.3212     30.9579   
2951.08    3.7163     16.8752    36.3117    29.8197    23.925     11.3898    2.6228     7.9066     31.2218   
2951.18    3.2017     14.6502    34.1522    27.1731    22.9558    12.5752    2.794      7.5365     31.5721   
2951.28    2.7444     12.7118    30.9477    24.2841    21.8194    14.1328    3.2286     7.2256     31.9852   
2951.38    2.3878     11.281     28.0409    22.0092    20.3984    15.7964    4.5831     7.0089     32.428    
2951.48    2.1385     10.2507    26.0264    20.693     19.0324    17.1765    6.2774     6.8792     32.8557   
2951.58    1.9861     9.5592     24.7809    20.0072    18.114     18.1901    9.5635     6.8303     33.2299   
2951.68    1.9633     9.2203     24.0503    19.7597    17.4392    18.725     9.5913     6.8238     33.5364   
2951.78    1.9928     9.0984     23.712     19.834     16.881     18.8369    8.6816     6.8238     33.7886   
2951.88    2.0351     8.8744     23.6797    20.2347    16.3918    18.603     6.5724     6.8123     34.0051   
2951.98    2.0974     8.6736     23.6159    20.6047    15.8669    18.436     4.5037     6.7577     34.1784   
2952.08    2.2091     8.621      23.2002    20.8153    15.3071    18.5207    4.0128     6.6928     34.2669   
2952.18    2.3216     8.6471     22.4861    20.8854    14.5984    18.7517    3.8515     6.6274     34.2217   
2952.28    2.2939     8.2412     21.4526    20.6675    13.8041    19.0386    3.5899     6.5617     34.0364   
2952.38    2.2339     7.7656     20.0253    20.0754    12.9301    19.4568    3.4443     6.5123     33.7776   
2952.48    2.0939     7.2408     18.2073    19.1755    11.9281    19.994     3.3166     6.5033     33.5657   
2952.58    1.9317     6.8158     16.3911    18.1704    10.7427    20.5791    3.6004     6.5771     33.5141   
2952.68    1.768      6.3869     14.7196    17.1861    9.544      21.3083    3.9909     6.6994     33.6684   
2952.78    1.6248     5.9287     13.2194    16.2708    8.4832     22.1043    3.8881     6.8293     33.9872   
2952.88    1.5338     5.5735     11.8348    15.2409    7.5842     23.0531    3.8726     7.0021     34.377    
2952.98    1.4659     5.2657     10.5472    14.1503    6.8289     24.2835    4.7375     7.2741     34.7518   
2953.08    1.3811     4.8082     9.432      13.1232    6.2375     25.4746    8.1807     7.6321     35.0835   
2953.18    1.2357     4.1954     8.5056     12.3155    5.7921     26.2417    20.9226    8.0275     35.4052   
2953.28    1.0821     3.7292     7.792      11.7537    5.4544     26.5362    50.6514    8.4786     35.7785   
2953.38    1.0376     3.7136     7.4193     11.534     5.1949     26.3066    123.7246   8.9694     36.2388   
2953.48    1.0991     3.9753     7.4616     11.7669    5.0327     25.4421    276.4001   9.4917     36.7668   
2953.58    1.2195     4.3037     7.8381     12.3278    5.0007     24.1418    527.8434   10.0185    37.2979   
2953.68    1.3861     4.6721     8.3783     12.9956    5.0476     22.7101    881.1693   10.5283    37.7676   
2953.78    1.5423     5.0779     9.0407     13.6539    5.1517     21.3111    945.0734   10.9481    38.1503   
2953.88    1.725      5.55       9.7815     14.3423    5.2413     19.9841    550.4893   11.2539    38.474    
2953.98    1.923      6.1499     10.543     15.0466    5.3661     18.7801    244.0213   11.4759    38.7938   
2954.08    2.1196     6.8597     11.3384    15.7405    5.4608     17.6646    111.5984   11.5728    39.1545   
2954.18    2.2792     7.6527     12.2014    16.4193    5.5352     16.6004    51.1451    11.6057    39.5606   
2954.28    2.4583     8.5215     13.059     17.0424    5.6401     15.6529    18.3442    11.5317    39.9792   
2954.38    2.6404     9.5012     13.823     17.5514    5.7082     14.7802    13.8462    11.4068    40.3672   
2954.48    2.7865     10.4112    14.5303    17.9549    5.767      14.0265    10.5762    11.2305    40.7028   
2954.58    2.8554     11.0149    15.2322    18.2192    5.8026     13.4232    8.5841     11.024     40.9929   
2954.68    2.9057     11.4847    15.8229    18.3062    5.8402     13.0287    7.4984     10.7738    41.2542   
2954.78    2.922      11.8374    16.3388    18.2708    5.8469     12.8853    7.3967     10.5146    41.4874   
2954.88    2.9028     12.0525    16.789     18.093     5.8469     12.927     8.822      10.2574    41.6745   
