~Version
 VERS              .         2.0                           : CWLS LOG ASCII STANDARD - VERSION 2.0
 WRAP              .         NO                            : ONE LINE PER DEPTH STEP
 DLM               .         SPACE                         : DELIMITING CHARACTER(SPACE TAB OR COMMA)
~Well Information
#_______________________________________________________________________________
#
#PARAMETER_NAME    .UNIT     VALUE                         : DESCRIPTION
#_______________________________________________________________________________
STRT               .m        2779.78                       : First reference value
STOP               .m        3001.08                       : Last reference value
STEP               .m        0.1                           : Step increment
NULL               .         -9999                         : Missing value
COMP               .                                       : Company
WELL               .         201                           : Well name
FLD                .                                       : Field
LOC                .                                       : Location
CNTY               .                                       : County
STAT               .                                       : State
CTRY               .                                       : Country
SRVC               .                                       : Service Company
DATE               .                                       : Date
API                .                                       : API number
EREF               .m        139.76                        : 
Pad                .         2                             : 
X                  .m        228492                        : 
Y                  .m        241733                        : 
group              .         Pad2                          : 
Интер-р            .         Ярышев                        : 
Куст               .         2                             : 
Статус             .         Не проверено                  : 
Тип                .         Эксплуатация                  : 
~Parameter Information Block
#_______________________________________________________________________________
#
#PARAMETER_NAME    .UNIT     VALUE                         : DESCRIPTION
#_______________________________________________________________________________
SET                .         LAS4                          : 
REAL_CREATION_DATE .         Ср апр 11 2012-13_17_07       : 
TLFamily_DEPTH     .         Measured Depth                : 
TLFamily_GZ1       .         Extra Shallow Resistivity     : 
TLFamily_GZ2       .         Shallow Resistivity           : 
TLFamily_GZ3       .         Medium Resistivity            : 
TLFamily_GZ4       .         Deep Resistivity              : 
TLFamily_GZ5       .         Extra Deep Resistivity        : 
TLFamily_GZB       .         Medium Resistivity Inverted   : 
TLFamily_LLD       .         Lateral Log Resistivity       : 
TLFamily_PZ        .         Potential Resistivity         : 
TLFamily_SP        .         Spontaneous Potential         : 
group              .         INI                           : 
~Curve Information
#_______________________________________________________________________________
#
#LOGNAME           .UNIT     LOG_ID                        : DESCRIPTION
#_______________________________________________________________________________
DEPTH              .m                                      : 1 Depth 
GZ1                .ohm.m                                  : 2 КС ПО ГРАДИЕНТ-ЗОНДА  A0.4M0.1N 
GZ2                .ohm.m                                  : 3 КС ПО ГРАДИЕНТ-ЗОНДА  A1.0M0.1N 
GZ3                .ohm.m                                  : 4 КС ПО ГРАДИЕНТ-ЗОНДА  A2.0M0.5N 
GZ4                .ohm.m                                  : 5 КС ПО ГРАДИЕНТ-ЗОНДА  A4.0M0.5N 
GZ5                .ohm.m                                  : 6 КС ПО ГРАДИЕНТ-ЗОНДА  A8.0M0.5N 
GZB                .ohm.m                                  : 7 КС ПО ГРАДИЕНТ-ЗОНДА  N0.5M2.0A 
LLD                .ohm.m                                  : 11 ДАННЫЕ УЭС ЗОНДА БК-3 
PZ                 .ohm.m                                  : 9 КС ПО ПОТЕНЦИАЛ-ЗОНДУ  N6.0M0.5A 
SP                 .mV                                     : 8 ПОТЕНЦИАЛ ЕСТЕСТВ. САМОПОЛЯРИЗАЦИИ 
~Ascii
# ...
2896.58    2.1491     8.653      18.0967    21.6901    11.8182    23.278     10.3704    9.5185     51.5625   
2896.68    2.183      8.7536     18.2572    21.9442    12.068     23.4397    9.7704     9.5447     51.6482   
2896.78    2.1844     8.809      18.4237    22.2099    12.2598    23.6436    9.5723     9.5907     51.7711   
2896.88    2.17       8.7932     18.6079    22.495     12.3933    23.896     9.252      9.6014     51.8816   
2896.98    2.1725     8.8701     18.759     22.7621    12.5139    24.1592    8.9945     9.6014     51.9574   
2897.08    2.2439     9.0436     18.8918    22.9501    12.5692    24.2756    9.1673     9.6014     52        
2897.18    2.2925     9.2098     19.0026    23.0322    12.6067    24.2599    9.5933     9.6014     52.0196   
2897.28    2.2913     9.2035     19.0184    22.9724    12.5966    24.1318    9.7346     9.6103     52.0148   
2897.38    2.2774     9.0976     18.8806    22.7595    12.5256    23.901     9.6226     9.6648     51.9695   
2897.48    2.2652     9.0173     18.5711    22.3945    12.4242    23.6572    9.6306     9.7021     51.8715   
2897.58    2.2319     8.8768     18.2811    22.0349    12.2933    23.5403    9.5292     9.7449     51.7353   
2897.68    2.2191     8.7584     18.0225    21.7121    12.1628    23.4745    9.4264     9.8028     51.6142   
2897.78    2.2191     8.6924     17.7636    21.4278    12.0339    23.4729    9.4845     9.8263     51.5701   
2897.88    2.1812     8.5858     17.5542    21.2365    11.9057    23.6055    9.6325     9.8606     51.6317   
2897.98    2.165      8.5278     17.4396    21.0673    11.7862    23.7513    10.1575    9.8978     51.7646   
2898.08    2.165      8.5273     17.323     20.8814    11.7158    23.9021    11.052     9.9574     51.8943   
2898.18    2.165      8.5438     17.2207    20.7203    11.6962    24.1132    11.5324    10.023     51.9556   
2898.28    2.165      8.481      17.1101    20.5567    11.6543    24.3638    12.014     10.0885    51.9318   
2898.38    2.1271     8.394      17.0186    20.4126    11.6615    24.5852    13.1666    10.1793    51.8541   
2898.48    2.0971     8.3224     16.9211    20.2485    11.6939    24.8156    16.294     10.2683    51.7735   
2898.58    2.0672     8.2237     16.8699    20.1613    11.7317    25.0251    23.4661    10.3811    51.7327   
2898.68    2.0261     8.1457     16.8615    20.1654    11.858     25.2532    28.298     10.5082    51.7482   
2898.78    2.0058     8.1071     16.9438    20.2442    12.0154    25.5101    23.2022    10.6184    51.8037   
2898.88    2.0115     8.1657     17.0923    20.4299    12.2155    25.774     16.959     10.7183    51.853    
2898.98    2.0444     8.2748     17.379     20.8044    12.4628    26.0361    14.4716    10.842     51.8437   
2899.08    2.0569     8.3628     17.8308    21.3737    12.7589    26.242     12.6328    10.9262    51.7521   
2899.18    2.1216     8.6535     18.4256    22.0651    13.0158    26.2836    11.5916    10.9803    51.6031   
2899.28    2.2037     9.0979     19.1007    22.8154    13.2642    26.1115    11.1985    11.0134    51.4526   
2899.38    2.3205     9.5857     19.8871    23.6631    13.4577    25.9044    11.6522    11.0387    51.3456   
2899.48    2.4129     9.9036     20.5846    24.3035    13.6261    25.6284    11.5652    11.0863    51.2872   
2899.58    2.4645     10.1091    21.044     24.6622    13.7594    25.2123    11.5905    11.097     51.2511   
2899.68    2.4857     10.2522    21.22      24.7853    13.8387    24.7524    11.3264    11.097     51.2115   
2899.78    2.4732     10.2079    21.1818    24.7352    13.8387    24.4216    10.9141    11.097     51.1643   
2899.88    2.4663     10.1731    21.1541    24.7067    13.831     24.339     10.5964    11.097     51.122    
2899.98    2.4068     9.9308     21.0184    24.4974    13.7768    24.109     10.3211    11.097     51.0945   
2900.08    2.3573     9.7587     20.8236    24.2394    13.6574    23.8316    10.8778    11.097     51.0826   
2900.18    2.3331     9.7695     20.6276    24.0518    13.5109    23.6848    12.3221    11.097     51.0828   
2900.28    2.3272     9.7919     20.5211    23.9401    13.3238    23.6132    13.1054    11.097     51.0999   
2900.38    2.3272     9.7857     20.5007    23.9049    13.1656    23.5842    13.5364    11.097     51.1387   
2900.48    2.3272     9.7742     20.4564    23.8651    13.0456    23.5531    13.6878    11.101     51.1954   
2900.58    2.2947     9.7106     20.3764    23.8144    12.9682    23.5419    13.4749    11.1407    51.2479   
2900.68    2.2719     9.5958     20.2665    23.7604    12.8832    23.577     13.7401    11.1504    51.2765   
2900.78    2.2338     9.4616     20.1488    23.7104    12.7948    23.6752    14.3001    11.1822    51.2815   
2900.88    2.2191     9.299      20.0849    23.7295    12.7635    23.7576    14.6655    11.2011    51.29     
2900.98    2.2191     9.2311     20.0965    23.7663    12.7133    23.824     14.5168    11.2533    51.3254   
2901.08    2.2191     9.2465     20.1844    23.9032    12.6666    23.8574    14.2043    11.3017    51.3787   
2901.18    2.2191     9.256      20.3491    24.1396    12.6666    23.8606    14.0109    11.3107    51.4057   
2901.28    2.2333     9.3699     20.5443    24.4012    12.6743    23.804     13.5383    11.346     51.3631   
2901.38    2.263      9.4521     20.7425    24.6621    12.7182    23.6894    12.7284    11.405     51.2462   
2901.48    2.2731     9.4466     20.9111    24.9052    12.7941    23.5329    11.9071    11.4298    51.0916   
2901.58    2.2731     9.3938     21.0874    25.1109    12.9061    23.3455    11.5288    11.4851    50.9457   
2901.68    2.2731     9.4002     21.2338    25.3034    12.9946    23.1116    11.6055    11.5191    50.8318   
2901.78    2.2731     9.4615     21.3794    25.5742    13.0853    22.9127    11.8996    11.5243    50.7471   
2901.88    2.3002     9.5728     21.561     25.8873    13.1501    22.7668    12.6045    11.5243    50.6803   
2901.98    2.3226     9.7232     21.7658    26.1883    13.217     22.666     13.2149    11.5243    50.6303   
2902.08    2.365      9.846      21.9609    26.4822    13.2991    22.6339    13.3149    11.5243    50.6079   
2902.18    2.3813     9.9582     22.0796    26.7294    13.4023    22.6313    13.0553    11.4914    50.6258   
2902.28    2.3813     9.9925     22.0827    26.8868    13.5072    22.6313    12.5421    11.4734    50.6851   
2902.38    2.3813     9.955      22.0265    26.9704    13.6362    22.6313    12.6616    11.4709    50.763    
2902.48    2.3436     9.8764     21.923     27.0572    13.754     22.6654    13.3265    11.4709    50.8166   
2902.58    2.3188     9.7718     21.841     27.1764    13.8415    22.7257    13.6335    11.4709    50.8054   
2902.68    2.2857     9.7365     21.8161    27.3443    13.9377    22.7912    13.5123    11.4709    50.7235   
2902.78    2.2986     9.7921     21.8869    27.6233    14.0158    22.8572    12.8906    11.4709    50.6089   
2902.88    2.3219     9.8859     21.9729    27.942     14.1398    22.8616    12.6069    11.4709    50.5194   
2902.98    2.3307     9.9326     22.0851    28.2844    14.2748    22.8446    12.6752    11.4709    50.4885   
2903.08    2.3553     9.9399     22.1862    28.5971    14.43      22.7467    12.7046    11.4709    50.5043   
2903.18    2.3386     9.8662     22.2356    28.8291    14.579     22.6108    12.0301    11.4709    50.5242   
2903.28    2.3272     9.8181     22.2912    29.062     14.7075    22.4504    11.227     11.4709    50.511    
2903.38    2.3272     9.8155     22.3175    29.2928    14.8538    22.2636    11.1046    11.4709    50.4557   
2903.48    2.365      9.8295     22.3311    29.5421    15.0453    22.0703    11.4265    11.4709    50.3749   
2903.58    2.366      9.8312     22.4004    29.8761    15.214     21.906     11.4265    11.4709    50.2991   
2903.68    2.3369     9.7964     22.4919    30.2476    15.3938    21.7919    12.4499    11.4709    50.2591   
2903.78    2.3272     9.8009     22.5983    30.5682    15.594     21.6707    14.6713    11.4592    50.2828   
