~Version
 VERS              .         2.0                           : CWLS LOG ASCII STANDARD - VERSION 2.0
 WRAP              .         NO                            : ONE LINE PER DEPTH STEP
 DLM               .         SPACE                         : DELIMITING CHARACTER(SPACE TAB OR COMMA)
~Well Information
#_______________________________________________________________________________
#
#PARAMETER_NAME    .UNIT     VALUE                         : DESCRIPTION
#_______________________________________________________________________________
STRT               .m        2779.78                       : First reference value
STOP               .m        3001.08                       : Last reference value
STEP               .m        0.1                           : Step increment
NULL               .         -9999                         : Missing value
COMP               .                                       : Company
WELL               .         201                           : Well name
FLD                .                                       : Field
LOC                .                                       : Location
CNTY               .                                       : County
STAT               .                                       : State
CTRY               .                                       : Country
SRVC               .                                       : Service Company
DATE               .                                       : Date
API                .                                       : API number
EREF               .m        139.76                        : 
Pad                .         2                             : 
X                  .m        228492                        : 
Y                  .m        241733                        : 
group              .         Pad2                          : 
Интер-р            .         Ярышев                        : 
Куст               .         2                             : 
Статус             .         Не проверено                  : 
Тип                .         Эксплуатация                  : 
~Parameter Information Block
#_______________________________________________________________________________
#
#PARAMETER_NAME    .UNIT     VALUE                         : DESCRIPTION
#_______________________________________________________________________________
SET                .         LAS4                          : 
REAL_CREATION_DATE .         Ср апр 11 2012-13_17_07       : 
TLFamily_DEPTH     .         Measured Depth                : 
TLFamily_GZ1       .         Extra Shallow Resistivity     : 
TLFamily_GZ2       .         Shallow Resistivity           : 
TLFamily_GZ3       .         Medium Resistivity            : 
TLFamily_GZ4       .         Deep Resistivity              : 
TLFamily_GZ5       .         Extra Deep Resistivity        : 
TLFamily_GZB       .         Medium Resistivity Inverted   : 
TLFamily_LLD       .         Lateral Log Resistivity       : 
TLFamily_PZ        .         Potential Resistivity         : 
TLFamily_SP        .         Spontaneous Potential         : 
group              .         INI                           : 
~Curve Information
#_______________________________________________________________________________
#
#LOGNAME           .UNIT     LOG_ID                        : DESCRIPTION
#_______________________________________________________________________________
DEPTH              .m                                      : 1 Depth 
GZ1                .ohm.m                                  : 2 КС ПО ГРАДИЕНТ-ЗОНДА  A0.4M0.1N 
GZ2                .ohm.m                                  : 3 КС ПО ГРАДИЕНТ-ЗОНДА  A1.0M0.1N 
GZ3                .ohm.m                                  : 4 КС ПО ГРАДИЕНТ-ЗОНДА  A2.0M0.5N 
GZ4                .ohm.m                                  : 5 КС ПО ГРАДИЕНТ-ЗОНДА  A4.0M0.5N 
GZ5                .ohm.m                                  : 6 КС ПО ГРАДИЕНТ-ЗОНДА  A8.0M0.5N 
GZB                .ohm.m                                  : 7 КС ПО ГРАДИЕНТ-ЗОНДА  N0.5M2.0A 
LLD                .ohm.m                                  : 11 ДАННЫЕ УЭС ЗОНДА БК-3 
PZ                 .ohm.m                                  : 9 КС ПО ПОТЕНЦИАЛ-ЗОНДУ  N6.0M0.5A 
SP                 .mV                                     : 8 ПОТЕНЦИАЛ ЕСТЕСТВ. САМОПОЛЯРИЗАЦИИ 
~Ascii
# ...
2925.78    1.6243     5.2056     7.881      8.4261     2.8633     9.0731     3.9716     4.9435     51.2335   
2925.88    1.6243     5.184      7.8706     8.532      2.8633     9.1168     4.1909     4.9665     51.2738   
2925.98    1.6243     5.1893     7.8706     8.5814     2.8633     9.1336     4.4396     5.0224     51.3045   
2926.08    1.6352     5.2026     7.8818     8.6073     2.8633     9.1341     4.4787     5.056      51.3037   
2926.18    1.6668     5.2137     7.9328     8.6186     2.8633     9.1341     4.4097     5.0611     51.2623   
2926.28    1.6784     5.2763     7.9985     8.6535     2.8633     9.1018     4.3569     5.1038     51.1882   
2926.38    1.7158     5.3674     8.0639     8.6677     2.8645     9.0412     4.4208     5.1145     51.0987   
2926.48    1.7322     5.4403     8.1286     8.6677     2.8788     8.961      4.4089     5.1416     51.007    
2926.58    1.7324     5.4678     8.1786     8.6326     2.9166     8.8648     4.2426     5.164      50.9176   
2926.68    1.7564     5.5274     8.1917     8.5725     2.9166     8.789      4.1775     5.1679     50.832    
2926.78    1.7806     5.6231     8.2241     8.5076     2.9166     8.724      4.0788     5.1679     50.7545   
2926.88    1.7865     5.6995     8.2805     8.4422     2.9166     8.6596     3.8476     5.1453     50.6971   
2926.98    1.7865     5.7642     8.2987     8.3768     2.9166     8.5954     3.6823     5.1195     50.6752   
2927.08    1.7865     5.8208     8.2987     8.3076     2.9238     8.5311     3.7555     5.1144     50.7017   
2927.18    1.7865     5.8368     8.2987     8.2081     2.956      8.5287     4.0281     5.0717     50.7753   
2927.28    1.7865     5.8135     8.2987     8.1098     2.9805     8.5423     4.067      5.0611     50.876    
2927.38    1.7486     5.7589     8.2987     7.9933     3.0269     8.545      3.9429     5.034      50.9678   
2927.48    1.7487     5.81       8.2987     7.9356     3.0551     8.5248     3.9076     5.0116     51.019    
2927.58    1.7773     5.8639     8.3216     7.8483     3.1194     8.4988     3.7948     5.0076     51.0196   
2927.68    1.7552     5.848      8.377      7.7694     3.1833     8.4537     3.5788     5.0076     50.9875   
2927.78    1.7731     5.8368     8.403      7.7045     3.2473     8.3545     3.5451     5.0076     50.9551   
2927.88    1.7865     5.7999     8.4057     7.6389     3.3114     8.2897     3.6832     5.0076     50.952    
2927.98    1.765      5.7023     8.4057     7.5733     3.3763     8.2772     3.9032     5.0076     50.989    
2928.08    1.7394     5.607      8.4057     7.5189     3.4418     8.2772     4.1604     5.0076     51.0532   
2928.18    1.6946     5.5392     8.3687     7.504      3.4971     8.2772     4.4875     5.0076     51.1123   
2928.28    1.6784     5.4907     8.3976     7.504      3.5172     8.2654     4.5634     5.0076     51.1333   
2928.38    1.6784     5.5089     8.4625     7.504      3.5618     8.2141     4.3035     5.0076     51.105    
2928.48    1.7068     5.578      8.5273     7.504      3.5901     8.1481     4.1566     5.0076     51.0505   
2928.58    1.7284     5.6768     8.6236     7.504      3.6197     8.0444     3.8698     5.0076     51.013    
2928.68    1.7703     5.7545     8.7058     7.504      3.664      7.9161     3.8458     5.0076     51.0253   
2928.78    1.7865     5.7811     8.7268     7.4719     3.6815     7.8024     3.8157     5.0076     51.083    
2928.88    1.7865     5.7842     8.707      7.4119     3.7157     7.7503     3.8392     5.003      51.1496   
2928.98    1.7865     5.7646     8.6809     7.3463     3.7252     7.7098     3.7343     4.9638     51.1892   
2929.08    1.7865     5.7667     8.6733     7.281      3.7654     7.6925     3.659      4.929      51.1995   
2929.18    1.7865     5.8159     8.6358     7.2461     3.785      7.7365     3.7521     4.8706     51.2104   
2929.28    1.7865     5.8296     8.6198     7.2024     3.8286     7.7834     3.669      4.8485     51.2535   
2929.38    1.7865     5.7827     8.5961     7.1783     3.8583     7.7951     3.4561     4.8044     51.3292   
2929.48    1.7865     5.7412     8.5412     7.1307     3.8867     7.7951     3.476      4.7761     51.4074   
2929.58    1.7865     5.7951     8.5147     7.0901     3.9438     7.7576     3.5024     4.7468     51.4521   
2929.68    1.7865     5.8245     8.485      7.0808     4.007      7.7416     3.2831     4.7051     51.4525   
2929.78    1.7631     5.7466     8.4797     7.0789     4.0709     7.767      3.1244     4.6462     51.4271   
2929.88    1.7386     5.6891     8.436      7.0429     4.135      7.79       3.129      4.6212     51.411    
2929.98    1.7324     5.6406     8.3229     6.9908     4.2233     7.8825     3.0922     4.5548     51.4244   
2930.08    1.7121     5.544      8.2366     6.9384     4.3837     7.9656     3.0887     4.5293     51.4584   
2930.18    1.6859     5.4655     8.1429     6.8776     4.4505     8.0315     3.1603     4.5269     51.4804   
2930.28    1.6783     5.3796     8.0201     6.813      4.5203     8.1352     3.2198     4.5269     51.4655   
2930.38    1.6405     5.2616     7.9344     6.749      4.5833     8.2281     3.2514     4.5269     51.4213   
2930.48    1.6243     5.1718     7.869      6.6851     4.627      8.3453     3.2136     4.5269     51.3885   
2930.58    1.6243     5.1152     7.8035     6.6578     4.6542     8.4769     3.1821     4.5302     51.4114   
2930.68    1.6243     5.0805     7.7373     6.6196     4.6849     8.6078     3.2462     4.5839     51.5044   
2930.78    1.6214     5.0265     7.6332     6.6047     4.7276     8.7539     3.4557     4.6264     51.6364   
2930.88    1.5852     4.9617     7.5504     6.5761     4.7457     8.9339     3.7457     4.6671     51.7464   
2930.98    1.5495     4.8607     7.4841     6.5554     4.7881     9.1027     4.0466     4.7279     51.7796   
2931.08    1.5235     4.797      7.3884     6.5518     4.819      9.2417     4.4226     4.7937     51.7245   
2931.18    1.5162     4.7847     7.3424     6.5837     4.8453     9.3281     4.8159     4.8588     51.6238   
2931.28    1.5253     4.7847     7.3814     6.6629     4.8879     9.3484     4.615      4.9228     51.544    
2931.38    1.5579     4.8328     7.4456     6.7353     4.8879     9.3054     4.1766     4.9505     51.5257   
2931.48    1.6195     5.0241     7.5098     6.8355     4.8879     9.1943     3.8161     4.997      51.5529   
2931.58    1.6991     5.2134     7.6056     6.9065     4.8879     9.1001     3.6524     5.0076     51.573    
2931.68    1.73       5.3252     7.651      6.9431     4.8865     8.9949     3.7516     5.0292     51.5485   
2931.78    1.7324     5.3596     7.6455     6.9383     4.8718     8.9142     3.8832     5.0558     51.4915   
2931.88    1.7324     5.3175     7.5941     6.9231     4.8346     8.8748     3.9595     5.0611     51.4474   
2931.98    1.7324     5.2869     7.5279     6.8733     4.8258     8.8663     4.0837     5.0611     51.4467   
2932.08    1.7324     5.3261     7.4997     6.8275     4.7776     8.9038     4.0928     5.0611     51.4744   
2932.18    1.703      5.3579     7.5335     6.8441     4.7148     8.9329     3.8084     5.0611     51.4826   
2932.28    1.7198     5.443      7.5495     6.8294     4.6691     8.9406     3.5282     5.0229     51.4316   
2932.38    1.7581     5.5916     7.5495     6.8168     4.6415     8.9264     3.4051     5.0088     51.3229   
2932.48    1.7813     5.6489     7.5495     6.8163     4.6111     8.922      3.3968     5.0076     51.2019   
2932.58    1.7487     5.6069     7.5466     6.7933     4.5672     8.9688     3.4727     5.0311     51.1299   
2932.68    1.72       5.5041     7.499      6.7375     4.5497     9.034      3.6128     5.0562     51.144    
2932.78    1.6892     5.3867     7.4329     6.6716     4.5082     9.1509     3.8449     5.0611     51.236    
2932.88    1.6487     5.3064     7.3669     6.6056     4.4775     9.3277     4.2037     5.0726     51.3581   
2932.98    1.6278     5.2668     7.3767     6.562      4.451      9.4836     4.6145     5.1067     51.4568   
