~Version
 VERS              .         2.0                           : CWLS LOG ASCII STANDARD - VERSION 2.0
 WRAP              .         NO                            : ONE LINE PER DEPTH STEP
 DLM               .         SPACE                         : DELIMITING CHARACTER(SPACE TAB OR COMMA)
~Well Information
#_______________________________________________________________________________
#
#PARAMETER_NAME    .UNIT     VALUE                         : DESCRIPTION
#_______________________________________________________________________________
STRT               .m        2779.78                       : First reference value
STOP               .m        3001.08                       : Last reference value
STEP               .m        0.1                           : Step increment
NULL               .         -9999                         : Missing value
COMP               .                                       : Company
WELL               .         201                           : Well name
FLD                .                                       : Field
LOC                .                                       : Location
CNTY               .                                       : County
STAT               .                                       : State
CTRY               .                                       : Country
SRVC               .                                       : Service Company
DATE               .                                       : Date
API                .                                       : API number
EREF               .m        139.76                        : 
Pad                .         2                             : 
X                  .m        228492                        : 
Y                  .m        241733                        : 
group              .         Pad2                          : 
Интер-р            .         Ярышев                        : 
Куст               .         2                             : 
Статус             .         Не проверено                  : 
Тип                .         Эксплуатация                  : 
~Parameter Information Block
#_______________________________________________________________________________
#
#PARAMETER_NAME    .UNIT     VALUE                         : DESCRIPTION
#_______________________________________________________________________________
SET                .         LAS4                          : 
REAL_CREATION_DATE .         Ср апр 11 2012-13_17_07       : 
TLFamily_DEPTH     .         Measured Depth                : 
TLFamily_GZ1       .         Extra Shallow Resistivity     : 
TLFamily_GZ2       .         Shallow Resistivity           : 
TLFamily_GZ3       .         Medium Resistivity            : 
TLFamily_GZ4       .         Deep Resistivity              : 
TLFamily_GZ5       .         Extra Deep Resistivity        : 
TLFamily_GZB       .         Medium Resistivity Inverted   : 
TLFamily_LLD       .         Lateral Log Resistivity       : 
TLFamily_PZ        .         Potential Resistivity         : 
TLFamily_SP        .         Spontaneous Potential         : 
group              .         INI                           : 
~Curve Information
#_______________________________________________________________________________
#
#LOGNAME           .UNIT     LOG_ID                        : DESCRIPTION
#_______________________________________________________________________________
DEPTH              .m                                      : 1 Depth 
GZ1                .ohm.m                                  : 2 КС ПО ГРАДИЕНТ-ЗОНДА  A0.4M0.1N 
GZ2                .ohm.m                                  : 3 КС ПО ГРАДИЕНТ-ЗОНДА  A1.0M0.1N 
GZ3                .ohm.m                                  : 4 КС ПО ГРАДИЕНТ-ЗОНДА  A2.0M0.5N 
GZ4                .ohm.m                                  : 5 КС ПО ГРАДИЕНТ-ЗОНДА  A4.0M0.5N 
GZ5                .ohm.m                                  : 6 КС ПО ГРАДИЕНТ-ЗОНДА  A8.0M0.5N 
GZB                .ohm.m                                  : 7 КС ПО ГРАДИЕНТ-ЗОНДА  N0.5M2.0A 
LLD                .ohm.m                                  : 11 ДАННЫЕ УЭС ЗОНДА БК-3 
PZ                 .ohm.m                                  : 9 КС ПО ПОТЕНЦИАЛ-ЗОНДУ  N6.0M0.5A 
SP                 .mV                                     : 8 ПОТЕНЦИАЛ ЕСТЕСТВ. САМОПОЛЯРИЗАЦИИ 
~Ascii
# ...
2933.08    1.6243     5.2253     7.4355     6.5518     4.4046     9.6509     4.7994     5.1145     51.4989   
2933.18    1.6243     5.2525     7.5179     6.5888     4.3827     9.7757     4.6542     5.1552     51.4871   
2933.28    1.652      5.3597     7.6343     6.6128     4.3551     9.8232     4.3801     5.1674     51.4478   
2933.38    1.7101     5.4878     7.794      6.6452     4.3551     9.8679     4.1098     5.1679     51.4155   
2933.48    1.7317     5.5595     7.9422     6.6576     4.3551     9.8741     3.9464     5.1958     51.4079   
2933.58    1.7493     5.573      8.0644     6.6576     4.3551     9.8423     3.9494     5.2176     51.4164   
2933.68    1.7775     5.5366     8.1264     6.6206     4.3486     9.8574     3.9488     5.2213     51.413    
2933.78    1.7536     5.5399     8.1659     6.5938     4.3183     9.9145     3.8607     5.2213     51.3776   
2933.88    1.7724     5.566      8.1874     6.563      4.3018     10.0656    3.7656     5.1968     51.3212   
2933.98    1.7865     5.6089     8.1542     6.5231     4.3018     10.2735    3.7399     5.1725     51.2802   
2934.08    1.7865     5.6532     8.1212     6.4653     4.3018     10.523     3.7549     5.1679     51.2837   
2934.18    1.7559     5.6055     8.0427     6.4007     4.3099     10.7872    3.8335     5.1679     51.3193   
2934.28    1.6977     5.5147     7.9545     6.3369     4.3449     11.097     3.8968     5.1679     51.3334   
2934.38    1.6784     5.4776     7.8509     6.2594     4.3703     11.7535    3.9        5.1679     51.2725   
2934.48    1.6784     5.5069     7.817      6.2372     4.4508     12.2682    3.9404     5.1679     51.1283   
2934.58    1.6784     5.5001     7.817      6.2726     4.546      12.6593    3.9736     5.1679     50.9517   
2934.68    1.6784     5.4455     7.8163     6.2873     4.6368     12.9502    3.9986     5.1934     50.8132   
2934.78    1.6784     5.3795     7.7793     6.3162     4.7506     13.1441    4.3171     5.217      50.7498   
2934.88    1.6558     5.2792     7.7635     6.337      4.8617     13.2857    4.2611     5.264      50.7366   
2934.98    1.6309     5.2347     7.7635     6.3863     5.0323     13.4476    3.9972     5.2747     50.7153   
2935.08    1.6264     5.2748     7.7635     6.4508     5.2103     13.6414    3.7156     5.2959     50.6422   
2935.18    1.6631     5.3384     7.7635     6.5143     5.4197     13.8998    3.6906     5.3227     50.5177   
2935.28    1.6596     5.3167     7.7635     6.609      5.6793     14.2594    4.1769     5.3665     50.3671   
2935.38    1.6325     5.2082     7.7391     6.6938     5.9366     14.7288    5.3857     5.4276     50.2083   
2935.48    1.5903     5.0552     7.7156     6.8063     6.1924     15.3257    5.2809     5.4927     50.0333   
2935.58    1.534      4.931      7.7439     6.9362     6.48       15.8325    4.3057     5.5346     49.8215   
2935.68    1.5408     5.0523     7.7245     7.0944     6.9212     16.286     4.0551     5.5751     49.5588   
2935.78    1.6231     5.2958     7.7315     7.2484     7.4691     16.7164    3.7638     5.6372     49.2507   
2935.88    1.612      5.2012     7.7567     7.3912     8.1015     17.0822    3.6009     5.757      48.922    
2935.98    1.5395     4.9836     7.7234     7.5868     8.8213     17.5607    4.2618     5.9111     48.6076   
2936.08    1.4962     4.8002     7.6435     7.8842     9.6136     18.4745    5.6775     6.0681     48.3345   
2936.18    1.4129     4.6227     7.6976     8.3197     10.4309    19.7693    7.7726     6.2033     48.1075   
2936.28    1.362      4.5598     7.8931     8.9166     11.2856    21.149     11.6504    6.3329     47.9075   
2936.38    1.3539     4.6661     8.2101     9.6504     12.1303    22.5116    19.7136    6.4634     47.7107   
2936.48    1.3595     4.8782     8.6783     10.444     12.9659    23.6499    37.0942    6.6204     47.511    
2936.58    1.4082     5.1689     9.2631     11.2502    13.7277    24.3781    19.5309    6.8114     47.3299   
2936.68    1.4747     5.531      9.9601     12.0424    14.2361    24.6136    9.6123     7.0071     47.1986   
2936.78    1.6047     6.0568     10.736     12.8028    14.483     24.4764    6.9602     7.1526     47.1277   
2936.88    1.7933     6.6359     11.4804    13.4027    14.4936    24.089     6.3306     7.2607     47.0843   
2936.98    2.0077     7.2459     12.0678    13.7183    14.2723    23.5401    6.6523     7.3671     47.0107   
2937.08    2.1967     7.7042     12.3802    13.6888    13.8867    22.7541    7.1111     7.4495     46.8666   
2937.18    2.2362     7.6754     12.4127    13.3732    13.3406    21.8294    7.0081     7.5166     46.6659   
2937.28    2.1468     7.3414     12.2074    12.8253    12.6707    20.8939    6.8531     7.5808     46.4618   
2937.38    2.0272     7.0754     11.8586    12.1733    11.8997    19.9336    6.8486     7.6451     46.302    
2937.48    1.9615     7.0053     11.4939    11.5543    11.0699    19.0153    6.8426     7.7102     46.1892   
2937.58    1.9487     7.0824     11.2445    11.1283    10.2519    18.2414    6.8858     7.7759     46.0858   
2937.68    1.9169     7.1413     11.1497    10.8054    9.5157     17.6082    6.9753     7.8421     45.9431   
2937.78    1.8972     7.1809     11.0977    10.508     8.9123     17.1194    7.1797     7.9085     45.7341   
2937.88    1.8946     7.2011     11.0816    10.2216    8.3992     16.7275    7.2316     7.9742     45.4651   
2937.98    1.8946     7.1967     11.1005    9.9931     7.9587     16.3854    6.869      7.9976     45.1738   
2938.08    1.8946     7.1491     11.1541    9.8057     7.5417     16.0894    6.7692     8.0419     44.9108   
2938.18    1.8946     7.1086     11.1841    9.679      7.163      15.825     6.9423     8.0711     44.7172   
2938.28    1.8946     7.1302     11.3121    9.6283     6.7935     15.6704    7.2061     8.0998     44.5942   
2938.38    1.8946     7.1229     11.4567    9.5541     6.4745     15.6837    7.537      8.1057     44.4969   
2938.48    1.9441     7.3085     11.6107    9.4354     6.1782     15.6508    7.9986     8.1485     44.352    
2938.58    1.9915     7.3548     11.7986    9.3436     5.8893     15.5781    8.2576     8.1729     44.1081   
2938.68    1.9271     7.0926     12.1074    9.3009     5.5714     15.5801    8.3231     8.2053     43.7716   
2938.78    1.8993     7.0337     12.3836    9.0773     5.1414     15.5642    8.5284     8.3037     43.405    
2938.88    1.9008     7.0829     12.5644    8.9954     4.8868     15.4862    8.5284     8.3786     43.0778   
2938.98    1.8964     6.9508     12.8141    9.0266     4.6812     15.4178    8.5632     8.4193     42.8141   
2939.08    1.8946     6.8571     12.8637    9.038      4.53       15.3228    8.763      8.4589     42.5797   
2939.18    1.8946     6.8785     12.8786    9.0713     4.3568     15.0816    9.1427     8.5182     42.3126   
2939.28    1.8946     6.9271     12.9821    9.2118     4.2347     14.8403    9.2618     8.5327     41.9752   
2939.38    1.8946     6.9415     13.1124    9.3897     4.1478     14.6371    9.0658     8.5331     41.5742   
2939.48    1.9009     7.0071     13.2438    9.5535     4.084      14.4012    8.3325     8.5331     41.1458   
2939.58    1.9501     7.1585     13.3998    9.7956     4.0196     14.0739    7.3092     8.5331     40.7104   
2939.68    1.993      7.2434     13.5944    10.0715    3.96       13.8254    6.8257     8.4856     40.2493   
2939.78    2.0028     7.3812     13.7778    10.3842    3.921      13.7108    6.428      8.4357     39.7171   
2939.88    2.0785     7.6438     13.9299    10.7126    3.876      13.7096    6.1366     8.4015     39.0911   
2939.98    2.0979     7.6266     14.0094    10.9829    3.8092     13.9084    7.2217     8.3431     38.4111   
2940.08    2.0675     7.6488     13.9592    11.1223    3.7489     14.244     8.5574     8.3208     37.7717   
2940.18    2.0265     7.5764     13.7736    11.2379    3.7157     14.4813    8.4479     8.2864     37.2715   
2940.28    1.9297     7.212      13.6025    11.3797    3.7062     14.5916    7.2765     8.3112     36.9474   
