~Version
 VERS              .         2.0                           : CWLS LOG ASCII STANDARD - VERSION 2.0
 WRAP              .         NO                            : ONE LINE PER DEPTH STEP
 DLM               .         SPACE                         : DELIMITING CHARACTER(SPACE TAB OR COMMA)
~Well Information
#_______________________________________________________________________________
#
#PARAMETER_NAME    .UNIT     VALUE                         : DESCRIPTION
#_______________________________________________________________________________
STRT               .m        2818                          : First reference value
STOP               .m        3000                          : Last reference value
STEP               .m        0.2                           : Step increment
NULL               .         -9999                         : Missing value
COMP               .                                       : Company
WELL               .         201                           : Well name
FLD                .                                       : Field
LOC                .                                       : Location
CNTY               .                                       : County
STAT               .                                       : State
CTRY               .                                       : Country
SRVC               .                                       : Service Company
DATE               .                                       : Date
API                .                                       : API number
EREF               .m        139.76                        : 
Pad                .         2                             : 
X                  .m        228492                        : 
Y                  .m        241733                        : 
group              .         Pad2                          : 
Интер-р            .         Ярышев                        : 
Куст               .         2                             : 
Статус             .         Не проверено                  : 
Тип                .         Эксплуатация                  : 
~Parameter Information Block
#_______________________________________________________________________________
#
#PARAMETER_NAME    .UNIT     VALUE                         : DESCRIPTION
#_______________________________________________________________________________
SET                .         LAS2                          : 
REAL_CREATION_DATE .         Ср апр 11 2012-13_17_07       : 
TLFamily_DEPTH     .         Measured Depth                : 
TLFamily_GR        .         Gamma Ray                     : 
TLFamily_TNPH      .         Neutron Porosity              : 
group              .         INI                           : 
~Curve Information
#_______________________________________________________________________________
#
#LOGNAME           .UNIT     LOG_ID                        : DESCRIPTION
#_______________________________________________________________________________
DEPTH              .m                                      : 1 Depth 
GR                 .gAPI                                   :  
TNPH               .v/v                                    : 5 Hydrogen Content 
~Ascii
# ...
2963.8     113.16     0.2058    
2964       122.241    0.1977    
2964.2     123.467    0.197     
2964.4     121.67     0.2       
2964.6     121.171    0.1976    
2964.8     121.672    0.1959    
2965       120.801    0.194     
2965.2     118.469    0.1879    
2965.4     115.486    0.1797    
2965.6     108.064    0.1653    
2965.8     93.444     0.1513    
2966       81.441     0.1436    
2966.2     78.75      0.1439    
2966.4     79.62      0.149     
2966.6     81.325     0.1484    
2966.8     84.768     0.1502    
2967       88.829     0.1542    
2967.2     90.85201   0.158     
2967.4     94.686     0.1691    
2967.6     98.755     0.174     
2967.8     104.835    0.1808    
2968       105.705    0.1796    
2968.2     102.365    0.1703    
2968.4     91.781     0.1736    
2968.6     75.484     0.2019    
2968.8     54.404     0.2387    
2969       34         0.2576    
2969.2     16.188     0.2669    
2969.4     13.777     0.2869    
2969.6     16.322     0.2891    
2969.8     20.853     0.2674    
2970       31.842     0.2359    
2970.2     52.892     0.2061    
2970.4     74.186     0.1901    
2970.6     93.379     0.1784    
2970.8     102.998    0.181     
2971       104.782    0.1992    
2971.2     103.061    0.2195    
2971.4     97.774     0.219     
2971.6     93.752     0.1958    
2971.8     95.95801   0.1761    
2972       100.428    0.1631    
2972.2     107.6      0.1662    
2972.4     111.799    0.1768    
2972.6     112.241    0.1826    
2972.8     118.307    0.1883    
2973       120.762    0.1883    
2973.2     119.743    0.1855    
2973.4     116.351    0.1797    
2973.6     108.657    0.1726    
2973.8     96.05099   0.1621    
2974       88.778     0.1549    
2974.2     88.353     0.1518    
2974.4     91.45799   0.155     
2974.6     89.32999   0.1599    
2974.8     82.256     0.1605    
2975       80.705     0.1596    
2975.2     82.647     0.1627    
2975.4     84.213     0.1713    
2975.6     84.12      0.1727    
2975.8     81.977     0.1673    
2976       78.19      0.1636    
2976.2     76.673     0.1741    
2976.4     79.917     0.1839    
2976.6     87.21      0.1875    
2976.8     98.321     0.1844    
2977       104.991    0.1801    
2977.2     102.058    0.1799    
2977.4     100.57     0.1727    
2977.6     101.618    0.1678    
2977.8     102.645    0.1699    
2978       101.853    0.1666    
2978.2     106.204    0.1614    
2978.4     110.159    0.1663    
2978.6     111.671    0.1683    
2978.8     111.385    0.1648    
2979       107.658    0.1629    
2979.2     102.24     0.1581    
2979.4     95.01199   0.1503    
2979.6     85.605     0.1439    
2979.8     76.35899   0.1352    
2980       75.139     0.1315    
2980.2     78.297     0.1322    
2980.4     82.874     0.1321    
2980.6     80.242     0.1273    
2980.8     67.627     0.1219    
2981       58.351     0.1128    
2981.2     57.233     0.1107    
2981.4     62.454     0.1214    
2981.6     67.875     0.1407    
2981.8     74.99      0.1588    
2982       78.44901   0.1699    
2982.2     84.412     0.1776    
2982.4     94.7       0.1748    
2982.6     105.163    0.1739    
2982.8     111.997    0.1731    
2983       107.689    0.1687    
2983.2     99.706     0.1628    
2983.4     88.858     0.1549    
2983.6     81.884     0.1472    
2983.8     76.353     0.1468    
2984       71.566     0.1556    
2984.2     68.267     0.1606    
2984.4     67.799     0.1584    
2984.6     68.176     0.1569    
2984.8     68.014     0.1581    
2985       65.884     0.154     
2985.2     64.217     0.1504    
2985.4     65.929     0.1527    
2985.6     70.511     0.1527    
2985.8     76.787     0.1482    
2986       80.037     0.1492    
2986.2     84.029     0.1565    
2986.4     89.091     0.1668    
2986.6     93.319     0.1708    
2986.8     94.554     0.1738    
2987       95.667     0.1723    
2987.2     93.416     0.1673    
2987.4     86.544     0.1694    
2987.6     83.696     0.1721    
2987.8     88.71899   0.1714    
2988       96.69501   0.1792    
2988.2     109.455    0.1874    
2988.4     122.684    0.1876    
2988.6     129.558    0.1845    
2988.8     128.663    0.1834    
2989       123.944    0.1762    
2989.2     126.298    0.174     
2989.4     129.621    0.1808    
2989.6     129.635    0.1883    
2989.8     124.552    0.1868    
2990       114.929    0.1824    
2990.2     104.231    0.1736    
2990.4     92.65199   0.1698    
2990.6     83.616     0.1727    
2990.8     78.926     0.1744    
2991       75.86      0.1751    
2991.2     75.051     0.1733    
2991.4     78.79501   0.1703    
2991.6     83.79501   0.1713    
2991.8     90.577     0.1724    
2992       93.298     0.1741    
2992.2     99.831     0.1683    
2992.4     105.436    0.166     
2992.6     107.77     0.1743    
2992.8     106.591    0.1853    
2993       107.466    0.1911    
2993.2     104.499    0.1935    
2993.4     100.813    0.1977    
2993.6     100.223    0.2038    
2993.8     100.407    0.2016    
2994       98.69099   0.1985    
2994.2     96.198     0.1966    
2994.4     95.368     0.1938    
2994.6     98.68201   0.192     
2994.8     101.175    0.1939    
2995       102.636    0.1946    
2995.2     105.35     0.202     
2995.4     106.302    0.219     
2995.6     107.561    0.2353    
2995.8     105.636    0.2424    
2996       103.29     0.2327    
2996.2     101.179    0.21      
2996.4     103.361    0.1888    
2996.6     108.105    0.1719    
2996.8     112.953    0.1606    
2997       111.522    0.1591    
2997.2     107.416    0.1609    
2997.4     106.656    0.1596    
2997.6     108.549    0.1629    
2997.8     109.53     0.1616    
2998       110.584    0.1609    
2998.2     108.948    0.165     
2998.4     103.874    0.1735    
2998.6     99.277     0.1771    
2998.8     99.845     0.1682    
2999       102.198    0.1552    
2999.2     105.45     0.146     
2999.4     107.39     0.1405    
2999.6     108.023    0.1456    
2999.8     108.286    0.1621    
3000       105.632    0.1668    
