~Version
 VERS              .         2.0                           : CWLS LOG ASCII STANDARD - VERSION 2.0
 WRAP              .         NO                            : ONE LINE PER DEPTH STEP
 DLM               .         SPACE                         : DELIMITING CHARACTER(SPACE TAB OR COMMA)
~Well Information
#_______________________________________________________________________________
#
#PARAMETER_NAME    .UNIT     VALUE                         : DESCRIPTION
#_______________________________________________________________________________
STRT               .m        2818                          : First reference value
STOP               .m        3000                          : Last reference value
STEP               .m        0.2                           : Step increment
NULL               .         -9999                         : Missing value
COMP               .                                       : Company
WELL               .         201                           : Well name
FLD                .                                       : Field
LOC                .                                       : Location
CNTY               .                                       : County
STAT               .                                       : State
CTRY               .                                       : Country
SRVC               .                                       : Service Company
DATE               .                                       : Date
API                .                                       : API number
EREF               .m        139.76                        : 
Pad                .         2                             : 
X                  .m        228492                        : 
Y                  .m        241733                        : 
group              .         Pad2                          : 
Интер-р            .         Ярышев                        : 
Куст               .         2                             : 
Статус             .         Не проверено                  : 
Тип                .         Эксплуатация                  : 
~Parameter Information Block
#_______________________________________________________________________________
#
#PARAMETER_NAME    .UNIT     VALUE                         : DESCRIPTION
#_______________________________________________________________________________
SET                .         LAS2                          : 
REAL_CREATION_DATE .         Ср апр 11 2012-13_17_07       : 
TLFamily_DEPTH     .         Measured Depth                : 
TLFamily_GR        .         Gamma Ray                     : 
TLFamily_TNPH      .         Neutron Porosity              : 
group              .         INI                           : 
~Curve Information
#_______________________________________________________________________________
#
#LOGNAME           .UNIT     LOG_ID                        : DESCRIPTION
#_______________________________________________________________________________
DEPTH              .m                                      : 1 Depth 
GR                 .gAPI                                   :  
TNPH               .v/v                                    : 5 Hydrogen Content 
~Ascii
2818.0     72.692     0.2123    
2818.2     72.384     0.2057    
2818.4     72.548     0.1989    
2818.6     70.988     0.2042    
2818.8     69.092     0.2106    
2819       67.482     0.214     
2819.2     66.861     0.2153    
2819.4     67.472     0.2084    
2819.6     67.332     0.1995    
2819.8     66.533     0.1966    
2820       66.995     0.2007    
2820.2     68.77      0.2078    
2820.4     70.513     0.2108    
2820.6     68.79501   0.2078    
2820.8     65.478     0.1953    
2821       62.892     0.1896    
2821.2     60.78201   0.195     
2821.4     54.164     0.2118    
2821.6     48.096     0.2161    
2821.8     52.541     0.214     
2822       69.85      0.2063    
2822.2     91.329     0.1933    
2822.4     110.82     0.1906    
2822.6     114.87     0.2065    
2822.8     119.281    0.2162    
2823       124.007    0.2032    
2823.2     127.343    0.1882    
2823.4     127.892    0.1781    
2823.6     125.178    0.1728    
2823.8     124.27     0.1728    
2824       124.14     0.18      
2824.2     125.492    0.1917    
2824.4     125.865    0.2061    
2824.6     123.944    0.2156    
2824.8     122.822    0.2166    
2825       122.596    0.2125    
2825.2     120.804    0.211     
2825.4     118.024    0.2103    
2825.6     113.71     0.2002    
2825.8     111.053    0.1915    
2826       106.208    0.1861    
2826.2     100.167    0.179     
2826.4     97.978     0.176     
2826.6     96.796     0.1735    
2826.8     95.939     0.1756    
2827       96.748     0.174     
2827.2     97.342     0.1736    
2827.4     100.364    0.1752    
2827.6     102.213    0.1803    
2827.8     107.956    0.1881    
2828       113.034    0.1957    
2828.2     116.574    0.1999    
2828.4     120.968    0.2078    
2828.6     120.766    0.2081    
2828.8     123.504    0.2002    
2829       125.956    0.1926    
2829.2     125.906    0.1875    
2829.4     125.768    0.1923    
2829.6     127.666    0.1967    
2829.8     127.091    0.1963    
2830       125.59     0.1892    
2830.2     123.53     0.1856    
2830.4     120.959    0.183     
2830.6     123.765    0.1781    
2830.8     125.947    0.1809    
2831       124.455    0.1904    
2831.2     122.158    0.1901    
2831.4     117.083    0.172     
2831.6     106.174    0.1538    
2831.8     89.207     0.1471    
2832       79.929     0.1426    
2832.2     81.355     0.1437    
2832.4     89.82001   0.1541    
2832.6     102.179    0.1697    
2832.8     112.486    0.1804    
2833       115.38     0.1847    
2833.2     115.037    0.1847    
2833.4     111.865    0.1795    
2833.6     107.256    0.1711    
2833.8     106.033    0.1642    
2834       110.643    0.1671    
2834.2     116.519    0.184     
2834.4     119.591    0.195     
2834.6     118.134    0.1904    
2834.8     114.813    0.1831    
2835       116.126    0.1739    
2835.2     119.926    0.1743    
2835.4     119.161    0.1806    
2835.6     116.934    0.1848    
2835.8     113.493    0.1823    
2836       114.017    0.1878    
2836.2     116.977    0.1847    
2836.4     116.695    0.1714    
2836.6     112.853    0.1667    
2836.8     108.207    0.1658    
2837       109.852    0.1685    
2837.2     112.517    0.171     
2837.4     111.553    0.1696    
2837.6     110.405    0.1619    
2837.8     111.438    0.1655    
2838       112.924    0.1752    
2838.2     112.912    0.1742    
2838.4     110.1      0.1732    
2838.6     108.277    0.1778    
2838.8     115.124    0.1791    
2839       122.4      0.1803    
2839.2     117.588    0.1738    
2839.4     108.311    0.1647    
2839.6     98.05299   0.1616    
2839.8     88.019     0.1603    
2840       82.858     0.1587    
2840.2     81.669     0.1555    
2840.4     80.834     0.1549    
2840.6     80.392     0.155     
2840.8     77.04601   0.1573    
2841       75.281     0.1573    
2841.2     76.17799   0.1565    
2841.4     77.462     0.166     
2841.6     80.03999   0.1758    
2841.8     84.875     0.1786    
2842       91.14899   0.1656    
2842.2     102.276    0.1595    
2842.4     115.507    0.1667    
2842.6     123.823    0.1735    
2842.8     130.294    0.1762    
2843       131.188    0.1754    
2843.2     125.623    0.1764    
2843.4     122.18     0.1788    
2843.6     125.553    0.1844    
2843.8     126.782    0.1937    
2844       124.832    0.198     
2844.2     124.468    0.1994    
2844.4     123.463    0.203     
2844.6     118.465    0.2064    
2844.8     111.666    0.197     
2845       108.457    0.1865    
2845.2     103.663    0.1852    
2845.4     95.72501   0.1787    
2845.6     91.678     0.1753    
2845.8     86.903     0.169     
2846       85.062     0.162     
2846.2     82.791     0.1652    
2846.4     79.401     0.1636    
2846.6     78.362     0.1623    
2846.8     80.89      0.1701    
2847       86.469     0.1765    
2847.2     90.058     0.1777    
2847.4     89.558     0.1814    
2847.6     90.004     0.1803    
2847.8     93.777     0.1816    
2848       98.05      0.1889    
2848.2     94.401     0.1835    
2848.4     90.873     0.178     
2848.6     93.097     0.1708    
2848.8     95.45399   0.1603    
2849       93.87901   0.1608    
2849.2     93.602     0.1712    
2849.4     94.57401   0.1741    
2849.6     93.723     0.1722    
2849.8     89.369     0.1783    
2850       88.45399   0.1886    
2850.2     89.491     0.1894    
2850.4     90.435     0.1802    
2850.6     88.083     0.1796    
2850.8     81.61      0.1813    
2851       75.783     0.1649    
2851.2     67.583     0.1456    
2851.4     60.126     0.1271    
2851.6     57.862     0.118     
2851.8     57.989     0.1159    
2852       60.377     0.1212    
2852.2     64.072     0.1359    
2852.4     68.214     0.1513    
2852.6     71.935     0.1561    
2852.8     78.495     0.1575    
2853       82.566     0.1668    
2853.2     86.251     0.1748    
2853.4     86.40701   0.1696    
2853.6     83.116     0.1664    
2853.8     77.95399   0.1704    
2854       72.716     0.1712    
2854.2     67.35      0.1676    
2854.4     68.763     0.165     
2854.6     74.312     0.165     
2854.8     81.712     0.1692    
2855       88.351     0.1752    
2855.2     92.505     0.1779    
2855.4     96.655     0.1799    
2855.6     108.153    0.1842    
2855.8     112.583    0.1849    
2856       103.794    0.1777    
2856.2     85.666     0.1714    
2856.4     76.531     0.1663    
2856.6     76.575     0.1644    
2856.8     77.804     0.1637    
2857       78.917     0.1621    
2857.2     82.175     0.1638    
2857.4     84.834     0.1719    
2857.6     86.519     0.1831    
2857.8     88.959     0.1922    
2858       88.015     0.1858    
2858.2     81.66299   0.1633    
2858.4     73.611     0.1537    
2858.6     67.281     0.1553    
2858.8     61.383     0.1603    
2859       57.438     0.1622    
2859.2     57.573     0.1556    
2859.4     58.657     0.1526    
2859.6     59.886     0.1539    
2859.8     63.16399   0.1585    
2860       70.197     0.1655    
2860.2     80.24901   0.1692    
2860.4     80.974     0.1729    
2860.6     80.80901   0.1754    
2860.8     80.661     0.1727    
2861       78.283     0.1691    
2861.2     77.337     0.1714    
2861.4     79.57      0.1733    
2861.6     83.784     0.1716    
2861.8     88.182     0.1726    
2862       90.899     0.1663    
2862.2     92.35699   0.1622    
2862.4     93.06      0.1649    
2862.6     90.131     0.1666    
2862.8     92.51701   0.1672    
2863       98.827     0.1742    
2863.2     105.81     0.1791    
2863.4     115.974    0.1857    
2863.6     119.1      0.1851    
2863.8     113.953    0.1774    
2864       107.675    0.1762    
2864.2     106.078    0.1783    
2864.4     114.038    0.1779    
2864.6     123.253    0.1842    
2864.8     130.798    0.1853    
2865       134.46     0.1818    
2865.2     136.801    0.1801    
2865.4     136.553    0.1778    
2865.6     134.359    0.1735    
2865.8     132.071    0.1765    
2866       131.988    0.1873    
2866.2     130.513    0.1863    
2866.4     128.467    0.1806    
