~Version
 VERS              .         2.0                           : CWLS LOG ASCII STANDARD - VERSION 2.0
 WRAP              .         NO                            : ONE LINE PER DEPTH STEP
 DLM               .         SPACE                         : DELIMITING CHARACTER(SPACE TAB OR COMMA)
~Well Information
#_______________________________________________________________________________
#
#PARAMETER_NAME    .UNIT     VALUE                         : DESCRIPTION
#_______________________________________________________________________________
STRT               .m        2779.78                       : First reference value
STOP               .m        3001.08                       : Last reference value
STEP               .m        0.1                           : Step increment
NULL               .         -9999                         : Missing value
COMP               .                                       : Company
WELL               .         201                           : Well name
FLD                .                                       : Field
LOC                .                                       : Location
CNTY               .                                       : County
STAT               .                                       : State
CTRY               .                                       : Country
SRVC               .                                       : Service Company
DATE               .                                       : Date
API                .                                       : API number
EREF               .m        139.76                        : 
Pad                .         2                             : 
X                  .m        228492                        : 
Y                  .m        241733                        : 
group              .         Pad2                          : 
Интер-р            .         Ярышев                        : 
Куст               .         2                             : 
Статус             .         Не проверено                  : 
Тип                .         Эксплуатация                  : 
~Parameter Information Block
#_______________________________________________________________________________
#
#PARAMETER_NAME    .UNIT     VALUE                         : DESCRIPTION
#_______________________________________________________________________________
SET                .         LAS4                          : 
REAL_CREATION_DATE .         Ср апр 11 2012-13_17_07       : 
TLFamily_DEPTH     .         Measured Depth                : 
TLFamily_GZ1       .         Extra Shallow Resistivity     : 
TLFamily_GZ2       .         Shallow Resistivity           : 
TLFamily_GZ3       .         Medium Resistivity            : 
TLFamily_GZ4       .         Deep Resistivity              : 
TLFamily_GZ5       .         Extra Deep Resistivity        : 
TLFamily_GZB       .         Medium Resistivity Inverted   : 
TLFamily_LLD       .         Lateral Log Resistivity       : 
TLFamily_PZ        .         Potential Resistivity         : 
TLFamily_SP        .         Spontaneous Potential         : 
group              .         INI                           : 
~Curve Information
#_______________________________________________________________________________
#
#LOGNAME           .UNIT     LOG_ID                        : DESCRIPTION
#_______________________________________________________________________________
DEPTH              .m                                      : 1 Depth 
GZ1                .ohm.m                                  : 2 КС ПО ГРАДИЕНТ-ЗОНДА  A0.4M0.1N 
GZ2                .ohm.m                                  : 3 КС ПО ГРАДИЕНТ-ЗОНДА  A1.0M0.1N 
GZ3                .ohm.m                                  : 4 КС ПО ГРАДИЕНТ-ЗОНДА  A2.0M0.5N 
GZ4                .ohm.m                                  : 5 КС ПО ГРАДИЕНТ-ЗОНДА  A4.0M0.5N 
GZ5                .ohm.m                                  : 6 КС ПО ГРАДИЕНТ-ЗОНДА  A8.0M0.5N 
GZB                .ohm.m                                  : 7 КС ПО ГРАДИЕНТ-ЗОНДА  N0.5M2.0A 
LLD                .ohm.m                                  : 11 ДАННЫЕ УЭС ЗОНДА БК-3 
PZ                 .ohm.m                                  : 9 КС ПО ПОТЕНЦИАЛ-ЗОНДУ  N6.0M0.5A 
SP                 .mV                                     : 8 ПОТЕНЦИАЛ ЕСТЕСТВ. САМОПОЛЯРИЗАЦИИ 
~Ascii
# ...
2852.78    2.1419     8.7597     14.7994    13.6737    9.0298     8.3463     3.6873     6.1258     19.7605   
2852.88    2.014      8.1966     14.2149    13.1248    8.7474     8.5882     3.8816     6.0194     19.7796   
2852.98    1.9172     7.7405     13.8123    12.7226    8.5132     8.8425     4.4878     5.9362     19.7564   
2853.08    1.828      7.3741     13.6314    12.5265    8.3516     9.0472     5.4279     5.869      19.7058   
2853.18    1.7911     7.131      13.5969    12.4798    8.2376     9.198      5.2527     5.8049     19.6679   
2853.28    1.8287     7.1273     13.694     12.5204    8.1706     9.2833     4.7728     5.7408     19.674    
2853.38    1.8803     7.1132     13.9068    12.5693    8.1066     9.3228     4.7837     5.7072     19.7318   
2853.48    1.8946     6.9232     14.0951    12.5822    8.0506     9.3058     4.5736     5.702      19.8177   
2853.58    1.8946     6.7628     14.1146    12.4739    8.0313     9.2948     4.3545     5.6593     19.8999   
2853.68    1.8946     6.5869     13.9691    12.2881    8.0194     9.2616     4.6335     5.6389     19.956    
2853.78    1.8545     6.3515     13.7709    12.1381    7.9561     9.165      5.2087     5.6035     19.9874   
2853.88    1.8104     6.1938     13.5677    12.0301    7.874      9.0749     5.5603     5.5676     20.0055   
2853.98    1.8281     6.2027     13.4141    12.0161    7.7751     8.9279     5.8121     5.5085     20.0169   
2854.08    1.865      6.3224     13.2744    12.0675    7.6735     8.6992     5.5867     5.4445     20.0109   
2854.18    1.9218     6.5146     13.061     12.1003    7.537      8.4788     4.6946     5.3806     19.9716   
2854.28    1.9821     6.6116     12.714     12.0669    7.3761     8.2484     4.0185     5.3165     19.9014   
2854.38    1.9639     6.4696     12.1904    11.9285    7.2747     8.086      3.6531     5.2527     19.8362   
2854.48    1.914      6.2391     11.5714    11.6161    7.1127     7.9706     3.4219     5.1896     19.8303   
2854.58    1.8335     6.0249     10.9054    11.2437    6.9937     7.933      3.2822     5.127      19.919    
2854.68    1.7608     5.7795     10.2774    10.8993    6.9023     8.0031     3.2044     5.1072     20.0951   
2854.78    1.6593     5.5208     9.7221     10.6162    6.8089     8.1931     3.2069     5.0699     20.3181   
2854.88    1.58       5.2703     9.2924     10.4136    6.793      8.5308     3.2918     5.0611     20.5513   
2854.98    1.5169     5.0734     9.0216     10.371     6.7805     9.0092     3.541      5.0911     20.7886   
2855.08    1.4729     4.9829     8.8702     10.4554    6.8497     9.4926     4.3131     5.1113     21.0563   
2855.18    1.4621     5.0345     8.8575     10.6724    6.9528     9.8536     5.4878     5.1572     21.3962   
2855.28    1.4621     5.1198     8.9766     11.0348    7.0906     10.1681    5.3042     5.1805     21.8404   
2855.38    1.5419     5.3342     9.1829     11.4647    7.261      10.4461    4.8435     5.234      22.39     
2855.48    1.6098     5.3728     9.3623     11.9015    7.3928     10.6011    5.3236     5.2965     22.9964   
2855.58    1.6243     5.3239     9.5357     12.3044    7.5369     10.6477    6.3404     5.3589     23.5655   
2855.68    1.6486     5.3488     9.6771     12.5955    7.6578     10.6561    6.8339     5.4211     23.9883   
2855.78    1.7032     5.4526     9.7874     12.7997    7.7459     10.6122    7.0913     5.4409     24.1903   
2855.88    1.7662     5.5787     9.9137     13.019     7.7531     10.4397    7.0096     5.4792     24.1604   
2855.98    1.8294     5.7498     10.0918    13.1757    7.6904     10.2399    6.1899     5.4668     23.9401   
2856.08    1.9047     5.9926     10.2381    13.1481    7.6045     10.0372    4.9114     5.4106     23.5872   
2856.18    1.9997     6.2194     10.2308    12.9342    7.4726     9.8183     4.2851     5.347      23.1479   
2856.28    2.0225     6.2311     10.1151    12.5642    7.3055     9.6447     4.1528     5.3258     22.6568   
2856.38    1.9408     6.08       9.8464     12.0699    7.1111     9.5419     4.1033     5.2729     22.1499   
2856.48    1.8605     5.9678     9.4841     11.4798    6.9035     9.5128     3.9896     5.2094     21.6734   
2856.58    1.8303     5.9056     9.1063     10.9119    6.6913     9.5649     3.8663     5.1737     21.2763   
2856.68    1.7809     5.8778     8.775      10.415     6.4725     9.6775     3.6927     5.1337     20.995    
2856.78    1.7412     5.7733     8.4756     9.9899     6.2919     9.8509     3.6294     5.1166     20.8369   
2856.88    1.672      5.5809     8.2104     9.6357     6.1669     10.1153    3.7298     5.1145     20.7743   
2856.98    1.6308     5.3853     7.9831     9.3147     6.1016     10.4239    3.842      5.1145     20.754    
2857.08    1.6188     5.31       7.8168     9.0841     6.0559     10.7894    3.939      5.1145     20.7237   
2857.18    1.5841     5.2144     7.808      8.9603     6.0391     11.2522    4.2499     5.1145     20.6607   
2857.28    1.5702     5.1402     7.8673     8.9322     6.0507     11.7035    4.6638     5.1145     20.5837   
2857.38    1.5978     5.1909     7.9482     8.9063     6.1149     12.0416    4.6105     5.1572     20.5388   
2857.48    1.6199     5.276      8.0622     8.8841     6.1789     12.2749    4.2548     5.1801     20.5663   
2857.58    1.6579     5.2718     8.157      8.8771     6.2465     12.5094    3.9645     5.2335     20.679    
2857.68    1.6279     5.1006     8.1886     8.8413     6.3325     12.7639    3.9984     5.3236     20.8599   
2857.78    1.5818     4.9571     8.1917     8.8116     6.4298     12.9835    4.509      5.4086     21.0803   
2857.88    1.5702     4.9004     8.2154     8.807      6.5262     13.0817    5.4647     5.4753     21.3105   
2857.98    1.5702     4.9168     8.3335     8.853      6.5891     13.065     6.5436     5.5383     21.5239   
2858.08    1.5702     4.9724     8.5395     8.9928     6.6112     12.9291    6.7772     5.6022     21.6972   
2858.18    1.5831     5.0513     8.72       9.114      6.6968     12.7373    5.6234     5.6661     21.814    
2858.28    1.6795     5.2933     8.7767     9.1268     6.8236     12.5012    4.4907     5.7627     21.8669   
2858.38    1.7661     5.4833     8.76       9.0754     6.9522     12.3123    4.0621     5.845      21.8532   
2858.48    1.7576     5.3914     8.6623     8.9822     7.0908     12.2476    4.0249     5.9534     21.776    
2858.58    1.6998     5.1911     8.489      8.8634     7.2632     12.3491    4.2418     6.0412     21.6519   
2858.68    1.6357     4.9997     8.316      8.7956     7.4077     12.5787    5.0164     6.1571     21.5226   
2858.78    1.5718     4.8756     8.2153     8.8381     7.5657     12.8661    6.8895     6.2817     21.4451   
2858.88    1.5271     4.9314     8.2405     8.9876     7.6986     13.055     9.6693     6.4079     21.464    
2858.98    1.5411     5.1231     8.3881     9.2174     7.8674     13.0715    11.4514    6.5348     21.5766   
2859.08    1.5967     5.3783     8.6469     9.4711     8.0553     12.9508    11.0066    6.6631     21.7275   
2859.18    1.6999     5.7507     8.9407     9.6882     8.2449     12.6896    10.6761    6.8092     21.8356   
2859.28    1.8182     6.0431     9.2185     9.9243     8.4348     12.2626    11.1669    6.9387     21.8444   
2859.38    1.8986     6.2019     9.5565     10.1741    8.6259     11.8369    11.0438    7.0139     21.7528   
2859.48    1.9628     6.3798     9.8864     10.4457    8.8167     11.4486    10.2156    7.0352     21.608    
2859.58    2.0266     6.6304     10.2186    10.7164    8.9954     11.081     9.5431     7.0374     21.4684   
2859.68    2.0902     6.8865     10.6328    11.0408    9.1252     10.7767    9.6062     7.0091     21.3697   
2859.78    2.1584     7.1756     11.0879    11.3687    9.2239     10.4762    9.6766     6.8965     21.3171   
2859.88    2.2576     7.5597     11.4975    11.7012    9.2508     10.1917    8.4065     6.7385     21.2991   
2859.98    2.3592     8.0487     11.8663    11.9227    9.2148     9.8895     6.8288     6.5924     21.2983   
