~Version
 VERS              .         2.0                           : CWLS LOG ASCII STANDARD - VERSION 2.0
 WRAP              .         NO                            : ONE LINE PER DEPTH STEP
 DLM               .         SPACE                         : DELIMITING CHARACTER(SPACE TAB OR COMMA)
~Well Information
#_______________________________________________________________________________
#
#PARAMETER_NAME    .UNIT     VALUE                         : DESCRIPTION
#_______________________________________________________________________________
STRT               .m        2779.78                       : First reference value
STOP               .m        3001.08                       : Last reference value
STEP               .m        0.1                           : Step increment
NULL               .         -9999                         : Missing value
COMP               .                                       : Company
WELL               .         201                           : Well name
FLD                .                                       : Field
LOC                .                                       : Location
CNTY               .                                       : County
STAT               .                                       : State
CTRY               .                                       : Country
SRVC               .                                       : Service Company
DATE               .                                       : Date
API                .                                       : API number
EREF               .m        139.76                        : 
Pad                .         2                             : 
X                  .m        228492                        : 
Y                  .m        241733                        : 
group              .         Pad2                          : 
Интер-р            .         Ярышев                        : 
Куст               .         2                             : 
Статус             .         Не проверено                  : 
Тип                .         Эксплуатация                  : 
~Parameter Information Block
#_______________________________________________________________________________
#
#PARAMETER_NAME    .UNIT     VALUE                         : DESCRIPTION
#_______________________________________________________________________________
SET                .         LAS4                          : 
REAL_CREATION_DATE .         Ср апр 11 2012-13_17_07       : 
TLFamily_DEPTH     .         Measured Depth                : 
TLFamily_GZ1       .         Extra Shallow Resistivity     : 
TLFamily_GZ2       .         Shallow Resistivity           : 
TLFamily_GZ3       .         Medium Resistivity            : 
TLFamily_GZ4       .         Deep Resistivity              : 
TLFamily_GZ5       .         Extra Deep Resistivity        : 
TLFamily_GZB       .         Medium Resistivity Inverted   : 
TLFamily_LLD       .         Lateral Log Resistivity       : 
TLFamily_PZ        .         Potential Resistivity         : 
TLFamily_SP        .         Spontaneous Potential         : 
group              .         INI                           : 
~Curve Information
#_______________________________________________________________________________
#
#LOGNAME           .UNIT     LOG_ID                        : DESCRIPTION
#_______________________________________________________________________________
DEPTH              .m                                      : 1 Depth 
GZ1                .ohm.m                                  : 2 КС ПО ГРАДИЕНТ-ЗОНДА  A0.4M0.1N 
GZ2                .ohm.m                                  : 3 КС ПО ГРАДИЕНТ-ЗОНДА  A1.0M0.1N 
GZ3                .ohm.m                                  : 4 КС ПО ГРАДИЕНТ-ЗОНДА  A2.0M0.5N 
GZ4                .ohm.m                                  : 5 КС ПО ГРАДИЕНТ-ЗОНДА  A4.0M0.5N 
GZ5                .ohm.m                                  : 6 КС ПО ГРАДИЕНТ-ЗОНДА  A8.0M0.5N 
GZB                .ohm.m                                  : 7 КС ПО ГРАДИЕНТ-ЗОНДА  N0.5M2.0A 
LLD                .ohm.m                                  : 11 ДАННЫЕ УЭС ЗОНДА БК-3 
PZ                 .ohm.m                                  : 9 КС ПО ПОТЕНЦИАЛ-ЗОНДУ  N6.0M0.5A 
SP                 .mV                                     : 8 ПОТЕНЦИАЛ ЕСТЕСТВ. САМОПОЛЯРИЗАЦИИ 
~Ascii
# ...
2962.28    2.3084     9.7906     23.0315    27.7955    20.5217    21.5839    20.0876    9.2491     50.0946   
2962.38    2.3698     9.9952     23.5286    28.9025    20.3777    21.143     17.8777    9.1887     50.0787   
2962.48    2.4094     10.2697    23.7978    29.6949    20.0451    20.572     15.3925    9.1154     49.984    
2962.58    2.5048     10.5583    23.7678    30.0721    19.5413    20.0349    10.0211    9.014      49.7841   
2962.68    2.5426     10.5379    23.4988    30.0712    18.9305    19.8298    6.7185     8.9408     49.4921   
2962.78    2.5131     10.2978    22.9227    29.6799    18.2041    19.9299    5.4136     8.8764     49.1738   
2962.88    2.4087     9.7991     22.041     28.9177    17.4151    20.1922    5.7055     8.8121     48.9271   
2962.98    2.2784     9.3626     20.9939    27.9851    16.5236    20.5806    6.2261     8.7572     48.8379   
2963.08    2.186      8.9894     19.9725    27.1144    15.5893    20.8428    6.8774     8.7666     48.9269   
2963.18    2.0799     8.6319     19.1746    26.3842    14.7155    20.7264    8.5394     8.8242     49.1378   
2963.28    2.0152     8.4183     18.5147    25.5994    13.9316    20.3788    9.9056     8.8902     49.3779   
2963.38    2.0028     8.372      17.9321    24.8822    13.2686    19.9634    9.2336     9.0066     49.589    
2963.48    2.0028     8.2159     17.4675    24.3567    12.7273    19.5186    8.3749     9.1378     49.7825   
2963.58    1.9584     7.9273     17.057     23.7828    12.2843    19.112     8.4976     9.2419     50.011    
2963.68    1.9235     7.723      16.65      23.1457    11.9178    18.7965    9.1906     9.3137     50.307    
2963.78    1.9391     7.5866     16.3506    22.6365    11.5969    18.5958    9.7632     9.3785     50.6483   
2963.88    1.9487     7.4917     16.2035    22.3004    11.3202    18.519     10.648     9.443      50.9812   
2963.98    1.9513     7.5188     16.1739    22.0993    11.1032    18.4566    11.5557    9.5073     51.2619   
2964.08    1.9982     7.6663     16.2652    21.9866    11.0202    18.3441    12.1133    9.5717     51.4826   
2964.18    2.0451     7.8571     16.4157    21.9137    10.9176    18.2148    12.3922    9.6374     51.6593   
2964.28    2.0828     8.037      16.6009    21.8044    10.8208    18.0859    12.2412    9.6967     51.8102   
2964.38    2.1407     8.1794     16.8343    21.6583    10.7293    17.9943    11.8214    9.7082     51.9418   
2964.48    2.1702     8.3082     16.9881    21.4514    10.603     17.9341    10.9635    9.7342     52.0484   
2964.58    2.2056     8.4361     16.9919    21.1689    10.4714    17.9506    9.4872     9.7574     52.1165   
2964.68    2.196      8.5122     16.8658    20.8178    10.3401    18.0813    8.0218     9.7636     52.1322   
2964.78    2.1401     8.3603     16.6515    20.4709    10.2098    18.2703    7.7918     9.8049     52.0966   
2964.88    2.0759     8.142      16.3625    20.0798    10.092     18.5076    9.2089     9.815      52.031    
2964.98    2.0569     8.09       16.1131    19.7164    10.0046    18.7233    10.6116    9.815      51.9664   
2965.08    2.0569     8.1648     16.0523    19.5425    9.8826     18.8986    10.7963    9.8538     51.9132   
2965.18    2.0569     8.2068     16.1734    19.5222    9.8075     18.9769    11.3461    9.8735     51.8508   
2965.28    2.0569     8.2119     16.2241    19.5266    9.7945     18.9892    11.4215    9.876      51.7395   
2965.38    2.0569     8.3248     16.3282    19.5533    9.7402     18.9908    11.0533    9.9127     51.5549   
2965.48    2.0947     8.402      16.5096    19.5648    9.7177     19.0368    10.8148    9.9487     51.3034   
2965.58    2.1255     8.4144     16.7069    19.5651    9.6581     19.067     10.5726    9.9713     51.0159   
2965.68    2.155      8.4051     16.8805    19.5763    9.621      19.0515    10.0201    9.9753     50.7287   
2965.78    2.165      8.3566     16.9246    19.4293    9.5841     19.0763    9.314      9.9753     50.4656   
2965.88    2.1352     8.3676     16.7945    19.1613    9.5794     19.0993    8.7185     9.9984     50.2345   
2965.98    2.1654     8.471      16.5586    18.85      9.6098     19.1224    8.4551     10.0238    50.0226   
2966.08    2.1123     8.1592     16.3009    18.5262    9.7087     19.1501    8.6435     10.0287    49.8111   
2966.18    2.0362     7.8084     15.966     18.1482    9.8475     19.2799    8.6932     10.0714    49.582    
2966.28    1.971      7.6313     15.6006    17.7869    10.0167    19.4691    9.0178     10.0992    49.3399   
2966.38    1.9429     7.5786     15.3073    17.6304    10.171     19.7726    9.4527     10.1562    49.109    
2966.48    1.908      7.4913     15.1066    17.6796    10.4001    20.2269    10.3374    10.185     48.9333   
2966.58    1.8946     7.3665     14.9854    17.8076    10.6988    20.8336    10.8233    10.2317    48.8516   
2966.68    1.8586     7.2585     14.9411    17.9839    11.0382    21.5356    10.6513    10.2589    48.8759   
2966.78    1.8479     7.2118     14.9366    18.1983    11.4375    22.2566    10.5981    10.3145    48.9678   
2966.88    1.8813     7.3445     14.9825    18.4136    11.9176    22.9539    10.2723    10.3787    49.049    
2966.98    1.8946     7.4054     15.0644    18.6856    12.4723    23.6536    9.8583     10.4431    49.0404   
2967.08    1.8946     7.3753     15.1316    18.9464    13.1031    24.2982    9.9299     10.4988    48.9111   
2967.18    1.8946     7.3623     15.1489    19.1911    13.7979    24.8608    10.3264    10.5465    48.6993   
2967.28    1.9245     7.3623     15.1542    19.4927    14.5267    25.4089    11.034     10.6324    48.486    
2967.38    1.9074     7.319      15.1887    19.8541    15.3511    26.0482    12.0925    10.7044    48.3441   
2967.48    1.8696     7.2559     15.1789    20.2553    16.2671    26.7788    12.6824    10.8197    48.294    
2967.58    1.8461     7.1707     15.1875    20.7595    17.2589    27.6539    12.5379    10.9349    48.3024   
2967.68    1.8406     7.083      15.2912    21.3784    18.45      28.6662    11.7915    11.0099    48.3175   
2967.78    1.8406     7.1236     15.5272    22.1358    19.8422    29.7589    10.8167    11.1104    48.3122   
2967.88    1.8639     7.3382     15.8585    22.9701    21.3946    30.8292    10.3183    11.1504    48.3037   
2967.98    1.9198     7.6271     16.2627    24.0153    23.0148    31.9583    11.5645    11.2583    48.3323   
2968.08    1.9838     7.8        16.7428    25.2448    24.7101    33.2913    13.2487    11.3678    48.4235   
2968.18    2.0028     7.8357     17.1221    26.4684    26.5538    34.5738    13.6109    11.4985    48.5523   
2968.28    2.0028     7.8988     17.3885    27.687     28.5802    35.5708    13.9878    11.6438    48.6537   
2968.38    1.9772     7.8204     17.5757    28.8542    30.6168    36.3317    16.2784    11.8265    48.6649   
2968.48    1.9201     7.7071     17.7596    29.9765    32.664     36.9606    24.3985    12.023     48.5787   
2968.58    1.8964     7.6779     17.9171    31.1038    34.7201    37.5792    51.3336    12.2686    48.4493   
2968.68    1.8568     7.6043     18.3352    33.12      36.8817    38.1536    72.5055    12.5466    48.3516   
2968.78    1.8103     7.5727     18.7963    34.6612    39.8377    38.1969    66.9157    13.0607    48.3217   
2968.88    1.7906     7.6475     19.3162    35.8575    41.3384    37.808     56.5583    13.3816    48.3393   
2968.98    1.8797     8.0775     19.9595    36.8846    42.5905    36.8648    69.8426    13.6401    48.3527   
2969.08    2.0105     8.5853     20.5782    37.8288    43.5924    35.345     106.1902   13.9389    48.3246   
2969.18    2.1413     9.0009     21.2121    38.7655    44.3295    33.4175    122.7241   14.174     48.2583   
2969.28    2.1745     9.1834     21.7571    39.389     44.9271    31.4299    138.7701   14.4156    48.195    
2969.38    2.2088     9.4193     22.1107    39.6272    45.3856    29.3683    109.7816   14.5998    48.1846   
2969.48    2.2719     9.6648     22.4592    39.6985    45.0915    27.3931    55.957     14.7394    48.2477   
