~Version
 VERS              .         2.0                           : CWLS LOG ASCII STANDARD - VERSION 2.0
 WRAP              .         NO                            : ONE LINE PER DEPTH STEP
 DLM               .         SPACE                         : DELIMITING CHARACTER(SPACE TAB OR COMMA)
~Well Information
#_______________________________________________________________________________
#
#PARAMETER_NAME    .UNIT     VALUE                         : DESCRIPTION
#_______________________________________________________________________________
STRT               .m        2779.78                       : First reference value
STOP               .m        3001.08                       : Last reference value
STEP               .m        0.1                           : Step increment
NULL               .         -9999                         : Missing value
COMP               .                                       : Company
WELL               .         201                           : Well name
FLD                .                                       : Field
LOC                .                                       : Location
CNTY               .                                       : County
STAT               .                                       : State
CTRY               .                                       : Country
SRVC               .                                       : Service Company
DATE               .                                       : Date
API                .                                       : API number
EREF               .m        139.76                        : 
Pad                .         2                             : 
X                  .m        228492                        : 
Y                  .m        241733                        : 
group              .         Pad2                          : 
Интер-р            .         Ярышев                        : 
Куст               .         2                             : 
Статус             .         Не проверено                  : 
Тип                .         Эксплуатация                  : 
~Parameter Information Block
#_______________________________________________________________________________
#
#PARAMETER_NAME    .UNIT     VALUE                         : DESCRIPTION
#_______________________________________________________________________________
SET                .         LAS4                          : 
REAL_CREATION_DATE .         Ср апр 11 2012-13_17_07       : 
TLFamily_DEPTH     .         Measured Depth                : 
TLFamily_GZ1       .         Extra Shallow Resistivity     : 
TLFamily_GZ2       .         Shallow Resistivity           : 
TLFamily_GZ3       .         Medium Resistivity            : 
TLFamily_GZ4       .         Deep Resistivity              : 
TLFamily_GZ5       .         Extra Deep Resistivity        : 
TLFamily_GZB       .         Medium Resistivity Inverted   : 
TLFamily_LLD       .         Lateral Log Resistivity       : 
TLFamily_PZ        .         Potential Resistivity         : 
TLFamily_SP        .         Spontaneous Potential         : 
group              .         INI                           : 
~Curve Information
#_______________________________________________________________________________
#
#LOGNAME           .UNIT     LOG_ID                        : DESCRIPTION
#_______________________________________________________________________________
DEPTH              .m                                      : 1 Depth 
GZ1                .ohm.m                                  : 2 КС ПО ГРАДИЕНТ-ЗОНДА  A0.4M0.1N 
GZ2                .ohm.m                                  : 3 КС ПО ГРАДИЕНТ-ЗОНДА  A1.0M0.1N 
GZ3                .ohm.m                                  : 4 КС ПО ГРАДИЕНТ-ЗОНДА  A2.0M0.5N 
GZ4                .ohm.m                                  : 5 КС ПО ГРАДИЕНТ-ЗОНДА  A4.0M0.5N 
GZ5                .ohm.m                                  : 6 КС ПО ГРАДИЕНТ-ЗОНДА  A8.0M0.5N 
GZB                .ohm.m                                  : 7 КС ПО ГРАДИЕНТ-ЗОНДА  N0.5M2.0A 
LLD                .ohm.m                                  : 11 ДАННЫЕ УЭС ЗОНДА БК-3 
PZ                 .ohm.m                                  : 9 КС ПО ПОТЕНЦИАЛ-ЗОНДУ  N6.0M0.5A 
SP                 .mV                                     : 8 ПОТЕНЦИАЛ ЕСТЕСТВ. САМОПОЛЯРИЗАЦИИ 
~Ascii
# ...
2874.68    1.8406     6.3679     10.4787    9.1769     5.6884     10.3802    4.6123     5.702      48.8256   
2874.78    1.8406     6.3186     10.5273    9.1247     5.6364     10.4139    4.729      5.702      48.8479   
2874.88    1.8406     6.3102     10.6311    9.062      5.6163     10.4571    4.7615     5.702      48.9243   
2874.98    1.8406     6.2734     10.6957    9.0396     5.5539     10.4732    4.6928     5.702      49.0323   
2875.08    1.8406     6.2494     10.7831    9.0267     5.4912     10.4596    4.5644     5.702      49.1268   
2875.18    1.8406     6.2173     10.852     8.9961     5.4189     10.4298    4.4258     5.702      49.1742   
2875.28    1.8406     6.205      10.8519    8.9592     5.3177     10.3926    4.4019     5.702      49.1697   
2875.38    1.8406     6.205      10.8007    8.9006     5.2465     10.3364    4.415      5.702      49.1395   
2875.48    1.8406     6.205      10.6789    8.8358     5.1829     10.2764    4.4213     5.702      49.1151   
2875.58    1.8406     6.1604     10.5034    8.774      5.1196     10.2589    4.4418     5.7293     49.1165   
2875.68    1.8229     6.0754     10.3113    8.7125     5.0567     10.2589    4.5952     5.7516     49.1416   
2875.78    1.7952     6.0472     10.0996    8.6506     5.0041     10.2828    4.7872     5.7555     49.1779   
2875.88    1.7865     6.0472     9.9806     8.62       4.9826     10.3376    4.8175     5.7485     49.2105   
2875.98    1.7865     6.0472     9.9577     8.6533     4.9258     10.4751    4.9554     5.711      49.2324   
2876.08    1.7926     6.1351     9.9577     8.7223     4.883      10.6077    4.7217     5.702      49.2448   
2876.18    1.827      6.3058     9.9967     8.8172     4.8511     10.674     4.2343     5.6706     49.2524   
2876.28    1.8406     6.38       10.0409    8.8919     4.7879     10.6874    4.125      5.6515     49.2528   
2876.38    1.8684     6.4305     10.0085    8.8972     4.7354     10.6874    4.2353     5.6486     49.234    
2876.48    1.8904     6.4031     9.9455     8.883      4.715      10.6874    4.3499     5.6486     49.1828   
2876.58    1.8531     6.26       9.8544     8.8423     4.6519     10.6537    4.3432     5.6486     49.1004   
2876.68    1.8012     6.1689     9.7703     8.816      4.5892     10.6844    4.2178     5.6229     49.0066   
2876.78    1.7865     6.1655     9.7034     8.7849     4.519      10.7298    4.1956     5.5995     48.9343   
2876.88    1.7865     6.1747     9.651      8.7975     4.4233     10.7923    4.2295     5.5952     48.9122   
2876.98    1.7865     6.1054     9.5997     8.8208     4.3494     10.8703    4.2622     5.5952     48.9529   
2877.08    1.7504     6.0214     9.52       8.7882     4.3018     10.9383    4.3008     5.5952     49.0426   
2877.18    1.7332     5.9518     9.4142     8.736      4.2972     11.0092    4.3598     5.6228     49.1431   
2877.28    1.7324     5.8653     9.3314     8.7051     4.2726     11.1353    4.4398     5.6448     49.2094   
2877.38    1.7324     5.8368     9.2659     8.677      4.2397     11.2914    4.4616     5.6486     49.2142   
2877.48    1.7324     5.8368     9.22       8.6387     4.2028     11.4285    4.3958     5.6486     49.1676   
2877.58    1.7324     5.8079     9.2085     8.583      4.2064     11.556     4.3222     5.6486     49.1109   
2877.68    1.7324     5.7876     9.2085     8.5582     4.2525     11.7227    4.2912     5.6717     49.0973   
2877.78    1.7324     5.7842     9.1715     8.523      4.2811     11.869     4.2988     5.6971     49.1639   
2877.88    1.7324     5.7842     9.1552     8.4916     4.3509     11.9986    4.3636     5.7409     49.3144   
2877.98    1.7052     5.7604     9.1417     8.4645     4.4549     12.1581    4.5047     5.7587     49.5087   
2878.08    1.6829     5.7064     9.1118     8.4874     4.5791     12.3439    4.6918     5.7993     49.6756   
2878.18    1.6784     5.6807     9.1015     8.5465     4.7062     12.5736    5.0299     5.8283     49.7479   
2878.28    1.6784     5.6488     9.1709     8.6622     4.8333     12.8126    5.5415     5.8837     49.7062   
2878.38    1.6784     5.6796     9.2919     8.8495     4.9683     13.0879    5.6071     5.9118     49.5992   
2878.48    1.6784     5.7414     9.4724     9.0862     5.1265     13.3276    5.3142     5.9582     49.5142   
2878.58    1.7096     5.8564     9.6754     9.3347     5.2679     13.4887    5.1621     6.0189     49.5247   
2878.68    1.7672     6.0293     9.8466     9.5487     5.3926     13.5534    5.0466     6.0815     49.6461   
2878.78    1.7864     6.0956     9.968      9.7354     5.5005     13.5179    5.0075     6.1442     49.8423   
2878.88    1.7865     6.0998     10.0436    9.856      5.5851     13.3978    5.1537     6.2074     50.052    
2878.98    1.7865     6.0831     10.0213    9.8844     5.6748     13.2537    5.4995     6.2713     50.2242   
2879.08    1.7865     6.0323     9.9715     9.8844     5.7282     13.1746    6.107      6.3784     50.3315   
2879.18    1.7525     5.9699     9.9336     9.8844     5.7521     13.1911    7.4192     6.4534     50.3767   
2879.28    1.772      5.9814     9.9099     9.9286     5.8087     13.2257    7.1122     6.5172     50.3804   
2879.38    1.7865     6.0375     9.981      10.0353    5.8523     13.1932    6.3287     6.5513     50.3613   
2879.48    1.8054     6.149      10.1012    10.1607    5.8866     13.0838    6.609      6.5935     50.3135   
2879.58    1.8584     6.3862     10.24      10.285     5.9511     12.9433    6.8023     6.6529     50.2168   
2879.68    1.9222     6.5682     10.4359    10.4384    6.0186     12.7618    6.6217     6.7066     50.0681   
2879.78    1.9465     6.6541     10.6512    10.5829    6.082      12.5658    6.4495     6.734      49.9112   
2879.88    1.9567     6.7986     10.8152    10.7046    6.1329     12.4043    6.2144     6.739      49.8173   
2879.98    2.0051     6.9854     10.9882    10.7967    6.1416     12.2706    5.9527     6.7214     49.8365   
2880.08    2.0471     7.1374     11.1661    10.8893    6.1436     12.1211    5.5706     6.7169     49.9546   
2880.18    2.0569     7.247      11.3066    10.9352    6.1198     11.9115    5.3367     6.6742     50.101    
2880.28    2.0934     7.3315     11.4091    10.908     6.1109     11.7063    5.3686     6.6466     50.196    
2880.38    2.0725     7.3615     11.4814    10.887     6.0929     11.5371    5.0682     6.6166     50.2051   
2880.48    2.0569     7.3997     11.5442    10.8411    6.0537     11.3976    4.9357     6.5756     50.1616   
2880.58    2.0569     7.4296     11.6132    10.7793    6.0159     11.2832    4.7503     6.516      50.1422   
2880.68    2.0569     7.4795     11.7098    10.7175    5.9531     11.2314    4.5914     6.4521     50.217    
2880.78    2.0569     7.5136     11.8052    10.6551    5.8906     11.188     4.3806     6.3879     50.4003   
2880.88    2.0569     7.4845     11.8949    10.5577    5.8314     11.1705    4.2478     6.3232     50.6397   
2880.98    2.0417     7.4246     11.933     10.4309    5.7936     11.1554    4.4507     6.2937     50.8458   
2881.08    2.0125     7.3607     11.8928    10.2674    5.7867     11.1259    4.588      6.2469     50.9459   
2881.18    1.9711     7.2305     11.7832    10.0969    5.7554     11.1454    4.973      6.2362     50.9238   
2881.28    1.9135     7.0351     11.6552    9.9142     5.7407     11.2031    5.336      6.214      50.8237   
2881.38    1.8833     6.8401     11.5537    9.8005     5.7523     11.3515    5.2501     6.1879     50.7168   
2881.48    1.8519     6.7396     11.4825    9.7108     5.7936     11.5161    4.9271     6.1828     50.6565   
2881.58    1.8406     6.7058     11.4986    9.7128     5.8001     11.6504    4.7404     6.1763     50.6506   
2881.68    1.8406     6.7216     11.6017    9.7457     5.8301     11.769     4.8649     6.1384     50.6716   
2881.78    1.8784     6.7927     11.7134    9.7979     5.857      11.8472    5.3066     6.1533     50.6876   
2881.88    1.8946     6.826      11.7458    9.827      5.8994     11.8781    5.673      6.1781     50.6967   
