~Version
 VERS              .         2.0                           : CWLS LOG ASCII STANDARD - VERSION 2.0
 WRAP              .         NO                            : ONE LINE PER DEPTH STEP
 DLM               .         SPACE                         : DELIMITING CHARACTER(SPACE TAB OR COMMA)
~Well Information
#_______________________________________________________________________________
#
#PARAMETER_NAME    .UNIT     VALUE                         : DESCRIPTION
#_______________________________________________________________________________
STRT               .m        2818                          : First reference value
STOP               .m        3000                          : Last reference value
STEP               .m        0.2                           : Step increment
NULL               .         -9999                         : Missing value
COMP               .                                       : Company
WELL               .         201                           : Well name
FLD                .                                       : Field
LOC                .                                       : Location
CNTY               .                                       : County
STAT               .                                       : State
CTRY               .                                       : Country
SRVC               .                                       : Service Company
DATE               .                                       : Date
API                .                                       : API number
EREF               .m        139.76                        : 
Pad                .         2                             : 
X                  .m        228492                        : 
Y                  .m        241733                        : 
group              .         Pad2                          : 
Интер-р            .         Ярышев                        : 
Куст               .         2                             : 
Статус             .         Не проверено                  : 
Тип                .         Эксплуатация                  : 
~Parameter Information Block
#_______________________________________________________________________________
#
#PARAMETER_NAME    .UNIT     VALUE                         : DESCRIPTION
#_______________________________________________________________________________
SET                .         LAS2                          : 
REAL_CREATION_DATE .         Ср апр 11 2012-13_17_07       : 
TLFamily_DEPTH     .         Measured Depth                : 
TLFamily_GR        .         Gamma Ray                     : 
TLFamily_TNPH      .         Neutron Porosity              : 
group              .         INI                           : 
~Curve Information
#_______________________________________________________________________________
#
#LOGNAME           .UNIT     LOG_ID                        : DESCRIPTION
#_______________________________________________________________________________
DEPTH              .m                                      : 1 Depth 
GR                 .gAPI                                   :  
TNPH               .v/v                                    : 5 Hydrogen Content 
~Ascii
# ...
2915.2     165.681    0.1967    
2915.4     170.352    0.2069    
2915.6     161.888    0.2187    
2915.8     152.735    0.2144    
2916       147.242    0.2093    
2916.2     144.991    0.1998    
2916.4     142.466    0.1955    
2916.6     144.225    0.1986    
2916.8     149.309    0.1981    
2917       148.806    0.1971    
2917.2     143.336    0.2075    
2917.4     139.901    0.2133    
2917.6     141.81     0.2031    
2917.8     142.745    0.1916    
2918       141.932    0.1868    
2918.2     142.026    0.1912    
2918.4     141.628    0.1963    
2918.6     143.514    0.204     
2918.8     142.887    0.2143    
2919       140.795    0.2233    
2919.2     138.822    0.2259    
2919.4     137.456    0.2222    
2919.6     140.579    0.2108    
2919.8     146.186    0.2025    
2920       149.115    0.2002    
2920.2     149.46     0.2032    
2920.4     146.199    0.2116    
2920.6     140.444    0.214     
2920.8     132.008    0.212     
2921       120.128    0.197     
2921.2     106.694    0.176     
2921.4     90.844     0.1676    
2921.6     103.164    0.1702    
2921.8     146.054    0.1754    
2922       146.028    0.1933    
2922.2     142.645    0.2027    
2922.4     144.147    0.205     
2922.6     142.92     0.2001    
2922.8     139.05     0.2034    
2923       137.225    0.2214    
2923.2     137.298    0.2217    
2923.4     138.311    0.2277    
2923.6     136.593    0.2296    
2923.8     134.121    0.2178    
2924       133.276    0.2106    
2924.2     131.447    0.2058    
2924.4     133.785    0.1967    
2924.6     137.746    0.1927    
2924.8     144.49     0.1974    
2925       146.019    0.2079    
2925.2     142.623    0.2259    
2925.4     141.113    0.2282    
2925.6     141.524    0.2174    
2925.8     142.794    0.2099    
2926       146.468    0.2004    
2926.2     154.802    0.1918    
2926.4     159.85     0.188     
2926.6     159.389    0.1982    
2926.8     156.295    0.2165    
2927       156.367    0.2172    
2927.2     157.982    0.2074    
2927.4     158.191    0.2017    
2927.6     155.758    0.2007    
2927.8     152.2      0.2012    
2928       150.802    0.2096    
2928.2     149.272    0.2124    
2928.4     146.638    0.2135    
2928.6     141.907    0.2192    
2928.8     136.68     0.214     
2929       135.353    0.2145    
2929.2     133.697    0.2151    
2929.4     134.382    0.2082    
2929.6     138.092    0.2013    
2929.8     140.074    0.1984    
2930       140.09     0.208     
2930.2     140.729    0.2125    
2930.4     141.635    0.2004    
2930.6     141.248    0.1985    
2930.8     142.638    0.2071    
2931       143.685    0.2181    
2931.2     144.215    0.2316    
2931.4     145.002    0.2416    
2931.6     144.74     0.2414    
2931.8     144.118    0.2295    
2932       145.511    0.2232    
2932.2     145.926    0.227     
2932.4     144.518    0.226     
2932.6     144.714    0.2239    
2932.8     148.737    0.2202    
2933       149.205    0.2211    
2933.2     149.868    0.2296    
2933.4     149.93     0.2245    
2933.6     146.573    0.2223    
2933.8     144.68     0.2227    
2934       146.966    0.2267    
2934.2     149.198    0.2237    
2934.4     149.727    0.2208    
2934.6     149.752    0.226     
2934.8     147.904    0.2252    
2935       144.645    0.2143    
2935.2     140.673    0.2071    
2935.4     139.959    0.1953    
2935.6     143.84     0.17      
2935.8     148.783    0.145     
2936       148.744    0.132     
2936.2     139.434    0.1215    
2936.4     107.016    0.1119    
2936.6     78.548     0.1063    
2936.8     74.744     0.1086    
2937       83.07      0.1267    
2937.2     93.769     0.1486    
2937.4     97.951     0.1625    
2937.6     94.665     0.1683    
2937.8     90.729     0.1678    
2938       90.487     0.1636    
2938.2     91.37      0.1586    
2938.4     91.23299   0.1544    
2938.6     90.813     0.154     
2938.8     91.416     0.1555    
2939       91.84399   0.1574    
2939.2     89.452     0.154     
2939.4     86.128     0.151     
2939.6     81.84399   0.1521    
2939.8     76.42101   0.1511    
2940       71.696     0.1455    
2940.2     69.119     0.1375    
2940.4     67.23601   0.1294    
2940.6     58.487     0.1196    
2940.8     50.368     0.1086    
2941       46.616     0.0994    
2941.2     44.905     0.0899    
2941.4     43.372     0.0878    
2941.6     46.425     0.0957    
2941.8     54.03      0.1119    
2942       60.161     0.1218    
2942.2     63.088     0.1143    
2942.4     63.009     0.1021    
2942.6     58.856     0.0931    
2942.8     52.512     0.0838    
2943       47.14      0.0762    
2943.2     44.704     0.0725    
2943.4     47.666     0.0772    
2943.6     49.371     0.0913    
2943.8     52.436     0.1062    
2944       55.549     0.1201    
2944.2     60.386     0.1341    
2944.4     64.629     0.1394    
2944.6     64.81599   0.1417    
2944.8     61.484     0.1437    
2945       58.906     0.1434    
2945.2     60.265     0.1466    
2945.4     62.73      0.1497    
2945.6     61.753     0.1464    
2945.8     60.359     0.145     
2946       58.912     0.1482    
2946.2     54.153     0.1474    
2946.4     51.808     0.1437    
2946.6     50.265     0.1437    
2946.8     48.782     0.1484    
2947       48.62      0.1495    
2947.2     48.909     0.1508    
2947.4     50.875     0.1481    
2947.6     51.323     0.1448    
2947.8     49.151     0.1414    
2948       47.261     0.134     
2948.2     45.706     0.1182    
2948.4     41.758     0.1062    
2948.6     38.66      0.0964    
2948.8     36.846     0.0844    
2949       33.679     0.0745    
2949.2     31.878     0.0739    
2949.4     30.189     0.0802    
2949.6     28.408     0.0871    
2949.8     28.25      0.0814    
2950       30.422     0.0604    
2950.2     33.803     0.0483    
2950.4     35.14      0.0515    
2950.6     37.315     0.0649    
2950.8     42.87      0.0905    
2951       48.754     0.1216    
2951.2     59.657     0.15      
2951.4     75.08701   0.1752    
2951.6     91.479     0.1947    
2951.8     95.915     0.1962    
2952       90.121     0.186     
2952.2     70.27      0.1689    
2952.4     64.794     0.1515    
2952.6     61.37901   0.1383    
2952.8     61.473     0.1281    
2953       60.592     0.1185    
2953.2     52.242     0.1089    
2953.4     43.496     0.1004    
2953.6     39.733     0.096     
2953.8     43.445     0.0975    
2954       53.212     0.1059    
2954.2     72.16699   0.1204    
2954.4     92.744     0.1386    
2954.6     115.552    0.1571    
2954.8     109.966    0.1699    
2955       93.746     0.1808    
2955.2     90.125     0.1872    
2955.4     95.12801   0.1973    
2955.6     105.101    0.2011    
2955.8     111.88     0.201     
2956       110.691    0.1981    
2956.2     108.883    0.2014    
2956.4     114.462    0.2043    
2956.6     120.419    0.2136    
2956.8     126.15     0.2189    
2957       130.665    0.2192    
2957.2     126.801    0.2134    
2957.4     126.68     0.2108    
2957.6     128.443    0.2087    
2957.8     129.475    0.2119    
2958       129.361    0.2209    
2958.2     126.139    0.2198    
2958.4     116.422    0.2228    
2958.6     108.323    0.2313    
2958.8     104.817    0.2127    
2959       105.361    0.1854    
2959.2     105.493    0.1728    
2959.4     101.727    0.165     
2959.6     98.187     0.1561    
2959.8     94.48399   0.1554    
2960       93.917     0.16      
2960.2     98.49      0.1676    
2960.4     100.939    0.1768    
2960.6     100.423    0.1892    
2960.8     100.346    0.1985    
2961       104.704    0.2005    
2961.2     108.589    0.2025    
2961.4     109.093    0.2021    
2961.6     108.158    0.2025    
2961.8     110.652    0.2038    
2962       116.215    0.199     
2962.2     112.483    0.1972    
2962.4     104.803    0.1925    
2962.6     98.56499   0.1794    
2962.8     94.133     0.1741    
2963       92.683     0.1744    
2963.2     96.839     0.1786    
2963.4     102.797    0.1844    
2963.6     107.56     0.2014    
