~Version
 VERS              .         2.0                           : CWLS LOG ASCII STANDARD - VERSION 2.0
 WRAP              .         NO                            : ONE LINE PER DEPTH STEP
 DLM               .         SPACE                         : DELIMITING CHARACTER(SPACE TAB OR COMMA)
~Well Information
#_______________________________________________________________________________
#
#PARAMETER_NAME    .UNIT     VALUE                         : DESCRIPTION
#_______________________________________________________________________________
STRT               .m        2818                          : First reference value
STOP               .m        3000                          : Last reference value
STEP               .m        0.2                           : Step increment
NULL               .         -9999                         : Missing value
COMP               .                                       : Company
WELL               .         201                           : Well name
FLD                .                                       : Field
LOC                .                                       : Location
CNTY               .                                       : County
STAT               .                                       : State
CTRY               .                                       : Country
SRVC               .                                       : Service Company
DATE               .                                       : Date
API                .                                       : API number
EREF               .m        139.76                        : 
Pad                .         2                             : 
X                  .m        228492                        : 
Y                  .m        241733                        : 
group              .         Pad2                          : 
Интер-р            .         Ярышев                        : 
Куст               .         2                             : 
Статус             .         Не проверено                  : 
Тип                .         Эксплуатация                  : 
~Parameter Information Block
#_______________________________________________________________________________
#
#PARAMETER_NAME    .UNIT     VALUE                         : DESCRIPTION
#_______________________________________________________________________________
SET                .         LAS2                          : 
REAL_CREATION_DATE .         Ср апр 11 2012-13_17_07       : 
TLFamily_DEPTH     .         Measured Depth                : 
TLFamily_GR        .         Gamma Ray                     : 
TLFamily_TNPH      .         Neutron Porosity              : 
group              .         INI                           : 
~Curve Information
#_______________________________________________________________________________
#
#LOGNAME           .UNIT     LOG_ID                        : DESCRIPTION
#_______________________________________________________________________________
DEPTH              .m                                      : 1 Depth 
GR                 .gAPI                                   :  
TNPH               .v/v                                    : 5 Hydrogen Content 
~Ascii
# ...
2866.6     124.829    0.1827    
2866.8     123.812    0.1867    
2867       127.248    0.1899    
2867.2     131.619    0.1911    
2867.4     135.348    0.19      
2867.6     138.263    0.1888    
2867.8     139.912    0.1932    
2868       140.125    0.1958    
2868.2     139.579    0.1906    
2868.4     135.02     0.1854    
2868.6     129.204    0.1916    
2868.8     124.147    0.2016    
2869       121.25     0.2031    
2869.2     116.505    0.1874    
2869.4     115.9      0.1729    
2869.6     121.008    0.1808    
2869.8     128.219    0.1947    
2870       134.584    0.203     
2870.2     140.558    0.2006    
2870.4     141.678    0.2052    
2870.6     139.894    0.2146    
2870.8     135.285    0.22      
2871       128.305    0.2138    
2871.2     123.518    0.204     
2871.4     121.904    0.2011    
2871.6     124.513    0.1995    
2871.8     124.019    0.1952    
2872       117.899    0.187     
2872.2     112.272    0.1746    
2872.4     106.865    0.1654    
2872.6     101.595    0.1624    
2872.8     98.742     0.1606    
2873       101.695    0.161     
2873.2     111.644    0.1651    
2873.4     130.789    0.1742    
2873.6     138.746    0.191     
2873.8     143.298    0.2109    
2874       148.897    0.2119    
2874.2     156.049    0.2076    
2874.4     160.627    0.1991    
2874.6     162.371    0.1947    
2874.8     161.026    0.1995    
2875       159.852    0.2043    
2875.2     155.842    0.1982    
2875.4     152.246    0.1918    
2875.6     152.33     0.1942    
2875.8     148.078    0.2019    
2876       142.23     0.2112    
2876.2     138.982    0.2135    
2876.4     135.858    0.2126    
2876.6     130.857    0.2066    
2876.8     128.586    0.2009    
2877       128.568    0.2037    
2877.2     132.058    0.1989    
2877.4     137.952    0.1882    
2877.6     145.097    0.1844    
2877.8     155.049    0.1948    
2878       168.179    0.2015    
2878.2     191.199    0.2063    
2878.4     217.079    0.2153    
2878.6     235.169    0.2164    
2878.8     232.679    0.2153    
2879       222.197    0.2151    
2879.2     216.195    0.2122    
2879.4     216.546    0.2123    
2879.6     218.756    0.2181    
2879.8     228.591    0.2198    
2880       233.762    0.2149    
2880.2     231.436    0.2129    
2880.4     223.583    0.2109    
2880.6     224.549    0.2101    
2880.8     225.347    0.2263    
2881       223.088    0.2424    
2881.2     216.127    0.2404    
2881.4     216.83     0.231     
2881.6     225.304    0.2176    
2881.8     229.692    0.2127    
2882       233.461    0.2181    
2882.2     251.501    0.2328    
2882.4     267.332    0.2355    
2882.6     275.892    0.2243    
2882.8     280.819    0.2216    
2883       281.747    0.234     
2883.2     276.194    0.238     
2883.4     268.322    0.2334    
2883.6     257.878    0.2293    
2883.8     245.507    0.2345    
2884       236.217    0.2438    
2884.2     226.315    0.237     
2884.4     217.007    0.2266    
2884.6     205.507    0.2225    
2884.8     195.654    0.2195    
2885       197.008    0.2129    
2885.2     202.261    0.2152    
2885.4     212.964    0.2155    
2885.6     234.857    0.2169    
2885.8     253.852    0.2301    
2886       273.796    0.2404    
2886.2     289.267    0.2515    
2886.4     297.895    0.2504    
2886.6     317.002    0.2367    
2886.8     350.343    0.232     
2887       389.7      0.2432    
2887.2     414.855    0.24      
2887.4     421.284    0.2306    
2887.6     412.013    0.2275    
2887.8     408.635    0.227     
2888       407.458    0.239     
2888.2     406.702    0.2425    
2888.4     413.829    0.2482    
2888.6     424.339    0.2567    
2888.8     418.328    0.2561    
2889       410.302    0.2489    
2889.2     406.859    0.2441    
2889.4     400.816    0.2354    
2889.6     377.02     0.2344    
2889.8     356.371    0.244     
2890       330.739    0.2552    
2890.2     308.695    0.2509    
2890.4     305.044    0.2348    
2890.6     320.542    0.2364    
2890.8     336.214    0.2439    
2891       346.076    0.2436    
2891.2     346.479    0.2473    
2891.4     343.38     0.2384    
2891.6     349.051    0.238     
2891.8     353.311    0.2457    
2892       349.809    0.2467    
2892.2     332.409    0.2543    
2892.4     319.486    0.2673    
2892.6     318.436    0.2747    
2892.8     315.418    0.2688    
2893       307.436    0.2523    
2893.2     300.796    0.2481    
2893.4     294.111    0.2501    
2893.6     292.461    0.2498    
2893.8     292.797    0.244     
2894       284.074    0.2353    
2894.2     267.301    0.233     
2894.4     229.582    0.2462    
2894.6     212.384    0.256     
2894.8     211.307    0.2514    
2895       218.835    0.2473    
2895.2     222.049    0.2563    
2895.4     216.975    0.2489    
2895.6     211.923    0.2437    
2895.8     212.856    0.2478    
2896       207.681    0.2469    
2896.2     199.664    0.2444    
2896.4     188.743    0.243     
2896.6     178.091    0.2356    
2896.8     169.348    0.2292    
2897       163.555    0.2303    
2897.2     156.547    0.238     
2897.4     152.558    0.2367    
2897.6     154.849    0.2277    
2897.8     160.591    0.235     
2898       163.604    0.2443    
2898.2     161.43     0.2393    
2898.4     156.407    0.233     
2898.6     147.835    0.2211    
2898.8     144.516    0.2113    
2899       156.92     0.2155    
2899.2     161.838    0.2285    
2899.4     149.416    0.233     
2899.6     145.195    0.2265    
2899.8     147.812    0.224     
2900       144.896    0.2222    
2900.2     140.072    0.2135    
2900.4     135.232    0.2081    
2900.6     129.938    0.2016    
2900.8     128.144    0.1971    
2901       128.641    0.1991    
2901.2     130.393    0.2033    
2901.4     134.917    0.2046    
2901.6     139.295    0.2098    
2901.8     137.948    0.2189    
2902       133.37     0.2215    
2902.2     130.919    0.215     
2902.4     138.845    0.2115    
2902.6     141.46     0.208     
2902.8     137.311    0.2036    
2903       134.091    0.2038    
2903.2     134.49     0.2053    
2903.4     138.348    0.2089    
2903.6     144.304    0.2121    
2903.8     149.074    0.2204    
2904       151.323    0.2296    
2904.2     151.66     0.2211    
2904.4     151.484    0.2139    
2904.6     144.493    0.2176    
2904.8     135.432    0.2224    
2905       129.895    0.226     
2905.2     131.578    0.2247    
2905.4     133.865    0.2236    
2905.6     133.141    0.2235    
2905.8     127.816    0.2274    
2906       120.831    0.2228    
2906.2     115.972    0.2195    
2906.4     114.481    0.2208    
2906.6     118.374    0.2211    
2906.8     126.066    0.2211    
2907       137.444    0.228     
2907.2     148.331    0.2305    
2907.4     158.435    0.229     
2907.6     159.327    0.2316    
2907.8     153.196    0.2377    
2908       143.695    0.2494    
2908.2     134.416    0.2565    
2908.4     121.808    0.2563    
2908.6     119.802    0.2485    
2908.8     126.504    0.2462    
2909       136.261    0.248     
2909.2     144.148    0.2569    
2909.4     156.28     0.2639    
2909.6     167.835    0.2578    
2909.8     171.294    0.253     
2910       168.24     0.2335    
2910.2     166.951    0.2276    
2910.4     170.541    0.2383    
2910.6     177.795    0.2377    
2910.8     183.322    0.2428    
2911       179.709    0.2343    
2911.2     173.567    0.2256    
2911.4     172.331    0.2311    
2911.6     175.845    0.2281    
2911.8     178.955    0.2196    
2912       185.161    0.226     
2912.2     196.258    0.2443    
2912.4     212.011    0.2664    
2912.6     215.484    0.2693    
2912.8     200.761    0.2633    
2913       176.529    0.2477    
2913.2     157.733    0.2316    
2913.4     145.738    0.2258    
2913.6     143.749    0.2215    
2913.8     140.173    0.2055    
2914       138.571    0.1999    
2914.2     142.223    0.2053    
2914.4     148.599    0.2022    
2914.6     151.77     0.2008    
2914.8     153.36     0.1957    
2915       158.661    0.1933    
