~Version
 VERS              .         2.0                           : CWLS LOG ASCII STANDARD - VERSION 2.0
 WRAP              .         NO                            : ONE LINE PER DEPTH STEP
 DLM               .         SPACE                         : DELIMITING CHARACTER(SPACE TAB OR COMMA)
~Well Information
#_______________________________________________________________________________
#
#PARAMETER_NAME    .UNIT     VALUE                         : DESCRIPTION
#_______________________________________________________________________________
STRT               .m        2779.78                       : First reference value
STOP               .m        3001.08                       : Last reference value
STEP               .m        0.1                           : Step increment
NULL               .         -9999                         : Missing value
COMP               .                                       : Company
WELL               .         201                           : Well name
FLD                .                                       : Field
LOC                .                                       : Location
CNTY               .                                       : County
STAT               .                                       : State
CTRY               .                                       : Country
SRVC               .                                       : Service Company
DATE               .                                       : Date
API                .                                       : API number
EREF               .m        139.76                        : 
Pad                .         2                             : 
X                  .m        228492                        : 
Y                  .m        241733                        : 
group              .         Pad2                          : 
Интер-р            .         Ярышев                        : 
Куст               .         2                             : 
Статус             .         Не проверено                  : 
Тип                .         Эксплуатация                  : 
~Parameter Information Block
#_______________________________________________________________________________
#
#PARAMETER_NAME    .UNIT     VALUE                         : DESCRIPTION
#_______________________________________________________________________________
SET                .         LAS4                          : 
REAL_CREATION_DATE .         Ср апр 11 2012-13_17_07       : 
TLFamily_DEPTH     .         Measured Depth                : 
TLFamily_GZ1       .         Extra Shallow Resistivity     : 
TLFamily_GZ2       .         Shallow Resistivity           : 
TLFamily_GZ3       .         Medium Resistivity            : 
TLFamily_GZ4       .         Deep Resistivity              : 
TLFamily_GZ5       .         Extra Deep Resistivity        : 
TLFamily_GZB       .         Medium Resistivity Inverted   : 
TLFamily_LLD       .         Lateral Log Resistivity       : 
TLFamily_PZ        .         Potential Resistivity         : 
TLFamily_SP        .         Spontaneous Potential         : 
group              .         INI                           : 
~Curve Information
#_______________________________________________________________________________
#
#LOGNAME           .UNIT     LOG_ID                        : DESCRIPTION
#_______________________________________________________________________________
DEPTH              .m                                      : 1 Depth 
GZ1                .ohm.m                                  : 2 КС ПО ГРАДИЕНТ-ЗОНДА  A0.4M0.1N 
GZ2                .ohm.m                                  : 3 КС ПО ГРАДИЕНТ-ЗОНДА  A1.0M0.1N 
GZ3                .ohm.m                                  : 4 КС ПО ГРАДИЕНТ-ЗОНДА  A2.0M0.5N 
GZ4                .ohm.m                                  : 5 КС ПО ГРАДИЕНТ-ЗОНДА  A4.0M0.5N 
GZ5                .ohm.m                                  : 6 КС ПО ГРАДИЕНТ-ЗОНДА  A8.0M0.5N 
GZB                .ohm.m                                  : 7 КС ПО ГРАДИЕНТ-ЗОНДА  N0.5M2.0A 
LLD                .ohm.m                                  : 11 ДАННЫЕ УЭС ЗОНДА БК-3 
PZ                 .ohm.m                                  : 9 КС ПО ПОТЕНЦИАЛ-ЗОНДУ  N6.0M0.5A 
SP                 .mV                                     : 8 ПОТЕНЦИАЛ ЕСТЕСТВ. САМОПОЛЯРИЗАЦИИ 
~Ascii
# ...
2911.18    2.0039     7.9716     16.1286    21.2345    20.3964    24.7746    14.6802    10.8205    51.9582   
2911.28    2.0164     8.1107     16.2278    21.3332    20.5409    24.5788    14.9143    10.9142    51.9331   
2911.38    2.0465     8.3027     16.3858    21.5358    20.7574    24.3091    16.1698    11.0356    51.9438   
2911.48    2.0569     8.3428     16.6428    21.8601    21.0168    23.9633    19.4468    11.1494    52.0138   
2911.58    2.0631     8.3973     16.9167    22.1942    21.2818    23.5454    19.2402    11.2489    52.1255   
2911.68    2.0974     8.5573     17.1898    22.5152    21.5705    23.1391    16.3055    11.3713    52.2409   
2911.78    2.1109     8.6637     17.5384    22.8836    21.8585    22.7255    16.095     11.4574    52.3219   
2911.88    2.1415     8.7562     17.9116    23.2984    22.1292    22.2749    16.8747    11.5661    52.357    
2911.98    2.1619     8.8794     18.2835    23.7339    22.4462    21.847     17.1232    11.6415    52.3562   
2912.08    2.1733     9.002      18.7547    24.2558    22.7673    21.3499    16.3853    11.7064    52.3396   
2912.18    2.2229     9.2578     19.2882    24.7948    23.0903    20.778     17.0406    11.7715    52.3084   
2912.28    2.3133     9.5928     19.8864    25.3007    23.4146    20.1941    21.3989    11.7901    52.2477   
2912.38    2.3737     9.8965     20.9159    26.2369    23.781     19.1636    26.3112    11.7914    52.1436   
2912.48    2.3867     9.9824     21.2771    26.5745    24.2572    18.7968    24.0669    11.7914    52.0135   
2912.58    2.4427     10.2876    21.9373    27.1515    24.6107    17.935     24.0669    11.747     51.8967   
2912.68    2.5134     10.5782    22.6109    27.7846    25.321     17.1494    18.1273    11.6845    51.8281   
2912.78    2.5404     10.7154    23.2196    28.4196    25.6944    16.5547    18.1273    11.62      51.8042   
2912.88    2.5619     10.9311    23.9037    29.0857    25.9882    15.87      13.0142    11.4974    51.7888   
2912.98    2.6442     11.3215    24.6586    29.8468    26.1959    15.1506    11.2964    11.351     51.738    
2913.08    2.7477     11.7957    25.4719    30.5783    26.2834    14.4386    10.1949    11.1674    51.6356   
2913.18    2.8373     12.2153    26.2337    31.2282    26.2192    13.7313    8.4373     10.9712    51.505    
2913.28    2.899      12.4551    26.8443    31.7016    26.0097    13.0652    7.7337     10.7737    51.3956   
2913.38    2.8819     12.4453    27.1367    31.8702    25.7136    12.4809    7.91       10.5764    51.3456   
2913.48    2.8679     12.4978    27.1225    31.6811    25.3292    11.9927    8.6362     10.3377    51.3521   
2913.58    2.8365     12.3316    26.9278    31.3679    24.8261    11.6099    9.2223     10.1321    51.3732   
2913.68    2.775      11.956     26.675     31.0494    24.2345    11.3195    8.9163     9.9393     51.3642   
2913.78    2.6725     11.6268    26.3509    30.7592    23.6075    11.0533    8.6855     9.7473     51.3143   
2913.88    2.6095     11.4874    26.1086    30.5323    22.9943    10.8024    8.4262     9.5546     51.254    
2913.98    2.5975     11.4788    26.011     30.482     22.3533    10.5909    7.8224     9.3623     51.2293   
2914.08    2.5975     11.464     26.0073    30.6222    21.7403    10.3946    7.4365     9.1673     51.2723   
2914.18    2.5622     11.395     26.0467    30.8163    21.2677    10.1586    7.4365     8.9706     51.3809   
2914.28    2.5824     11.3593    25.9889    30.919     20.8811    9.9075     7.4977     8.773      51.5217   
2914.38    2.5975     11.2461    25.8623    30.938     20.4827    9.6881     7.6233     8.5741     51.6371   
2914.48    2.5692     11.0396    25.7142    30.9162    20.0405    9.4571     7.4112     8.3688     51.6763   
2914.58    2.5475     10.839     25.4914    30.8163    19.5663    9.1997     6.774      8.1373     51.6217   
2914.68    2.5435     10.713     25.2354    30.6338    19.0567    8.935      6.3144     7.935      51.5073   
2914.78    2.5435     10.6736    24.977     30.4283    18.523     8.6705     6.2763     7.7428     51.3939   
2914.88    2.5435     10.5585    24.6913    30.222     17.9089    8.4091     5.7036     7.5453     51.3293   
2914.98    2.5118     10.3298    24.3383    29.8944    17.3068    8.1145     4.9005     7.3086     51.3172   
2915.08    2.492      10.1533    23.773     29.3488    16.664     7.8406     4.4206     7.1021     51.3195   
2915.18    2.4787     9.992      23.0722    28.6567    15.9904    7.5971     4.0703     6.9046     51.2837   
2915.28    2.4277     9.6802     22.302     27.8808    15.2814    7.4519     3.7109     6.7069     51.1726   
2915.38    2.3611     9.3277     21.4036    26.9755    14.61      7.552      3.4615     6.561      50.9885   
2915.48    2.2575     8.9578     20.3948    25.9736    13.9675    7.8693     3.4338     6.4303     50.7725   
2915.58    2.1662     8.5481     19.3656    24.9528    13.3804    8.2548     3.3993     6.3014     50.583    
2915.68    2.0664     8.15       18.4177    24.0454    12.8101    8.6104     4.0975     6.1732     50.4554   
2915.78    1.9882     7.8224     17.5854    23.2685    12.3223    8.7827     4.2857     6.088      50.3825   
2915.88    1.9233     7.5094     16.8697    22.6277    11.9251    8.8456     4.7402     5.98       50.3279   
2915.98    1.8964     7.3778     16.301     22.1366    11.5745    8.8643     5.1421     5.9044     50.2602   
2916.08    1.8564     7.2545     15.8918    21.7963    11.3189    8.8663     5.0962     5.8389     50.1768   
2916.18    1.8406     7.132      15.5991    21.526     11.0613    8.8663     5.0228     5.8123     50.0983   
2916.28    1.8665     7.0836     15.3353    21.2766    10.8113    8.8663     4.6574     5.7661     50.0559   
2916.38    1.8895     7.0093     15.0697    21.0226    10.5893    8.8663     3.9874     5.7381     50.0738   
2916.48    1.9325     6.9226     14.7913    20.6569    10.3083    8.8136     3.5853     5.7084     50.159    
2916.58    1.9641     6.8896     14.3992    20.1011    10.0123    8.7149     3.5102     5.6656     50.2895   
2916.68    1.9932     6.7715     13.9299    19.4971    9.7403     8.6865     3.4366     5.6471     50.4221   
2916.78    1.9705     6.497      13.4083    18.7918    9.428      8.7349     3.4218     5.6051     50.5112   
2916.88    1.9132     6.159      12.3853    17.3506    9.0709     8.9991     3.4997     5.517      50.5303   
2916.98    1.8489     5.9271     11.6216    16.3246    8.6055     9.2852     3.5477     5.4875     50.4754   
2917.08    1.7993     5.7956     11.1105    15.6662    8.3576     9.5714     3.9289     5.445      50.3583   
2917.18    1.7462     5.6941     10.677     15.1322    8.153      9.9223     4.6562     5.435      50.207    
2917.28    1.6822     5.6064     10.338     14.7111    7.962      10.2417    4.6562     5.435      50.0664   
2917.38    1.6559     5.6183     10.0766    14.3616    7.8045     10.4072    4.5465     5.435      49.9904   
2917.48    1.6991     5.7141     9.8495     14.037     7.7056     10.509     3.9622     5.4841     50.0135   
2917.58    1.7284     5.7735     9.6312     13.7183    7.6019     10.6313    3.8154     5.5327     50.1315   
2917.68    1.7003     5.723      9.4232     13.3524    7.5482     10.7609    4.2231     5.5642     50.2978   
2917.78    1.7057     5.5347     9.1447     12.9242    7.5268     10.8573    4.3518     5.5901     50.4488   
2917.88    1.7089     5.4529     8.9024     12.5239    7.4907     10.9746    4.283      5.6342     50.5288   
2917.98    1.7247     5.4204     8.7722     12.2288    7.4564     11.1351    4.5996     5.6904     50.5146   
2918.08    1.7324     5.3677     8.6974     11.9502    7.4453     11.2492    4.6079     5.7181     50.4224   
2918.18    1.6897     5.4297     8.6309     11.6355    7.4493     11.2838    4.326      5.7488     50.3022   
2918.28    1.6384     5.4506     8.5644     11.3809    7.4847     11.3328    4.1018     5.7555     50.2072   
2918.38    1.6243     5.3133     8.4985     11.1334    7.5888     11.4227    4.0078     5.7555     50.1631   
