~Version
 VERS              .         2.0                           : CWLS LOG ASCII STANDARD - VERSION 2.0
 WRAP              .         NO                            : ONE LINE PER DEPTH STEP
 DLM               .         SPACE                         : DELIMITING CHARACTER(SPACE TAB OR COMMA)
~Well Information
#_______________________________________________________________________________
#
#PARAMETER_NAME    .UNIT     VALUE                         : DESCRIPTION
#_______________________________________________________________________________
STRT               .m        2779.78                       : First reference value
STOP               .m        3001.08                       : Last reference value
STEP               .m        0.1                           : Step increment
NULL               .         -9999                         : Missing value
COMP               .                                       : Company
WELL               .         201                           : Well name
FLD                .                                       : Field
LOC                .                                       : Location
CNTY               .                                       : County
STAT               .                                       : State
CTRY               .                                       : Country
SRVC               .                                       : Service Company
DATE               .                                       : Date
API                .                                       : API number
EREF               .m        139.76                        : 
Pad                .         2                             : 
X                  .m        228492                        : 
Y                  .m        241733                        : 
group              .         Pad2                          : 
Интер-р            .         Ярышев                        : 
Куст               .         2                             : 
Статус             .         Не проверено                  : 
Тип                .         Эксплуатация                  : 
~Parameter Information Block
#_______________________________________________________________________________
#
#PARAMETER_NAME    .UNIT     VALUE                         : DESCRIPTION
#_______________________________________________________________________________
SET                .         LAS4                          : 
REAL_CREATION_DATE .         Ср апр 11 2012-13_17_07       : 
TLFamily_DEPTH     .         Measured Depth                : 
TLFamily_GZ1       .         Extra Shallow Resistivity     : 
TLFamily_GZ2       .         Shallow Resistivity           : 
TLFamily_GZ3       .         Medium Resistivity            : 
TLFamily_GZ4       .         Deep Resistivity              : 
TLFamily_GZ5       .         Extra Deep Resistivity        : 
TLFamily_GZB       .         Medium Resistivity Inverted   : 
TLFamily_LLD       .         Lateral Log Resistivity       : 
TLFamily_PZ        .         Potential Resistivity         : 
TLFamily_SP        .         Spontaneous Potential         : 
group              .         INI                           : 
~Curve Information
#_______________________________________________________________________________
#
#LOGNAME           .UNIT     LOG_ID                        : DESCRIPTION
#_______________________________________________________________________________
DEPTH              .m                                      : 1 Depth 
GZ1                .ohm.m                                  : 2 КС ПО ГРАДИЕНТ-ЗОНДА  A0.4M0.1N 
GZ2                .ohm.m                                  : 3 КС ПО ГРАДИЕНТ-ЗОНДА  A1.0M0.1N 
GZ3                .ohm.m                                  : 4 КС ПО ГРАДИЕНТ-ЗОНДА  A2.0M0.5N 
GZ4                .ohm.m                                  : 5 КС ПО ГРАДИЕНТ-ЗОНДА  A4.0M0.5N 
GZ5                .ohm.m                                  : 6 КС ПО ГРАДИЕНТ-ЗОНДА  A8.0M0.5N 
GZB                .ohm.m                                  : 7 КС ПО ГРАДИЕНТ-ЗОНДА  N0.5M2.0A 
LLD                .ohm.m                                  : 11 ДАННЫЕ УЭС ЗОНДА БК-3 
PZ                 .ohm.m                                  : 9 КС ПО ПОТЕНЦИАЛ-ЗОНДУ  N6.0M0.5A 
SP                 .mV                                     : 8 ПОТЕНЦИАЛ ЕСТЕСТВ. САМОПОЛЯРИЗАЦИИ 
~Ascii
# ...
2838.18    2.0028     7.2656     13.0691    13.9447    6.8449     11.9352    5.9825     6.7169     37.5591   
2838.28    2.0028     7.1891     12.9778    13.8134    6.8008     11.9328    5.8666     6.6824     37.3464   
2838.38    1.9794     7.1188     12.8725    13.7168    6.7747     11.983     5.6576     6.6656     37.1314   
2838.48    1.9549     7.0739     12.8071    13.6021    6.7526     12.0469    5.6074     6.6561     36.9209   
2838.58    1.9487     7.0831     12.7701    13.5108    6.7526     12.111     5.7581     6.6189     36.7137   
2838.68    1.9487     7.097      12.7158    13.4814    6.7526     12.1273    5.8939     6.5881     36.4935   
2838.78    1.9487     7.0913     12.6527    13.4272    6.7526     12.0811    5.8634     6.5619     36.2291   
2838.88    1.9487     7.0437     12.5821    13.3321    6.7526     12.0173    5.6029     6.5567     35.8899   
2838.98    1.9487     6.9578     12.4695    13.2339    6.7619     11.9272    5.3143     6.5567     35.452    
2839.08    1.9156     6.8711     12.3397    13.1168    6.8011     11.8098    5.2732     6.5567     34.9073   
2839.18    1.8967     6.8025     12.2412    12.9904    6.8217     11.7242    5.4898     6.5567     34.2694   
2839.28    1.8946     6.7773     12.1707    12.9455    6.8853     11.66      5.7336     6.5567     33.5737   
2839.38    1.8946     6.757      12.1143    12.9265    6.9494     11.5836    5.9241     6.5567     32.8621   
2839.48    1.8946     6.7544     12.1271    12.9834    7.0221     11.4699    6.0795     6.5567     32.1525   
2839.58    1.8946     6.7387     12.2057    13.0707    7.123      11.3422    6.3204     6.549      31.4241   
2839.68    1.9337     6.8599     12.2773    13.1392    7.1949     11.2494    7.0102     6.512      30.6342   
2839.78    2.0249     7.0784     12.3075    13.1621    7.2769     11.2295    6.8841     6.4816     29.7685   
2839.88    2.0438     7.0844     12.3125    13.1641    7.4        11.2629    5.6111     6.4551     28.877    
2839.98    2.0134     6.9245     12.2963    13.1348    7.5242     11.299     4.9019     6.4499     28.0612   
2840.08    1.9767     6.7847     12.1681    13.0119    7.6573     11.3524    5.0041     6.404      27.4147   
2840.18    1.987      6.8305     11.9826    12.8898    7.8106     11.4855    5.4506     6.3529     26.9641   
2840.28    1.9953     6.842      11.836     12.7765    7.902      11.6994    5.2223     6.3625     26.6628   
2840.38    1.9247     6.6509     11.7087    12.6968    8.0301     11.8592    4.5583     6.3906     26.4288   
2840.48    1.8602     6.5098     11.5449    12.6326    8.1651     11.9319    4.5381     6.4319     26.1959   
2840.58    1.8042     6.362      11.4292    12.5915    8.3331     11.8764    5.362      6.4483     25.9333   
2840.68    1.7865     6.3356     11.4413    12.6728    8.5018     11.6891    7.0127     6.5003     25.6444   
2840.78    1.787      6.4226     11.5974    12.8801    8.5784     11.3649    9.4148     6.5479     25.3517   
2840.88    1.8759     6.6276     11.9004    13.2093    8.637      10.9873    11.5596    6.5334     25.0854   
2840.98    2.017      6.9839     12.3074    13.5284    8.6647     10.6243    11.5794    6.4765     24.8688   
2841.08    2.1752     7.4224     12.6423    13.7302    8.6279     10.3002    9.5658     6.3723     24.7108   
2841.18    2.3145     7.7265     12.7949    13.7328    8.5544     10.046     7.0868     6.2468     24.6105   
2841.28    2.3373     7.6412     12.7041    13.5112    8.4471     9.8806     5.3353     6.1189     24.5729   
2841.38    2.2039     7.3141     12.4107    13.0665    8.3618     9.8331     4.372      6.0142     24.619    
2841.48    2.0719     6.9936     11.9312    12.5312    8.2283     9.8517     3.9694     5.9438     24.7799   
2841.58    1.9737     6.7564     11.4349    12.0458    8.0732     9.9682     3.8895     5.8816     25.0834   
2841.68    1.8831     6.5656     11.0554    11.7109    7.938      10.1747    3.9236     5.8209     25.5433   
2841.78    1.7794     6.3895     10.799     11.497     7.8649     10.4882    3.9497     5.8089     26.156    
2841.88    1.6988     6.2146     10.6256    11.3892    7.8205     10.8166    4.2297     5.8089     26.8972   
2841.98    1.6784     6.1132     10.5564    11.419     7.8381     11.0899    4.7688     5.8089     27.7267   
2842.08    1.6784     6.0732     10.5839    11.5303    7.8774     11.3416    5.3756     5.8089     28.604    
2842.18    1.6992     6.1088     10.6098    11.6344    7.9218     11.5278    5.3726     5.8492     29.5122   
2842.28    1.7251     6.0927     10.6587    11.7368    8.0197     11.5912    5.6601     5.9107     30.4565   
2842.38    1.7324     5.9602     10.7224    11.8196    8.0927     11.5628    6.208      5.96       31.4403   
2842.48    1.738      5.8965     10.7859    11.8351    8.1415     11.5024    6.3205     5.9947     32.4241   
2842.58    1.7727     5.9337     10.7743    11.8148    8.1632     11.4249    6.126      6.0182     33.3277   
2842.68    1.8091     5.9818     10.8423    11.8313    8.1912     11.3511    5.7485     6.0225     34.0699   
2842.78    1.834      5.9946     10.9348    11.8416    8.2006     11.3301    5.4559     6.0653     34.6322   
2842.88    1.8406     5.9946     11.0075    11.8416    8.2502     11.3301    5.2718     6.076      35.075    
2842.98    1.8027     6.0293     11.0003    11.8416    8.3001     11.414     5.1539     6.076      35.498    
2843.08    1.7865     6.0204     10.9787    11.8516    8.3222     11.5486    5.1779     6.076      35.9624   
2843.18    1.7865     6.1039     10.9693    11.9002    8.3858     11.7045    5.4324     6.076      36.4488   
2843.28    1.8123     6.2528     10.9348    11.9877    8.441      11.8411    5.6181     6.0332     36.8796   
2843.38    1.8354     6.4004     10.9211    12.1054    8.4683     11.9972    5.6167     6.0225     37.1851   
2843.48    1.8406     6.4607     10.9211    12.2284    8.5217     12.1822    5.6426     6.0225     37.3541   
2843.58    1.8406     6.5049     10.8884    12.2715    8.5681     12.2848    5.6909     6.0225     37.4313   
2843.68    1.8406     6.5315     10.8311    12.3047    8.5909     12.349     5.8137     6.0225     37.477    
2843.78    1.8631     6.5442     10.769     12.3177    8.6174     12.413     5.6377     6.0225     37.5292   
2843.88    1.8595     6.5538     10.7063    12.2922    8.6081     12.4194    5.4936     6.0225     37.5941   
2843.98    1.8793     6.5355     10.643     12.2372    8.5691     12.3695    5.4878     6.0225     37.6571   
2844.08    1.8933     6.4856     10.5792    12.1317    8.5521     12.3533    5.3157     6.0225     37.6977   
2844.18    1.8839     6.4586     10.5152    11.9721    8.5066     12.4089    5.0472     6.0225     37.6938   
2844.28    1.8522     6.3794     10.4564    11.8145    8.477      12.5371    4.7371     6.0225     37.6246   
2844.38    1.8149     6.2407     10.4236    11.6611    8.4133     12.667     4.841      6.0653     37.4702   
2844.48    1.7917     6.1652     10.3728    11.5269    8.3599     12.7792    5.3388     6.076      37.2192   
2844.58    1.7865     6.1862     10.3388    11.4027    8.3403     12.8619    5.5216     6.076      36.8664   
2844.68    1.7865     6.2037     10.3675    11.3655    8.2977     12.8834    5.4855     6.1007     36.4128   
2844.78    1.7865     6.205      10.3849    11.3655    8.2909     12.8834    5.5186     6.1573     35.86     
2844.88    1.7865     6.1875     10.3748    11.3655    8.2684     12.8609    5.6526     6.1802     35.2122   
2844.98    1.7865     6.1607     10.3619    11.3655    8.2899     12.8071    5.8899     6.2255     34.4803   
2845.08    1.7865     6.2167     10.3777    11.3655    8.2977     12.8155    5.7862     6.2511     33.6857   
2845.18    1.792      6.2555     10.3859    11.3285    8.2977     12.8707    5.4571     6.2827     32.8621   
2845.28    1.8267     6.2866     10.4233    11.3126    8.2977     12.9329    5.446      6.3216     32.0498   
2845.38    1.8199     6.2697     10.4394    11.2736    8.3063     12.9953    5.6506     6.3403     31.285    
