~Version
 VERS              .         2.0                           : CWLS LOG ASCII STANDARD - VERSION 2.0
 WRAP              .         NO                            : ONE LINE PER DEPTH STEP
 DLM               .         SPACE                         : DELIMITING CHARACTER(SPACE TAB OR COMMA)
~Well Information
#_______________________________________________________________________________
#
#PARAMETER_NAME    .UNIT     VALUE                         : DESCRIPTION
#_______________________________________________________________________________
STRT               .m        3077                          : First reference value
STOP               .m        3245                          : Last reference value
STEP               .m        0.2                           : Step increment
NULL               .         -9999                         : Missing value
COMP               .                                       : Company
WELL               .         202                           : Well name
FLD                .                                       : Field
LOC                .                                       : Location
CNTY               .                                       : County
STAT               .                                       : State
CTRY               .                                       : Country
SRVC               .                                       : Service Company
DATE               .                                       : Date
API                .                                       : API number
EREF               .m        139.76                        : 
Pad                .         2                             : 
X                  .m        228492                        : 
Y                  .m        241733                        : 
group              .         Pad2                          : 
Интер-р            .         Старостина                    : 
Куст               .         2                             : 
Статус             .         Проверено                     : 
Тип                .         Нагнетательные                : 
~Parameter Information Block
#_______________________________________________________________________________
#
#PARAMETER_NAME    .UNIT     VALUE                         : DESCRIPTION
#_______________________________________________________________________________
SET                .         LAS1                          : 
REAL_CREATION_DATE .         Ср апр 11 2012-13_17_07       : 
TLFamily_DEPTH     .         Measured Depth                : 
TLFamily_KS        .         Potential Resistivity         : 
TLFamily_KS1       .         Extra Shallow Resistivity     : 
TLFamily_KS2       .         Shallow Resistivity           : 
TLFamily_KS3       .         Medium Resistivity            : 
TLFamily_KS4       .         Deep Resistivity              : 
TLFamily_KS5       .         Extra Deep Resistivity        : 
TLFamily_LLD       .         Lateral Log Resistivity       : 
TLFamily_OKS3      .         Medium Resistivity Inverted   : 
TLFamily_RM        .         Mud Resistivity               : 
TLFamily_SP        .         Spontaneous Potential         : 
group              .         INI                           : 
~Curve Information
#_______________________________________________________________________________
#
#LOGNAME           .UNIT     LOG_ID                        : DESCRIPTION
#_______________________________________________________________________________
DEPTH              .m                                      : 1 Depth 
KS                 .ohm.m                                  : 10 Normal Log Resistivity  N11.0M0.5A 
KS1                .ohm.m                                  : 3 Lateral Log Resistivity  A0.4M0.1N 
KS2                .ohm.m                                  : 4 Lateral Log Resistivity  A1.0M0.1N 
KS3                .ohm.m                                  : 5 Lateral Log Resistivity  A2.0M0.5N 
KS4                .ohm.m                                  : 6 Lateral Log Resistivity  A4.0M0.5N 
KS5                .ohm.m                                  : 7 Lateral Log Resistivity  A8.0M0.5N 
LLD                .ohm.m                                  : 2 Laterolog Shallow 
OKS3               .ohm.m                                  : 8 Lateral Log Resistivity (Inverse) 
RM                 .ohm.m                                  : 11 Mud Resistivity 
SP                 .mV                                     : 9 Spontaneous Potential 
~Ascii
# ...
3157.4     10.8462    2.9229     10.7082    22.4114    29.0742    20.5114    8.2406     20.8324    0.425      40.4712   
3157.6     10.779     3.0092     11.0765    22.4105    28.9817    20.6444    7.087      20.656     0.411      39.9399   
3157.8     10.5892    3.0484     11.2601    22.2812    28.8375    20.3925    6.6806     20.573     0.409      39.9538   
3158       10.4219    3.1298     11.5985    21.5603    28.0523    19.9843    6.9883     20.5956    0.412      40.2853   
3158.2     10.3232    2.9134     10.9034    20.3419    26.6752    19.4282    8.5171     21.2029    0.415      39.7506   
3158.4     10.2795    2.8279     10.5219    18.9064    24.9181    18.8403    8.8441     22.4738    0.423      39.7768   
3158.6     10.2858    2.614      9.8832     18.0044    23.7171    18.4144    8.2591     24.2297    0.427      39.3399   
3158.8     10.3874    2.5382     9.5641     17.6353    23.0491    18.2468    9.4768     25.9516    0.427      39.787    
3159       10.5923    2.5736     9.5455     17.5295    22.5787    18.3692    13.4537    27.259     0.432      39.6414   
3159.2     10.9162    2.5218     9.0582     17.3658    22.0758    18.5739    12.8861    28.6576    0.432      39.4269   
3159.4     11.1932    2.4403     8.8392     17.2932    21.9266    18.796     11.1429    29.7851    0.419      39.4745   
3159.6     11.4784    2.5704     9.3145     17.6926    22.2677    19.036     10.6139    30.1643    0.409      39.9128   
3159.8     11.7784    2.694      9.7508     18.181     22.5054    19.2665    10.0723    29.8833    0.409      39.6238   
3160       12.0327    2.7541     9.9118     18.3099    22.3794    19.4385    11.8171    29.803     0.412      38.9968   
3160.2     12.272     2.7533     9.9839     18.0746    21.974     19.6907    13.235     29.8535    0.419      39.1543   
3160.4     12.5526    2.6701     9.873      17.875     21.746     19.948     14.3078    29.8238    0.427      38.7872   
3160.6     12.8183    2.666      10.1255    17.9575    21.8361    20.3143    15.6322    29.3346    0.438      39.4187   
3160.8     13.1367    2.7001     10.3222    18.344     22.3509    20.8259    15.8185    28.3988    0.45       39.0926   
3161       13.4774    2.7384     10.5492    18.9203    22.9142    21.4427    18.0636    27.0439    0.45       39.502    
3161.2     13.7597    2.7915     10.8286    19.843     23.8389    22.1749    19.7485    25.7627    0.45       39.6748   
3161.4     13.989     2.9558     11.5013    21.5083    25.438     23.1985    17.1065    23.9057    0.438      39.3795   
3161.6     14.0824    3.1287     12.2867    23.0499    26.6407    24.0241    18.2417    22.3306    0.432      39.1878   
3161.8     14.0424    3.1784     12.7013    24.3911    27.8774    24.8829    18.3614    20.7934    0.427      39.6518   
3162       13.9126    3.3103     13.3461    25.827     29.1985    25.7241    24.847     19.3883    0.427      38.5747   
3162.2     13.5596    3.43       14.1362    27.8613    31.0202    26.7094    20.7477    17.5918    0.432      39.2068   
3162.4     12.9547    3.6947     15.4161    30.2679    32.8385    26.82      12.578     15.3743    0.444      39.4256   
3162.6     12.3998    3.8213     15.9018    31.7293    33.6483    26.196     9.834      13.9889    0.448      38.8235   
3162.8     11.7919    3.7851     15.8375    31.7995    33.3724    25.1028    8.1165     12.9754    0.444      38.8174   
3163       11.2065    3.5987     15.0018    30.9813    32.3754    23.5874    8.9163     12.1573    0.438      38.8313   
3163.2     10.5089    3.3624     14.3149    30.1478    31.672     21.246     8.9665     11.3109    0.432      39.2599   
3163.4     9.8896     3.3395     13.9696    29.7194    31.7336    19.8472    7.9576     10.3448    0.428      39.6502   
3163.6     9.4142     3.2535     13.3464    29.0713    31.4755    18.7521    7.9426     9.6641     0.438      42.5713   
3163.8     8.9148     3.1871     12.8771    28.2394    30.9214    17.5463    7.1957     9.0965     0.452      42.6163   
3164       8.4339     3.1609     12.4677    27.354     30.2128    16.2151    6.3249     8.634      0.456      44.3796   
3164.2     7.8545     3.0466     11.7856    25.5476    28.7859    14.1643    5.349      8.1878     0.468      45.4491   
3164.4     7.3865     2.8174     10.7355    22.8954    26.4087    12.7172    4.431      7.958      0.462      41.7944   
3164.6     7.099      2.6297     9.8169     20.5854    24.4757    11.6737    4.067      8.1651     0.45       41.2543   
3164.8     6.8856     2.4466     9.0386     18.9922    23.3388    10.8203    4.4051     8.618      0.449      39.455    
3165       6.6964     2.436      8.861      18.0037    22.7617    10.2043    5.3133     8.9331     0.438      39.2601   
3165.2     6.4537     2.534      8.6996     17.0258    21.8939    9.2989     5.3879     8.9088     0.427      39.0957   
3165.4     6.2972     2.53       8.1422     15.7429    20.3604    8.7089     4.2737     8.9175     0.435      39.5742   
3165.6     6.1871     2.3407     7.3734     14.021     18.2517    8.072      3.6051     9.3056     0.443      40.0634   
3165.8     6.122      2.1775     6.8526     12.4914    16.5889    7.477      3.5378     10.0101    0.458      39.9533   
3166       6.1197     2.0877     6.5581     11.5685    15.5672    7.0422     3.6903     10.8871    0.474      40.2681   
3166.2     6.1504     2.124      6.6292     10.8643    14.7227    6.7078     4.6049     11.3328    0.467      41.7569   
3166.4     6.2408     2.1328     6.3495     10.1003    13.6953    6.5149     4.2807     11.6229    0.453      41.2776   
3166.6     6.2674     2.1795     6.3601     9.7809     13.2417    6.4217     4.4506     11.7463    0.45       40.338    
3166.8     6.312      2.1376     6.1995     9.3561     12.4969    6.2727     4.6342     12.0253    0.444      40.2153   
3167       6.4052     2.209      6.2812     8.9761     11.6744    6.2691     4.9583     12.1622    0.435      40.3347   
3167.2     6.4738     2.1389     6.1495     8.6233     10.8869    6.3995     4.3803     12.8817    0.432      40.1969   
3167.4     6.6224     2.1005     6.0911     8.2983     10.412     7.0512     4.2091     14.3749    0.44       42.7597   
3167.6     6.79       1.9787     5.8994     8.2512     10.5866    7.8633     4.1811     16.0463    0.454      43.9302   
3167.8     6.8903     1.9641     5.9618     8.3159     10.8088    8.3589     4.6056     16.7715    0.474      43.0647   
3168       7.2094     2.02       6.2213     8.8673     11.6928    9.3534     5.6678     18.4937    0.475      41.5093   
3168.2     7.4807     2.0483     6.5041     9.7654     12.6816    10.1382    10.7599    19.3299    0.468      40.4589   
3168.4     7.8395     2.5239     7.6007     10.7331    12.7473    10.9766    8.5722     18.0253    0.465      41.4517   
3168.6     7.9883     2.4845     7.3962     10.6185    11.9101    11.2542    6.3884     16.3781    0.456      40.7969   
3168.8     8.0551     2.4835     7.6065     10.493     11.2701    11.3461    6.3327     15.4253    0.442      40.9696   
3169       8.1406     2.4303     7.647      10.4124    10.9519    11.8085    5.8169     14.715     0.444      42.1714   
3169.2     8.2204     2.3832     7.8098     10.3747    10.9042    12.58      5.876      14.4079    0.45       44.5263   
3169.4     8.3701     2.3679     7.8822     10.503     11.1973    13.816     5.8905     14.316     0.465      52.1554   
3169.6     8.5065     2.3224     7.829      10.8823    11.7734    15.7295    6.1343     14.3374    0.48       59.9071   
3169.8     8.7197     2.3934     8.0423     11.4962    12.768     18.2857    6.703      14.4607    0.475      48.8953   
3170       9.0501     2.3251     7.9551     12.5741    14.3865    20.9993    6.293      14.9372    0.463      50.9217   
3170.2     9.2607     2.2698     8.251      14.2059    16.1936    23.7213    10.8403    15.1865    0.455      63.7642   
3170.4     9.3338     2.7245     9.8476     16.9944    18.2607    25.6093    41.3345    14.4189    0.44       74.9211   
3170.6     9.0373     3.5361     12.2615    19.8949    19.2175    25.6091    42.2066    12.1018    0.438      64.2679   
