~Version
 VERS              .         2.0                           : CWLS LOG ASCII STANDARD - VERSION 2.0
 WRAP              .         NO                            : ONE LINE PER DEPTH STEP
 DLM               .         SPACE                         : DELIMITING CHARACTER(SPACE TAB OR COMMA)
~Well Information
#_______________________________________________________________________________
#
#PARAMETER_NAME    .UNIT     VALUE                         : DESCRIPTION
#_______________________________________________________________________________
STRT               .m        3077                          : First reference value
STOP               .m        3245                          : Last reference value
STEP               .m        0.2                           : Step increment
NULL               .         -9999                         : Missing value
COMP               .                                       : Company
WELL               .         202                           : Well name
FLD                .                                       : Field
LOC                .                                       : Location
CNTY               .                                       : County
STAT               .                                       : State
CTRY               .                                       : Country
SRVC               .                                       : Service Company
DATE               .                                       : Date
API                .                                       : API number
EREF               .m        139.76                        : 
Pad                .         2                             : 
X                  .m        228492                        : 
Y                  .m        241733                        : 
group              .         Pad2                          : 
Интер-р            .         Старостина                    : 
Куст               .         2                             : 
Статус             .         Проверено                     : 
Тип                .         Нагнетательные                : 
~Parameter Information Block
#_______________________________________________________________________________
#
#PARAMETER_NAME    .UNIT     VALUE                         : DESCRIPTION
#_______________________________________________________________________________
SET                .         LAS3                          : 
REAL_CREATION_DATE .         Ср апр 11 2012-13_17_07       : 
TLFamily_DEPTH     .         Measured Depth                : 
TLFamily_GR        .         Gamma Ray                     : 
TLFamily_TNPH      .         Neutron Porosity              : 
group              .         INI                           : 
~Curve Information
#_______________________________________________________________________________
#
#LOGNAME           .UNIT     LOG_ID                        : DESCRIPTION
#_______________________________________________________________________________
DEPTH              .m                                      : 1 Depth 
GR                 .gAPI                                   :  
TNPH               .v/v                                    : 5 Hydrogen Content 
~Ascii
# ...
3125.6     133.32     0.26      
3125.8     138.66     0.281     
3126       148.52     0.278     
3126.2     143.08     0.248     
3126.4     129.47     0.229     
3126.6     124.09     0.225     
3126.8     126.28     0.23      
3127       128.41     0.235     
3127.2     130.2      0.243     
3127.4     130.52     0.25      
3127.6     136.23     0.245     
3127.8     152.47     0.238     
3128       177.4      0.251     
3128.2     202.36     0.264     
3128.4     225.38     0.268     
3128.6     222.24     0.278     
3128.8     205.14     0.276     
3129       201.08     0.273     
3129.2     203.61     0.285     
3129.4     210.84     0.311     
3129.6     224.92     0.328     
3129.8     237.5      0.319     
3130       244.68     0.311     
3130.2     242.94     0.304     
3130.4     233.14     0.301     
3130.6     223.45     0.293     
3130.8     218.26     0.297     
3131       210.75     0.302     
3131.2     208.81     0.302     
3131.4     218.64     0.321     
3131.6     230.46     0.333     
3131.8     234.41     0.327     
3132       243.08     0.319     
3132.2     256.81     0.321     
3132.4     267.81     0.34      
3132.6     273.11     0.329     
3132.8     275.6      0.323     
3133       274.57     0.321     
3133.2     263.65     0.326     
3133.4     257.31     0.345     
3133.6     254.72     0.341     
3133.8     241.97     0.319     
3134       232.93     0.307     
3134.2     219.93     0.293     
3134.4     199.12     0.284     
3134.6     188.8      0.284     
3134.8     187.24     0.28      
3135       194.31     0.273     
3135.2     206.45     0.291     
3135.4     220.12     0.317     
3135.6     243.45     0.337     
3135.8     268.61     0.341     
3136       285.88     0.331     
3136.2     292.79     0.325     
3136.4     298.94     0.313     
3136.6     327.76     0.318     
3136.8     371.61     0.328     
3137       404.74     0.31      
3137.2     420.78     0.297     
3137.4     424.05     0.289     
3137.6     420.04     0.287     
3137.8     420.53     0.291     
3138       419.03     0.299     
3138.2     408.24     0.308     
3138.4     412.39     0.302     
3138.6     429.67     0.305     
3138.8     432.45     0.3       
3139       423.49     0.289     
3139.2     411.44     0.299     
3139.4     402.68     0.324     
3139.6     382.13     0.331     
3139.8     354.5      0.314     
3140       333.87     0.315     
3140.2     318.63     0.329     
3140.4     310.1      0.343     
3140.6     319.33     0.36      
3140.8     328.97     0.353     
3141       335.28     0.345     
3141.2     340.67     0.344     
3141.4     344.74     0.341     
3141.6     350.74     0.332     
3141.8     353.17     0.344     
3142       341.86     0.368     
3142.2     324.56     0.363     
3142.4     319.95     0.354     
3142.6     321.8      0.353     
3142.8     312.47     0.357     
3143       306.45     0.364     
3143.2     305.23     0.376     
3143.4     300.96     0.392     
3143.6     297.46     0.387     
3143.8     288.2      0.37      
3144       274.31     0.348     
3144.2     248.2      0.35      
3144.4     219.27     0.347     
3144.6     202.92     0.338     
3144.8     207.57     0.357     
3145       209.53     0.363     
3145.2     211.05     0.348     
3145.4     210.86     0.336     
3145.6     204.49     0.326     
3145.8     201.64     0.318     
3146       193.88     0.323     
3146.2     183.15     0.333     
3146.4     170.82     0.318     
3146.6     156.49     0.298     
3146.8     145.98     0.284     
3147       143.1      0.291     
3147.2     148.25     0.298     
3147.4     157.29     0.318     
3147.6     165.6      0.324     
3147.8     171.59     0.323     
3148       171.25     0.317     
3148.2     171.89     0.308     
3148.4     174.74     0.299     
3148.6     172.49     0.29      
3148.8     160.33     0.287     
3149       145.86     0.27      
3149.2     143.74     0.268     
3149.4     142.57     0.273     
3149.6     134.98     0.262     
3149.8     131.91     0.268     
3150       130.87     0.26      
3150.2     125.3      0.245     
3150.4     124.57     0.252     
3150.6     121.82     0.255     
3150.8     121.54     0.25      
3151       128.16     0.259     
3151.2     129.66     0.262     
3151.4     125.03     0.255     
3151.6     131.79     0.262     
3151.8     139.75     0.288     
3152       139.9      0.296     
3152.2     133.42     0.286     
3152.4     128.35     0.295     
3152.6     128.68     0.315     
3152.8     132.88     0.335     
3153       136.75     0.323     
3153.2     145.85     0.32      
3153.4     151.61     0.322     
3153.6     149.32     0.341     
3153.8     142.8      0.342     
3154       129.66     0.319     
3154.2     122.52     0.302     
3154.4     126.48     0.302     
3154.6     138.19     0.32      
3154.8     142.35     0.32      
3155       135.7      0.307     
3155.2     122.93     0.275     
3155.4     114.08     0.256     
3155.6     111.31     0.261     
3155.8     116.39     0.286     
3156       121.47     0.309     
3156.2     127.72     0.306     
3156.4     142.55     0.314     
3156.6     153.44     0.325     
3156.8     159.21     0.323     
3157       158.7      0.315     
3157.2     148.96     0.303     
3157.4     135.13     0.291     
3157.6     121.56     0.278     
3157.8     116.88     0.279     
3158       120.56     0.292     
3158.2     130.83     0.3       
3158.4     144.13     0.293     
3158.6     153.94     0.292     
3158.8     157.84     0.301     
3159       168.2      0.332     
3159.2     174.02     0.364     
3159.4     171.13     0.346     
3159.6     168.1      0.337     
3159.8     175.27     0.344     
3160       187.44     0.339     
3160.2     189.86     0.329     
3160.4     186.96     0.322     
3160.6     182.51     0.306     
3160.8     174.66     0.315     
3161       179.6      0.33      
3161.2     183.94     0.318     
3161.4     187.56     0.323     
3161.6     205.05     0.341     
3161.8     227.8      0.313     
3162       232.08     0.305     
3162.2     207.7      0.301     
3162.4     173.7      0.288     
3162.6     148.72     0.294     
3162.8     137.12     0.298     
3163       140.62     0.28      
3163.2     140.47     0.263     
3163.4     138.38     0.26      
3163.6     142.82     0.262     
3163.8     144.92     0.263     
3164       147.97     0.266     
3164.2     149.97     0.269     
3164.4     156.29     0.263     
3164.6     162.15     0.261     
3164.8     157.15     0.278     
3165       145.95     0.289     
3165.2     137.51     0.278     
3165.4     135.62     0.276     
3165.6     136.24     0.284     
3165.8     137.88     0.305     
3166       139.29     0.315     
3166.2     139.67     0.314     
3166.4     139.48     0.316     
3166.6     138.27     0.326     
3166.8     137.88     0.325     
3167       141.11     0.319     
3167.2     144.15     0.309     
3167.4     142.7      0.31      
3167.6     137.32     0.303     
3167.8     133.72     0.296     
3168       133.72     0.312     
3168.2     131.24     0.328     
3168.4     133.19     0.317     
3168.6     139.02     0.297     
3168.8     143.5      0.279     
3169       144.61     0.28      
3169.2     144.98     0.277     
3169.4     145.35     0.281     
3169.6     137.09     0.275     
3169.8     129.79     0.24      
3170       114.18     0.207     
3170.2     91.42      0.196     
3170.4     78.25      0.214     
3170.6     93.19      0.245     
3170.8     125.89     0.287     
3171       146.06     0.289     
3171.2     148.16     0.28      
3171.4     146.96     0.283     
3171.6     146.74     0.308     
3171.8     141.88     0.326     
3172       136.1      0.306     
3172.2     134.81     0.314     
3172.4     135.11     0.325     
3172.6     133.21     0.297     
3172.8     133.49     0.28      
3173       134.15     0.28      
3173.2     133.9      0.282     
3173.4     136.07     0.274     
3173.6     136.27     0.27      
3173.8     133.42     0.274     
3174       133.55     0.274     
