~Version
 VERS              .         2.0                           : CWLS LOG ASCII STANDARD - VERSION 2.0
 WRAP              .         NO                            : ONE LINE PER DEPTH STEP
 DLM               .         SPACE                         : DELIMITING CHARACTER(SPACE TAB OR COMMA)
~Well Information
#_______________________________________________________________________________
#
#PARAMETER_NAME    .UNIT     VALUE                         : DESCRIPTION
#_______________________________________________________________________________
STRT               .m        3077                          : First reference value
STOP               .m        3245                          : Last reference value
STEP               .m        0.2                           : Step increment
NULL               .         -9999                         : Missing value
COMP               .                                       : Company
WELL               .         202                           : Well name
FLD                .                                       : Field
LOC                .                                       : Location
CNTY               .                                       : County
STAT               .                                       : State
CTRY               .                                       : Country
SRVC               .                                       : Service Company
DATE               .                                       : Date
API                .                                       : API number
EREF               .m        139.76                        : 
Pad                .         2                             : 
X                  .m        228492                        : 
Y                  .m        241733                        : 
group              .         Pad2                          : 
Интер-р            .         Старостина                    : 
Куст               .         2                             : 
Статус             .         Проверено                     : 
Тип                .         Нагнетательные                : 
~Parameter Information Block
#_______________________________________________________________________________
#
#PARAMETER_NAME    .UNIT     VALUE                         : DESCRIPTION
#_______________________________________________________________________________
SET                .         LAS1                          : 
REAL_CREATION_DATE .         Ср апр 11 2012-13_17_07       : 
TLFamily_DEPTH     .         Measured Depth                : 
TLFamily_KS        .         Potential Resistivity         : 
TLFamily_KS1       .         Extra Shallow Resistivity     : 
TLFamily_KS2       .         Shallow Resistivity           : 
TLFamily_KS3       .         Medium Resistivity            : 
TLFamily_KS4       .         Deep Resistivity              : 
TLFamily_KS5       .         Extra Deep Resistivity        : 
TLFamily_LLD       .         Lateral Log Resistivity       : 
TLFamily_OKS3      .         Medium Resistivity Inverted   : 
TLFamily_RM        .         Mud Resistivity               : 
TLFamily_SP        .         Spontaneous Potential         : 
group              .         INI                           : 
~Curve Information
#_______________________________________________________________________________
#
#LOGNAME           .UNIT     LOG_ID                        : DESCRIPTION
#_______________________________________________________________________________
DEPTH              .m                                      : 1 Depth 
KS                 .ohm.m                                  : 10 Normal Log Resistivity  N11.0M0.5A 
KS1                .ohm.m                                  : 3 Lateral Log Resistivity  A0.4M0.1N 
KS2                .ohm.m                                  : 4 Lateral Log Resistivity  A1.0M0.1N 
KS3                .ohm.m                                  : 5 Lateral Log Resistivity  A2.0M0.5N 
KS4                .ohm.m                                  : 6 Lateral Log Resistivity  A4.0M0.5N 
KS5                .ohm.m                                  : 7 Lateral Log Resistivity  A8.0M0.5N 
LLD                .ohm.m                                  : 2 Laterolog Shallow 
OKS3               .ohm.m                                  : 8 Lateral Log Resistivity (Inverse) 
RM                 .ohm.m                                  : 11 Mud Resistivity 
SP                 .mV                                     : 9 Spontaneous Potential 
~Ascii
# ...
3170.8     8.4687     3.6346     12.4637    20.443     18.6767    23.9147    6.2825     10.5929    0.444      54.3979   
3171       7.7741     3.6084     12.6746    19.7873    17.2996    21.297     4.4753     9.3817     0.454      47.5044   
3171.2     7.1867     3.3089     12.137     18.7417    15.7305    18.2163    4.2669     8.6127     0.468      51.132    
3171.4     6.6938     3.0012     11.4177    17.3583    14.0416    15.4438    3.8824     8.0363     0.466      64.0165   
3171.6     6.3075     2.7831     10.6138    16.1081    12.7527    12.8549    3.4899     7.7527     0.462      78.8436   
3171.8     5.9488     2.55       9.3236     14.8169    11.4481    9.7626     3.5427     7.7057     0.459      54.2734   
3172       5.6906     2.371      8.2985     13.6881    10.4592    8.0548     3.5234     7.8293     0.439      48.2815   
3172.2     5.5999     2.2628     7.6264     13.0763    9.9433     6.7824     3.477      7.9623     0.435      46.5499   
3172.4     5.5242     2.1769     7.0645     12.6928    9.4955     5.8561     3.6827     8.174      0.438      41.6495   
3172.6     5.4569     2.138      6.7513     12.3101    9.1516     5.0705     4.4412     8.2566     0.446      39.9041   
3172.8     5.4264     2.2739     6.8851     11.8654    8.8961     4.4719     3.9708     8.1978     0.468      38.9973   
3173       5.3848     2.2684     6.6471     11.1755    8.5795     3.9775     3.6212     8.1278     0.468      39.1357   
3173.2     5.2782     2.2468     6.4967     10.1863    8.0778     3.3664     3.6171     8.1994     0.459      40.6613   
3173.4     5.1864     2.1727     6.2847     9.308      7.6849     2.9853     3.4503     8.3149     0.456      41.206    
3173.6     5.1598     2.131      6.2566     8.7874     7.5081     2.6702     3.5213     8.5604     0.441      41.2043   
3173.8     5.1854     2.0526     6.0611     8.3952     7.4513     2.4787     3.4741     8.8292     0.432      42.728    
3174       5.2242     2.0526     5.9148     8.1081     7.5655     2.3459     3.7222     9.0605     0.438      40.1198   
3174.2     5.2908     2.0615     5.9293     7.9491     7.8114     2.2263     4.0177     9.1737     0.445      40.5253   
3174.4     5.3844     2.0833     5.9035     7.879      8.061      2.171      3.9445     9.2186     0.467      39.6043   
3174.6     5.5064     2.0526     5.8495     7.8647     8.2127     2.1145     3.9705     9.3371     0.462      39.3518   
3174.8     5.5697     2.1251     5.977      7.9504     8.2378     2.1143     4.3041     9.2631     0.468      39.7296   
3175       5.5864     2.1734     6.1905     8.0405     8.1849     2.1143     4.4456     9.1309     0.46       47.829    
3175.2     5.5864     2.236      6.4507     8.1261     8.1264     2.1143     4.5171     9.0263     0.432      46.9246   
3175.4     5.5864     2.2684     6.6059     8.1558     7.9859     2.1143     4.4008     8.9195     0.435      41.6426   
3175.6     5.5523     2.2468     6.5907     8.1248     7.7693     2.1143     4.082      8.8693     0.454      44.1749   
3175.8     5.5331     2.2145     6.5794     8.1285     7.5529     2.1651     4.0202     8.7564     0.472      50.7468   
3176       5.5331     2.2145     6.6164     8.2512     7.2738     2.2853     4.1898     8.6304     0.464      51.4586   
3176.2     5.5851     2.1972     6.4579     8.2451     7.0646     2.4222     4.0709     8.6232     0.455      50.1183   
3176.4     5.6052     2.1561     6.3601     8.2316     6.9484     2.4882     3.8607     8.6706     0.438      48.9668   
3176.6     5.6397     2.1218     6.3433     8.2997     6.9286     2.5899     4.057      8.6227     0.427      43.5192   
3176.8     5.6227     2.2379     6.6061     8.5618     6.9695     2.6453     4.649      8.7718     0.444      44.2501   
3177       5.5562     2.3224     6.8417     8.8119     6.9585     2.7673     4.5864     9.0729     0.467      44.9331   
3177.2     5.4194     2.3224     6.8331     8.8514     6.8226     2.9019     4.2611     9.5305     0.485      44.7244   
3177.4     5.343      2.2803     6.8349     8.7783     6.6518     2.9839     4.0772     9.7179     0.475      43.5057   
3177.6     5.2516     2.3385     6.9468     8.6922     6.5748     3.1134     4.0202     9.7179     0.46       42.37     
3177.8     5.2033     2.2792     6.6721     8.5868     6.4457     3.2411     3.9089     9.8265     0.44       41.8714   
3178       5.1598     2.1809     6.3741     8.3182     6.2592     3.4208     3.4432     10.1714    0.44       45.2864   
3178.2     5.2233     2.0647     6.0474     7.9863     6.0612     3.6197     3.3416     10.5051    0.455      44.665    
3178.4     5.3322     1.9986     5.8728     7.6759     5.8914     3.8305     3.2678     10.8201    0.485      42.479    
3178.6     5.5944     1.9338     5.579      7.333      5.7198     4.1362     3.4861     11.2063    0.47       44.6813   
3178.8     6.0229     1.8054     5.1844     6.9702     5.6184     4.3349     3.4859     11.6228    0.452      43.3472   
3179       6.4079     1.8043     5.1916     7.0707     5.7781     4.4848     4.071      11.6739    0.432      44.1103   
3179.2     6.6661     2.0011     5.7366     7.5913     6.1812     4.6546     5.505      10.9912    0.442      40.7027   
3179.4     6.7804     2.4702     6.8669     8.3423     6.5829     4.7219     11.8469    10.0612    0.474      38.9378   
3179.6     6.7113     2.7193     7.4495     8.7791     6.7777     4.773      6.4968     9.5259     0.462      39.375    
3179.8     6.5477     2.6373     7.5833     8.8728     6.8254     4.7094     4.6339     9.5735     0.444      39.5321   
3180       6.3031     2.4988     7.9261     9.0749     6.9167     4.5646     4.7898     9.6095     0.438      39.5292   
3180.2     6.1705     2.5341     8.2167     9.2527     6.9167     4.4803     5.316      9.6062     0.447      39.1556   
3180.4     6.0896     2.4344     7.7956     9.2764     6.8107     4.4512     4.2434     9.9123     0.467      39.6149   
3180.6     6.0131     2.3012     7.3273     9.2468     6.7167     4.4026     3.7639     10.5674    0.46       39.3597   
3180.8     5.9864     2.2145     7.0764     9.3773     6.7916     4.3504     3.9771     11.3324    0.437      40.8725   
3181       5.9597     2.2656     7.1518     9.7662     6.905      4.3        4.8513     11.9746    0.43       41.6495   
3181.2     5.9846     2.3373     7.1551     10.0808    6.8562     4.2425     4.9607     12.6482    0.444      41.7311   
3181.4     5.9395     2.3224     6.9265     9.9385     6.664      4.1033     4.4594     13.7312    0.466      40.1843   
3181.6     5.9064     2.306      6.7876     9.4909     6.5007     4.0833     4.2884     14.8244    0.479      40.3448   
3181.8     5.9064     2.2089     6.6514     9.058      6.42       4.1149     4.1234     15.9594    0.465      40.5463   
3182       5.9132     2.1605     6.587      8.7552     6.3882     4.2064     3.9889     17.0225    0.437      41.9175   
3182.2     5.9788     2.1383     6.4364     8.535      6.3899     4.4103     4.0668     18.0171    0.438      44.1365   
3182.4     6.0957     2.1065     6.2591     8.2464     6.4411     4.678      4.2438     18.7514    0.453      47.8808   
3182.6     6.2843     2.103      6.1475     7.936      6.4411     5.0641     4.1022     19.6183    0.468      43.2265   
3182.8     6.5908     1.9692     5.672      7.5399     6.4518     5.6631     3.9254     20.8685    0.467      46.2645   
3183       7.0489     1.7622     5.1204     7.1889     6.6465     6.5622     5.0646     22.148     0.458      44.3059   
3183.2     7.6007     1.6915     5.0964     7.2591     7.2848     7.7235     5.7504     23.8598    0.438      42.9732   
3183.4     8.204      1.7003     5.2561     7.7867     8.3159     9.0212     8.4726     25.7682    0.449      42.49     
3183.6     8.8761     1.7964     5.6665     8.7414     9.6099     10.2781    11.376     27.1649    0.458      43.2962   
3183.8     9.5429     1.9801     6.6382     10.131     11.0134    11.3041    20.9247    27.0151    0.48       42.1176   
3184       9.9589     2.4132     8.0314     11.9229    12.36      11.8821    51.7715    25.7295    0.467      43.007    
