~Version
 VERS              .         2.0                           : CWLS LOG ASCII STANDARD - VERSION 2.0
 WRAP              .         NO                            : ONE LINE PER DEPTH STEP
 DLM               .         SPACE                         : DELIMITING CHARACTER(SPACE TAB OR COMMA)
~Well Information
#_______________________________________________________________________________
#
#PARAMETER_NAME    .UNIT     VALUE                         : DESCRIPTION
#_______________________________________________________________________________
STRT               .m        3077                          : First reference value
STOP               .m        3245                          : Last reference value
STEP               .m        0.2                           : Step increment
NULL               .         -9999                         : Missing value
COMP               .                                       : Company
WELL               .         202                           : Well name
FLD                .                                       : Field
LOC                .                                       : Location
CNTY               .                                       : County
STAT               .                                       : State
CTRY               .                                       : Country
SRVC               .                                       : Service Company
DATE               .                                       : Date
API                .                                       : API number
EREF               .m        139.76                        : 
Pad                .         2                             : 
X                  .m        228492                        : 
Y                  .m        241733                        : 
group              .         Pad2                          : 
Интер-р            .         Старостина                    : 
Куст               .         2                             : 
Статус             .         Проверено                     : 
Тип                .         Нагнетательные                : 
~Parameter Information Block
#_______________________________________________________________________________
#
#PARAMETER_NAME    .UNIT     VALUE                         : DESCRIPTION
#_______________________________________________________________________________
SET                .         LAS1                          : 
REAL_CREATION_DATE .         Ср апр 11 2012-13_17_07       : 
TLFamily_DEPTH     .         Measured Depth                : 
TLFamily_KS        .         Potential Resistivity         : 
TLFamily_KS1       .         Extra Shallow Resistivity     : 
TLFamily_KS2       .         Shallow Resistivity           : 
TLFamily_KS3       .         Medium Resistivity            : 
TLFamily_KS4       .         Deep Resistivity              : 
TLFamily_KS5       .         Extra Deep Resistivity        : 
TLFamily_LLD       .         Lateral Log Resistivity       : 
TLFamily_OKS3      .         Medium Resistivity Inverted   : 
TLFamily_RM        .         Mud Resistivity               : 
TLFamily_SP        .         Spontaneous Potential         : 
group              .         INI                           : 
~Curve Information
#_______________________________________________________________________________
#
#LOGNAME           .UNIT     LOG_ID                        : DESCRIPTION
#_______________________________________________________________________________
DEPTH              .m                                      : 1 Depth 
KS                 .ohm.m                                  : 10 Normal Log Resistivity  N11.0M0.5A 
KS1                .ohm.m                                  : 3 Lateral Log Resistivity  A0.4M0.1N 
KS2                .ohm.m                                  : 4 Lateral Log Resistivity  A1.0M0.1N 
KS3                .ohm.m                                  : 5 Lateral Log Resistivity  A2.0M0.5N 
KS4                .ohm.m                                  : 6 Lateral Log Resistivity  A4.0M0.5N 
KS5                .ohm.m                                  : 7 Lateral Log Resistivity  A8.0M0.5N 
LLD                .ohm.m                                  : 2 Laterolog Shallow 
OKS3               .ohm.m                                  : 8 Lateral Log Resistivity (Inverse) 
RM                 .ohm.m                                  : 11 Mud Resistivity 
SP                 .mV                                     : 9 Spontaneous Potential 
~Ascii
# ...
3224.4     7.0905     2.1798     7.3912     12.331     13.4764    5.6816     7.0337     11.7781    0.472      45.0944   
3224.6     7.1597     2.3224     7.6581     12.5322    13.6774    5.6899     6.092      11.7213    0.446      44.7888   
3224.8     7.2229     2.3224     7.495      12.4191    13.7619    5.859      5.6668     11.416     0.399      45.1442   
3225       7.2467     2.3024     7.2497     12.1737    13.7335    5.9494     6.4957     11.5081    0.414      45.0968   
3225.2     7.2699     2.2888     7.2087     12.12      13.7696    6.0696     7.9137     11.6411    0.429      45.1817   
3225.4     7.3588     2.1886     6.9399     12.0325    14.1179    6.4248     8.0473     12.196     0.449      44.8648   
3225.6     7.4263     2.236      7.2394     12.149     14.7113    7.0096     7.8952     12.5051    0.464      44.9323   
3225.8     7.5063     2.3011     7.5683     12.5533    15.5665    7.8648     6.8792     12.5516    0.484      45.28     
3226       7.5063     2.4459     7.8982     13.0238    16.5397    9.1743     7.2467     12.5516    0.454      45.5339   
3226.2     7.4563     2.5379     8.1817     13.5138    17.7899    10.8696    7.1773     12.5516    0.458      44.918    
3226.4     7.3663     2.5021     8.3116     14.3664    19.642     12.1635    6.1952     12.5516    0.485      44.8963   
3226.6     7.2176     2.6329     9.1821     15.21      20.9744    12.8812    4.6931     12.5516    0.464      45.0354   
3226.8     7.053      2.7207     9.3248     15.1703    20.3961    13.1503    4.8806     12.5516    0.444      45.0688   
3227       6.973      2.6462     8.9727     14.141     18.1266    12.5742    5.7312     12.5516    0.48       45.3925   
3227.2     6.973      2.4973     8.2649     13.0734    15.9594    11.1885    6.6311     12.5516    0.47       45.0221   
3227.4     6.973      2.3668     7.8685     12.1036    14.4429    9.6768     7.1134     12.5516    0.445      45.0284   
3227.6     7.0861     2.1821     7.296      11.4194    13.1978    8.9692     7.2775     12.5516    0.476      44.6616   
3227.8     7.279      2.1929     7.3182     11.1309    12.2332    8.4725     6.6596     12.5516    0.46       44.7909   
3228       7.3997     2.222      7.1486     10.9727    11.3908    8.0698     6.5131     12.5516    0.442      45.3564   
3228.2     7.4263     2.3199     7.2363     10.9031    10.7198    7.7167     5.7007     12.5516    0.47       44.917    
3228.4     7.453      2.3705     7.3243     10.8657    10.1619    7.4299     5.8901     12.5516    0.464      45.4789   
3228.6     7.453      2.3764     7.5273     10.7533    9.6153     7.2166     6.7671     12.5516    0.433      46.4744   
3228.8     7.453      2.3764     7.3543     10.5722    9.0888     7.1698     7.4612     12.5516    0.451      46.4584   
3229       7.435      2.3764     7.2258     10.2748    8.7707     7.2758     7.287      12.5516    0.467      46.9246   
3229.2     7.4313     2.3548     7.1943     10.0803    8.6722     7.6504     7.614      12.5516    0.441      47.0061   
3229.4     7.4083     2.3284     7.1943     10.1009    8.7655     8.2855     10.2015    12.5516    0.451      46.9232   
3229.6     7.4428     2.3455     7.1943     10.4049    9.0505     9.2299     13.2092    12.5516    0.48       46.8065   
3229.8     7.453      2.3331     7.1943     10.818     9.5713     10.1893    17.0403    12.5516    0.449      47.4733   
3230       7.453      2.3224     7.1943     11.3917    10.4514    11.2713    30.0701    12.5516    0.448      47.3753   
3230.2     7.4473     2.3604     7.1943     11.6703    11.4655    12.2622    34.7028    12.5516    0.477      47.6535   
3230.4     7.42       2.3587     7.1943     11.7046    12.5407    13.1265    31.1051    12.5516    0.441      47.582    
3230.6     7.453      2.3312     7.1943     11.7046    13.6388    13.7153    19.691     12.5516    0.452      47.8829   
3230.8     7.453      2.3306     7.1943     11.7046    15.0657    14.1847    9.0688     12.5516    0.47       48.0288   
3231       7.453      2.3224     7.1943     11.7046    16.7605    14.2234    6.9705     0          0.45       47.9523   
3231.2     7.453      2.355      7.1943     11.7046    18.7616    13.9301    6.8442     0          0.439      48.3541   
3231.4     7.453      2.3581     7.1943     11.7274    19.778     13.3204    5.7812     0          0.462      48.2355   
3231.6     7.453      2.344      7.1943     11.7046    19.371     12.4959    5.3926     0          0.462      48.5365   
3231.8     7.436      2.3239     7.1943     11.7046    18.5841    11.4695    5.139      0          0.438      48.563    
3232       7.453      2.3315     7.1943     11.7046    18.215     10.3821    5.4956     0          0.447      48.3458   
3232.2     7.4457     2.3753     7.1943     11.7046    18.0455    9.4678     5.7672     0          0.474      48.625    
3232.4     7.453      2.3518     7.1943     11.7255    18.0113    8.7048     6.6418     0          0.454      48.5708   
3232.6     7.453      2.3224     7.1943     11.7259    17.9609    7.9886     6.3177     0          0.438      48.9186   
3232.8     7.453      2.3548     7.1943     11.7046    17.9609    7.3711     5.4276     0          0.452      48.643    
3233       7.4391     2.333      7.1943     11.7046    17.9609    6.8328     4.9044     0          0.484      49.0408   
3233.2     7.4074     2.3224     7.1943     11.7046    17.9609    6.316      4.6533     0          0.451      49.2316   
3233.4     3.7265     2.3701     7.1943     11.7046    17.9821    5.7347     4.3454     0          0.444      49.6402   
3233.6     0          1.3934     7.1943     11.7236    18.0057    5.1733     4.1031     0          0.479      49.8037   
3233.8     0          0          7.1943     11.7046    18.0138    4.6975     3.754      0          0.45       50.1764   
3234       0          0          7.1943     11.7046    18.0002    4.3549     3.6595     0          0.444      50.895    
3234.2     0          0          4.3166     11.7046    17.9609    4.1237     4.2698     0          0.432      50.7255   
3234.4     0          0          0          11.7046    17.9609    3.9396     4.6234     0          0.432      51.4022   
3234.6     0          0          0          11.7046    17.9609    3.8724     5.5538     0          0.432      50.5231   
3234.8     0          0          0          11.7046    18.005     3.8704     6.0976     0          0.432      50.8901   
3235       0          0          0          11.7046    18.0138    3.9523     6.8851     0          0.432      50.6152   
3235.2     0          0          0          11.7046    17.9821    4.1915     7.1416     0          0.432      50.9184   
3235.4     0          0          0          7.0484     17.967     4.5386     7.391      0          0.432      50.2341   
3235.6     0          0          0          0          17.9609    5.0872     10.5418    0          0.432      51.3832   
3235.8     0          0          0          0          17.9609    5.892      12.8745    0          0.432      50.4501   
3236       0          0          0          0          17.9609    6.8151     10.9286    0          0.432      51.0405   
3236.2     0          0          0          0          17.9619    7.544      6.57       0          0.432      50.4407   
3236.4     0          0          0          0          17.9969    7.8009     3.857      0          0.432      50.9689   
3236.6     0          0          0          0          17.9901    7.8616     3.5933     0          0.432      50.8287   
3236.8     0          0          0          0          17.9609    7.8616     4.1184     0          0.432      51.0927   
3237       0          0          0          0          17.9609    7.8616     5.628      0          0.432      50.9085   
3237.2     0          0          0          0          17.9609    7.8616     7.4772     0          0.432      50.9033   
3237.4     0          0          0          0          10.7766    7.8616     7.0127     0          0.432      51.2317   
3237.6     0          0          0          0          0          7.8616     7.118      0          0.432      50.9257   
