~Version
 VERS              .         2.0                           : CWLS LOG ASCII STANDARD - VERSION 2.0
 WRAP              .         NO                            : ONE LINE PER DEPTH STEP
 DLM               .         SPACE                         : DELIMITING CHARACTER(SPACE TAB OR COMMA)
~Well Information
#_______________________________________________________________________________
#
#PARAMETER_NAME    .UNIT     VALUE                         : DESCRIPTION
#_______________________________________________________________________________
STRT               .m        3077                          : First reference value
STOP               .m        3245                          : Last reference value
STEP               .m        0.2                           : Step increment
NULL               .         -9999                         : Missing value
COMP               .                                       : Company
WELL               .         202                           : Well name
FLD                .                                       : Field
LOC                .                                       : Location
CNTY               .                                       : County
STAT               .                                       : State
CTRY               .                                       : Country
SRVC               .                                       : Service Company
DATE               .                                       : Date
API                .                                       : API number
EREF               .m        139.76                        : 
Pad                .         2                             : 
X                  .m        228492                        : 
Y                  .m        241733                        : 
group              .         Pad2                          : 
Интер-р            .         Старостина                    : 
Куст               .         2                             : 
Статус             .         Проверено                     : 
Тип                .         Нагнетательные                : 
~Parameter Information Block
#_______________________________________________________________________________
#
#PARAMETER_NAME    .UNIT     VALUE                         : DESCRIPTION
#_______________________________________________________________________________
SET                .         LAS1                          : 
REAL_CREATION_DATE .         Ср апр 11 2012-13_17_07       : 
TLFamily_DEPTH     .         Measured Depth                : 
TLFamily_KS        .         Potential Resistivity         : 
TLFamily_KS1       .         Extra Shallow Resistivity     : 
TLFamily_KS2       .         Shallow Resistivity           : 
TLFamily_KS3       .         Medium Resistivity            : 
TLFamily_KS4       .         Deep Resistivity              : 
TLFamily_KS5       .         Extra Deep Resistivity        : 
TLFamily_LLD       .         Lateral Log Resistivity       : 
TLFamily_OKS3      .         Medium Resistivity Inverted   : 
TLFamily_RM        .         Mud Resistivity               : 
TLFamily_SP        .         Spontaneous Potential         : 
group              .         INI                           : 
~Curve Information
#_______________________________________________________________________________
#
#LOGNAME           .UNIT     LOG_ID                        : DESCRIPTION
#_______________________________________________________________________________
DEPTH              .m                                      : 1 Depth 
KS                 .ohm.m                                  : 10 Normal Log Resistivity  N11.0M0.5A 
KS1                .ohm.m                                  : 3 Lateral Log Resistivity  A0.4M0.1N 
KS2                .ohm.m                                  : 4 Lateral Log Resistivity  A1.0M0.1N 
KS3                .ohm.m                                  : 5 Lateral Log Resistivity  A2.0M0.5N 
KS4                .ohm.m                                  : 6 Lateral Log Resistivity  A4.0M0.5N 
KS5                .ohm.m                                  : 7 Lateral Log Resistivity  A8.0M0.5N 
LLD                .ohm.m                                  : 2 Laterolog Shallow 
OKS3               .ohm.m                                  : 8 Lateral Log Resistivity (Inverse) 
RM                 .ohm.m                                  : 11 Mud Resistivity 
SP                 .mV                                     : 9 Spontaneous Potential 
~Ascii
# ...
3184.2     10.0494    2.9473     9.7478     13.7394    13.4166    11.9196    80.6586    23.3411    0.455      43.2757   
3184.4     9.8809     3.3522     11.1527    15.1091    13.7304    11.4204    44.8914    21.0648    0.433      42.2256   
3184.6     9.5568     3.3879     11.611     15.6041    13.2366    10.5115    9.6909     18.9896    0.444      42.0218   
3184.8     9.2206     3.1928     11.5107    15.4628    12.3272    9.3685     8.2491     17.1839    0.463      43.6286   
3185       8.9866     2.9984     11.4427    15.1581    11.5555    8.1631     7.8508     15.9808    0.476      43.6167   
3185.2     8.7915     2.7969     10.6894    15.0723    10.9667    7.197      6.3341     15.3584    0.456      46.4554   
3185.4     8.7196     2.7095     10.1924    14.9511    10.3432    6.475      7.2123     14.8905    0.429      48.0146   
3185.6     8.6529     2.5407     9.4789     15.4254    10.1506    5.8894     7.7313     14.3183    0.438      44.2902   
3185.8     8.559      2.7376     9.8458     16.1817    10.1036    5.3616     8.4995     13.9381    0.461      44.4058   
3186       8.4725     2.6586     9.2991     16.6479    10.033     4.9625     6.8576     13.7386    0.47       44.1035   
3186.2     8.4782     2.5242     8.8237     16.5242    9.7663     4.6278     6.5487     13.5536    0.467      44.3702   
3186.4     8.4957     2.4266     8.4266     16.4747    9.8893     4.2741     7.5347     13.2515    0.448      44.014    
3186.6     8.4663     2.5687     8.8565     16.3527    10.2133    4.0255     7.907      13.2776    0.438      44.5436   
3186.8     8.4223     2.5607     8.5186     16.0303    10.6597    3.7787     6.3915     13.7802    0.472      44.9498   
3187       8.4234     2.4957     8.2562     15.2631    10.7733    3.6908     6.3889     14.0571    0.472      46.482    
3187.2     8.5113     2.3954     7.9361     14.5224    11.0388    3.5178     6.6818     14.2562    0.447      45.2319   
3187.4     8.6097     2.3224     7.6409     13.9045    11.4442    3.3864     7.3117     14.2823    0.432      43.3331   
3187.6     8.7213     2.3224     7.6104     13.6387    12.0938    3.3062     8.3594     14.237     0.443      42.4378   
3187.8     8.7863     2.3623     7.6681     13.4801    12.9643    3.2372     8.6704     14.1267    0.474      43.0559   
3188       8.7639     2.4086     7.7364     13.347     13.8889    3.1996     8.0361     14.1427    0.457      42.8131   
3188.2     8.6796     2.4843     7.9333     13.2836    14.5496    3.1786     7.5094     14.4655    0.437      42.8685   
3188.4     8.6422     2.4984     8.0576     13.0862    14.879     3.1091     7.0097     14.893     0.435      43.402    
3188.6     8.5828     2.3822     7.7968     12.6059    14.7727    3.0722     7.2176     15.4229    0.45       44.9782   
3188.8     8.7697     2.2386     7.362      11.5717    13.7714    3.174      7.4748     15.0958    0.471      45.1393   
3189       8.7627     1.9117     6.3486     11.3372    13.8103    3.3106     6.5991     16.0184    0.437      45.0392   
3189.2     8.6282     2.3699     7.8124     11.894     14.704     3.5219     6.5937     18.3894    0.431      44.6852   
3189.4     8.4755     2.3027     7.6431     12.6328    15.5795    3.7312     7.2432     20.8313    0.454      44.3003   
3189.6     8.5633     2.2274     7.5988     12.4522    15.4585    4.2278     6.837      21.8981    0.45       44.7738   
3189.8     8.7635     2.1308     7.2529     12.2136    15.4113    4.6512     8.4086     23.5363    0.428      44.6707   
3190       9.0447     2.0526     6.7459     11.8939    15.3926    5.1746     8.774      24.9381    0.426      45.1503   
3190.2     9.305      2.0122     6.4039     11.8649    15.7163    5.8584     8.6798     26.3855    0.452      44.9898   
3190.4     9.5992     2.129      6.6339     11.9359    16.3319    6.8077     7.6587     27.2392    0.455      49.2978   
3190.6     9.8799     2.1401     6.7021     12.0786    17.2994    8.1242     8.4666     28.7654    0.433      52.7308   
3190.8     10.2647    2.055      6.646      12.3382    18.7086    9.7123     11.0356    30.4088    0.427      59.8767   
3191       10.743     1.99       6.6712     12.8014    20.6308    11.5847    26.522     32.5786    0.445      51.4431   
3191.2     11.3631    1.906      6.8363     13.4865    22.5164    13.8929    25.0301    33.26      0.466      49.0046   
3191.4     11.9432    2.1326     7.7338     14.4454    24.5689    16.4628    18.4387    32.714     0.461      46.2617   
3191.6     12.5395    2.4798     8.609      15.8217    26.7942    19.4172    18.832     31.9469    0.434      47.6434   
3191.8     12.9475    2.6124     9.1064     17.194     29.0721    22.9746    25.3689    31.6898    0.444      48.0379   
3192       13.3461    2.6462     9.605      18.6205    31.3991    26.9896    58.7506    31.5992    0.465      53.7347   
3192.2     13.6037    2.7325     10.4527    20.2493    33.7118    31.7651    132.4147   30.9021    0.474      47.4887   
3192.4     13.6899    2.9729     11.7526    22.3515    35.9082    37.3288    116.6185   29.1885    0.429      45.6068   
3192.6     13.4707    3.3788     13.4693    24.9832    38.1295    41.8856    62.1774    26.9369    0.432      45.4249   
3192.8     12.8802    3.7687     15.4811    27.8978    40.0817    44.5244    16.8261    24.7619    0.449      46.1464   
3193       12.2097    4.1235     16.7985    29.4598    39.6777    45.3353    10.6072    22.3478    0.473      45.5261   
3193.2     11.5963    3.752      15.6888    28.8967    35.9675    44.0108    9.658      19.6667    0.45       50.4284   
3193.4     11.1116    3.2981     14.2774    27.2717    31.2145    40.1625    9.3723     17.1082    0.432      45.7157   
3193.6     10.7275    3.0126     13.2543    26.2609    28.1116    35.5698    9.3805     15.3602    0.431      45.2649   
3193.8     10.3666    2.9242     12.561     25.7482    26.5327    31.7672    9.3123     14.2371    0.459      45.2231   
3194       10.0461    2.8757     11.9291    25.2832    25.2797    28.9145    8.933      13.3355    0.464      46.0294   
3194.2     9.7533     2.7588     11.1862    24.9065    24.3909    26.4312    8.74       12.5834    0.438      47.1892   
3194.4     9.4895     2.7318     10.9319    24.9919    24.16      24.1151    8.814      12.0144    0.424      47.8126   
3194.6     9.2269     2.7547     10.7734    25.1554    24.2003    22.0955    8.7232     11.6552    0.437      58.0584   
3194.8     8.9876     2.7784     10.5469    24.5768    23.8221    20.2576    7.492      11.2261    0.456      65.1585   
3195       8.8465     2.597      9.7184     23.3098    23.2713    18.4305    7.4431     10.8269    0.442      68.6556   
3195.2     8.6887     2.5382     9.4082     21.8892    22.8875    16.3881    7.0914     10.5442    0.423      46.3297   
3195.4     8.5407     2.5627     9.1491     20.7488    22.9673    14.5632    7.3865     10.4248    0.426      46.6929   
3195.6     8.4954     2.5004     8.6944     19.2443    22.6841    13.1069    7.3825     10.4065    0.412      48.5272   
3195.8     8.4019     2.4065     8.2266     17.7353    22.0411    11.7254    6.8294     10.4665    0.444      49.5472   
3196       8.3034     2.4303     7.948      16.1197    21.4698    9.9992     7.4179     11.0547    0.427      47.7223   
3196.2     8.197      2.4782     7.8805     15.1761    20.9827    9.1731     7.2785     11.7895    0.44       46.9625   
3196.4     8.1196     2.4159     7.68       14.2953    20.462     8.3777     6.8715     12.7426    0.462      46.7738   
3196.6     8.0164     2.3584     7.4055     13.0063    19.1957    7.3873     6.9174     14.5584    0.423      47.1772   
3196.8     7.9863     2.3157     7.0684     12.0134    17.9736    6.8525     6.6644     16.1036    0.415      46.9899   
3197       7.9863     2.1722     6.5804     11.1069    16.7716    6.4504     6.6094     18.764     0.434      47.2661   
3197.2     8.0577     1.9916     6.1479     10.423     16.0297    6.2711     5.7709     22.2936    0.462      46.92     
3197.4     8.3979     1.8907     5.7366     9.7404     15.6192    6.4884     5.3033     27.9792    0.425      47.1065   
