~Version
 VERS              .         2.0                           : CWLS LOG ASCII STANDARD - VERSION 2.0
 WRAP              .         NO                            : ONE LINE PER DEPTH STEP
 DLM               .         SPACE                         : DELIMITING CHARACTER(SPACE TAB OR COMMA)
~Well Information
#_______________________________________________________________________________
#
#PARAMETER_NAME    .UNIT     VALUE                         : DESCRIPTION
#_______________________________________________________________________________
STRT               .m        3077                          : First reference value
STOP               .m        3245                          : Last reference value
STEP               .m        0.2                           : Step increment
NULL               .         -9999                         : Missing value
COMP               .                                       : Company
WELL               .         202                           : Well name
FLD                .                                       : Field
LOC                .                                       : Location
CNTY               .                                       : County
STAT               .                                       : State
CTRY               .                                       : Country
SRVC               .                                       : Service Company
DATE               .                                       : Date
API                .                                       : API number
EREF               .m        139.76                        : 
Pad                .         2                             : 
X                  .m        228492                        : 
Y                  .m        241733                        : 
group              .         Pad2                          : 
Интер-р            .         Старостина                    : 
Куст               .         2                             : 
Статус             .         Проверено                     : 
Тип                .         Нагнетательные                : 
~Parameter Information Block
#_______________________________________________________________________________
#
#PARAMETER_NAME    .UNIT     VALUE                         : DESCRIPTION
#_______________________________________________________________________________
SET                .         LAS1                          : 
REAL_CREATION_DATE .         Ср апр 11 2012-13_17_07       : 
TLFamily_DEPTH     .         Measured Depth                : 
TLFamily_KS        .         Potential Resistivity         : 
TLFamily_KS1       .         Extra Shallow Resistivity     : 
TLFamily_KS2       .         Shallow Resistivity           : 
TLFamily_KS3       .         Medium Resistivity            : 
TLFamily_KS4       .         Deep Resistivity              : 
TLFamily_KS5       .         Extra Deep Resistivity        : 
TLFamily_LLD       .         Lateral Log Resistivity       : 
TLFamily_OKS3      .         Medium Resistivity Inverted   : 
TLFamily_RM        .         Mud Resistivity               : 
TLFamily_SP        .         Spontaneous Potential         : 
group              .         INI                           : 
~Curve Information
#_______________________________________________________________________________
#
#LOGNAME           .UNIT     LOG_ID                        : DESCRIPTION
#_______________________________________________________________________________
DEPTH              .m                                      : 1 Depth 
KS                 .ohm.m                                  : 10 Normal Log Resistivity  N11.0M0.5A 
KS1                .ohm.m                                  : 3 Lateral Log Resistivity  A0.4M0.1N 
KS2                .ohm.m                                  : 4 Lateral Log Resistivity  A1.0M0.1N 
KS3                .ohm.m                                  : 5 Lateral Log Resistivity  A2.0M0.5N 
KS4                .ohm.m                                  : 6 Lateral Log Resistivity  A4.0M0.5N 
KS5                .ohm.m                                  : 7 Lateral Log Resistivity  A8.0M0.5N 
LLD                .ohm.m                                  : 2 Laterolog Shallow 
OKS3               .ohm.m                                  : 8 Lateral Log Resistivity (Inverse) 
RM                 .ohm.m                                  : 11 Mud Resistivity 
SP                 .mV                                     : 9 Spontaneous Potential 
~Ascii
# ...
3090.4     6.7573     2.4331     8.5546     13.9088    12.8204    6.2706     4.554      10.3371    0.473      47.912    
3090.6     6.6185     2.2684     7.8177     13.1126    12.1373    6.0961     4.5246     10.5951    0.485      47.7058   
3090.8     6.573      2.2313     7.3068     12.668     11.7009    6.0376     4.4084     11.1088    0.491      47.3972   
3091       6.709      2.0865     6.647      12.2655    11.4084    6.1907     4.9844     11.6356    0.48       46.505    
3091.2     6.8664     1.9797     6.3474     12.0824    11.6207    6.4046     6.2927     11.9136    0.488      46.4831   
3091.4     6.9798     2.138      6.612      12.3373    12.2451    6.7629     6.9582     11.9436    0.485      45.4154   
3091.6     7.0264     2.2981     7.0813     12.6961    12.8235    7.1374     6.5826     11.8749    0.481      44.2718   
3091.8     7.0264     2.4258     7.4471     12.8643    13.3809    7.587      6.2509     11.8902    0.485      43.9896   
3092       6.9905     2.4483     7.6973     12.7275    13.8871    7.8212     5.754      12.1295    0.484      43.4945   
3092.2     6.896      2.4843     7.8902     12.4467    14.0604    7.9346     5.4187     12.3523    0.48       43.124    
3092.4     6.8664     2.4316     7.842      12.1603    14.0707    8.0688     5.3408     12.64      0.478      42.8617   
3092.6     6.8664     2.3954     7.7822     11.8716    14.0289    8.1223     5.7078     12.8809    0.472      42.2684   
3092.8     6.8664     2.3979     7.7118     11.7106    14.1117    8.1276     5.6015     13.081     0.465      41.6788   
3093       6.8664     2.4087     7.597      11.5443    13.8208    8.1809     5.5544     13.2331    0.456      41.4621   
3093.2     6.8135     2.3979     7.6528     11.6018    13.5199    8.1809     5.5021     13.3372    0.456      41.8005   
3093.4     6.813      2.4303     7.7335     11.6224    13.2233    8.1809     5.5976     13.4279    0.459      42.0201   
3093.6     6.8248     2.3985     7.5344     11.4394    12.777     8.2184     4.9819     13.6999    0.45       42.3752   
3093.8     6.893      2.2913     7.3961     11.131     12.1638    8.1809     4.7723     14.0911    0.444      42.1989   
3094       7.1484     2.1959     7.0782     10.7975    11.4947    8.1809     5.3084     14.6471    0.438      43.016    
3094.2     7.2569     2.2684     7.1575     10.7422    11.2388    8.2201     5.7986     14.4656    0.441      42.83     
3094.4     7.3887     2.3302     7.3533     10.9191    10.9258    8.2341     6.6686     13.9895    0.444      44.141    
3094.6     7.453      2.3988     7.5554     11.1994    10.8501    8.1946     6.8758     13.5614    0.447      44.4035   
3094.8     7.453      2.5231     7.9364     11.4367    10.8271    8.1809     7.0816     13.4823    0.447      45.4362   
3095       7.4263     2.5382     7.9837     11.4699    10.7438    8.1809     6.4588     13.6822    0.46       45.1539   
3095.2     7.3997     2.497      8.0355     11.4585    10.6355    8.1365     5.772      13.8917    0.466      45.9376   
3095.4     7.3847     2.4864     8.1419     11.5274    10.6157    8.1276     6.2229     14.2456    0.469      45.4525   
3095.6     7.3997     2.4945     8.1096     11.5244    10.5842    8.1276     5.7464     14.7169    0.466      46.3424   
3095.8     7.4789     2.3555     7.7383     11.4908    10.5308    8.1809     5.4869     15.0145    0.475      45.782    
3096       7.5461     2.3588     7.7869     11.728     10.6333    8.2341     5.9783     15.035     0.48       46.5519   
3096.2     7.5206     2.4678     8.1425     12.253     10.9508    8.1837     6.9992     14.3712    0.474      47.0112   
3096.4     7.453      2.686      8.6005     12.6979    11.0733    8.1293     8.4913     13.4745    0.478      46.6298   
3096.6     7.3789     2.6813     8.3397     12.683     10.8362    8.0238     7.5251     12.9461    0.478      47.2548   
3096.8     7.293      2.4893     7.8995     12.0401    10.4256    7.8711     5.1632     13.1209    0.474      48.6127   
3097       7.3222     2.2792     7.4509     11.4837    10.2105    7.8111     4.8001     13.4309    0.462      47.1097   
3097.2     7.4289     2.2145     7.3858     11.354     10.3079    7.8606     4.7498     13.8749    0.468      47.5807   
3097.4     7.6284     2.236      7.3995     11.4987    10.5902    8.0681     5.5084     14.2674    0.468      47.2916   
3097.6     7.8949     2.2304     7.2535     11.6761    10.9561    8.2862     6.1445     14.5511    0.468      46.9083   
3097.8     8.1588     2.2909     7.334      11.946     11.4166    8.5033     6.3036     14.3733    0.468      47.2952   
3098       8.3843     2.3919     7.6224     12.5834    12.1378    8.6648     7.9807     13.7418    0.468      47.2213   
3098.2     8.3817     2.6759     8.4276     13.5062    12.9352    8.765      10.1238    12.7298    0.473      46.6701   
3098.4     8.134      2.9555     9.309      14.4813    13.7483    8.69       13.5824    11.7206    0.468      47.0005   
3098.6     7.7462     3.1977     10.1985    15.0491    14.1247    8.4801     12.0773    11.1422    0.473      47.2208   
3098.8     7.3437     3.0266     10.0288    14.7253    13.8423    8.1678     7.8426     11.2447    0.48       46.9934   
3099       6.9776     2.7021     9.4746     14.0105    13.3075    7.73       4.8571     11.6162    0.491      46.5448   
3099.2     6.8248     2.6236     9.4667     13.3509    12.7097    7.3781     4.6176     11.9375    0.491      46.0155   
3099.4     6.8644     2.3189     8.1817     12.7353    12.1705    7.229      4.8197     12.4773    0.486      45.7023   
3099.6     6.9014     2.1629     7.3556     12.1688    11.815     7.1751     4.1361     13.0666    0.485      45.8755   
3099.8     6.9916     2.2036     7.2613     12.3231    11.9965    7.1653     4.7585     13.2172    0.473      44.9791   
3100       7.1216     2.3139     7.4742     12.783     12.2953    7.2864     6.267      13.0282    0.468      44.9259   
3100.2     7.2501     2.4029     7.4623     12.9209    12.4483    7.3949     6.751      12.9259    0.468      44.7433   
3100.4     7.293      2.3354     7.2689     12.8129    12.5178    7.5552     5.8421     12.9067    0.471      44.1507   
3100.6     7.293      2.3554     7.561      12.7812    12.741     7.6656     6.5309     12.987     0.456      44.2837   
3100.8     7.2651     2.5301     8.145      12.8692    12.9585    7.766      6.7003     13.2738    0.447      44.2368   
3101       7.166      2.6026     8.4388     12.6728    13.0577    7.8616     6.2047     13.5125    0.442      44.4998   
3101.2     7.133      2.5398     8.2805     12.1788    12.7047    7.8146     5.9227     13.989     0.441      45.3506   
3101.4     7.0991     2.4339     7.9683     11.965     12.524     7.6633     4.9734     13.9417    0.441      44.776    
3101.6     7.1245     2.4912     8.1856     11.9183    12.383     7.5524     6.0084     13.6705    0.444      45.3561   
3101.8     7.133      2.5187     7.9809     11.9068    12.2985    7.3944     6.5778     13.5019    0.444      46.5674   
3102       7.133      2.4764     7.8269     11.724     11.9196    7.2866     5.5389     13.3419    0.444      46.1617   
3102.2     7.0801     2.4474     7.7133     11.6836    11.6658    7.1197     5.773      13.1932    0.453      47.0608   
3102.4     7.0797     2.4805     7.8872     11.5547    11.3824    7.009      5.9854     13.2324    0.454      46.5501   
3102.6     7.1541     2.4179     7.5684     11.2287    10.7841    6.9551     5.3193     13.5671    0.462      46.5456   
3102.8     7.2845     2.2175     7.0552     10.7447    10.1909    6.9037     5.0661     14.0561    0.46       47.1233   
3103       7.4368     2.1356     6.8866     10.6656    10.0255    6.9592     4.746      13.9745    0.453      47.0602   
3103.2     7.5946     2.2653     7.3983     11.134     10.3247    7.0663     6.8799     13.5498    0.457      46.7523   
3103.4     7.6663     2.5024     7.9312     11.6616    10.6509    7.2235     9.3849     13.3581    0.465      46.1823   
3103.6     7.5889     2.5117     8.0039     12.246     10.9183    7.3283     7.383      13.2507    0.469      47.1804   
