~Version
 VERS              .         2.0                           : CWLS LOG ASCII STANDARD - VERSION 2.0
 WRAP              .         NO                            : ONE LINE PER DEPTH STEP
 DLM               .         SPACE                         : DELIMITING CHARACTER(SPACE TAB OR COMMA)
~Well Information
#_______________________________________________________________________________
#
#PARAMETER_NAME    .UNIT     VALUE                         : DESCRIPTION
#_______________________________________________________________________________
STRT               .m        3077                          : First reference value
STOP               .m        3245                          : Last reference value
STEP               .m        0.2                           : Step increment
NULL               .         -9999                         : Missing value
COMP               .                                       : Company
WELL               .         202                           : Well name
FLD                .                                       : Field
LOC                .                                       : Location
CNTY               .                                       : County
STAT               .                                       : State
CTRY               .                                       : Country
SRVC               .                                       : Service Company
DATE               .                                       : Date
API                .                                       : API number
EREF               .m        139.76                        : 
Pad                .         2                             : 
X                  .m        228492                        : 
Y                  .m        241733                        : 
group              .         Pad2                          : 
Интер-р            .         Старостина                    : 
Куст               .         2                             : 
Статус             .         Проверено                     : 
Тип                .         Нагнетательные                : 
~Parameter Information Block
#_______________________________________________________________________________
#
#PARAMETER_NAME    .UNIT     VALUE                         : DESCRIPTION
#_______________________________________________________________________________
SET                .         LAS1                          : 
REAL_CREATION_DATE .         Ср апр 11 2012-13_17_07       : 
TLFamily_DEPTH     .         Measured Depth                : 
TLFamily_KS        .         Potential Resistivity         : 
TLFamily_KS1       .         Extra Shallow Resistivity     : 
TLFamily_KS2       .         Shallow Resistivity           : 
TLFamily_KS3       .         Medium Resistivity            : 
TLFamily_KS4       .         Deep Resistivity              : 
TLFamily_KS5       .         Extra Deep Resistivity        : 
TLFamily_LLD       .         Lateral Log Resistivity       : 
TLFamily_OKS3      .         Medium Resistivity Inverted   : 
TLFamily_RM        .         Mud Resistivity               : 
TLFamily_SP        .         Spontaneous Potential         : 
group              .         INI                           : 
~Curve Information
#_______________________________________________________________________________
#
#LOGNAME           .UNIT     LOG_ID                        : DESCRIPTION
#_______________________________________________________________________________
DEPTH              .m                                      : 1 Depth 
KS                 .ohm.m                                  : 10 Normal Log Resistivity  N11.0M0.5A 
KS1                .ohm.m                                  : 3 Lateral Log Resistivity  A0.4M0.1N 
KS2                .ohm.m                                  : 4 Lateral Log Resistivity  A1.0M0.1N 
KS3                .ohm.m                                  : 5 Lateral Log Resistivity  A2.0M0.5N 
KS4                .ohm.m                                  : 6 Lateral Log Resistivity  A4.0M0.5N 
KS5                .ohm.m                                  : 7 Lateral Log Resistivity  A8.0M0.5N 
LLD                .ohm.m                                  : 2 Laterolog Shallow 
OKS3               .ohm.m                                  : 8 Lateral Log Resistivity (Inverse) 
RM                 .ohm.m                                  : 11 Mud Resistivity 
SP                 .mV                                     : 9 Spontaneous Potential 
~Ascii
# ...
3117.2     7.3081     2.5753     8.5789     15.3058    15.0955    8.454      5.9745     11.371     0.469      40.2332   
3117.4     7.2163     2.5922     8.5968     14.4321    14.3566    8.0909     5.1613     11.3551    0.473      40.9729   
3117.6     7.133      2.5219     8.1495     13.7302    13.7947    7.7244     4.8497     11.5185    0.465      40.6173   
3117.8     7.0885     2.4452     8.0091     13.0371    13.3934    7.419      5.0257     11.5342    0.474      41.7301   
3118       7.133      2.4196     7.9643     12.8076    13.2341    7.1548     5.766      11.4433    0.465      40.6707   
3118.2     7.1131     2.4561     8.0032     12.7194    13.3728    7.0529     5.9196     11.3146    0.462      40.8033   
3118.4     7.0496     2.5004     8.0347     12.654     13.5961    6.9097     5.6063     11.286     0.454      39.8797   
3118.6     6.9589     2.5382     7.9927     12.5193    13.6541    6.7426     5.2493     11.2293    0.44       40.0117   
3118.8     6.8732     2.5062     8.0526     12.3268    13.4485    6.6147     5.1765     11.1935    0.436      39.8436   
3119       6.8347     2.4178     7.9264     12.1546    13.1066    6.5378     5.1267     11.1758    0.429      39.8355   
3119.2     6.7701     2.3851     7.7357     11.9273    12.7042    6.4587     5.0365     11.2127    0.427      39.9148   
3119.4     6.7013     2.4303     7.7935     11.7616    12.301     6.3736     5.0237     11.1615    0.436      40.0088   
3119.6     6.653      2.4087     7.7518     11.6124    11.8931    6.3715     4.9913     11.1157    0.44       39.1131   
3119.8     6.6797     2.3422     7.5606     11.4822    11.6588    6.3715     4.8069     11.1425    0.443      39.2559   
3120       6.7187     2.3216     7.4121     11.2903    11.5451    6.4202     4.7585     11.269     0.44       39.7194   
3120.2     6.7829     2.2684     7.2743     11.1152    11.4286    6.5495     4.7719     11.3764    0.444      39.7308   
3120.4     6.8664     2.2496     7.161      11.1144    11.4934    6.6795     4.9339     11.4159    0.456      39.4229   
3120.6     6.9047     2.309      7.4516     11.3849    11.7122    6.8214     6.3162     11.1673    0.478      39.913    
3120.8     6.9223     2.4843     7.829      11.6225    11.8146    6.9871     6.851      10.6909    0.482      39.9791   
3121       6.9229     2.534      7.8485     11.6425    11.6831    7.1107     5.6411     10.2964    0.491      40.1529   
3121.2     6.7934     2.5382     7.9        11.6387    11.6062    7.1166     5.2882     10.097     0.489      39.8392   
3121.4     6.6333     2.5593     8.1315     11.6511    11.5176    7.0699     5.3165     9.9492     0.482      40.2464   
3121.6     6.4784     2.5295     8.2218     11.6046    11.303     7.1166     4.9013     9.8837     0.468      40.0089   
3121.8     6.3484     2.4653     8.0655     11.4268    10.9791    7.1166     4.3623     9.9824     0.454      39.9182   
3122       6.2797     2.3984     7.8307     11.2084    10.7417    7.1753     4.2393     10.2137    0.45       39.8255   
3122.2     6.2225     2.3224     7.5094     11.1168    10.6457    7.2559     4.2741     10.3889    0.442      39.8117   
3122.4     6.1588     2.3478     7.5781     11.1995    10.6149    7.3819     4.5199     10.4664    0.431      40.0655   
3122.6     6.1197     2.3973     7.6614     11.2988    10.4665    7.5094     4.9596     10.4484    0.444      40.0003   
3122.8     6.0888     2.3563     7.3327     11.1102    10.0587    7.6368     4.5212     10.4904    0.444      39.8714   
3123       6.0664     2.2956     7.0663     10.772     9.6719     7.6535     4.0852     10.7063    0.444      40.5151   
3123.2     6.0664     2.2684     6.9841     10.47      9.4485     7.6487     4.1066     11.0104    0.447      39.8624   
3123.4     6.0664     2.2366     6.9841     10.28      9.3263     7.6487     4.2186     11.2095    0.452      39.7584   
3123.6     6.0881     2.2684     6.9631     10.2132    9.2864     7.6487     4.4788     11.264     0.45       40.1728   
3123.8     6.1468     2.2684     6.919      10.0798    9.2017     7.6127     4.5723     11.2384    0.476      40.7958   
3124       6.2119     2.2684     6.8791     9.9097     9.1138     7.5397     4.6359     11.2328    0.48       39.7655   
3124.2     6.2531     2.2684     6.8791     9.8214     9.069      7.3746     4.7494     11.1925    0.48       40.3488   
3124.4     6.2923     2.3169     6.9363     9.7201     8.959      7.2151     4.7708     11.0891    0.474      40.4184   
3124.6     6.3559     2.289      6.9316     9.6357     8.824      6.9897     4.589      11.0039    0.468      39.8773   
3124.8     6.3938     2.2684     6.8962     9.4938     8.6534     6.8078     4.5125     11.0474    0.462      39.8693   
3125       6.4397     2.2447     6.8811     9.3733     8.5764     6.6308     4.5041     11.2468    0.456      40.2064   
3125.2     6.4916     2.2145     6.9016     9.3971     8.5568     6.5336     4.7688     11.5672    0.45       39.9063   
3125.4     6.493      2.2645     7.1898     9.6796     8.6843     6.4195     6.364      11.5822    0.444      39.7671   
3125.6     6.493      2.4636     7.6439     10.0627    8.7861     6.2906     5.0834     11.493     0.436      39.9187   
3125.8     6.451      2.5051     7.7036     10.257     8.6684     6.0611     4.8469     11.2849    0.437      40.3367   
3126       6.3864     2.4483     7.5378     10.158     8.3206     5.8044     4.2283     11.2459    0.432      39.73     
3126.2     6.3579     2.3577     7.3077     9.9779     8.0005     5.5008     4.4044     11.1615    0.438      39.6024   
3126.4     6.3331     2.3224     7.337      9.8779     7.7809     5.2303     4.5682     11.1811    0.444      39.7214   
3126.6     6.3331     2.3224     7.2559     9.7979     7.6405     5.0609     4.3417     11.2562    0.444      40.3549   
3126.8     6.3331     2.2737     7.042      9.6388     7.4758     4.8925     4.4033     11.488     0.45       40.033    
3127       6.3574     2.239      6.8853     9.4764     7.3589     4.8319     4.4923     11.7665    0.466      39.8327   
3127.2     6.3961     2.2145     6.8265     9.4088     7.3398     4.8283     4.6033     12.1012    0.475      40.3711   
3127.4     6.4397     2.2322     6.8259     9.44       7.4293     4.8965     4.5075     12.4658    0.478      40.1805   
3127.6     6.52       2.2145     6.7357     9.5269     7.5899     5.1524     4.4692     12.9212    0.478      40.3352   
3127.8     6.6015     2.1605     6.6881     9.6921     7.9475     5.4782     4.6039     13.4716    0.467      40.5018   
3128       6.6818     2.1744     6.8218     10.0742    8.6431     5.8621     5.009      14.202     0.459      40.4411   
3128.2     6.8072     2.2856     7.1982     10.5636    9.3395     6.2033     5.8514     14.4934    0.456      40.2919   
3128.4     6.9344     2.3535     7.4044     10.8683    9.7575     6.4652     5.5114     14.4129    0.442      40.4329   
3128.6     7.089      2.3764     7.3909     10.8329    9.8231     6.5827     5.3586     14.1669    0.434      40.8416   
3128.8     7.2435     2.3585     7.2781     10.733     9.8759     6.6327     5.74       14.1021    0.432      41.0925   
3129       7.3746     2.3912     7.4025     10.6894    9.8913     6.6878     5.9587     14.0419    0.438      40.14     
3129.2     7.5045     2.382      7.5459     10.7837    10.0255    6.7387     6.9393     13.9107    0.433      40.1159   
3129.4     7.5857     2.4759     7.9658     11.0382    10.2409    6.7672     7.0437     13.6041    0.438      40.7353   
3129.6     7.6029     2.5851     8.3654     11.4414    10.5154    6.6974     6.6153     13.1468    0.444      40.557    
3129.8     7.5383     2.6735     8.6709     11.6998    10.5805    6.6226     5.8551     12.5977    0.444      40.4603   
3130       7.4725     2.6828     8.746      11.8515    10.4326    6.4488     5.5564     12.2626    0.45       40.6363   
3130.2     7.3047     2.6686     8.8429     12.0233    10.2464    6.2438     5.809      11.9769    0.462      40.8347   
3130.4     7.1628     2.7001     8.9285     12.2805    10.0773    5.9843     5.1895     11.8092    0.474      40.3027   
