~Version
 VERS              .         2.0                           : CWLS LOG ASCII STANDARD - VERSION 2.0
 WRAP              .         NO                            : ONE LINE PER DEPTH STEP
 DLM               .         SPACE                         : DELIMITING CHARACTER(SPACE TAB OR COMMA)
~Well Information
#_______________________________________________________________________________
#
#PARAMETER_NAME    .UNIT     VALUE                         : DESCRIPTION
#_______________________________________________________________________________
STRT               .m        3077                          : First reference value
STOP               .m        3245                          : Last reference value
STEP               .m        0.2                           : Step increment
NULL               .         -9999                         : Missing value
COMP               .                                       : Company
WELL               .         202                           : Well name
FLD                .                                       : Field
LOC                .                                       : Location
CNTY               .                                       : County
STAT               .                                       : State
CTRY               .                                       : Country
SRVC               .                                       : Service Company
DATE               .                                       : Date
API                .                                       : API number
EREF               .m        139.76                        : 
Pad                .         2                             : 
X                  .m        228492                        : 
Y                  .m        241733                        : 
group              .         Pad2                          : 
Интер-р            .         Старостина                    : 
Куст               .         2                             : 
Статус             .         Проверено                     : 
Тип                .         Нагнетательные                : 
~Parameter Information Block
#_______________________________________________________________________________
#
#PARAMETER_NAME    .UNIT     VALUE                         : DESCRIPTION
#_______________________________________________________________________________
SET                .         LAS3                          : 
REAL_CREATION_DATE .         Ср апр 11 2012-13_17_07       : 
TLFamily_DEPTH     .         Measured Depth                : 
TLFamily_GR        .         Gamma Ray                     : 
TLFamily_TNPH      .         Neutron Porosity              : 
group              .         INI                           : 
~Curve Information
#_______________________________________________________________________________
#
#LOGNAME           .UNIT     LOG_ID                        : DESCRIPTION
#_______________________________________________________________________________
DEPTH              .m                                      : 1 Depth 
GR                 .gAPI                                   :  
TNPH               .v/v                                    : 5 Hydrogen Content 
~Ascii
# ...
3174.2     132.75     0.272     
3174.4     131.05     0.276     
3174.6     134.36     0.304     
3174.8     135.89     0.313     
3175       137.29     0.305     
3175.2     146.63     0.305     
3175.4     149.54     0.306     
3175.6     149.04     0.307     
3175.8     149.13     0.294     
3176       149.28     0.276     
3176.2     149.59     0.264     
3176.4     146.82     0.274     
3176.6     145.99     0.287     
3176.8     144.77     0.287     
3177       140.23     0.283     
3177.2     136.38     0.276     
3177.4     131.44     0.256     
3177.6     128.65     0.256     
3177.8     128.81     0.264     
3178       132.9      0.272     
3178.2     133.12     0.292     
3178.4     132.93     0.288     
3178.6     133.72     0.282     
3178.8     131.46     0.298     
3179       128.22     0.296     
3179.2     122.75     0.282     
3179.4     109.9      0.269     
3179.6     113.2      0.264     
3179.8     126.73     0.284     
3180       130.35     0.287     
3180.2     131.08     0.274     
3180.4     133.63     0.275     
3180.6     137.68     0.31      
3180.8     141.32     0.317     
3181       144.78     0.318     
3181.2     145.51     0.303     
3181.4     145.41     0.296     
3181.6     146.79     0.299     
3181.8     149.55     0.295     
3182       148.71     0.281     
3182.2     145.95     0.286     
3182.4     144.6      0.278     
3182.6     142.26     0.248     
3182.8     141.33     0.239     
3183       135.74     0.224     
3183.2     132.33     0.168     
3183.4     135.82     0.141     
3183.6     132.16     0.124     
3183.8     108.81     0.11      
3184       72.29      0.096     
3184.2     54.68      0.095     
3184.4     55.2       0.113     
3184.6     60.11      0.137     
3184.8     60.91      0.158     
3185       62.79      0.174     
3185.2     64.01      0.189     
3185.4     64.86      0.186     
3185.6     65.91      0.183     
3185.8     65.92      0.185     
3186       62.8       0.184     
3186.2     61.96      0.183     
3186.4     61.34      0.183     
3186.6     60.29      0.189     
3186.8     60.1       0.187     
3187       58.18      0.188     
3187.2     59.26      0.181     
3187.4     64.39999   0.175     
3187.6     67.23      0.171     
3187.8     70.03      0.177     
3188       74.81      0.176     
3188.2     75.54      0.175     
3188.4     74.06999   0.176     
3188.6     70.60001   0.179     
3188.8     66.74      0.188     
3189       63.93      0.183     
3189.2     61.85001   0.175     
3189.4     58.83      0.181     
3189.6     56.28      0.177     
3189.8     54.63      0.171     
3190       58.25      0.173     
3190.2     57.8       0.165     
3190.4     52.33      0.158     
3190.6     43.6       0.149     
3190.8     40.59      0.141     
3191       37.5       0.128     
3191.2     36.61      0.114     
3191.4     36.13      0.104     
3191.6     37.19      0.101     
3191.8     35.73      0.096     
3192       33.31      0.085     
3192.2     32         0.08      
3192.4     28.97      0.083     
3192.6     30.26      0.096     
3192.8     32.99      0.117     
3193       42.26      0.147     
3193.2     46.02      0.166     
3193.4     46.82      0.174     
3193.6     49.3       0.187     
3193.8     53.7       0.184     
3194       55.22      0.182     
3194.2     53.48      0.188     
3194.4     52.05      0.188     
3194.6     50         0.186     
3194.8     52.64      0.187     
3195       52.97      0.191     
3195.2     51         0.189     
3195.4     51.62      0.185     
3195.6     49.38      0.176     
3195.8     51.46      0.183     
3196       52.56      0.184     
3196.2     50.91      0.187     
3196.4     49.83      0.194     
3196.6     49.04      0.2       
3196.8     47.35      0.207     
3197       46.15      0.207     
3197.2     45.44      0.201     
3197.4     44         0.184     
3197.6     40.17      0.159     
3197.8     37.39      0.144     
3198       32.29      0.119     
3198.2     27.6       0.097     
3198.4     25.86      0.08      
3198.6     26.63      0.079     
3198.8     28.67      0.086     
3199       28.67      0.086     
3199.2     31.98      0.094     
3199.4     34.73      0.105     
3199.6     32.22      0.095     
3199.8     28.85      0.077     
3200       28.29      0.072     
3200.2     28.54      0.07      
3200.4     26.72      0.075     
3200.6     24.82      0.086     
3200.8     25.01      0.093     
3201       25.13      0.102     
3201.2     25.9       0.12      
3201.4     26.1       0.123     
3201.6     23.54      0.127     
3201.8     23.12      0.142     
3202       24.52      0.157     
3202.2     24.68      0.174     
3202.4     23.85      0.162     
3202.6     22.05      0.14      
3202.8     20.27      0.117     
3203       21.3       0.1       
3203.2     24         0.09      
3203.4     31.16      0.093     
3203.6     37.92      0.12      
3203.8     44.47      0.171     
3204       52.66      0.195     
3204.2     59.27      0.199     
3204.4     62.78      0.179     
3204.6     62.82      0.168     
3204.8     69.57      0.177     
3205       80.4       0.199     
3205.2     91.09      0.226     
3205.4     98.92      0.252     
3205.6     103.75     0.256     
3205.8     104.37     0.244     
3206       103.21     0.238     
3206.2     106.23     0.224     
3206.4     106.66     0.229     
3206.6     112.48     0.253     
3206.8     118.42     0.262     
3207       118.84     0.272     
3207.2     108.58     0.303     
3207.4     94.32999   0.354     
3207.6     91.3       0.36      
3207.8     105.36     0.346     
3208       112.43     0.332     
3208.2     115.46     0.315     
3208.4     122.25     0.267     
3208.6     121.64     0.236     
3208.8     116.29     0.224     
3209       110.05     0.224     
3209.2     103.64     0.236     
3209.4     97.27      0.234     
3209.6     94.44      0.232     
3209.8     92.22      0.228     
3210       91.85001   0.229     
3210.2     92.5       0.246     
3210.4     99.85      0.266     
3210.6     113.96     0.286     
3210.8     124.47     0.304     
3211       130.28     0.313     
3211.2     130.13     0.309     
3211.4     121.89     0.275     
3211.6     111.47     0.252     
3211.8     101.02     0.232     
3212       83.58      0.208     
3212.2     71.22      0.198     
3212.4     63.45      0.194     
3212.6     59.93      0.198     
3212.8     61.09      0.223     
3213       69.35001   0.254     
3213.2     87.23      0.269     
3213.4     102.82     0.269     
3213.6     109.27     0.274     
3213.8     113.75     0.287     
3214       117.15     0.282     
3214.2     118.22     0.284     
3214.4     119.8      0.291     
3214.6     121.25     0.279     
3214.8     123.78     0.266     
3215       119.63     0.263     
3215.2     108.65     0.248     
3215.4     95.02      0.223     
3215.6     83.62      0.207     
3215.8     76.11      0.197     
3216       74.92      0.197     
3216.2     77.74001   0.215     
3216.4     80.79001   0.228     
3216.6     84.1       0.243     
3216.8     83.2       0.291     
3217       73.54      0.382     
3217.2     51.6       0.45      
3217.4     26.32      0.451     
3217.6     12.79      0.463     
3217.8     10.65      0.494     
3218       11.87      0.497     
3218.2     23.6       0.47      
3218.4     39.78      0.411     
3218.6     58.98      0.354     
3218.8     78.99001   0.298     
3219       96.89      0.275     
3219.2     107.49     0.273     
3219.4     108.79     0.28      
3219.6     105.5      0.298     
3219.8     107.25     0.329     
3220       101.83     0.362     
3220.2     93.25      0.353     
3220.4     93.24001   0.302     
3220.6     96.86      0.276     
3220.8     98.73      0.248     
3221       95.97      0.225     
3221.2     99.02      0.213     
3221.4     103.62     0.218     
3221.6     113.01     0.231     
3221.8     121.73     0.237     
3222       124.7      0.231     
3222.2     122.03     0.225     
3222.4     119.34     0.221     
3222.6     106.08     0.21      
