~Version
 VERS              .         2.0                           : CWLS LOG ASCII STANDARD - VERSION 2.0
 WRAP              .         NO                            : ONE LINE PER DEPTH STEP
 DLM               .         SPACE                         : DELIMITING CHARACTER(SPACE TAB OR COMMA)
~Well Information
#_______________________________________________________________________________
#
#PARAMETER_NAME    .UNIT     VALUE                         : DESCRIPTION
#_______________________________________________________________________________
STRT               .m        3077                          : First reference value
STOP               .m        3245                          : Last reference value
STEP               .m        0.2                           : Step increment
NULL               .         -9999                         : Missing value
COMP               .                                       : Company
WELL               .         202                           : Well name
FLD                .                                       : Field
LOC                .                                       : Location
CNTY               .                                       : County
STAT               .                                       : State
CTRY               .                                       : Country
SRVC               .                                       : Service Company
DATE               .                                       : Date
API                .                                       : API number
EREF               .m        139.76                        : 
Pad                .         2                             : 
X                  .m        228492                        : 
Y                  .m        241733                        : 
group              .         Pad2                          : 
Интер-р            .         Старостина                    : 
Куст               .         2                             : 
Статус             .         Проверено                     : 
Тип                .         Нагнетательные                : 
~Parameter Information Block
#_______________________________________________________________________________
#
#PARAMETER_NAME    .UNIT     VALUE                         : DESCRIPTION
#_______________________________________________________________________________
SET                .         LAS1                          : 
REAL_CREATION_DATE .         Ср апр 11 2012-13_17_07       : 
TLFamily_DEPTH     .         Measured Depth                : 
TLFamily_KS        .         Potential Resistivity         : 
TLFamily_KS1       .         Extra Shallow Resistivity     : 
TLFamily_KS2       .         Shallow Resistivity           : 
TLFamily_KS3       .         Medium Resistivity            : 
TLFamily_KS4       .         Deep Resistivity              : 
TLFamily_KS5       .         Extra Deep Resistivity        : 
TLFamily_LLD       .         Lateral Log Resistivity       : 
TLFamily_OKS3      .         Medium Resistivity Inverted   : 
TLFamily_RM        .         Mud Resistivity               : 
TLFamily_SP        .         Spontaneous Potential         : 
group              .         INI                           : 
~Curve Information
#_______________________________________________________________________________
#
#LOGNAME           .UNIT     LOG_ID                        : DESCRIPTION
#_______________________________________________________________________________
DEPTH              .m                                      : 1 Depth 
KS                 .ohm.m                                  : 10 Normal Log Resistivity  N11.0M0.5A 
KS1                .ohm.m                                  : 3 Lateral Log Resistivity  A0.4M0.1N 
KS2                .ohm.m                                  : 4 Lateral Log Resistivity  A1.0M0.1N 
KS3                .ohm.m                                  : 5 Lateral Log Resistivity  A2.0M0.5N 
KS4                .ohm.m                                  : 6 Lateral Log Resistivity  A4.0M0.5N 
KS5                .ohm.m                                  : 7 Lateral Log Resistivity  A8.0M0.5N 
LLD                .ohm.m                                  : 2 Laterolog Shallow 
OKS3               .ohm.m                                  : 8 Lateral Log Resistivity (Inverse) 
RM                 .ohm.m                                  : 11 Mud Resistivity 
SP                 .mV                                     : 9 Spontaneous Potential 
~Ascii
# ...
3130.6     7.0993     2.6818     8.9436     12.3618    9.9688     5.9018     4.825      11.7208    0.478      40.3654   
3130.8     7.009      2.5645     8.6648     12.2773    9.5828     5.7205     4.4847     11.7168    0.473      40.6587   
3131       6.9708     2.4487     8.1968     12.0594    9.2469     5.5593     4.5524     11.9333    0.462      40.7916   
3131.2     6.9197     2.3806     7.9336     11.926     9.0649     5.4722     5.213      12.2356    0.456      41.1597   
3131.4     6.9197     2.3876     7.947      12.028     9.0173     5.4457     5.22       12.3902    0.442      40.7221   
3131.6     6.9815     2.4102     7.8468     12.1351    8.999      5.4669     4.9839     12.4391    0.434      40.6995   
3131.8     7.007      2.3832     7.7033     12.2438    9.1291     5.4669     5.7582     12.5948    0.431      41.2498   
3132       6.9771     2.4842     8.0408     12.4148    9.3198     5.4669     5.3295     12.6051    0.432      40.9131   
3132.2     7.011      2.4862     7.9602     12.4866    9.5595     5.4669     5.2825     12.6288    0.438      40.7993   
3132.4     6.973      2.4967     8.0114     12.2782    9.6935     5.4345     5.337      12.5997    0.435      41.172    
3132.6     7.0039     2.5174     8.0129     12.0949    9.8887     5.3131     5.1503     12.5664    0.438      40.1497   
3132.8     7.0264     2.4843     7.921      11.834     9.9384     5.2352     5.2935     12.7028    0.446      40.9503   
3133       7.0264     2.4615     7.9169     11.6133    9.9816     5.1084     5.2424     12.9456    0.454      41.099    
3133.2     7.0264     2.4843     7.9226     11.3643    9.9816     4.9796     5.1439     13.1147    0.463      40.8957   
3133.4     7.0264     2.4843     7.9297     11.297     9.9981     4.8842     5.3894     13.2964    0.474      41.1426   
3133.6     7.0264     2.4878     7.9677     11.4094    10.0593    4.773      5.617      13.369     0.474      40.8614   
3133.8     7.0474     2.5048     8.0085     11.4374    10.1401    4.6721     5.6243     13.4797    0.471      41.317    
3134       7.0155     2.5052     7.9994     11.3826    10.0035    4.5706     5.2407     13.5253    0.463      41.1677   
3134.2     6.9296     2.5834     8.1318     11.3183    9.698      4.4411     4.6051     13.607     0.45       40.6326   
3134.4     6.9133     2.4782     7.9133     11.1179    9.2737     4.2588     4.7592     13.9129    0.439      41.4224   
3134.6     6.8829     2.4303     7.7271     10.8814    8.9539     4.1415     4.5595     14.3236    0.427      41.1688   
3134.8     6.9469     2.3815     7.5533     10.6024    8.6691     4.0862     4.7771     14.6929    0.431      40.9524   
3135       7.0724     2.2527     7.2119     10.3799    8.4364     4.0848     5.4085     15.2577    0.432      41.1812   
3135.2     7.2473     2.2145     7.054      10.2768    8.438      4.2078     5.7468     15.9695    0.436      41.4154   
3135.4     7.4136     2.2145     7.0281     10.3427    8.6495     4.3819     6.4895     16.7245    0.438      41.2029   
3135.6     7.5648     2.2817     7.1999     10.6444    8.9674     4.5877     6.4821     17.3722    0.448      41.3749   
3135.8     7.7436     2.3764     7.4723     11.0492    9.3473     4.8494     6.3981     18.1941    0.462      41.3198   
3136       7.8748     2.4269     7.6903     11.3132    9.7322     5.1149     6.3997     19.0161    0.483      41.4051   
3136.2     8.0496     2.4099     7.7325     11.4849    10.1288    5.4467     7.1595     19.9591    0.474      40.7066   
3136.4     8.1855     2.4303     7.9127     11.7173    10.5906    5.8327     7.681      20.7518    0.479      40.8145   
3136.6     8.313      2.4822     8.2184     12.2136    11.3111    6.2174     8.1821     21.4872    0.465      41.239    
3136.8     8.3897     2.6081     8.6929     12.8308    11.9484    6.5046     6.9429     21.7479    0.462      41.0343   
3137       8.4974     2.6974     9.057      13.1858    12.1645    6.6807     6.0965     21.7104    0.444      40.7636   
3137.2     8.6485     2.6008     8.824      12.9586    11.7731    6.7083     6.1082     21.6527    0.434      41.2688   
3137.4     8.7456     2.4948     8.5047     12.7025    11.4137    6.5834     6.7542     21.9303    0.427      41.227    
3137.6     8.8804     2.4355     8.3868     12.4863    11.1553    6.5358     6.7573     22.1825    0.432      41.0808   
3137.8     9.1266     2.4345     8.3378     12.3992    10.9143    6.5176     7.3503     22.4992    0.432      41.1889   
3138       9.4234     2.3755     8.1754     12.3771    10.831     6.5876     9.5547     22.7111    0.439      41.1371   
3138.2     9.7468     2.3621     8.173      12.6277    10.9879    6.7154     10.5058    22.8273    0.45       40.8736   
3138.4     9.9819     2.4737     8.5789     13.2526    11.4225    6.8454     10.6399    22.7121    0.456      41.0912   
3138.6     10.1972    2.624      9.1421     14.1017    11.8299    7.0021     9.3255     22.2997    0.472      41.1285   
3138.8     10.3598    2.7001     9.482      14.8291    12.1057    7.1021     9.7394     21.9884    0.475      41.329    
3139       10.4771    2.7217     9.6463     15.3698    12.3663    7.2179     10.2216    21.7019    0.475      41.118    
3139.2     10.5422    2.7676     9.9904     16.0381    12.7741    7.2541     10.3776    21.5611    0.469      41.2651   
3139.4     10.5462    2.8589     10.3965    16.7086    13.31      7.3241     10.1763    21.4678    0.461      41.2494   
3139.6     10.5462    2.8957     10.7061    17.3872    13.8993    7.3294     9.7897     21.405     0.453      41.0283   
3139.8     10.4929    2.9597     10.9972    17.966     14.4043    7.3294     9.2822     21.251     0.444      41.0236   
3140       10.4748    2.9459     10.9764    18.4085    14.7815    7.3143     8.6855     21.0355    0.438      41.0834   
3140.2     10.4395    2.9014     10.8761    18.6295    15.0389    7.2414     7.8643     20.9273    0.432      41.0385   
3140.4     10.4043    2.8576     10.6926    18.6572    15.2567    7.1627     8.4922     21.2056    0.434      41.3803   
3140.6     10.3862    2.7541     10.4398    18.7039    15.5324    7.1166     9.2164     21.6483    0.438      40.8057   
3140.8     10.3862    2.7541     10.4295    18.8281    15.9958    7.1166     9.1633     21.9288    0.444      40.8688   
3141       10.4263    2.7789     10.4814    18.9654    16.5308    7.1121     8.6888     21.9083    0.456      41.9352   
3141.2     10.4662    2.8081     10.4613    19.0714    17.0607    7.1166     8.7178     21.9419    0.467      42.9006   
3141.4     10.5092    2.8041     10.2918    18.9939    17.4388    7.1644     9.0143     22.123     0.474      41.698    
3141.6     10.5729    2.7541     10.1706    18.909     17.7414    7.1698     9.5521     22.3019    0.474      42.0181   
3141.8     10.6318    2.7544     10.2408    18.8938    18.0858    7.2707     9.7495     22.336     0.467      41.281    
3142       10.6955    2.8081     10.366     19.0219    18.5393    7.326      9.5487     22.3146    0.459      40.3558   
3142.2     10.7662    2.8081     10.4323    19.1256    19.0329    7.4278     9.6493     22.2623    0.456      40.6443   
3142.4     10.8311    2.8081     10.4097    19.1096    19.5121    7.5575     10.2783    22.3454    0.434      41.4331   
3142.6     10.8662    2.8228     10.4956    19.2149    20.0563    7.687      10.2853    22.5037    0.428      40.8858   
3142.8     10.8662    2.8836     10.7225    19.5138    20.6261    7.7616     9.886      22.5499    0.432      40.5511   
3143       10.911     2.916      10.8934    19.7721    21.0488    7.8882     9.7147     22.5499    0.436      40.9024   
3143.2     10.9195    2.8963     10.8879    19.953     21.3473    8.0159     10.161     22.5623    0.438      41.2303   
3143.4     10.9195    2.862      10.8452    20.0204    21.6354    8.0972     10.116     22.6912    0.441      40.916    
3143.6     10.942     2.862      10.9337    20.1091    21.8884    8.2225     10.0714    22.8448    0.444      40.1279   
3143.8     10.9195    2.915      10.9956    20.29      22.0006    8.2973     9.7118     22.7684    0.456      40.8387   
