~Version
 VERS              .         2.0                           : CWLS LOG ASCII STANDARD - VERSION 2.0
 WRAP              .         NO                            : ONE LINE PER DEPTH STEP
 DLM               .         SPACE                         : DELIMITING CHARACTER(SPACE TAB OR COMMA)
~Well Information
#_______________________________________________________________________________
#
#PARAMETER_NAME    .UNIT     VALUE                         : DESCRIPTION
#_______________________________________________________________________________
STRT               .m        3077                          : First reference value
STOP               .m        3245                          : Last reference value
STEP               .m        0.2                           : Step increment
NULL               .         -9999                         : Missing value
COMP               .                                       : Company
WELL               .         202                           : Well name
FLD                .                                       : Field
LOC                .                                       : Location
CNTY               .                                       : County
STAT               .                                       : State
CTRY               .                                       : Country
SRVC               .                                       : Service Company
DATE               .                                       : Date
API                .                                       : API number
EREF               .m        139.76                        : 
Pad                .         2                             : 
X                  .m        228492                        : 
Y                  .m        241733                        : 
group              .         Pad2                          : 
Интер-р            .         Старостина                    : 
Куст               .         2                             : 
Статус             .         Проверено                     : 
Тип                .         Нагнетательные                : 
~Parameter Information Block
#_______________________________________________________________________________
#
#PARAMETER_NAME    .UNIT     VALUE                         : DESCRIPTION
#_______________________________________________________________________________
SET                .         LAS1                          : 
REAL_CREATION_DATE .         Ср апр 11 2012-13_17_07       : 
TLFamily_DEPTH     .         Measured Depth                : 
TLFamily_KS        .         Potential Resistivity         : 
TLFamily_KS1       .         Extra Shallow Resistivity     : 
TLFamily_KS2       .         Shallow Resistivity           : 
TLFamily_KS3       .         Medium Resistivity            : 
TLFamily_KS4       .         Deep Resistivity              : 
TLFamily_KS5       .         Extra Deep Resistivity        : 
TLFamily_LLD       .         Lateral Log Resistivity       : 
TLFamily_OKS3      .         Medium Resistivity Inverted   : 
TLFamily_RM        .         Mud Resistivity               : 
TLFamily_SP        .         Spontaneous Potential         : 
group              .         INI                           : 
~Curve Information
#_______________________________________________________________________________
#
#LOGNAME           .UNIT     LOG_ID                        : DESCRIPTION
#_______________________________________________________________________________
DEPTH              .m                                      : 1 Depth 
KS                 .ohm.m                                  : 10 Normal Log Resistivity  N11.0M0.5A 
KS1                .ohm.m                                  : 3 Lateral Log Resistivity  A0.4M0.1N 
KS2                .ohm.m                                  : 4 Lateral Log Resistivity  A1.0M0.1N 
KS3                .ohm.m                                  : 5 Lateral Log Resistivity  A2.0M0.5N 
KS4                .ohm.m                                  : 6 Lateral Log Resistivity  A4.0M0.5N 
KS5                .ohm.m                                  : 7 Lateral Log Resistivity  A8.0M0.5N 
LLD                .ohm.m                                  : 2 Laterolog Shallow 
OKS3               .ohm.m                                  : 8 Lateral Log Resistivity (Inverse) 
RM                 .ohm.m                                  : 11 Mud Resistivity 
SP                 .mV                                     : 9 Spontaneous Potential 
~Ascii
# ...
3237.8     0          0          0          0          0          7.8616     8.0476     0          0.432      50.7844   
3238       0          0          0          0          0          7.8616     8.2595     0          0.432      50.6499   
3238.2     0          0          0          0          0          7.8616     8.2808     0          0.432      50.7443   
3238.4     0          0          0          0          0          7.8616     7.4567     0          0.432      50.0252   
3238.6     0          0          0          0          0          7.8616     7.8756     0          0.432      50.641    
3238.8     0          0          0          0          0          7.8616     6.8876     0          0.432      50.33     
3239       0          0          0          0          0          7.8616     4.4776     0          0.432      50.106    
3239.2     0          0          0          0          0          7.8616     4.2527     0          0.432      -174.979  
3239.4     0          0          0          0          0          7.8616     4.602      0          0.432      -200      
3239.6     0          0          0          0          0          7.8616     5.1375     0          0          -200      
3239.8     0          0          0          0          0          7.8616     5.5227     0          0          -200      
3240       0          0          0          0          0          7.8616     5.2757     0          0          -200      
3240.2     0          0          0          0          0          7.8616     4.9573     0          0          -200      
3240.4     0          0          0          0          0          7.8616     4.4208     0          0          -200      
3240.6     0          0          0          0          0          7.8616     5.6003     0          0          -200      
3240.8     0          0          0          0          0          7.8616     7.4599     0          0          -200      
3241       0          0          0          0          0          7.8616     8.4909     0          0          -200      
3241.2     0          0          0          0          0          7.8616     9.1838     0          0          -200      
3241.4     0          0          0          0          0          7.8616     10.7351    0          0          -200      
3241.6     0          0          0          0          0          7.8616     15.3222    0          0          -200      
3241.8     0          0          0          0          0          0          16.9956    0          0          -200      
3242       0          0          0          0          0          0          11.7097    0          0          -200      
3242.2     0          0          0          0          0          0          11.6595    0          0          -200      
3242.4     0          0          0          0          0          0          16.3301    0          0          -200      
3242.6     0          0          0          0          0          0          15.5305    0          0          -200      
3242.8     0          0          0          0          0          0          13.8349    0          0          -200      
3243       0          0          0          0          0          0          11.134     0          0          -200      
3243.2     0          0          0          0          0          0          9.4479     0          0          -200      
3243.4     0          0          0          0          0          0          9.2267     0          0          -200      
3243.6     0          0          0          0          0          0          9.2209     0          0          -200      
3243.8     0          0          0          0          0          0          9.2138     0          0          -200      
3244       0          0          0          0          0          0          9.2161     0          0          -200      
3244.2     0          0          0          0          0          0          9.2043     0          0          -200      
3244.4     0          0          0          0          0          0          9.228      0          0          -200      
3244.6     0          0          0          0          0          0          9.2711     0          0          -200      
3244.8     0          0          0          0          0          0          9.2668     0          0          -200      
3245       0          0          0          0          0          0          9.2658     0          0          -200      
