~Version
 VERS              .         2.0                           : CWLS LOG ASCII STANDARD - VERSION 2.0
 WRAP              .         NO                            : ONE LINE PER DEPTH STEP
 DLM               .         SPACE                         : DELIMITING CHARACTER(SPACE TAB OR COMMA)
~Well Information
#_______________________________________________________________________________
#
#PARAMETER_NAME    .UNIT     VALUE                         : DESCRIPTION
#_______________________________________________________________________________
STRT               .m        3077                          : First reference value
STOP               .m        3245                          : Last reference value
STEP               .m        0.2                           : Step increment
NULL               .         -9999                         : Missing value
COMP               .                                       : Company
WELL               .         202                           : Well name
FLD                .                                       : Field
LOC                .                                       : Location
CNTY               .                                       : County
STAT               .                                       : State
CTRY               .                                       : Country
SRVC               .                                       : Service Company
DATE               .                                       : Date
API                .                                       : API number
EREF               .m        139.76                        : 
Pad                .         2                             : 
X                  .m        228492                        : 
Y                  .m        241733                        : 
group              .         Pad2                          : 
Интер-р            .         Старостина                    : 
Куст               .         2                             : 
Статус             .         Проверено                     : 
Тип                .         Нагнетательные                : 
~Parameter Information Block
#_______________________________________________________________________________
#
#PARAMETER_NAME    .UNIT     VALUE                         : DESCRIPTION
#_______________________________________________________________________________
SET                .         LAS3                          : 
REAL_CREATION_DATE .         Ср апр 11 2012-13_17_07       : 
TLFamily_DEPTH     .         Measured Depth                : 
TLFamily_GR        .         Gamma Ray                     : 
TLFamily_TNPH      .         Neutron Porosity              : 
group              .         INI                           : 
~Curve Information
#_______________________________________________________________________________
#
#LOGNAME           .UNIT     LOG_ID                        : DESCRIPTION
#_______________________________________________________________________________
DEPTH              .m                                      : 1 Depth 
GR                 .gAPI                                   :  
TNPH               .v/v                                    : 5 Hydrogen Content 
~Ascii
3077.0     107.39     0.23      
3077.2     108.32     0.224     
3077.4     110.16     0.233     
3077.6     111.49     0.249     
3077.8     111.67     0.253     
3078       113.71     0.236     
3078.2     117.48     0.232     
3078.4     117.48     0.235     
3078.6     118.21     0.236     
3078.8     117.95     0.24      
3079       114.14     0.256     
3079.2     110.14     0.244     
3079.4     110.26     0.231     
3079.6     113.85     0.24      
3079.8     115.7      0.242     
3080       116.03     0.238     
3080.2     119.61     0.231     
3080.4     119.48     0.223     
3080.6     118.93     0.228     
3080.8     115.18     0.23      
3081       111.07     0.226     
3081.2     111.25     0.226     
3081.4     113.74     0.216     
3081.6     113.09     0.213     
3081.8     113.32     0.222     
3082       111.22     0.22      
3082.2     108.28     0.22      
3082.4     105.65     0.22      
3082.6     103.3      0.215     
3082.8     108.66     0.22      
3083       114.25     0.218     
3083.2     113.53     0.206     
3083.4     113.1      0.212     
3083.6     113.5      0.222     
3083.8     114.03     0.221     
3084       117.85     0.231     
3084.2     116.81     0.246     
3084.4     113.43     0.241     
3084.6     108.27     0.235     
3084.8     105.97     0.214     
3085       101.63     0.203     
3085.2     98.07      0.202     
3085.4     98.82      0.216     
3085.6     100.9      0.225     
3085.8     104.8      0.223     
3086       109.73     0.219     
3086.2     113.88     0.219     
3086.4     115.47     0.227     
3086.6     115.16     0.25      
3086.8     115.5      0.255     
3087       117.61     0.233     
3087.2     120.64     0.224     
3087.4     121.53     0.222     
3087.6     120.82     0.224     
3087.8     119.64     0.232     
3088       113.51     0.232     
3088.2     103.26     0.22      
3088.4     90         0.206     
3088.6     81.38      0.195     
3088.8     72.51      0.186     
3089       68.83      0.179     
3089.2     67.43      0.17      
3089.4     68.02      0.181     
3089.6     69.38      0.211     
3089.8     68.66      0.229     
3090       67.37      0.233     
3090.2     67.01      0.236     
3090.4     69.46      0.231     
3090.6     69.82001   0.217     
3090.8     72.31      0.203     
3091       77.04001   0.211     
3091.2     85.05      0.226     
3091.4     95.94      0.233     
3091.6     105.94     0.235     
3091.8     115.64     0.227     
3092       120.93     0.217     
3092.2     123.63     0.222     
3092.4     126.95     0.224     
3092.6     126.61     0.228     
3092.8     123.92     0.236     
3093       122.13     0.245     
3093.2     123.01     0.249     
3093.4     124.62     0.231     
3093.6     122.65     0.216     
3093.8     120.44     0.224     
3094       119.33     0.226     
3094.2     117.39     0.225     
3094.4     111.65     0.23      
3094.6     103.38     0.226     
3094.8     93.29001   0.212     
3095       83.63      0.215     
3095.2     80.12      0.217     
3095.4     82.18001   0.224     
3095.6     85.01      0.231     
3095.8     86.63      0.226     
3096       84.95      0.228     
3096.2     78.88      0.219     
3096.4     72.55      0.197     
3096.6     69.94      0.188     
3096.8     71.42      0.188     
3097       71.11      0.189     
3097.2     68.37      0.196     
3097.4     69.55      0.206     
3097.6     70.57      0.208     
3097.8     64.67      0.199     
3098       57.19      0.192     
3098.2     52.39      0.194     
3098.4     48.79      0.18      
3098.6     51.42      0.172     
3098.8     58.42      0.171     
3099       67.44      0.187     
3099.2     74.03      0.197     
3099.4     78.72      0.2       
3099.6     79.18999   0.213     
3099.8     79.55      0.223     
3100       83.13      0.232     
3100.2     89.89999   0.244     
3100.4     95.43999   0.234     
3100.6     97.27      0.227     
3100.8     105.75     0.226     
3101       108.84     0.221     
3101.2     102.45     0.218     
3101.4     95.22      0.216     
3101.6     92.33      0.212     
3101.8     89.98      0.212     
3102       83.2       0.214     
3102.2     70.56      0.215     
3102.4     63.86      0.203     
3102.6     61.94      0.193     
3102.8     62.15      0.192     
3103       64.20999   0.195     
3103.2     63.51      0.185     
3103.4     60.64      0.175     
3103.6     57.77      0.169     
3103.8     58.18      0.175     
3104       57.84      0.189     
3104.2     60.21      0.201     
3104.4     68.63      0.22      
3104.6     78.74      0.22      
3104.8     88.56      0.211     
3105       95.48      0.212     
3105.2     100.94     0.213     
3105.4     99.74      0.216     
3105.6     91.33      0.206     
3105.8     83.14999   0.199     
3106       79.23      0.199     
3106.2     75.52      0.206     
3106.4     73.69      0.211     
3106.6     75.23      0.198     
3106.8     74.09      0.191     
3107       72.1       0.187     
3107.2     68.77      0.179     
3107.4     67.63      0.187     
3107.6     70.85      0.197     
3107.8     76.46      0.199     
3108       81.56      0.196     
3108.2     77.93      0.192     
3108.4     67.71      0.187     
3108.6     66.26      0.19      
3108.8     73.91      0.21      
3109       82.34      0.214     
3109.2     87.89      0.215     
3109.4     96.5       0.212     
3109.6     101.74     0.213     
3109.8     100.99     0.219     
3110       101.92     0.214     
3110.2     104.37     0.22      
3110.4     107.73     0.224     
3110.6     111.39     0.216     
3110.8     113.68     0.213     
3111       111.53     0.214     
3111.2     107.81     0.217     
3111.4     102.62     0.219     
3111.6     98.48      0.217     
3111.8     97.27      0.213     
3112       97         0.209     
3112.2     97.24      0.203     
3112.4     98.53      0.204     
3112.6     92.76      0.213     
3112.8     85.7       0.211     
3113       83.28      0.203     
3113.2     81.61      0.202     
3113.4     83.12      0.212     
3113.6     89.18999   0.211     
3113.8     98.36      0.198     
3114       97.27      0.187     
3114.2     87.2       0.163     
3114.4     73.78999   0.145     
3114.6     65.19      0.143     
3114.8     69.49001   0.162     
3115       78.97      0.196     
3115.2     89.46999   0.213     
3115.4     98.54      0.215     
3115.6     107.24     0.217     
3115.8     116.8      0.217     
3116       121.8      0.22      
3116.2     122.69     0.223     
3116.4     122.01     0.219     
3116.6     124.96     0.223     
3116.8     131.02     0.23      
3117       130.15     0.229     
3117.2     123.33     0.24      
3117.4     122.58     0.234     
3117.6     122.11     0.235     
3117.8     126.98     0.238     
3118       128.96     0.229     
3118.2     128.53     0.226     
3118.4     125.18     0.219     
3118.6     119.79     0.212     
3118.8     121.92     0.205     
3119       125.72     0.217     
3119.2     130.46     0.231     
3119.4     133.29     0.229     
3119.6     134.38     0.222     
3119.8     133.08     0.223     
3120       129.46     0.214     
3120.2     124.08     0.204     
3120.4     121.67     0.213     
3120.6     121.94     0.222     
3120.8     120.7      0.227     
3121       112.13     0.233     
3121.2     104.37     0.239     
3121.4     105.2      0.246     
3121.6     108.9      0.261     
3121.8     111.41     0.257     
3122       115.84     0.251     
3122.2     120.37     0.254     
3122.4     120.23     0.259     
3122.6     117.61     0.253     
3122.8     115.35     0.25      
3123       118.66     0.26      
3123.2     133.89     0.257     
3123.4     140.23     0.263     
3123.6     146.48     0.269     
3123.8     154.88     0.279     
3124       159.38     0.287     
3124.2     159.77     0.288     
3124.4     164.31     0.282     
3124.6     162.16     0.263     
3124.8     156.67     0.245     
3125       150.89     0.239     
3125.2     148.35     0.238     
3125.4     139.9      0.241     
