~Version
 VERS              .         2.0                           : CWLS LOG ASCII STANDARD - VERSION 2.0
 WRAP              .         NO                            : ONE LINE PER DEPTH STEP
 DLM               .         SPACE                         : DELIMITING CHARACTER(SPACE TAB OR COMMA)
~Well Information
#_______________________________________________________________________________
#
#PARAMETER_NAME    .UNIT     VALUE                         : DESCRIPTION
#_______________________________________________________________________________
STRT               .m        3077                          : First reference value
STOP               .m        3245                          : Last reference value
STEP               .m        0.2                           : Step increment
NULL               .         -9999                         : Missing value
COMP               .                                       : Company
WELL               .         202                           : Well name
FLD                .                                       : Field
LOC                .                                       : Location
CNTY               .                                       : County
STAT               .                                       : State
CTRY               .                                       : Country
SRVC               .                                       : Service Company
DATE               .                                       : Date
API                .                                       : API number
EREF               .m        139.76                        : 
Pad                .         2                             : 
X                  .m        228492                        : 
Y                  .m        241733                        : 
group              .         Pad2                          : 
Интер-р            .         Старостина                    : 
Куст               .         2                             : 
Статус             .         Проверено                     : 
Тип                .         Нагнетательные                : 
~Parameter Information Block
#_______________________________________________________________________________
#
#PARAMETER_NAME    .UNIT     VALUE                         : DESCRIPTION
#_______________________________________________________________________________
SET                .         LAS1                          : 
REAL_CREATION_DATE .         Ср апр 11 2012-13_17_07       : 
TLFamily_DEPTH     .         Measured Depth                : 
TLFamily_KS        .         Potential Resistivity         : 
TLFamily_KS1       .         Extra Shallow Resistivity     : 
TLFamily_KS2       .         Shallow Resistivity           : 
TLFamily_KS3       .         Medium Resistivity            : 
TLFamily_KS4       .         Deep Resistivity              : 
TLFamily_KS5       .         Extra Deep Resistivity        : 
TLFamily_LLD       .         Lateral Log Resistivity       : 
TLFamily_OKS3      .         Medium Resistivity Inverted   : 
TLFamily_RM        .         Mud Resistivity               : 
TLFamily_SP        .         Spontaneous Potential         : 
group              .         INI                           : 
~Curve Information
#_______________________________________________________________________________
#
#LOGNAME           .UNIT     LOG_ID                        : DESCRIPTION
#_______________________________________________________________________________
DEPTH              .m                                      : 1 Depth 
KS                 .ohm.m                                  : 10 Normal Log Resistivity  N11.0M0.5A 
KS1                .ohm.m                                  : 3 Lateral Log Resistivity  A0.4M0.1N 
KS2                .ohm.m                                  : 4 Lateral Log Resistivity  A1.0M0.1N 
KS3                .ohm.m                                  : 5 Lateral Log Resistivity  A2.0M0.5N 
KS4                .ohm.m                                  : 6 Lateral Log Resistivity  A4.0M0.5N 
KS5                .ohm.m                                  : 7 Lateral Log Resistivity  A8.0M0.5N 
LLD                .ohm.m                                  : 2 Laterolog Shallow 
OKS3               .ohm.m                                  : 8 Lateral Log Resistivity (Inverse) 
RM                 .ohm.m                                  : 11 Mud Resistivity 
SP                 .mV                                     : 9 Spontaneous Potential 
~Ascii
3077.0     3.4049     0.6122     -0.1075    -0.05      -0.2044    -0.44      -47.5498   21.2907    0.338      38.5512   
3077.2     4.3771     1.1879     -0.1075    -0.05      -0.1754    -0.44      -50.0769   19.2954    0.338      38.5619   
3077.4     5.0322     1.5523     0.0666     -0.05      -0.2172    -0.3442    -51.0391   17.8648    0.338      38.8077   
3077.6     5.5187     1.8267     2.0839     -0.05      -0.2172    -0.3336    -52.4844   16.6281    0.332      39.674    
3077.8     5.847      2.0035     3.8253     -0.05      -0.2172    -0.3336    -53.6656   15.724     0.332      39.9651   
3078       6.0513     2.0741     4.8662     -0.05      -0.2172    -0.3815    -56.2201   15.0842    0.33       40.2503   
3078.2     6.2512     2.1281     5.6144     -0.05      -0.2172    -0.3868    -57.3884   14.5614    0.326      40.9009   
3078.4     6.428      2.1821     6.1303     -0.05      -0.2172    -0.3868    -49.6234   14.2141    0.326      40.7988   
3078.6     6.5631     2.2145     6.3896     0.1851     -0.2172    -0.3868    -39.4283   14.0383    0.324      41.2085   
3078.8     6.6698     2.228      6.572      2.8555     -0.2172    -0.3868    -21.5591   13.9764    0.323      41.0451   
3079       6.7358     2.2684     6.909      5.2385     -0.2172    -0.3868    -24.4646   13.7908    0.316      40.736    
3079.2     6.813      2.3224     7.1106     6.9296     -0.2172    -0.3868    -42.5427   13.5833    0.31       41.3149   
3079.4     6.8428     2.3467     7.3079     8.1446     -0.2172    -0.3908    -13.1115   13.3673    0.313      41.5798   
3079.6     6.8664     2.3764     7.4044     9.0186     -0.2172    -0.3868    4.3262     13.1934    0.316      41.7512   
3079.8     6.8863     2.3764     7.4569     9.5259     -0.2172    -0.4022    4.746      12.9671    0.315      41.4598   
3080       6.9197     2.3602     7.4693     9.8951     -0.2172    -0.44      4.9568     12.7655    0.32       41.4668   
3080.2     6.9396     2.3764     7.5205     10.1646    -0.2172    -0.44      5.1129     12.712     0.32       41.2544   
3080.4     6.9942     2.3602     7.4676     10.4023    -0.2172    -0.44      5.2001     12.7287    0.32       42.0114   
3080.6     7.0494     2.3396     7.396      10.5535    -0.0028    -0.44      5.2608     12.8949    0.326      41.5801   
3080.8     7.1165     2.344      7.4413     10.6889    2.2477     -0.44      5.3557     13.2247    0.326      40.8675   
3081       7.1719     2.3425     7.4201     10.846     4.284      -0.44      5.4888     13.7449    0.338      41.753    
3081.2     7.2397     2.3764     7.503      11.1201    5.8729     -0.4302    5.7248     14.328     0.345      41.5109   
3081.4     7.293      2.3764     7.6823     11.6472    7.3783     -0.3932    6.7353     15.1839    0.309      41.3654   
3081.6     7.3197     2.4878     8.1715     12.2336    8.754      -0.4361    6.4926     15.6872    0.309      41.3656   
3081.8     7.3463     2.5598     8.3172     12.7316    9.8467     -0.3946    6.4257     15.828     0.341      41.0552   
3082       7.3425     2.657      8.6183     12.9335    10.4102    -0.44      5.4279     15.6159    0.342      41.0662   
3082.2     7.293      2.69       8.6023     12.8404    10.5945    -0.44      4.9457     15.3816    0.389      41.6667   
3082.4     7.337      2.5793     8.2748     12.2522    10.3167    -0.44      5.0574     15.1349    0.405      41.1439   
3082.6     7.373      2.4377     7.9749     11.6812    9.9597     -0.44      5.2182     15.2277    0.41       41.4747   
3082.8     7.4736     2.3764     7.7592     11.2462    9.7053     -0.44      5.4792     15.6317    0.429      41.8344   
3083       7.5609     2.3298     7.5667     11.0274    9.5872     -0.44      6.3044     16.2944    0.436      41.3123   
3083.2     7.6465     2.3908     7.8119     11.0842    9.5952     -0.44      6.4018     16.7264    0.429      41.5584   
3083.4     7.7543     2.4546     7.8998     11.3375    9.756      -0.44      6.5717     16.8122    0.432      41.8634   
3083.6     7.9114     2.4368     7.9415     11.6062    9.891      -0.44      6.4885     16.7846    0.438      41.7902   
3083.8     7.9967     2.5327     8.0859     11.8363    9.9287     -0.44      6.3827     16.7969    0.444      42.6329   
3084       8.0663     2.5298     8.2238     12.1338    9.9155     -0.44      6.7936     16.7021    0.45       42.1748   
3084.2     8.1544     2.4843     8.1923     12.3439    9.9816     -0.44      6.9526     16.4093    0.45       41.6157   
3084.4     8.2263     2.5481     8.3794     12.4245    10.0344    -0.44      6.4792     16.0464    0.456      41.9889   
3084.6     8.3048     2.5474     8.3835     12.5115    10.0344    -0.44      6.473      15.8654    0.456      41.2706   
3084.8     8.333      2.54       8.4583     12.6269    10.1389    -0.44      6.7058     15.8131    0.456      41.29     
3085       8.3984     2.5167     8.4139     12.7184    10.2485    0.5145     6.668      15.7643    0.456      41.6649   
3085.2     8.5306     2.4843     8.4671     12.8454    10.4595    1.7235     7.2307     15.781     0.456      41.028    
3085.4     8.6258     2.4743     8.3944     13.1435    10.8727    2.646      10.1289    15.8031    0.462      41.5505   
3085.6     8.6568     2.5198     8.8581     13.8294    11.4566    3.4188     7.3573     15.4158    0.462      41.7698   
3085.8     8.7518     2.7279     9.2754     14.4415    12.0886    4.0778     7.6063     15.0914    0.468      41.7976   
3086       8.7347     2.6337     9.024      14.7746    12.634     4.5808     9.8678     14.897     0.468      41.9933   
3086.2     8.5751     2.8267     9.619      15.2849    13.2557    4.9148     7.062      14.7861    0.468      41.6412   
3086.4     8.4126     2.916      10.0322    15.899     13.6945    5.1385     6.4164     14.4324    0.468      41.6508   
3086.6     8.2497     2.8699     10.0267    15.959     13.7809    5.3023     6.3396     14.348     0.468      42.2423   
3086.8     8.1641     2.7541     9.7007     15.6624    13.6608    5.3605     6.0317     14.506     0.462      41.5884   
3087       8.0354     2.7037     9.4206     15.2459    13.4297    5.4117     5.9731     14.9315    0.462      41.8062   
3087.2     7.9297     2.7001     9.3394     15.0411    13.1626    5.4087     5.904      15.2997    0.456      42.6904   
3087.4     7.8218     2.6462     9.2305     14.9424    13.1514    5.3605     5.6797     15.4781    0.462      42.4737   
3087.6     7.773      2.6174     8.9517     14.812     13.2545    5.3605     5.871      15.483     0.466      42.8137   
3087.8     7.7463     2.5682     8.6557     14.3216    13.0474    5.4137     5.4137     15.3351    0.462      42.7581   
3088       7.8246     2.4645     8.2603     13.7259    12.7291    5.4137     5.5373     15.2047    0.456      43.6371   
3088.2     7.9162     2.421      7.9539     13.273     12.4842    5.4629     6.0913     15.0306    0.456      44.3859   
3088.4     8.1043     2.3642     7.8129     13.0197    12.4852    5.5559     6.7432     14.7612    0.456      45.0537   
3088.6     8.3194     2.3979     7.9057     12.905     12.6069    5.6646     6.4361     14.6844    0.45       45.7599   
3088.8     8.6802     2.3387     7.7028     12.7555    12.8119    6.024      7.6982     14.5029    0.456      46.506    
3089       8.9048     2.4361     7.9716     12.9367    13.205     6.2976     11.4945    13.8772    0.456      46.9775   
3089.2     8.9721     2.6001     8.6904     13.8158    14.0042    6.5608     13.2031    13.0947    0.461      47.07     
3089.4     8.7665     2.9273     9.7935     15.0536    15.1455    6.8076     10.8888    12.4005    0.461      47.4832   
3089.6     8.3533     3.1952     10.7055    15.988     16.0115    7.0253     6.9044     11.8183    0.457      47.5436   
3089.8     7.6151     3.172      11.0411    16.3451    15.8295    7.0564     5.2614     11.0346    0.456      48.1271   
3090       7.1878     3.0549     10.8889    15.8765    15.0386    6.8492     4.5164     10.5778    0.456      48.0817   
3090.2     6.9193     2.7718     9.8549     15.0199    13.8471    6.58       4.3644     10.334     0.468      47.9534   
