~Version
 VERS              .         2.0                           : CWLS LOG ASCII STANDARD - VERSION 2.0
 WRAP              .         NO                            : ONE LINE PER DEPTH STEP
 DLM               .         SPACE                         : DELIMITING CHARACTER(SPACE TAB OR COMMA)
~Well Information
#_______________________________________________________________________________
#
#PARAMETER_NAME    .UNIT     VALUE                         : DESCRIPTION
#_______________________________________________________________________________
STRT               .m        3077                          : First reference value
STOP               .m        3245                          : Last reference value
STEP               .m        0.2                           : Step increment
NULL               .         -9999                         : Missing value
COMP               .                                       : Company
WELL               .         202                           : Well name
FLD                .                                       : Field
LOC                .                                       : Location
CNTY               .                                       : County
STAT               .                                       : State
CTRY               .                                       : Country
SRVC               .                                       : Service Company
DATE               .                                       : Date
API                .                                       : API number
EREF               .m        139.76                        : 
Pad                .         2                             : 
X                  .m        228492                        : 
Y                  .m        241733                        : 
group              .         Pad2                          : 
Интер-р            .         Старостина                    : 
Куст               .         2                             : 
Статус             .         Проверено                     : 
Тип                .         Нагнетательные                : 
~Parameter Information Block
#_______________________________________________________________________________
#
#PARAMETER_NAME    .UNIT     VALUE                         : DESCRIPTION
#_______________________________________________________________________________
SET                .         LAS1                          : 
REAL_CREATION_DATE .         Ср апр 11 2012-13_17_07       : 
TLFamily_DEPTH     .         Measured Depth                : 
TLFamily_KS        .         Potential Resistivity         : 
TLFamily_KS1       .         Extra Shallow Resistivity     : 
TLFamily_KS2       .         Shallow Resistivity           : 
TLFamily_KS3       .         Medium Resistivity            : 
TLFamily_KS4       .         Deep Resistivity              : 
TLFamily_KS5       .         Extra Deep Resistivity        : 
TLFamily_LLD       .         Lateral Log Resistivity       : 
TLFamily_OKS3      .         Medium Resistivity Inverted   : 
TLFamily_RM        .         Mud Resistivity               : 
TLFamily_SP        .         Spontaneous Potential         : 
group              .         INI                           : 
~Curve Information
#_______________________________________________________________________________
#
#LOGNAME           .UNIT     LOG_ID                        : DESCRIPTION
#_______________________________________________________________________________
DEPTH              .m                                      : 1 Depth 
KS                 .ohm.m                                  : 10 Normal Log Resistivity  N11.0M0.5A 
KS1                .ohm.m                                  : 3 Lateral Log Resistivity  A0.4M0.1N 
KS2                .ohm.m                                  : 4 Lateral Log Resistivity  A1.0M0.1N 
KS3                .ohm.m                                  : 5 Lateral Log Resistivity  A2.0M0.5N 
KS4                .ohm.m                                  : 6 Lateral Log Resistivity  A4.0M0.5N 
KS5                .ohm.m                                  : 7 Lateral Log Resistivity  A8.0M0.5N 
LLD                .ohm.m                                  : 2 Laterolog Shallow 
OKS3               .ohm.m                                  : 8 Lateral Log Resistivity (Inverse) 
RM                 .ohm.m                                  : 11 Mud Resistivity 
SP                 .mV                                     : 9 Spontaneous Potential 
~Ascii
# ...
3211       11.1156    3.1276     12.6391    28.3249    31.2647    34.9029    14.7082    21.9069    0.437      41.8257   
3211.2     10.8854    3.2842     12.9918    28.5088    32.1929    33.618     15.0473    21.137     0.447      42.1899   
3211.4     10.5452    3.3312     13.2347    28.131     32.5033    31.4333    12.8252    20.0279    0.459      42.3243   
3211.6     10.2278    3.3807     13.2501    27.006     32.0166    28.3502    8.6766     19.0823    0.433      42.7741   
3211.8     9.8739     3.1319     12.384     25.1383    30.6244    25.1811    7.6607     18.2437    0.45       42.2123   
3212       9.5646     3.0226     12.1017    22.9983    28.7554    21.8579    6.5514     17.9347    0.474      42.9401   
3212.2     9.4358     2.788      10.8782    20.877     26.529     19.1262    6.0973     18.1132    0.445      42.9523   
3212.4     9.3961     2.5656     9.6759     18.9869    24.2354    16.9003    6.4006     19.0535    0.444      43.0938   
3212.6     9.3939     2.4771     9.1808     17.8253    22.601     13.8764    6.1038     20.9329    0.48       43.0057   
3212.8     9.5476     2.4123     8.8387     17.5751    21.5184    13.1246    6.9901     23.7871    0.444      43.3023   
3213       9.9014     2.3507     8.6218     16.9335    20.0597    12.0705    7.3967     25.0171    0.448      42.8043   
3213.2     10.4828    2.1246     7.6262     15.9308    18.4224    11.1447    9.8185     24.608     0.479      41.9689   
3213.4     11.0698    2.2051     7.5879     15.2707    17.4968    10.2629    13.2118    23.6695    0.455      41.9889   
3213.6     11.488     2.3937     7.9521     15.3376    17.3435    9.6694     14.3682    22.8436    0.439      41.7145   
3213.8     11.8147    2.5849     8.4705     15.4482    17.2752    9.3792     13.6655    22.2338    0.45       41.1668   
3214       12.015     2.6692     8.9962     15.5328    17.274     9.26       13.284     21.9377    0.448      41.5513   
3214.2     12.1394    2.785      9.6039     15.5785    17.3606    9.3485     13.1888    22.0185    0.437      41.5243   
3214.4     12.1995    2.8484     10.0225    15.7528    17.5871    9.3516     13.2647    22.2299    0.45       41.64     
3214.6     12.1724    2.8948     10.4793    16.0636    18.0144    9.5306     12.9365    22.5482    0.463      42.0795   
3214.8     12.0461    2.97       10.8927    16.7091    18.7831    9.8329     12.2546    23.3688    0.444      42.273    
3215       11.8873    2.9807     11.063     17.2985    19.2895    10.2726    11.0245    24.2289    0.459      41.8886   
3215.2     11.8261    3.0027     11.1231    17.8085    19.5058    10.9829    8.4159     25.7791    0.459      41.784    
3215.4     11.8261    2.7519     10.0532    17.9508    19.63      12.0629    8.981      27.5808    0.439      42.3817   
3215.6     11.8433    2.5922     9.7787     17.947     20.0896    13.4332    10.2338    29.5008    0.464      42.8439   
3215.8     11.9851    2.6061     9.8208     18.3864    21.0429    15.2015    10.0658    31.9263    0.468      41.9921   
3216       12.1916    2.5709     9.5502     18.5022    21.9477    17.6394    9.9351     36.2971    0.444      42.3103   
3216.2     12.3444    2.4892     9.1917     18.4045    22.3757    19.1582    10.9532    37.919     0.443      42.4851   
3216.4     12.7396    2.3912     8.8682     18.2291    23.7896    22.6313    12.2195    39.7128    0.47       42.3882   
3216.6     13.3867    2.3881     8.9189     19.2067    27.7592    28.9568    13.1543    42.4996    0.45       42.0315   
3216.8     13.93      2.4087     9.2028     20.3475    31.3499    32.9197    18.638     44.435     0.447      41.8932   
3217       14.5897    2.3459     9.446      21.4348    34.5417    36.2403    54.8323    44.2631    0.484      42.2062   
3217.2     15.2906    2.4807     10.0763    22.3582    37.0268    39.0778    89.3232    41.1264    0.457      42.1878   
3217.4     15.8806    2.6584     10.7686    23.7259    39.3275    39.6399    89.2619    36.7324    0.444      42.6276   
3217.6     16.0393    3.0889     12.1753    25.6593    41.3228    35.126     54.7881    33.0951    0.483      42.2055   
3217.8     16.2878    3.4692     13.6321    24.9077    37.0344    33.145     31.1017    29.2576    0.462      42.6456   
3218       17.2535    2.5098     10.41      19.1016    28.218     33.2809    42.2668    20.268     0.449      41.7213   
3218.2     17.3632    1.6394     7.3237     18.9258    29.2087    32.3402    50.246     13.5864    0.483      42.5778   
3218.4     16.3427    3.1313     14.0696    25.6826    38.7068    32.9917    42.1882    13.8851    0.469      42.507    
3218.6     14.9082    3.9589     18.3612    34.7197    47.3489    38.1298    22.8038    16.6862    0.44       42.191    
3218.8     14.2285    3.7902     18.5469    37.2487    47.55      40.6118    13.0023    16.7603    0.454      42.0625   
3219       13.5667    3.6532     18.0888    37.9575    45.781     39.3788    13.105     16.0228    0.475      42.6259   
3219.2     12.9915    3.5669     16.9313    38.685     44.225     37.6416    12.188     15.6826    0.442      42.2662   
3219.4     12.4087    3.4291     15.3387    39.1958    42.825     36.0147    10.9624    15.5201    0.443      41.5781   
3219.6     11.8468    3.4219     15.0735    39.0786    41.6055    34.8478    10.6124    15.6334    0.475      42.1887   
3219.8     11.6223    3.4302     14.8068    38.9766    41.5106    34.4836    8.0186     15.9701    0.464      42.4173   
3220       11.1311    3.1881     13.9399    38.9678    42.0523    33.7702    10.0478    17.1044    0.442      42.0433   
3220.2     10.5183    3.2793     14.6218    40.4858    44.2863    32.5672    18.2269    17.7064    0.481      42.2632   
3220.4     9.9377     3.5707     15.4813    41.3996    46.9841    30.8967    10.4683    17.3763    0.457      42.5614   
3220.6     9.3763     3.625      15.1943    37.8252    46.7369    28.4762    8.8608     16.3228    0.443      42.4963   
3220.8     8.8738     3.4446     13.9653    33.5073    43.8149    25.0231    5.6574     15.0753    0.48       42.7782   
3221       8.5871     3.1474     12.4956    29.8749    40.2742    23.1226    5.1451     14.1957    0.474      42.2987   
3221.2     8.383      2.8799     11.3748    26.8159    37.5774    19.7562    5.7156     13.6551    0.45       42.5135   
3221.4     8.1691     2.5946     10.3483    23.2076    34.7429    16.8931    5.9344     13.1506    0.456      42.8461   
3221.6     8.1022     2.4843     9.6529     20.7777    32.5863    14.8794    6.3006     12.908     0.483      42.3558   
3221.8     8.0396     2.4843     9.1234     19.1612    30.7363    13.3829    6.7551     12.804     0.453      42.9585   
3222       7.9959     2.4755     8.7767     17.8093    28.7452    12.162     6.6323     12.6961    0.451      42.9153   
3222.2     7.9774     2.4303     8.5004     16.8014    26.9475    11.1217    6.7905     12.4699    0.476      42.8323   
3222.4     7.9508     2.4324     8.4214     16.455     26.2201    10.6041    7.024      12.3538    0.476      42.8294   
3222.6     7.882      2.5166     8.5485     16.053     24.4792    9.8138     7.3145     12.2742    0.45       43.3141   
3222.8     7.81       2.5382     8.5209     15.7084    21.7238    9.1193     7.2757     12.146     0.447      43.6924   
3223       7.7463     2.5054     8.4928     15.179     19.8732    8.3962     7.2236     11.9536    0.479      43.59     
3223.2     7.6682     2.5555     8.5269     14.7351    18.674     7.7839     6.8951     11.6218    0.456      44.0625   
3223.4     7.487      2.5922     8.5285     14.2346    17.4296    7.2009     5.7857     11.3347    0.444      45.0061   
3223.6     7.3478     2.5905     8.5024     13.6494    16.0801    6.6679     5.2842     11.1347    0.471      44.6257   
3223.8     7.2802     2.5534     8.3542     13.361     15.453     6.4597     5.0815     11.0708    0.463      45.0872   
3224       7.1561     2.3891     7.8979     12.712     14.2839    6.0839     5.13       11.0728    0.435      44.7017   
3224.2     7.133      2.262      7.6199     12.3155    13.6234    5.7763     6.2512     11.4168    0.479      45.3125   
