~Version
 VERS              .         2.0                           : CWLS LOG ASCII STANDARD - VERSION 2.0
 WRAP              .         NO                            : ONE LINE PER DEPTH STEP
 DLM               .         SPACE                         : DELIMITING CHARACTER(SPACE TAB OR COMMA)
~Well Information
#_______________________________________________________________________________
#
#PARAMETER_NAME    .UNIT     VALUE                         : DESCRIPTION
#_______________________________________________________________________________
STRT               .m        3077                          : First reference value
STOP               .m        3245                          : Last reference value
STEP               .m        0.2                           : Step increment
NULL               .         -9999                         : Missing value
COMP               .                                       : Company
WELL               .         202                           : Well name
FLD                .                                       : Field
LOC                .                                       : Location
CNTY               .                                       : County
STAT               .                                       : State
CTRY               .                                       : Country
SRVC               .                                       : Service Company
DATE               .                                       : Date
API                .                                       : API number
EREF               .m        139.76                        : 
Pad                .         2                             : 
X                  .m        228492                        : 
Y                  .m        241733                        : 
group              .         Pad2                          : 
Интер-р            .         Старостина                    : 
Куст               .         2                             : 
Статус             .         Проверено                     : 
Тип                .         Нагнетательные                : 
~Parameter Information Block
#_______________________________________________________________________________
#
#PARAMETER_NAME    .UNIT     VALUE                         : DESCRIPTION
#_______________________________________________________________________________
SET                .         LAS1                          : 
REAL_CREATION_DATE .         Ср апр 11 2012-13_17_07       : 
TLFamily_DEPTH     .         Measured Depth                : 
TLFamily_KS        .         Potential Resistivity         : 
TLFamily_KS1       .         Extra Shallow Resistivity     : 
TLFamily_KS2       .         Shallow Resistivity           : 
TLFamily_KS3       .         Medium Resistivity            : 
TLFamily_KS4       .         Deep Resistivity              : 
TLFamily_KS5       .         Extra Deep Resistivity        : 
TLFamily_LLD       .         Lateral Log Resistivity       : 
TLFamily_OKS3      .         Medium Resistivity Inverted   : 
TLFamily_RM        .         Mud Resistivity               : 
TLFamily_SP        .         Spontaneous Potential         : 
group              .         INI                           : 
~Curve Information
#_______________________________________________________________________________
#
#LOGNAME           .UNIT     LOG_ID                        : DESCRIPTION
#_______________________________________________________________________________
DEPTH              .m                                      : 1 Depth 
KS                 .ohm.m                                  : 10 Normal Log Resistivity  N11.0M0.5A 
KS1                .ohm.m                                  : 3 Lateral Log Resistivity  A0.4M0.1N 
KS2                .ohm.m                                  : 4 Lateral Log Resistivity  A1.0M0.1N 
KS3                .ohm.m                                  : 5 Lateral Log Resistivity  A2.0M0.5N 
KS4                .ohm.m                                  : 6 Lateral Log Resistivity  A4.0M0.5N 
KS5                .ohm.m                                  : 7 Lateral Log Resistivity  A8.0M0.5N 
LLD                .ohm.m                                  : 2 Laterolog Shallow 
OKS3               .ohm.m                                  : 8 Lateral Log Resistivity (Inverse) 
RM                 .ohm.m                                  : 11 Mud Resistivity 
SP                 .mV                                     : 9 Spontaneous Potential 
~Ascii
# ...
3197.6     8.7853     1.8686     5.4598     9.5328     16.0283    7.0687     6.2233     33.0985    0.427      46.5307   
3197.8     9.3052     1.7407     5.1896     9.5942     17.019     7.9537     6.3271     39.108     0.452      46.9835   
3198       10.1676    1.7223     5.3033     9.9958     18.8155    9.5007     6.0715     45.6599    0.461      46.7691   
3198.2     11.2246    1.8002     5.6669     10.6206    20.6714    10.9346    7.0651     49.2674    0.44       46.7599   
3198.4     12.1993    1.9536     6.1437     11.3772    22.1572    12.4628    9.4287     48.718     0.423      47.1814   
3198.6     13.0625    2.172      6.9343     12.3313    23.8737    14.2238    11.4312    47.4386    0.421      46.7436   
3198.8     14.1559    2.2293     7.4773     12.999     25.628     17.3429    14.6124    47.6035    0.468      46.5753   
3199       15.3211    1.9195     7.1391     13.2927    26.9138    20.2104    21.8156    49.768     0.465      47.2212   
3199.2     16.2659    2.0801     8.0988     14.1573    28.0514    23.3085    24.9231    49.3555    0.468      47.2455   
3199.4     17.2094    2.4114     9.4254     15.8478    29.1627    26.7508    18.1256    45.9322    0.432      46.9421   
3199.6     18.0872    2.9379     11.5236    18.708     30.5069    32.027     15.813     39.6086    0.45       46.3405   
3199.8     18.3921    2.9864     11.9974    20.9741    31.4131    35.931     27.6355    36.3356    0.468      46.9735   
3200       18.4595    3.239      13.5076    23.5327    32.1491    40.3017    122.0605   32.3559    0.463      46.5057   
3200.2     18.153     3.4754     15.1816    28.209     34.3319    46.181     211.3278   27.4109    0.441      46.5088   
3200.4     17.307     4.0286     17.9111    34.6863    37.2525    47.8622    201.4139   23.5965    0.438      46.8944   
3200.6     16.682     4.4551     20.0049    36.8124    36.1472    49.1061    164.2761   21.5059    0.462      46.0694   
3200.8     16.3864    3.7151     16.4774    34.7726    32.7382    49.8264    39.0264    20.5795    0.462      46.7418   
3201       15.9005    3.0108     14.0944    32.9142    31.0314    48.4079    61.3584    23.201     0.43       48.9502   
3201.2     15.33      3.2235     15.6043    36.9357    34.5359    49.3263    74.5447    26.7428    0.441      54.3194   
3201.4     15.1033    3.4485     16.5292    40.8559    38.4525    51.5111    129.2476   26.1689    0.464      53.6395   
3201.6     14.7868    3.6532     17.1187    44.25      42.9004    52.7068    127.4809   23.6521    0.462      49.3586   
3201.8     13.5517    4.2776     18.5262    49.4534    52.1167    50.0642    211.8891   20.487     0.423      45.4293   
3202       12.4149    4.5817     19.7909    50.7053    56.4936    45.3058    190.8703   19.1221    0.433      45.8319   
3202.2     11.6038    4.4274     19.2441    45.6831    53.6188    38.9845    29.4814    18.6927    0.454      45.9547   
3202.4     11.239     3.2174     14.2733    35.0563    42.7232    28.662     22.1259    19.6843    0.449      45.3089   
3202.6     11.2699    2.4145     10.7561    27.3351    35.3963    25.5592    8.5957     21.0983    0.431      45.0086   
3202.8     11.503     2.0403     9.2055     23.4389    32.6189    21.6641    8.4818     22.2545    0.43       44.9891   
3203       11.9038    2.1087     9.1659     22.1146    32.9729    19.4667    20.7311    22.3105    0.436      45.3171   
3203.2     12.2664    2.3514     9.5077     22.6063    35.1793    18.5165    54.9126    21.3843    0.453      44.6274   
3203.4     12.489     2.6808     9.8831     23.7664    37.4441    17.9046    78.5693    19.9531    0.433      44.4004   
3203.6     12.459     3.021      10.4593    25.0318    39.1931    17.0921    103.8641   18.4557    0.421      44.6478   
3203.8     12.2922    3.3404     11.4125    25.3787    39.1591    16.1072    95.002     17.0236    0.436      43.869    
3204       12.0868    3.3187     11.3712    24.5226    37.3391    15.0584    23.9971    16.0362    0.454      43.3671   
3204.2     11.8125    3.1114     11.1172    22.7586    34.5828    13.825     4.1878     15.4712    0.439      43.5289   
3204.4     11.5335    2.9855     11.254     21.0274    32.2605    12.4888    4.2918     15.3049    0.422      43.8251   
3204.6     11.3378    2.8311     11.0909    19.7367    30.42      11.3846    7.5457     15.4293    0.446      43.9278   
3204.8     11.2188    2.7211     10.7741    18.5246    28.5508    10.5903    19.6519    15.7376    0.437      43.4973   
3205       11.1351    2.6526     10.2895    17.5252    26.6272    10.0367    34.3766    16.2356    0.422      43.1112   
3205.2     11.1425    2.5002     9.5364     16.9872    24.9976    9.6671     24.4213    17.0857    0.437      43.3705   
3205.4     11.1853    2.3881     8.9842     16.9741    23.8779    9.5313     9.2096     18.0727    0.456      43.3492   
3205.6     11.2596    2.4132     8.9635     17.6474    23.7623    9.6573     8.6582     18.9461    0.429      43.2158   
3205.8     11.3301    2.5279     9.1493     18.5698    24.3805    10.122     8.2223     19.5751    0.429      43.2178   
3206       11.3582    2.5834     9.2429     19.0738    25.2246    10.7736    8.3099     19.815     0.468      43.3876   
3206.2     11.3592    2.658      9.3935     19.3407    26.0769    11.6884    12.2449    20.1393    0.443      43.3819   
3206.4     11.3346    2.7001     9.4838     19.5293    27.0469    12.9839    11.838     20.6097    0.432      42.8107   
3206.6     11.2928    2.7001     9.5735     19.5762    28.2167    14.7929    10.693     21.3385    0.444      42.5087   
3206.8     11.2928    2.6922     9.7551     19.6578    29.8017    17.095     10.4111    22.2897    0.468      42.7911   
3207       11.2928    2.6538     9.8109     20.0527    31.8409    19.8118    10.7344    23.6174    0.452      43.0229   
3207.2     11.2928    2.6793     10.0244    20.6052    34.24      23.0088    10.6398    25.2073    0.443      42.6916   
3207.4     11.3491    2.7069     10.1454    21.293     37.0044    26.5139    13.5297    26.9128    0.472      42.452    
3207.6     11.4607    2.6483     10.2143    21.9212    40.0345    30.2239    19.4312    28.515     0.481      42.7468   
3207.8     11.6758    2.5922     10.2632    22.6576    43.6907    34.1187    31.234     30.0228    0.441      42.9897   
3208       11.8775    2.6404     10.3677    23.0925    45.4846    39.2631    20.4463    30.6121    0.446      43.0134   
3208.2     12.1122    2.7055     10.6232    23.7256    47.0891    43.9124    11.8506    30.8833    0.462      42.8251   
3208.4     12.1312    2.907      11.3693    24.8954    48.894     46.6414    9.5138     30.2031    0.452      42.887    
3208.6     12.0653    3.2324     12.5632    25.8029    48.7957    47.3544    9.26       28.398     0.438      42.8526   
3208.8     11.9723    3.3362     12.8154    25.1786    45.1484    46.2117    9.5977     26.1141    0.475      42.4622   
3209       11.8586    3.0723     11.9542    23.216     39.2086    43.6865    10.4213    23.9198    0.477      42.3974   
3209.2     11.7538    2.786      11.2256    21.1379    32.5885    37.9665    10.7142    21.7404    0.46       42.3236   
3209.4     11.6661    2.7541     10.9273    20.321     27.6415    33.2408    11.2168    19.9252    0.46       42.2971   
3209.6     11.6395    2.7541     10.6021    20.3996    26.1059    31.5631    10.7093    19.1764    0.429      42.7355   
3209.8     11.5735    2.8115     10.5712    20.6392    24.9297    30.0842    9.9443     18.8112    0.429      42.5307   
3210       11.4994    2.8096     10.5628    20.8935    24.0949    29.6744    9.504      18.9528    0.467      42.0688   
3210.2     11.4528    2.7262     10.4165    21.4232    23.9363    30.3385    10.0621    19.6808    0.466      42.6438   
3210.4     11.3945    2.7008     10.6037    22.6989    24.8104    31.4506    11.9325    20.7663    0.45       42.5831   
3210.6     11.3267    2.8018     11.296     24.7021    26.7495    32.9547    16.0126    21.8213    0.44       42.1435   
3210.8     11.24      3.0049     12.2456    26.6352    28.9321    34.377     16.0612    22.2226    0.479      42.0656   
