~Version
 VERS              .         2.0                           : CWLS LOG ASCII STANDARD - VERSION 2.0
 WRAP              .         NO                            : ONE LINE PER DEPTH STEP
 DLM               .         SPACE                         : DELIMITING CHARACTER(SPACE TAB OR COMMA)
~Well Information
#_______________________________________________________________________________
#
#PARAMETER_NAME    .UNIT     VALUE                         : DESCRIPTION
#_______________________________________________________________________________
STRT               .m        3077                          : First reference value
STOP               .m        3245                          : Last reference value
STEP               .m        0.2                           : Step increment
NULL               .         -9999                         : Missing value
COMP               .                                       : Company
WELL               .         202                           : Well name
FLD                .                                       : Field
LOC                .                                       : Location
CNTY               .                                       : County
STAT               .                                       : State
CTRY               .                                       : Country
SRVC               .                                       : Service Company
DATE               .                                       : Date
API                .                                       : API number
EREF               .m        139.76                        : 
Pad                .         2                             : 
X                  .m        228492                        : 
Y                  .m        241733                        : 
group              .         Pad2                          : 
Интер-р            .         Старостина                    : 
Куст               .         2                             : 
Статус             .         Проверено                     : 
Тип                .         Нагнетательные                : 
~Parameter Information Block
#_______________________________________________________________________________
#
#PARAMETER_NAME    .UNIT     VALUE                         : DESCRIPTION
#_______________________________________________________________________________
SET                .         LAS1                          : 
REAL_CREATION_DATE .         Ср апр 11 2012-13_17_07       : 
TLFamily_DEPTH     .         Measured Depth                : 
TLFamily_KS        .         Potential Resistivity         : 
TLFamily_KS1       .         Extra Shallow Resistivity     : 
TLFamily_KS2       .         Shallow Resistivity           : 
TLFamily_KS3       .         Medium Resistivity            : 
TLFamily_KS4       .         Deep Resistivity              : 
TLFamily_KS5       .         Extra Deep Resistivity        : 
TLFamily_LLD       .         Lateral Log Resistivity       : 
TLFamily_OKS3      .         Medium Resistivity Inverted   : 
TLFamily_RM        .         Mud Resistivity               : 
TLFamily_SP        .         Spontaneous Potential         : 
group              .         INI                           : 
~Curve Information
#_______________________________________________________________________________
#
#LOGNAME           .UNIT     LOG_ID                        : DESCRIPTION
#_______________________________________________________________________________
DEPTH              .m                                      : 1 Depth 
KS                 .ohm.m                                  : 10 Normal Log Resistivity  N11.0M0.5A 
KS1                .ohm.m                                  : 3 Lateral Log Resistivity  A0.4M0.1N 
KS2                .ohm.m                                  : 4 Lateral Log Resistivity  A1.0M0.1N 
KS3                .ohm.m                                  : 5 Lateral Log Resistivity  A2.0M0.5N 
KS4                .ohm.m                                  : 6 Lateral Log Resistivity  A4.0M0.5N 
KS5                .ohm.m                                  : 7 Lateral Log Resistivity  A8.0M0.5N 
LLD                .ohm.m                                  : 2 Laterolog Shallow 
OKS3               .ohm.m                                  : 8 Lateral Log Resistivity (Inverse) 
RM                 .ohm.m                                  : 11 Mud Resistivity 
SP                 .mV                                     : 9 Spontaneous Potential 
~Ascii
# ...
3144       10.9195    2.916      11.0919    20.4181    22.0156    8.3737     9.7668     22.5984    0.462      41.8148   
3144.2     10.9195    2.8911     10.9903    20.4393    21.9021    8.4943     9.7501     22.3795    0.468      42.0336   
3144.4     10.9195    2.8923     10.9561    20.374     21.8225    8.5165     10.0304    22.2692    0.465      40.7328   
3144.6     10.8716    2.862      10.931     20.3068    21.6744    8.6385     9.6758     22.0756    0.457      41.0493   
3144.8     10.8316    2.9094     11.0365    20.3658    21.5591    8.7735     9.1532     22.0152    0.448      40.3649   
3145       10.7889    2.916      11.029     20.4136    21.5765    8.9728     8.8361     22.1668    0.441      40.0693   
3145.2     10.7595    2.8966     10.9713    20.355     21.5135    9.18       8.4682     22.4772    0.427      40.7508   
3145.4     10.7595    2.8546     10.8422    20.0786    21.2192    9.482      8.7671     22.9812    0.432      40.4176   
3145.6     10.818     2.7508     10.4467    19.7994    21.0554    9.8331     10.8008    23.6715    0.438      40.3758   
3145.8     10.9033    2.7044     10.3314    19.7744    21.2617    10.2217    11.5808    24.4262    0.447      40.234    
3146       10.9195    2.7884     10.6477    20.2016    21.96      10.6058    10.8856    24.9175    0.45       40.453    
3146.2     10.9728    2.8757     10.8613    20.7145    22.6622    10.9404    11.1684    25.2406    0.464      40.1111   
3146.4     10.9728    2.8899     11.0394    21.1017    23.1022    11.1791    10.3658    25.4294    0.472      40.5144   
3146.6     10.9728    2.9584     11.1885    21.2044    23.1553    11.2656    9.7026     25.2517    0.474      40.3432   
3146.8     10.9728    2.916      11.096     20.9425    22.7834    11.1506    9.0488     24.7862    0.474      40.9615   
3147       10.9728    2.9021     10.9843    20.4295    22.184     10.9392    9.0892     24.4268    0.468      40.7331   
3147.2     10.9728    2.8608     10.7941    19.9102    21.5815    10.7412    9.2411     24.553     0.462      40.3403   
3147.4     11.0189    2.7771     10.4988    19.4818    21.2224    10.602     9.2974     25.0131    0.445      40.2359   
3147.6     11.1099    2.709      10.3325    19.0591    20.9014    10.6234    9.5456     25.6958    0.437      40.6429   
3147.8     11.2325    2.6928     10.1295    18.8178    20.6565    10.751     10.786     26.4654    0.43       40.392    
3148       11.4021    2.6311     9.9823     18.7782    20.6871    10.9755    11.7999    27.502     0.438      40.5246   
3148.2     11.6228    2.6138     9.9808     19.0271    21.1219    11.3578    12.8879    28.4722    0.441      40.7895   
3148.4     11.8644    2.6665     10.1343    19.4975    21.815     11.9473    14.8073    29.1631    0.444      40.8361   
3148.6     12.0807    2.7129     10.3299    20.2131    22.7614    12.5351    19.4085    29.7258    0.45       40.3919   
3148.8     12.2083    2.8055     10.7524    21.4164    24.1306    12.9038    13.3433    29.9397    0.46       41.115    
3149       12.284     3.0264     11.6798    22.3572    25.0693    13.1175    11.6352    29.3639    0.474      41.047    
3149.2     12.4128    3.0527     11.683     22.4905    25.0268    13.1204    11.8841    28.451     0.48       40.9121   
3149.4     12.4661    2.97       11.4914    22.1231    24.5139    12.8194    11.4686    27.9691    0.467      40.9403   
3149.6     12.4998    2.9687     11.5977    21.8086    24.1419    12.4282    10.9027    27.7215    0.456      41.0462   
3149.8     12.5858    2.916      11.4294    21.5068    23.7487    12.0905    12.4116    27.6109    0.445      41.0005   
3150       12.6879    2.8553     11.2788    21.1769    23.3522    11.8107    13.9267    27.6517    0.432      40.4631   
3150.2     12.8431    2.7768     11.0079    21.0234    23.2797    11.5758    14.0554    27.7614    0.437      41.0285   
3150.4     12.9843    2.8081     11.0192    21.179     23.4173    11.4823    14.7719    27.6569    0.444      41.2472   
3150.6     13.161     2.8619     11.099     21.5686    23.7369    11.5283    15.1801    27.2504    0.455      40.8446   
3150.8     13.2615    2.8756     11.2411    22.1123    24.1949    11.6166    14.4608    26.9155    0.47       40.7657   
3151       13.2987    2.965      11.546     22.8718    24.8123    11.7916    12.8267    26.6109    0.474      40.7736   
3151.2     13.3194    3.0239     11.8468    23.6072    25.448     11.9468    12.0022    26.3151    0.471      41.0907   
3151.4     13.2896    3.043      12.0435    23.9828    25.837     12.1075    13.4085    26.1663    0.457      41.2208   
3151.6     13.2661    3.0525     12.0376    23.9536    25.9931    12.3069    13.8132    26.3028    0.455      41.0669   
3151.8     13.2661    2.971      11.8813    23.8442    26.0226    12.5092    13.6036    26.5109    0.44       41.401    
3152       13.2872    2.916      11.7829    23.8661    26.3942    12.7084    14.3745    26.689     0.432      40.7653   
3152.2     13.311     2.9461     11.9351    24.1814    27.1348    13.0102    13.7574    26.6415    0.435      41.4256   
3152.4     13.3494    2.97       11.9901    24.5521    28.0361    13.3216    13.1996    26.4241    0.438      41.6594   
3152.6     13.3727    2.9772     11.9775    24.8569    28.8427    13.7026    12.854     26.1255    0.452      41.1029   
3152.8     13.3994    3.0239     12.0697    25.0256    29.5779    14.089     11.8996    25.6848    0.466      40.994    
3153       13.3906    3.0052     11.942     25.2352    30.4383    14.4835    12.849     25.3275    0.474      41.3955   
3153.2     13.3727    3.0561     12.2621    25.4327    31.3375    14.9042    16.8805    25.0511    0.471      41.5105   
3153.4     13.3727    3.0316     12.1597    25.5328    32.0356    15.4221    17.9887    24.7848    0.463      41.5012   
3153.6     13.4159    2.9609     11.9898    25.3598    32.4057    16.0431    16.8778    24.4253    0.452      41.4046   
3153.8     13.4261    2.9751     12.1025    25.5518    33.1491    16.6582    14.7041    23.8211    0.434      41.2545   
3154       13.4472    3.0822     12.4628    26.1125    34.1666    17.3184    11.7318    22.8053    0.427      41.4565   
3154.2     13.3979    3.1795     12.7745    26.9336    35.257     17.9351    11.3613    21.8066    0.43       41.1204   
3154.4     13.2384    3.2894     13.2111    27.5216    36.0826    18.5676    13.2463    21.0986    0.438      40.7308   
3154.6     13.0448    3.3371     13.2896    27.6095    36.3419    19.1249    16.8247    20.7157    0.456      41.1684   
3154.8     12.8802    3.2496     13.0838    27.3045    36.04      19.7119    16.487     20.6367    0.471      41.6001   
3155       12.6687    3.1674     12.9803    27.3394    36.1547    20.1974    13.3041    20.7239    0.474      41.0324   
3155.2     12.4091    3.2387     13.2568    27.7763    36.8037    20.7344    8.8399     20.3868    0.47       41.1085   
3155.4     12.1013    3.3915     13.7698    28.6618    37.7412    21.0284    7.2197     19.3753    0.462      40.8294   
3155.6     11.694     3.5543     14.2884    29.3233    37.9321    21.0267    6.4874     18.133     0.438      41.0711   
3155.8     11.338     3.5317     14.0871    28.9999    36.9568    20.6353    7.082      17.313     0.421      40.8717   
3156       10.9904    3.3087     13.1048    27.5467    34.7104    20.1257    8.2747     17.2183    0.432      40.7302   
3156.2     10.7504    3.0746     12.1612    25.6048    32.1184    19.469     9.7489     17.9262    0.437      41.0467   
3156.4     10.6135    2.8335     11.3456    23.881     30.0696    19.0845    11.375     18.9212    0.456      40.6633   
3156.6     10.6262    2.6801     10.7716    22.7895    28.999     18.986     11.3759    20.0054    0.462      40.532    
3156.8     10.7002    2.6462     10.5159    22.2107    28.666     19.2501    11.1446    20.6016    0.468      41.0356   
3157       10.8045    2.6877     10.3927    22.1385    28.8165    19.6145    10.2616    20.8533    0.465      40.9666   
3157.2     10.8662    2.8171     10.5757    22.2554    28.9865    20.0689    10.3566    20.9361    0.451      41.0245   
