~Version
 VERS              .         2.0                           : CWLS LOG ASCII STANDARD - VERSION 2.0
 WRAP              .         NO                            : ONE LINE PER DEPTH STEP
 DLM               .         SPACE                         : DELIMITING CHARACTER(SPACE TAB OR COMMA)
~Well Information
#_______________________________________________________________________________
#
#PARAMETER_NAME    .UNIT     VALUE                         : DESCRIPTION
#_______________________________________________________________________________
STRT               .m        3077                          : First reference value
STOP               .m        3245                          : Last reference value
STEP               .m        0.2                           : Step increment
NULL               .         -9999                         : Missing value
COMP               .                                       : Company
WELL               .         202                           : Well name
FLD                .                                       : Field
LOC                .                                       : Location
CNTY               .                                       : County
STAT               .                                       : State
CTRY               .                                       : Country
SRVC               .                                       : Service Company
DATE               .                                       : Date
API                .                                       : API number
EREF               .m        139.76                        : 
Pad                .         2                             : 
X                  .m        228492                        : 
Y                  .m        241733                        : 
group              .         Pad2                          : 
Интер-р            .         Старостина                    : 
Куст               .         2                             : 
Статус             .         Проверено                     : 
Тип                .         Нагнетательные                : 
~Parameter Information Block
#_______________________________________________________________________________
#
#PARAMETER_NAME    .UNIT     VALUE                         : DESCRIPTION
#_______________________________________________________________________________
SET                .         LAS1                          : 
REAL_CREATION_DATE .         Ср апр 11 2012-13_17_07       : 
TLFamily_DEPTH     .         Measured Depth                : 
TLFamily_KS        .         Potential Resistivity         : 
TLFamily_KS1       .         Extra Shallow Resistivity     : 
TLFamily_KS2       .         Shallow Resistivity           : 
TLFamily_KS3       .         Medium Resistivity            : 
TLFamily_KS4       .         Deep Resistivity              : 
TLFamily_KS5       .         Extra Deep Resistivity        : 
TLFamily_LLD       .         Lateral Log Resistivity       : 
TLFamily_OKS3      .         Medium Resistivity Inverted   : 
TLFamily_RM        .         Mud Resistivity               : 
TLFamily_SP        .         Spontaneous Potential         : 
group              .         INI                           : 
~Curve Information
#_______________________________________________________________________________
#
#LOGNAME           .UNIT     LOG_ID                        : DESCRIPTION
#_______________________________________________________________________________
DEPTH              .m                                      : 1 Depth 
KS                 .ohm.m                                  : 10 Normal Log Resistivity  N11.0M0.5A 
KS1                .ohm.m                                  : 3 Lateral Log Resistivity  A0.4M0.1N 
KS2                .ohm.m                                  : 4 Lateral Log Resistivity  A1.0M0.1N 
KS3                .ohm.m                                  : 5 Lateral Log Resistivity  A2.0M0.5N 
KS4                .ohm.m                                  : 6 Lateral Log Resistivity  A4.0M0.5N 
KS5                .ohm.m                                  : 7 Lateral Log Resistivity  A8.0M0.5N 
LLD                .ohm.m                                  : 2 Laterolog Shallow 
OKS3               .ohm.m                                  : 8 Lateral Log Resistivity (Inverse) 
RM                 .ohm.m                                  : 11 Mud Resistivity 
SP                 .mV                                     : 9 Spontaneous Potential 
~Ascii
# ...
3103.8     7.4586     2.6614     8.5252     12.5573    11.0831    7.429      7.5494     13.0555    0.472      47.0391   
3104       7.3503     2.6153     8.5143     12.596     11.197     7.4358     7.8886     13.214     0.48       46.8307   
3104.2     7.1562     2.5674     8.495      12.4285    11.1763    7.4863     5.5394     13.8467    0.482      46.2266   
3104.4     7.1748     2.4655     8.3151     12.2666    11.1441    7.4891     5.4012     14.4566    0.485      46.3149   
3104.6     7.221      2.2684     7.7225     12.0243    11.1615    7.6342     5.0865     14.8611    0.491      45.9694   
3104.8     7.312      2.2911     7.7196     12.0485    11.335     7.6983     5.758      14.9889    0.486      45.1182   
3105       7.3463     2.3755     7.731      12.3077    11.6329    7.7337     6.3342     15.1507    0.477      45.7243   
3105.2     7.3603     2.4303     7.8598     12.5472    11.7927    7.7551     6.435      15.3367    0.472      45.5096   
3105.4     7.4704     2.3871     7.6781     12.4481    11.6658    7.7655     6.2333     15.5189    0.461      46.1067   
3105.6     7.5465     2.2774     7.5177     12.2012    11.6434    7.7577     5.6388     15.6345    0.45       45.691    
3105.8     7.6556     2.3842     7.7457     12.1626    11.7331    7.7019     6.4032     15.6306    0.45       45.8155   
3106       7.734      2.3856     7.6396     11.9303    11.7254    7.7019     6.7662     15.4685    0.45       46.0256   
3106.2     7.8118     2.3109     7.5855     11.9252    11.7291    7.8647     6.1783     15.4818    0.444      45.5813   
3106.4     7.9021     2.4127     7.9884     12.0466    11.8809    7.9647     6.5695     15.5776    0.443      45.7478   
3106.6     7.9458     2.4098     7.9677     12.3205    12.1557    8.0663     7.014      15.6754    0.438      45.9929   
3106.8     8.011      2.4605     8.1605     12.5568    12.239     8.1764     6.783      15.5326    0.438      45.7072   
3107       8.0396     2.5486     8.4442     12.8665    12.325     8.1809     7.3002     15.1934    0.45       45.3609   
3107.2     8.0396     2.5665     8.4544     13.0074    12.4407    8.2341     7.9865     15.2202    0.452      45.873    
3107.4     8.0396     2.5224     8.3398     12.9423    12.4966    8.2697     7.3493     15.596     0.456      45.3781   
3107.6     8.0901     2.4325     8.2502     13.0284    12.5461    8.293      5.8964     15.8281    0.465      45.4525   
3107.8     8.1937     2.4098     8.3001     13.3219    12.6527    8.3405     6.2188     15.4308    0.462      45.8541   
3108       8.2323     2.5203     8.6746     13.7141    12.8895    8.3405     7.3635     14.8597    0.474      45.9124   
3108.2     8.2309     2.6211     8.8677     14.0344    12.9868    8.3405     8.9579     14.4627    0.484      44.6737   
3108.4     8.1463     2.6041     8.7702     14.0662    12.8842    8.3916     8.523      14.6655    0.484      45.1116   
3108.6     8.0898     2.5107     8.592      13.9918    12.8407    8.3406     6.7605     15.1998    0.483      44.7805   
3108.8     8.0426     2.4663     8.6597     13.9048    12.903     8.3688     5.9571     15.6097    0.485      44.41     
3109       8.1282     2.4123     8.531      13.9811    13.086     8.4416     6.1897     15.8385    0.483      43.4076   
3109.2     8.1463     2.4403     8.5906     14.0868    13.3008    8.4963     6.5561     16.1294    0.48       43.4023   
3109.4     8.1016     2.4843     8.6369     14.2862    13.577     8.5001     6.7266     16.3136    0.478      43.1864   
3109.6     8.1257     2.5096     8.6138     14.3345    13.714     8.487      6.751      16.2499    0.474      42.717    
3109.8     8.1198     2.5772     8.7066     14.4005    13.7112    8.3639     7.1966     16.0389    0.468      42.4825   
3110       8.1655     2.529      8.5437     14.127     13.354     8.1856     7.1392     15.9928    0.459      42.667    
3110.2     8.2037     2.3946     8.0615     13.6577    13.0182    7.9721     6.5435     16.3167    0.445      42.0265   
3110.4     8.2677     2.3764     8.0712     13.2355    12.8179    7.8156     5.9316     16.7415    0.438      41.6953   
3110.6     8.3791     2.3435     8          12.9581    12.6704    7.7063     6.0662     17.048     0.443      41.6121   
3110.8     8.5089     2.2763     7.805      12.8076    12.6475    7.7019     6.4572     17.1037    0.45       42.1025   
3111       8.6052     2.3329     8.0251     12.8609    12.7429    7.7551     6.8479     17.0849    0.444      41.7827   
3111.2     8.6744     2.3548     8.0575     13.0793    12.9727    7.8258     7.3182     17.176     0.444      41.1867   
3111.4     8.7224     2.424      8.2325     13.3764    13.2916    7.9958     7.7418     17.3221    0.45       41.5732   
3111.6     8.7222     2.4864     8.5002     13.7908    13.6215    8.248      7.7893     17.5966    0.45       41.6193   
3111.8     8.7058     2.5382     8.7829     14.228     13.9743    8.5018     8.3919     18.0537    0.452      41.3858   
3112       8.6796     2.5648     8.8776     14.3477    14.2401    8.7597     7.6592     18.8833    0.456      41.531    
3112.2     8.7333     2.4545     8.5584     14.2374    14.4024    9.0691     6.6734     19.607     0.466      41.4734   
3112.4     8.8472     2.3764     8.3897     14.0901    14.4633    9.2347     6.3129     19.7153    0.474      41.8658   
3112.6     9.0395     2.3556     8.3704     14.1317    14.5601    9.4065     7.473      19.1969    0.48       41.8081   
3112.8     9.2727     2.3812     8.3659     14.0377    14.4636    9.639      8.3913     17.8968    0.48       41.7874   
3113       9.3607     2.3296     8.0157     14.3232    14.6972    10.013     9.9202     16.6628    0.485      41.8503   
3113.2     9.2409     2.5922     8.9771     15.0311    15.4272    10.4722    9.9747     15.8028    0.487      41.81     
3113.4     9.1974     2.6653     9.4314     15.5772    16.0795    11.32      10.6851    16.0154    0.485      41.5691   
3113.6     9.1863     2.4379     8.9722     15.4426    16.4396    12.343     6.4929     16.7577    0.474      41.2852   
3113.8     9.3559     2.2861     8.5475     15.0811    16.8703    13.4123    5.7369     17.942     0.476      41.4752   
3114       9.6179     2.1567     8.2196     15.4407    18.053     14.505     5.7654     18.754     0.468      41.1413   
3114.2     9.8217     2.2967     9.1451     16.6565    19.7215    15.4793    7.5361     18.2485    0.465      40.8843   
3114.4     10.0182    2.7346     10.2019    18.5148    21.3504    16.0802    22.9073    16.6496    0.457      41.4461   
3114.6     9.9571     3.0519     10.7904    20.108     22.2757    16.1544    31.1273    14.9138    0.449      40.9023   
3114.8     9.6666     3.2883     11.425     20.7494    22.301     15.6988    17.4276    13.521     0.438      40.659    
3115       9.2429     3.2284     11.4238    20.5674    21.65      14.9571    10.6545    12.5026    0.438      40.444    
3115.2     8.8221     3.1649     11.694     19.9985    20.8094    14.0097    7.8541     11.9879    0.438      40.4308   
3115.4     8.4414     3.0424     11.5979    19.2047    19.9214    13.0518    6.7467     11.9048    0.433      40.2812   
3115.6     8.1443     2.8744     10.9897    18.1661    18.8184    12.293     5.2212     12.1471    0.442      39.6627   
3115.8     7.9848     2.7053     10.1617    17.2682    17.8052    11.5897    5.1903     12.2509    0.444      41.0753   
3116       7.8511     2.5479     9.4892     16.8879    17.2281    10.9656    5.6461     12.166     0.455      42.1918   
3116.2     7.7367     2.6377     9.5474     17.04      16.9993    10.44      6.74       11.9785    0.456      40.3351   
3116.4     7.6477     2.6879     9.2543     17.0871    16.5077    10.1166    6.063      11.8897    0.456      40.1505   
3116.6     7.5478     2.5972     8.7441     16.6454    15.8713    9.6985     5.1444     11.8769    0.459      40.637    
3116.8     7.4442     2.5194     8.6058     16.3099    15.7624    9.233      5.2473     11.91      0.474      40.0185   
3117       7.373      2.6171     8.8845     15.8748    15.5959    8.8381     6.2726     11.6683    0.474      40.2449   
