~Version
 VERS              .         2.0                           : CWLS LOG ASCII STANDARD - VERSION 2.0
 WRAP              .         NO                            : ONE LINE PER DEPTH STEP
 DLM               .         SPACE                         : DELIMITING CHARACTER(SPACE TAB OR COMMA)
~Well Information
#_______________________________________________________________________________
#
#PARAMETER_NAME    .UNIT     VALUE                         : DESCRIPTION
#_______________________________________________________________________________
STRT               .m        2890                          : First reference value
STOP               .m        3079                          : Last reference value
STEP               .m        0.2                           : Step increment
NULL               .         -9999                         : Missing value
COMP               .                                       : Company
WELL               .         301                           : Well name
FLD                .                                       : Field
LOC                .                                       : Location
CNTY               .                                       : County
STAT               .                                       : State
CTRY               .                                       : Country
SRVC               .                                       : Service Company
DATE               .                                       : Date
API                .                                       : API number
EREF               .m        138.34                        : 
Pad                .         3                             : 
X                  .m        219750                        : 
Y                  .m        249950                        : 
group              .         Pad3                          : 
Интер-р            .         Пузин                         : 
Куст               .         3                             : 
Статус             .         Не проверено                  : 
Тип                .         Эксплуатация                  : 
~Parameter Information Block
#_______________________________________________________________________________
#
#PARAMETER_NAME    .UNIT     VALUE                         : DESCRIPTION
#_______________________________________________________________________________
SET                .         LAS3                          : 
REAL_CREATION_DATE .         Ср апр 11 2012-13_17_08       : 
TLFamily_DEPTH     .         Measured Depth                : 
TLFamily_GR        .         Gamma Ray                     : 
TLFamily_TNPH      .         Neutron Porosity              : 
group              .         INI                           : 
~Curve Information
#_______________________________________________________________________________
#
#LOGNAME           .UNIT     LOG_ID                        : DESCRIPTION
#_______________________________________________________________________________
DEPTH              .m                                      : Measured Depth 
GR                 .gAPI                                   :  
TNPH               .v/v                                    : Neutron Porosity 
~Ascii
# ...
2987.2     113.2      0.26      
2987.4     129.24     0.253     
2987.6     148.93     0.254     
2987.8     152.55     0.254     
2988       124.47     0.26      
2988.2     99.62      0.244     
2988.4     111.82     0.247     
2988.6     111.37     0.261     
2988.8     114.28     0.24      
2989       110.1      0.249     
2989.2     126.4      0.275     
2989.4     142.39     0.255     
2989.6     148.34     0.293     
2989.8     156.51     0.271     
2990       165.02     0.263     
2990.2     154.88     0.243     
2990.4     142.14     0.274     
2990.6     132.81     0.247     
2990.8     107.33     0.265     
2991       112.58     0.224     
2991.2     130.67     0.274     
2991.4     128.96     0.277     
2991.6     152.88     0.275     
2991.8     158.81     0.326     
2992       163.21     0.33      
2992.2     180.25     0.329     
2992.4     195.06     0.355     
2992.6     214.77     0.346     
2992.8     211.51     0.32      
2993       200.69     0.333     
2993.2     204.46     0.27      
2993.4     209.74     0.286     
2993.6     231.54     0.346     
2993.8     249.72     0.341     
2994       234        0.335     
2994.2     210.82     0.323     
2994.4     204.4      0.301     
2994.6     214.33     0.299     
2994.8     231.08     0.274     
2995       206.68     0.265     
2995.2     172.29     0.235     
2995.4     150.01     0.241     
2995.6     132.93     0.248     
2995.8     112.22     0.274     
2996       107.56     0.238     
2996.2     109.7      0.206     
2996.4     116.57     0.206     
2996.6     121.03     0.207     
2996.8     135.29     0.231     
2997       125.1      0.236     
2997.2     126.6      0.25      
2997.4     122.52     0.228     
2997.6     130.18     0.209     
2997.8     146.52     0.206     
2998       137.37     0.214     
2998.2     137.56     0.233     
2998.4     132.97     0.218     
2998.6     123.85     0.253     
2998.8     125.75     0.279     
2999       126.47     0.312     
2999.2     124.22     0.291     
2999.4     134.89     0.26      
2999.6     141.03     0.281     
2999.8     139.34     0.292     
3000       141.58     0.268     
3000.2     149.21     0.258     
3000.4     153.37     0.253     
3000.6     149.5      0.278     
3000.8     137.64     0.292     
3001       132.41     0.258     
3001.2     131.29     0.265     
3001.4     128.89     0.249     
3001.6     131.35     0.238     
3001.8     126.06     0.251     
3002       131.98     0.215     
3002.2     128.06     0.2       
3002.4     138.95     0.254     
3002.6     129.63     0.258     
3002.8     130.9      0.264     
3003       128.96     0.242     
3003.2     125.25     0.246     
3003.4     125.37     0.274     
3003.6     138.6      0.295     
3003.8     122.89     0.269     
3004       111.37     0.223     
3004.2     114.43     0.257     
3004.4     128.25     0.258     
3004.6     134.3      0.258     
3004.8     131.08     0.268     
3005       128.97     0.226     
3005.2     127.82     0.252     
3005.4     124.92     0.196     
3005.6     133.22     0.203     
3005.8     128.54     0.228     
3006       136.47     0.254     
3006.2     138.84     0.234     
3006.4     140.77     0.275     
3006.6     142.8      0.284     
3006.8     149.51     0.259     
3007       142.44     0.243     
3007.2     148.48     0.227     
3007.4     137.56     0.233     
3007.6     126.59     0.229     
3007.8     132.92     0.208     
3008       136.91     0.205     
3008.2     133.49     0.221     
3008.4     106.66     0.248     
3008.6     112.35     0.241     
3008.8     123.36     0.24      
3009       121.34     0.295     
3009.2     123.86     0.274     
3009.4     133.76     0.271     
3009.6     136.53     0.306     
3009.8     142.31     0.282     
3010       138.36     0.24      
3010.2     139.34     0.243     
3010.4     140.36     0.219     
3010.6     133.6      0.226     
3010.8     136.02     0.234     
3011       137.1      0.257     
3011.2     136.26     0.262     
3011.4     128.95     0.263     
3011.6     137        0.246     
3011.8     134.2      0.257     
3012       123.87     0.241     
3012.2     109.72     0.224     
3012.4     109.8      0.231     
3012.6     121.93     0.201     
3012.8     124.07     0.195     
3013       130.37     0.2       
3013.2     143.31     0.178     
3013.4     139.07     0.17      
3013.6     76.96      0.172     
3013.8     36.14      0.131     
3014       30.24      0.146     
3014.2     27.17      0.14      
3014.4     29.91      0.161     
3014.6     39.25      0.179     
3014.8     43.39      0.17      
3015       38.68      0.149     
3015.2     42.22      0.136     
3015.4     48.96      0.176     
3015.6     49.28      0.163     
3015.8     54.5       0.151     
3016       56.87      0.154     
3016.2     59.41      0.169     
3016.4     55.93      0.162     
3016.6     58.5       0.173     
3016.8     46.99      0.169     
3017       47.59      0.154     
3017.2     46.63      0.151     
3017.4     47.5       0.168     
3017.6     43.2       0.153     
3017.8     45.72      0.168     
3018       52.6       0.154     
3018.2     50.66      0.162     
3018.4     51.71      0.174     
3018.6     49.87      0.169     
3018.8     65.59      0.161     
3019       82.36      0.149     
3019.2     85.95      0.153     
3019.4     69.58      0.133     
3019.6     70.17      0.142     
3019.8     69.14      0.163     
3020       57.81      0.193     
3020.2     55.92      0.198     
3020.4     53.58      0.181     
3020.6     52.71      0.206     
3020.8     54.32      0.183     
3021       49.16      0.165     
3021.2     52.83      0.186     
3021.4     59.91      0.167     
3021.6     57.86      0.196     
3021.8     43.76      0.178     
3022       41.18      0.18      
3022.2     49.35      0.173     
3022.4     45.02      0.184     
3022.6     48.8       0.192     
3022.8     48.77      0.192     
3023       49.72      0.17      
3023.2     42.52      0.18      
3023.4     38.25      0.188     
3023.6     42.38      0.182     
3023.8     41.39      0.178     
3024       34.88      0.179     
3024.2     32.83      0.177     
3024.4     28.09      0.183     
3024.6     35.56      0.198     
3024.8     39.4       0.188     
3025       49.82      0.194     
3025.2     51.88      0.2       
3025.4     50.25      0.193     
3025.6     53.31      0.189     
3025.8     46.7       0.175     
3026       47.51      0.201     
3026.2     55.87      0.24      
3026.4     54.29      0.205     
3026.6     51         0.199     
3026.8     47.51      0.202     
3027       48.01      0.19      
3027.2     47.56      0.214     
3027.4     52.22      0.171     
3027.6     52.15      0.17      
3027.8     51.25      0.186     
3028       52.75      0.178     
3028.2     53.5       0.15      
3028.4     51.73      0.174     
3028.6     58.77      0.167     
3028.8     58.25      0.168     
3029       63.51      0.173     
3029.2     71.72      0.19      
3029.4     89.56001   0.198     
3029.6     100.31     0.173     
3029.8     110.34     0.183     
3030       103.48     0.19      
3030.2     113.74     0.226     
3030.4     113.59     0.221     
3030.6     103.09     0.187     
3030.8     88.04      0.189     
3031       86.08      0.171     
3031.2     57.11      0.166     
3031.4     48.65      0.155     
3031.6     43.51      0.129     
3031.8     43.24      0.138     
3032       42.61      0.144     
3032.2     48.17      0.143     
3032.4     49.3       0.123     
3032.6     48.42      0.134     
3032.8     51.46      0.163     
3033       52.38      0.158     
3033.2     51.99      0.16      
3033.4     60.12      0.174     
3033.6     64.5       0.218     
3033.8     67.5       0.225     
3034       55.91      0.247     
3034.2     61.58      0.248     
3034.4     75.76      0.32      
3034.6     105.91     0.384     
3034.8     113.04     0.379     
3035       122.53     0.262     
3035.2     127.29     0.263     
3035.4     125.74     0.259     
3035.6     123.07     0.214     
