~Version
 VERS              .         2.0                           : CWLS LOG ASCII STANDARD - VERSION 2.0
 WRAP              .         NO                            : ONE LINE PER DEPTH STEP
 DLM               .         SPACE                         : DELIMITING CHARACTER(SPACE TAB OR COMMA)
~Well Information
#_______________________________________________________________________________
#
#PARAMETER_NAME    .UNIT     VALUE                         : DESCRIPTION
#_______________________________________________________________________________
STRT               .m        2890                          : First reference value
STOP               .m        3079                          : Last reference value
STEP               .m        0.2                           : Step increment
NULL               .         -9999                         : Missing value
COMP               .                                       : Company
WELL               .         301                           : Well name
FLD                .                                       : Field
LOC                .                                       : Location
CNTY               .                                       : County
STAT               .                                       : State
CTRY               .                                       : Country
SRVC               .                                       : Service Company
DATE               .                                       : Date
API                .                                       : API number
EREF               .m        138.34                        : 
Pad                .         3                             : 
X                  .m        219750                        : 
Y                  .m        249950                        : 
group              .         Pad3                          : 
Интер-р            .         Пузин                         : 
Куст               .         3                             : 
Статус             .         Не проверено                  : 
Тип                .         Эксплуатация                  : 
~Parameter Information Block
#_______________________________________________________________________________
#
#PARAMETER_NAME    .UNIT     VALUE                         : DESCRIPTION
#_______________________________________________________________________________
SET                .         LAS1                          : 
REAL_CREATION_DATE .         Ср апр 11 2012-13_17_08       : 
TLFamily_DEPTH     .         Measured Depth                : 
TLFamily_KS        .         Potential Resistivity         : 
TLFamily_KS1       .         Extra Shallow Resistivity     : 
TLFamily_KS2       .         Shallow Resistivity           : 
TLFamily_KS3       .         Medium Resistivity            : 
TLFamily_KS4       .         Deep Resistivity              : 
TLFamily_KS5       .         Extra Deep Resistivity        : 
TLFamily_LLD       .         Lateral Log Resistivity       : 
TLFamily_OKS3      .         Medium Resistivity Inverted   : 
TLFamily_RM        .         Mud Resistivity               : 
group              .         INI                           : 
~Curve Information
#_______________________________________________________________________________
#
#LOGNAME           .UNIT     LOG_ID                        : DESCRIPTION
#_______________________________________________________________________________
DEPTH              .m                                      : Measured Depth 
KS                 .ohm.m                                  : Potential Resistivity 
KS1                .ohm.m                                  : Extra Shallow Resistivity 
KS2                .ohm.m                                  : Shallow Resistivity 
KS3                .ohm.m                                  : Medium Resistivity 
KS4                .ohm.m                                  : Deep Resistivity 
KS5                .ohm.m                                  : Extra Deep Resistivity 
LLD                .ohm.m                                  : Lateral Log Resistivity 
OKS3               .ohm.m                                  : Medium Resistivity Inverted 
RM                 .ohm.m                                  : Mud Resistivity 
~Ascii
# ...
2919.2     8.9475     2.1933     7.1353     9.8395     9.0804     6.0874     4.7364     10.2527    0.151     
2919.4     8.9293     2.1825     7.1358     9.8387     9.0277     6.0609     4.8787     10.2764    0.15      
2919.6     8.9313     2.1529     7.0166     9.7553     8.9008     6.0404     4.6342     10.2875    0.147     
2919.8     8.9513     2.1443     6.9922     9.6769     8.7999     6.0305     4.6957     10.3127    0.145     
2920       8.9899     2.1259     6.9181     9.6591     8.7569     6.0339     4.5767     10.3188    0.144     
2920.2     8.9899     2.1349     6.9333     9.6648     8.7154     6.022      4.5278     10.2931    0.142     
2920.4     8.9911     2.1798     7.0166     9.7025     8.6918     6.0191     4.6096     10.2523    0.141     
2920.6     9.011      2.1645     6.9714     9.6976     8.6606     6.0012     4.7069     10.1777    0.139     
2920.8     9.0143     2.1394     6.9475     9.6431     8.6201     5.9849     4.8859     10.1534    0.134     
2921       9.0283     2.1529     6.9518     9.6206     8.5746     5.9767     4.7231     10.1309    0.134     
2921.2     9.0101     2.1623     6.9924     9.6206     8.5867     5.9767     4.6805     10.0607    0.134     
2921.4     9.012      2.1529     6.9901     9.6298     8.6137     5.964      4.734      9.9508     0.134     
2921.6     9.0208     2.1529     6.9777     9.6206     8.6039     5.9776     4.6764     9.8899     0.134     
2921.8     9.0101     2.1663     7.0127     9.6269     8.6217     5.9909     4.7916     9.8397     0.134     
2922       9.0101     2.1529     6.9907     9.6377     8.66       6.0026     4.7555     9.7989     0.137     
2922.2     8.9899     2.1426     6.9773     9.6618     8.6846     6.0086     4.6977     9.7413     0.137     
2922.4     8.9701     2.1798     7.0556     9.7009     8.7228     6.0373     4.6979     9.7288     0.139     
2922.6     8.9643     2.1789     7.0498     9.7232     8.7569     6.0592     4.6973     9.6925     0.141     
2922.8     8.9471     2.1529     6.9792     9.7232     8.7846     6.0844     4.7582     9.611      0.141     
2923       8.8944     2.1798     7.0558     9.745      8.8213     6.1162     4.7018     9.545      0.141     
2923.2     8.8267     2.2067     7.1447     9.8331     8.9053     6.1464     4.733      9.4454     0.141     
2923.4     8.7356     2.2127     7.1699     9.909      8.9746     6.1704     4.794      9.3548     0.141     
2923.6     8.657      2.2289     7.2372     9.8922     8.9701     6.1906     4.8474     9.308      0.143     
2923.8     8.5847     2.1627     7.0587     9.8116     8.9135     6.207      4.78       9.3068     0.141     
2924       8.5458     2.1223     6.9362     9.6432     8.8438     6.21       4.6446     9.3315     0.141     
2924.2     8.5269     2.1122     6.8879     9.582      8.8193     6.2228     4.3973     9.3435     0.144     
2924.4     8.5056     2.1394     6.9025     9.5564     8.8238     6.2472     4.2517     9.3467     0.146     
2924.6     8.5253     2.1017     6.7744     9.4842     8.8221     6.2849     4.2923     9.3435     0.145     
2924.8     8.5233     2.095      6.731      9.4538     8.8335     6.3315     4.3949     9.3374     0.145     
2925       8.5034     2.1394     6.835      9.5073     8.8794     6.4136     4.3155     9.3256     0.144     
2925.2     8.4834     2.1529     6.8973     9.5436     8.9466     6.5042     4.3325     9.3519     0.143     
2925.4     8.4377     2.1493     6.8648     9.5995     9.0628     6.5438     4.5302     9.4776     0.144     
2925.6     8.3828     2.2067     7.0945     9.6078     9.0848     6.5655     4.5715     9.5617     0.144     
2925.8     8.3443     2.1798     7.0116     9.5588     8.9957     6.5467     4.4063     9.5745     0.147     
2926       8.3265     2.1535     6.932      9.3524     8.7723     6.4898     4.6087     9.6085     0.15      
2926.2     8.2864     2.1179     6.8076     9.2262     8.6002     6.3932     4.5899     9.8861     0.15      
2926.4     8.2274     2.1398     6.8896     9.1613     8.4608     6.305      4.3399     10.1401    0.145     
2926.6     8.2002     2.1529     6.8993     9.1662     8.3547     6.2166     4.1663     10.2786    0.144     
2926.8     8.1519     2.1594     6.835      9.0726     8.1712     6.1225     4.3284     10.4552    0.143     
2927       8.0961     2.1482     6.7999     8.9512     7.9763     6.0124     4.4298     10.8143    0.141     
2927.2     8.0808     2.0833     6.6091     8.7794     7.74       5.9026     4.3567     11.2252    0.139     
2927.4     8.1035     2.0315     6.4595     8.5567     7.4917     5.792      4.1269     11.6613    0.137     
2927.6     8.202      2.0055     6.3373     8.3567     7.2678     5.7048     3.8472     12.1018    0.134     
2927.8     8.3571     1.9663     6.189      8.1989     7.0958     5.6332     3.8525     12.4846    0.132     
2928       8.5471     1.9373     6.0438     8.0658     6.986      5.5615     3.8989     12.8383    0.132     
2928.2     8.785      1.9596     6.0689     7.9652     6.8752     5.5359     3.9339     13.0917    0.134     
2928.4     9.071      1.9496     5.9755     7.8808     6.8163     5.5359     4.1612     13.2205    0.134     
2928.6     9.3533     1.9362     6.0109     7.9202     6.8477     5.5532     4.4808     13.5118    0.136     
2928.8     9.5635     2.0364     6.3064     8.1246     7.0228     5.5789     4.7507     13.9099    0.141     
2929       9.8136     2.072      6.4942     8.2925     7.1442     5.6477     5.015      14.2455    0.141     
2929.2     10.0604    2.0589     6.5875     8.4284     7.2727     5.6998     5.1491     14.4109    0.141     
2929.4     10.2585    2.1344     6.865      8.6785     7.4381     5.7284     5.3818     14.2727    0.141     
2929.6     10.4172    2.2279     7.1393     9.0481     7.6462     5.7433     5.4505     13.9815    0.143     
2929.8     10.4868    2.2833     7.3695     9.3932     7.8422     5.7471     6.244      13.7337    0.144     
2930       10.5344    2.3205     7.581      9.6789     7.9936     5.7231     6.5419     13.57      0.144     
2930.2     10.5538    2.2823     7.5615     9.9192     8.0494     5.6934     6.5047     13.4715    0.142     
2930.4     10.6382    2.3036     7.6717     9.9857     7.9936     5.6814     6.1907     13.4871    0.144     
2930.6     10.7611    2.1639     7.3468     10.0009    7.9818     5.6941     5.7871     13.9376    0.144     
2930.8     10.9142    2.1124     7.284      10.1064    8.1674     5.715      5.3346     14.4623    0.147     
2931       11.1211    2.2163     7.5576     10.432     8.435      5.816      5.053      14.8078    0.149     
2931.2     11.3602    2.1933     7.5096     10.989     8.8237     5.918      4.9852     14.2849    0.145     
2931.4     11.4038    2.4388     8.1273     11.624     9.2545     5.9703     6.1482     13.905     0.146     
2931.6     11.3197    2.5777     8.4052     12.2667    9.6904     5.9878     7.0736     13.6259    0.144     
2931.8     11.2525    2.5524     8.3391     12.2383    9.7127     6.0256     9.061      13.5872    0.141     
2932       11.2434    2.3803     8.1067     11.9817    9.707      6.0229     7.5165     13.5512    0.137     
2932.2     11.2167    2.3665     8.1301     11.7236    9.7811     6.0643     6.7315     13.7291    0.136     
2932.4     11.2364    2.2476     7.867      11.8319    10.1651    6.1508     5.565      13.8277    0.135     
2932.6     11.2895    2.301      8.0336     11.8345    10.5147    6.3344     5.672      13.5569    0.131     
2932.8     11.3108    2.2791     7.893      12.0191    10.9119    6.563      6.1399     13.3517    0.13      
2933       11.3333    2.3006     7.9105     12.1293    11.2753    6.8195     6.532      13.3015    0.134     
2933.2     11.3149    2.2685     7.909      12.4782    11.7968    7.0977     6.6475     13.2161    0.137     
2933.4     11.4142    2.3071     8.0836     12.7868    12.3258    7.3916     6.1851     13.0541    0.138     
2933.6     11.4949    2.2828     7.96       12.9719    12.8108    7.6927     5.7249     13.1548    0.138     
