~Version
 VERS              .         2.0                           : CWLS LOG ASCII STANDARD - VERSION 2.0
 WRAP              .         NO                            : ONE LINE PER DEPTH STEP
 DLM               .         SPACE                         : DELIMITING CHARACTER(SPACE TAB OR COMMA)
~Well Information
#_______________________________________________________________________________
#
#PARAMETER_NAME    .UNIT     VALUE                         : DESCRIPTION
#_______________________________________________________________________________
STRT               .m        2890                          : First reference value
STOP               .m        3079                          : Last reference value
STEP               .m        0.2                           : Step increment
NULL               .         -9999                         : Missing value
COMP               .                                       : Company
WELL               .         301                           : Well name
FLD                .                                       : Field
LOC                .                                       : Location
CNTY               .                                       : County
STAT               .                                       : State
CTRY               .                                       : Country
SRVC               .                                       : Service Company
DATE               .                                       : Date
API                .                                       : API number
EREF               .m        138.34                        : 
Pad                .         3                             : 
X                  .m        219750                        : 
Y                  .m        249950                        : 
group              .         Pad3                          : 
Интер-р            .         Пузин                         : 
Куст               .         3                             : 
Статус             .         Не проверено                  : 
Тип                .         Эксплуатация                  : 
~Parameter Information Block
#_______________________________________________________________________________
#
#PARAMETER_NAME    .UNIT     VALUE                         : DESCRIPTION
#_______________________________________________________________________________
SET                .         LAS1                          : 
REAL_CREATION_DATE .         Ср апр 11 2012-13_17_08       : 
TLFamily_DEPTH     .         Measured Depth                : 
TLFamily_KS        .         Potential Resistivity         : 
TLFamily_KS1       .         Extra Shallow Resistivity     : 
TLFamily_KS2       .         Shallow Resistivity           : 
TLFamily_KS3       .         Medium Resistivity            : 
TLFamily_KS4       .         Deep Resistivity              : 
TLFamily_KS5       .         Extra Deep Resistivity        : 
TLFamily_LLD       .         Lateral Log Resistivity       : 
TLFamily_OKS3      .         Medium Resistivity Inverted   : 
TLFamily_RM        .         Mud Resistivity               : 
group              .         INI                           : 
~Curve Information
#_______________________________________________________________________________
#
#LOGNAME           .UNIT     LOG_ID                        : DESCRIPTION
#_______________________________________________________________________________
DEPTH              .m                                      : Measured Depth 
KS                 .ohm.m                                  : Potential Resistivity 
KS1                .ohm.m                                  : Extra Shallow Resistivity 
KS2                .ohm.m                                  : Shallow Resistivity 
KS3                .ohm.m                                  : Medium Resistivity 
KS4                .ohm.m                                  : Deep Resistivity 
KS5                .ohm.m                                  : Extra Deep Resistivity 
LLD                .ohm.m                                  : Lateral Log Resistivity 
OKS3               .ohm.m                                  : Medium Resistivity Inverted 
RM                 .ohm.m                                  : Mud Resistivity 
~Ascii
# ...
2963       9.9305     2.443      8.4638     12.0289    9.7039     6.9773     5.0036     11.0907    0.144     
2963.2     9.8664     2.3316     8.0264     11.8301    9.4016     6.7697     4.8548     11.2179    0.144     
2963.4     9.8182     2.2741     7.8455     11.6736    9.2369     6.6013     4.4589     11.351     0.144     
2963.6     9.8182     2.2821     7.7571     11.6691    9.19       6.4762     4.3369     11.4953    0.145     
2963.8     9.7936     2.2826     7.7027     11.7796    9.2974     6.4328     4.8546     11.5922    0.147     
2964       9.799      2.347      7.8381     11.8438    9.46       6.3515     4.8419     11.7064    0.149     
2964.2     9.819      2.3156     7.6965     11.7252    9.5542     6.2702     5.1218     11.7302    0.15      
2964.4     9.8559     2.3018     7.5962     11.5053    9.6339     6.1864     4.8213     11.8824    0.144     
2964.6     9.8606     2.301      7.6083     11.3195    9.7848     6.0797     5.0481     11.9564    0.141     
2964.8     9.8913     2.301      7.6517     11.1646    9.9091     5.984      5.0342     12.1396    0.141     
2965       9.8972     2.301      7.6263     11.0353    10.0244    5.8993     5.1037     12.2986    0.136     
2965.2     9.885      2.3125     7.6926     10.924     10.0666    5.8259     5.0784     12.3377    0.132     
2965.4     9.8506     2.306      7.6447     10.9087    10.1957    5.7073     5.053      12.3102    0.132     
2965.6     9.7904     2.3852     7.8916     10.8657    10.1657    5.5737     5.4315     12.2694    0.134     
2965.8     9.7172     2.3504     7.7323     10.7833    10.0219    5.4253     5.464      12.425     0.136     
2966       9.68       2.2861     7.5321     10.4899    9.6704     5.2933     4.9081     12.6756    0.14      
2966.2     9.6758     2.2217     7.3961     10.2673    9.3941     5.1581     4.5377     13.0402    0.141     
2966.4     9.7729     2.1482     7.142      9.9931     9.0678     5.0822     4.4628     13.5672    0.141     
2966.6     9.9234     2.0855     6.923      9.7755     8.8419     5.0906     4.5208     14.1651    0.144     
2966.8     10.1621    2.0645     6.8624     9.7068     8.7985     5.1576     4.4534     14.7649    0.144     
2967       10.3827    2.0425     6.7029     9.866      8.9563     5.3032     4.9201     15.4584    0.143     
2967.2     10.5716    2.1944     7.1436     10.1817    9.2598     5.5032     5.086      16.1749    0.144     
2967.4     10.7955    2.2272     7.2792     10.5121    9.5751     5.7411     6.0886     16.7449    0.141     
2967.6     11.0326    2.2447     7.3435     10.6534    9.8278     6.0007     5.9051     17.5211    0.141     
2967.8     11.2821    2.2234     7.3832     10.7665    10.1525    6.2918     5.7831     18.4018    0.143     
2968       11.4585    2.2871     7.6726     11.1064    10.6935    6.5399     5.9046     19.1915    0.144     
2968.2     11.6668    2.4136     8.1911     11.5198    11.2232    6.7192     6.2616     19.4592    0.147     
2968.4     11.8671    2.4357     8.2749     11.699     11.3155    6.8484     7.3622     19.4584    0.147     
2968.6     12.0463    2.4173     8.1973     11.6189    11.1484    6.9193     7.4571     19.4982    0.151     
2968.8     12.1719    2.4088     8.223      11.5886    11.0418    6.9487     6.4309     19.7278    0.151     
2969       12.4102    2.3683     8.2408     11.5532    10.9099    7.0127     6.383      20.2958    0.148     
2969.2     12.649     2.2851     8.0251     11.4903    10.7805    7.1487     6.4324     21.023     0.144     
2969.4     12.9714    2.2751     8.074      11.5928    10.7854    7.2994     5.7576     21.5552    0.142     
2969.6     13.3865    2.274      8.0499     11.8365    10.9212    7.4775     6.4007     21.8169    0.141     
2969.8     13.8464    2.2751     8.0626     12.006     10.9341    7.6832     7.223      22.0234    0.137     
2970       14.2709    2.2876     8.0765     12.3218    11.0464    7.903      7.8391     22.1581    0.134     
2970.2     14.7241    2.3549     8.3022     12.8158    11.287     8.1363     7.9811     22.0448    0.134     
2970.4     15.0795    2.3953     8.5473     13.5315    11.734     8.3731     9.0896     21.6099    0.134     
2970.6     15.2919    2.612      9.3477     14.3369    12.2862    8.6051     10.3194    21.0988    0.138     
2970.8     15.4235    2.7096     9.7485     15.1593    12.9249    8.8142     13.8288    20.7173    0.141     
2971       15.4093    2.7344     9.9992     15.6937    13.5165    8.9675     11.2014    20.716     0.141     
2971.2     15.3717    2.7856     10.3836    16.2162    14.05      9.0583     10.0153    20.7942    0.144     
2971.4     15.3335    2.7859     10.5665    16.665     14.5527    9.1103     10.2205    20.8427    0.147     
2971.6     15.2929    2.761      10.6005    17.0789    14.9723    9.115      9.5111     20.788     0.145     
2971.8     15.2785    2.7252     10.5042    17.3513    15.3326    9.0713     9.2994     20.9362    0.144     
2972       15.2851    2.732      10.452     17.5914    15.6801    9.0621     8.809      21.3282    0.144     
2972.2     15.3069    2.657      10.2396    17.7896    16.159     9.0596     8.5594     21.6288    0.144     
2972.4     15.4229    2.6451     10.1783    17.9752    16.6261    9.0748     8.1867     21.7566    0.145     
2972.6     15.53      2.6291     10.0902    18.105     17.0152    9.1079     9.0943     21.7549    0.147     
2972.8     15.6439    2.6647     10.1039    18.2466    17.3622    9.1658     9.3762     21.7775    0.149     
2973       15.7218    2.6782     10.1499    18.3321    17.796     9.2269     9.6193     21.6886    0.151     
2973.2     15.8391    2.6782     10.1288    18.3328    18.1589    9.3127     9.7529     21.7369    0.151     
2973.4     15.8988    2.6623     10.1574    18.3664    18.6051    9.4183     9.7409     21.775     0.149     
2973.6     15.9899    2.6916     10.315     18.5341    19.2366    9.5551     9.5371     21.7168    0.144     
2973.8     16.0559    2.7097     10.4034    18.7349    19.9364    9.6987     10.4746    21.676     0.141     
2974       16.0993    2.7329     10.4837    18.9403    20.6071    9.8439     10.3117    21.6653    0.138     
2974.2     16.1095    2.7859     10.7167    19.2309    21.3699    9.9861     10.3254    21.5451    0.135     
2974.4     16.1453    2.7822     10.7655    19.4664    21.9547    10.1012    11.0427    21.4346    0.134     
2974.6     16.1414    2.7478     10.6686    19.6163    22.3369    10.222     10.6378    21.5779    0.134     
2974.8     16.1208    2.7864     10.8291    19.8151    22.695     10.3465    9.991      21.7522    0.134     
2975       16.0957    2.801      10.9306    20.1199    23.1119    10.4667    10.62      21.8041    0.139     
2975.2     16.0654    2.7896     10.9319    20.2644    23.338     10.5864    10.808     21.7784    0.141     
2975.4     16.0182    2.8295     11.0124    20.3684    23.4577    10.7025    10.5168    21.8041    0.142     
2975.6     15.9477    2.8263     10.999     20.4443    23.4975    10.7923    10.7775    21.6948    0.145     
2975.8     15.9101    2.8129     10.9672    20.3837    23.3828    10.8867    10.434     21.6449    0.145     
2976       15.8475    2.7724     10.8303    20.2544    23.2235    10.9742    9.9818     21.653     0.144     
2976.2     15.7727    2.8107     10.9263    20.2527    23.1621    11.0705    9.8336     21.8506    0.144     
2976.4     15.7152    2.8114     10.937     20.2089    23.161     11.1882    10.4081    22.0867    0.144     
2976.6     15.6996    2.7595     10.7417    19.9804    22.9576    11.3256    9.9966     22.6223    0.144     
2976.8     15.759     2.696      10.52      19.5305    22.5818    11.4847    9.1333     23.3934    0.147     
2977       15.8898    2.6137     10.2172    19.2124    22.3462    11.5887    8.8019     24.2903    0.147     
2977.2     16.0002    2.6144     10.2179    19.2023    22.5014    11.7177    8.8875     24.9571    0.15      
2977.4     16.1437    2.6782     10.4002    19.4455    22.81      11.8671    10.4877    25.3837    0.149     
