~Version
 VERS              .         2.0                           : CWLS LOG ASCII STANDARD - VERSION 2.0
 WRAP              .         NO                            : ONE LINE PER DEPTH STEP
 DLM               .         SPACE                         : DELIMITING CHARACTER(SPACE TAB OR COMMA)
~Well Information
#_______________________________________________________________________________
#
#PARAMETER_NAME    .UNIT     VALUE                         : DESCRIPTION
#_______________________________________________________________________________
STRT               .m        2890                          : First reference value
STOP               .m        3079                          : Last reference value
STEP               .m        0.2                           : Step increment
NULL               .         -9999                         : Missing value
COMP               .                                       : Company
WELL               .         301                           : Well name
FLD                .                                       : Field
LOC                .                                       : Location
CNTY               .                                       : County
STAT               .                                       : State
CTRY               .                                       : Country
SRVC               .                                       : Service Company
DATE               .                                       : Date
API                .                                       : API number
EREF               .m        138.34                        : 
Pad                .         3                             : 
X                  .m        219750                        : 
Y                  .m        249950                        : 
group              .         Pad3                          : 
Интер-р            .         Пузин                         : 
Куст               .         3                             : 
Статус             .         Не проверено                  : 
Тип                .         Эксплуатация                  : 
~Parameter Information Block
#_______________________________________________________________________________
#
#PARAMETER_NAME    .UNIT     VALUE                         : DESCRIPTION
#_______________________________________________________________________________
SET                .         LAS1                          : 
REAL_CREATION_DATE .         Ср апр 11 2012-13_17_08       : 
TLFamily_DEPTH     .         Measured Depth                : 
TLFamily_KS        .         Potential Resistivity         : 
TLFamily_KS1       .         Extra Shallow Resistivity     : 
TLFamily_KS2       .         Shallow Resistivity           : 
TLFamily_KS3       .         Medium Resistivity            : 
TLFamily_KS4       .         Deep Resistivity              : 
TLFamily_KS5       .         Extra Deep Resistivity        : 
TLFamily_LLD       .         Lateral Log Resistivity       : 
TLFamily_OKS3      .         Medium Resistivity Inverted   : 
TLFamily_RM        .         Mud Resistivity               : 
group              .         INI                           : 
~Curve Information
#_______________________________________________________________________________
#
#LOGNAME           .UNIT     LOG_ID                        : DESCRIPTION
#_______________________________________________________________________________
DEPTH              .m                                      : Measured Depth 
KS                 .ohm.m                                  : Potential Resistivity 
KS1                .ohm.m                                  : Extra Shallow Resistivity 
KS2                .ohm.m                                  : Shallow Resistivity 
KS3                .ohm.m                                  : Medium Resistivity 
KS4                .ohm.m                                  : Deep Resistivity 
KS5                .ohm.m                                  : Extra Deep Resistivity 
LLD                .ohm.m                                  : Lateral Log Resistivity 
OKS3               .ohm.m                                  : Medium Resistivity Inverted 
RM                 .ohm.m                                  : Mud Resistivity 
~Ascii
2890.0     -9999      -9999      0.0508     -9999      -9999      -9999      -9999      0.027      0.11      
2890.2     -9999      -9999      0.0508     -9999      -9999      -9999      -9999      0.027      0.114     
2890.4     -9999      -9999      0.0466     -9999      -9999      -9999      -9999      0.027      0.115     
2890.6     -9999      -9999      0.0613     -9999      -9999      -9999      -9999      0.0062     0.108     
2890.8     -9999      -9999      0.0641     -9999      -9999      -9999      -9999      0.1486     0.118     
2891       -9999      -9999      0.017      -9999      -9999      -9999      -9999      5.4945     0.118     
2891.2     -9999      -9999      0.0829     -9999      -9999      -9999      -9999      13.9998    0.126     
2891.4     -9999      -9999      0.0508     -9999      -9999      -9999      -9999      21.0074    0.133     
2891.6     -9999      -9999      0.0508     -9999      -9999      -9999      -9999      20.4149    0.134     
2891.8     -9999      0.5408     0.0508     -9999      -9999      -9999      -9999      17.9556    0.134     
2892       -9999      1.0271     0.0508     -9999      -9999      -9999      -9999      16.1013    0.136     
2892.2     -9999      1.3176     0.1269     -9999      -9999      -9999      -9999      14.9161    0.137     
2892.4     -9999      1.5364     1.8825     -9999      -9999      -9999      -9999      14.1801    0.137     
2892.6     -9999      1.7968     3.5497     -9999      -9999      -9999      -9999      13.5896    0.136     
2892.8     7.7058     2.0053     4.5746     -9999      -9999      -9999      -9999      13.174     0.135     
2893       7.9192     2.0586     5.2027     -9999      -9999      -9999      -9999      12.89      0.134     
2893.2     8.121      2.013      5.581      -9999      -9999      -9999      -9999      12.9059    0.135     
2893.4     8.3729     1.9373     5.7004     0.0123     -9999      -9999      -9999      13.0417    0.137     
2893.6     8.58       1.9508     5.8207     2.1013     -9999      -9999      -9999      13.1153    0.137     
2893.8     8.8895     1.9641     5.9913     3.8696     -9999      -9999      -9999      12.9766    0.137     
2894       9.1749     2.0161     6.1248     5.0729     -9999      -9999      -9999      12.7023    0.137     
2894.2     9.4298     2.0906     6.3809     6.0054     -9999      0.3767     -9999      12.4267    0.137     
2894.4     9.6023     2.1741     6.5747     6.8027     -9999      0.3767     -9999      12.1456    0.137     
2894.6     9.7479     2.213      6.8123     7.551      -9999      0.3767     -9999      11.9016    0.137     
2894.8     9.7778     2.2843     7.0664     8.1645     -9999      0.3871     -9999      11.7601    0.137     
2895       9.7778     2.3116     7.3967     8.7391     -9999      0.3896     -9999      11.6446    0.137     
2895.2     9.7972     2.327      7.551      9.1008     -9999      0.3896     -9999      11.4092    0.137     
2895.4     9.7994     2.3145     7.5534     9.3896     -9999      0.3855     5.5109     11.166     0.137     
2895.6     9.78       2.301      7.5772     9.5171     1.8057     0.386      5.3412     10.9883    0.137     
2895.8     9.744      2.2907     7.5623     9.8085     3.4162     0.3859     5.0673     10.9062    0.138     
2896       9.7153     2.301      7.6128     10.0931    4.5491     0.3896     5.1563     10.8163    0.14      
2896.2     9.6768     2.2944     7.6281     10.3503    5.4515     0.3896     5.0906     10.7103    0.141     
2896.4     9.6693     2.269      7.5674     10.4912    6.1927     0.3896     5.0415     10.6438    0.143     
2896.6     9.6284     2.2646     7.5696     10.6535    6.8577     0.3861     5.0216     10.5831    0.144     
2896.8     9.5546     2.2901     7.6132     10.7936    7.4386     0.3896     5.0388     10.4655    0.144     
2897       9.5333     2.301      7.6344     10.8513    7.9172     0.3896     4.976      10.2421    0.144     
2897.2     9.4961     2.2876     7.5757     10.8394    8.1886     0.3859     4.976      10.0433    0.144     
2897.4     9.4028     2.2876     7.5615     10.8137    8.4312     0.3835     5.1094     9.9529     0.144     
2897.6     9.3168     2.2876     7.5475     10.794     8.6126     0.3796     5.2998     9.9004     0.147     
2897.8     9.2531     2.2529     7.4852     10.7125    8.8494     0.3875     5.1136     9.8955     0.147     
2898       9.2037     2.2279     7.4217     10.6214    9.0273     0.3869     4.9412     9.9883     0.15      
2898.2     9.1668     2.2202     7.3531     10.5523    9.2167     0.3871     4.8617     10.1242    0.149     
2898.4     9.1465     2.2046     7.3075     10.5058    9.3794     0.3896     4.7497     10.2449    0.148     
2898.6     9.1303     2.1865     7.2447     10.5034    9.5482     0.3843     4.7214     10.2679    0.147     
2898.8     9.1104     2.2345     7.3244     10.5182    9.6398     0.385      4.6294     10.2199    0.145     
2899       9.086      2.2471     7.3041     10.4817    9.6556     0.3767     4.652      10.1198    0.144     
2899.2     8.9781     2.2606     7.2997     10.4702    9.6811     0.3767     4.6925     10.0796    0.144     
2899.4     8.8611     2.301      7.4317     10.4497    9.6947     0.3767     5.0449     10.1073    0.144     
2899.6     8.7558     2.2791     7.3959     10.3205    9.5765     0.4037     5.0054     10.2535    0.144     
2899.8     8.7071     2.1813     7.1581     10.0529    9.3637     1.1529     4.999      10.55      0.145     
2900       8.7349     2.1168     6.9616     9.7208     9.1416     2.1254     4.7719     10.8322    0.147     
2900.2     8.8161     2.0697     6.7869     9.4969     8.9816     2.8219     4.4928     10.9604    0.147     
2900.4     8.9336     2.0727     6.7169     9.3897     8.9184     3.3544     4.0925     10.9241    0.15      
2900.6     9.0301     2.0985     6.7097     9.4169     8.9002     3.8131     4.0094     10.8538    0.151     
2900.8     9.0857     2.1643     6.8029     9.4774     8.9007     4.2403     4.2712     10.7744    0.151     
2901       9.1249     2.1838     6.876      9.5534     8.9247     4.603      4.6268     10.6997    0.152     
2901.2     9.1954     2.1798     6.9388     9.5096     8.88       4.9342     4.8694     10.6781    0.152     
2901.4     9.2413     2.1529     6.9309     9.4527     8.8172     5.1732     4.9721     10.7089    0.151     
2901.6     9.2796     2.1704     7.0219     9.4396     8.7774     5.3588     5.0439     10.7132    0.148     
2901.8     9.3369     2.1959     7.1154     9.5223     8.8277     5.4778     4.8219     10.6888    0.145     
2902       9.3535     2.2213     7.1853     9.5888     8.8315     5.6209     4.7539     10.693     0.144     
2902.2     9.3509     2.2202     7.1931     9.7131     8.8241     5.7555     4.8798     10.7416    0.144     
2902.4     9.2951     2.2449     7.2967     9.8875     8.8915     5.8633     5.2245     10.8013    0.144     
2902.6     9.2365     2.2707     7.396      10.0637    8.9531     5.9471     5.3554     10.8488    0.141     
2902.8     9.1588     2.2924     7.4836     10.1428    8.9533     6.0365     5.0175     10.9289    0.139     
2903       9.0998     2.2404     7.3603     10.1585    8.9424     6.0674     5.2554     10.985     0.137     
2903.2     9.024      2.2202     7.3053     10.1157    8.8787     6.0734     5.2787     11.0548    0.137     
2903.4     8.9899     2.2305     7.2993     10.0324    8.7618     6.0674     5.0473     11.1251    0.135     
2903.6     9.0197     2.1367     7.0168     9.8825     8.6122     6.0544     4.7752     11.3772    0.134     
2903.8     9.135      2.052      6.7864     9.5907     8.3748     6.0459     4.8377     11.5246    0.133     
2904       9.2555     1.9778     6.5289     9.4689     8.3249     6.0456     4.6448     11.6764    0.132     
2904.2     9.4086     2.0563     6.7235     9.4817     8.423      6.0415     4.3805     11.5828    0.134     
2904.4     9.5416     2.0914     6.7718     9.5725     8.5475     6.0677     4.1576     11.4636    0.134     
