~Version
 VERS              .         2.0                           : CWLS LOG ASCII STANDARD - VERSION 2.0
 WRAP              .         NO                            : ONE LINE PER DEPTH STEP
 DLM               .         SPACE                         : DELIMITING CHARACTER(SPACE TAB OR COMMA)
~Well Information
#_______________________________________________________________________________
#
#PARAMETER_NAME    .UNIT     VALUE                         : DESCRIPTION
#_______________________________________________________________________________
STRT               .m        2890                          : First reference value
STOP               .m        3079                          : Last reference value
STEP               .m        0.2                           : Step increment
NULL               .         -9999                         : Missing value
COMP               .                                       : Company
WELL               .         301                           : Well name
FLD                .                                       : Field
LOC                .                                       : Location
CNTY               .                                       : County
STAT               .                                       : State
CTRY               .                                       : Country
SRVC               .                                       : Service Company
DATE               .                                       : Date
API                .                                       : API number
EREF               .m        138.34                        : 
Pad                .         3                             : 
X                  .m        219750                        : 
Y                  .m        249950                        : 
group              .         Pad3                          : 
Интер-р            .         Пузин                         : 
Куст               .         3                             : 
Статус             .         Не проверено                  : 
Тип                .         Эксплуатация                  : 
~Parameter Information Block
#_______________________________________________________________________________
#
#PARAMETER_NAME    .UNIT     VALUE                         : DESCRIPTION
#_______________________________________________________________________________
SET                .         LAS3                          : 
REAL_CREATION_DATE .         Ср апр 11 2012-13_17_08       : 
TLFamily_DEPTH     .         Measured Depth                : 
TLFamily_GR        .         Gamma Ray                     : 
TLFamily_TNPH      .         Neutron Porosity              : 
group              .         INI                           : 
~Curve Information
#_______________________________________________________________________________
#
#LOGNAME           .UNIT     LOG_ID                        : DESCRIPTION
#_______________________________________________________________________________
DEPTH              .m                                      : Measured Depth 
GR                 .gAPI                                   :  
TNPH               .v/v                                    : Neutron Porosity 
~Ascii
# ...
3035.8     115.97     0.261     
3036       99.22      0.252     
3036.2     82.05      0.189     
3036.4     76.51      0.215     
3036.6     84.95      0.213     
3036.8     89.12      0.216     
3037       81.86      0.222     
3037.2     80.41      0.251     
3037.4     87.28      0.272     
3037.6     90.53001   0.271     
3037.8     99.2       0.25      
3038       93.52      0.261     
3038.2     108        0.232     
3038.4     121.43     0.258     
3038.6     117.8      0.233     
3038.8     105.14     0.244     
3039       102.05     0.284     
3039.2     87.01      0.258     
3039.4     69.83      0.238     
3039.6     63.98      0.198     
3039.8     60.16      0.202     
3040       66.02      0.197     
3040.2     63.00999   0.205     
3040.4     67.69      0.202     
3040.6     61.95      0.2       
3040.8     69.43      0.18      
3041       78.83      0.197     
3041.2     85.31      0.21      
3041.4     91.26      0.17      
3041.6     87.17      0.191     
3041.8     96.96999   0.228     
3042       110.2      0.244     
3042.2     106.31     0.243     
3042.4     106.73     0.226     
3042.6     111.83     0.228     
3042.8     121.13     0.226     
3043       127.03     0.231     
3043.2     124.58     0.201     
3043.4     116.82     0.206     
3043.6     119.17     0.192     
3043.8     109.42     0.231     
3044       110.41     0.218     
3044.2     112.36     0.217     
3044.4     106.75     0.209     
3044.6     111.17     0.233     
3044.8     102.08     0.234     
3045       70.17999   0.202     
3045.2     34.85      0.215     
3045.4     18.32      0.231     
3045.6     12.68      0.309     
3045.8     16.92      0.327     
3046       16.15      0.344     
3046.2     24.5       0.307     
3046.4     33.63      0.394     
3046.6     48.39      0.342     
3046.8     67.04001   0.333     
3047       68.35      0.291     
3047.2     78.04      0.294     
3047.4     80.98      0.3       
3047.6     78.62      0.227     
3047.8     85.82      0.193     
3048       72.99      0.216     
3048.2     60.01      0.209     
3048.4     63.14999   0.211     
3048.6     73.14999   0.201     
3048.8     78.13      0.221     
3049       82.38      0.271     
3049.2     89.72      0.231     
3049.4     92.74001   0.271     
3049.6     86.12      0.288     
3049.8     92.75      0.241     
3050       101.33     0.187     
3050.2     104        0.204     
3050.4     97.75      0.235     
3050.6     105.43     0.214     
3050.8     110.85     0.171     
3051       89.63      0.175     
3051.2     88.62      0.211     
3051.4     81.06      0.204     
3051.6     80.79001   0.178     
3051.8     57.54      0.21      
3052       52.34      0.233     
3052.2     61.6       0.24      
3052.4     56.87      0.22      
3052.6     59.9       0.207     
3052.8     48.77      0.201     
3053       57.68      0.197     
3053.2     56.75      0.197     
3053.4     58.9       0.199     
3053.6     63.41      0.195     
3053.8     68.21999   0.19      
3054       83.23      0.209     
3054.2     86.96      0.202     
3054.4     103.76     0.216     
3054.6     108.43     0.219     
3054.8     104.32     0.199     
3055       97.46001   0.184     
3055.2     90.05      0.222     
3055.4     89.82001   0.235     
3055.6     92.61      0.237     
3055.8     93.89      0.197     
3056       98.62      0.185     
3056.2     81.4       0.219     
3056.4     73.32      0.188     
3056.6     64.44      0.192     
3056.8     73.69      0.164     
3057       83.64999   0.147     
3057.2     90.53001   0.178     
3057.4     96.89999   0.182     
3057.6     87.58      0.233     
3057.8     65.67001   0.228     
3058       63.61      0.224     
3058.2     67.89      0.192     
3058.4     67.49      0.222     
3058.6     71.09      0.197     
3058.8     74.06999   0.202     
3059       74.32      0.217     
3059.2     74.18      0.201     
3059.4     70.7       0.233     
3059.6     65.84      0.212     
3059.8     62.79      0.197     
3060       58.93      0.201     
3060.2     60.54      0.232     
3060.4     59.24      0.217     
3060.6     56.1       0.189     
3060.8     58.67      0.191     
3061       71.03      0.175     
3061.2     66.22      0.172     
3061.4     63.34      0.181     
3061.6     72.52      0.213     
3061.8     70.99      0.18      
3062       70.57      0.179     
3062.2     76.4       0.207     
3062.4     66.45      0.195     
3062.6     67.25      0.176     
3062.8     69.02      0.189     
3063       68.07999   0.179     
3063.2     76.02      0.202     
3063.4     74.46      0.172     
3063.6     83.28      0.199     
3063.8     83.87      0.202     
3064       74.83      0.188     
3064.2     81.95      0.21      
3064.4     85.3       0.209     
3064.6     82.18001   0.207     
3064.8     60.78      0.242     
3065       57.14      0.199     
3065.2     63.93      0.2       
3065.4     65.82      0.181     
3065.6     66.44      0.164     
3065.8     69.05      0.179     
3066       69.54001   0.186     
3066.2     64.7       0.176     
3066.4     78.85001   0.176     
3066.6     88.86      0.184     
3066.8     104.25     0.185     
3067       90.17999   0.195     
3067.2     77.04001   0.185     
3067.4     104.41     0.213     
3067.6     116.89     0.211     
3067.8     96.65      0.239     
3068       101.51     0.221     
3068.2     87.47      0.217     
3068.4     78.85001   0.212     
3068.6     74.09      0.214     
3068.8     69.74      0.195     
3069       61.17      0.184     
3069.2     73.2       0.221     
3069.4     71.94      0.23      
3069.6     77.53      0.246     
3069.8     79.85      0.266     
3070       77.95999   0.238     
3070.2     85.25      0.209     
3070.4     79         0.213     
3070.6     90.27      0.215     
3070.8     94.27      0.203     
3071       85.64      0.224     
3071.2     82.86      0.196     
3071.4     80.22      0.192     
3071.6     72.8       0.189     
3071.8     76.09      0.194     
3072       88.8       0.22      
3072.2     91.84      0.207     
3072.4     94.35001   0.237     
3072.6     101.05     0.274     
3072.8     100.63     0.269     
3073       83.68      0.288     
3073.2     63.78      0.341     
3073.4     44.26      0.33      
3073.6     46.53      0.317     
3073.8     59.76      0.345     
3074       73.78      0.334     
3074.2     72.69      0.291     
3074.4     64.62      0.268     
3074.6     69.05      0.197     
3074.8     68.38      0.19      
3075       77.66      0.181     
3075.2     84.67      0.168     
3075.4     84.49001   0.204     
3075.6     83.2       0.214     
3075.8     78         0.208     
3076       77.77      0.221     
3076.2     93.18      0.198     
3076.4     108.86     0.204     
3076.6     113.54     0.205     
3076.8     126.36     0.229     
3077       124.2      0.241     
3077.2     124.38     0.219     
3077.4     128.78     0.238     
3077.6     130.77     0.276     
3077.8     141.58     0.262     
3078       137.75     0.252     
3078.2     130.85     0.223     
3078.4     139.15     0.238     
3078.6     156.42     0.231     
3078.8     150.49     0.22      
3079       152.16     0.241     
