~Version
 VERS              .         2.0                           : CWLS LOG ASCII STANDARD - VERSION 2.0
 WRAP              .         NO                            : ONE LINE PER DEPTH STEP
 DLM               .         SPACE                         : DELIMITING CHARACTER(SPACE TAB OR COMMA)
~Well Information
#_______________________________________________________________________________
#
#PARAMETER_NAME    .UNIT     VALUE                         : DESCRIPTION
#_______________________________________________________________________________
STRT               .m        2890                          : First reference value
STOP               .m        3079                          : Last reference value
STEP               .m        0.2                           : Step increment
NULL               .         -9999                         : Missing value
COMP               .                                       : Company
WELL               .         301                           : Well name
FLD                .                                       : Field
LOC                .                                       : Location
CNTY               .                                       : County
STAT               .                                       : State
CTRY               .                                       : Country
SRVC               .                                       : Service Company
DATE               .                                       : Date
API                .                                       : API number
EREF               .m        138.34                        : 
Pad                .         3                             : 
X                  .m        219750                        : 
Y                  .m        249950                        : 
group              .         Pad3                          : 
Интер-р            .         Пузин                         : 
Куст               .         3                             : 
Статус             .         Не проверено                  : 
Тип                .         Эксплуатация                  : 
~Parameter Information Block
#_______________________________________________________________________________
#
#PARAMETER_NAME    .UNIT     VALUE                         : DESCRIPTION
#_______________________________________________________________________________
SET                .         LAS1                          : 
REAL_CREATION_DATE .         Ср апр 11 2012-13_17_08       : 
TLFamily_DEPTH     .         Measured Depth                : 
TLFamily_KS        .         Potential Resistivity         : 
TLFamily_KS1       .         Extra Shallow Resistivity     : 
TLFamily_KS2       .         Shallow Resistivity           : 
TLFamily_KS3       .         Medium Resistivity            : 
TLFamily_KS4       .         Deep Resistivity              : 
TLFamily_KS5       .         Extra Deep Resistivity        : 
TLFamily_LLD       .         Lateral Log Resistivity       : 
TLFamily_OKS3      .         Medium Resistivity Inverted   : 
TLFamily_RM        .         Mud Resistivity               : 
group              .         INI                           : 
~Curve Information
#_______________________________________________________________________________
#
#LOGNAME           .UNIT     LOG_ID                        : DESCRIPTION
#_______________________________________________________________________________
DEPTH              .m                                      : Measured Depth 
KS                 .ohm.m                                  : Potential Resistivity 
KS1                .ohm.m                                  : Extra Shallow Resistivity 
KS2                .ohm.m                                  : Shallow Resistivity 
KS3                .ohm.m                                  : Medium Resistivity 
KS4                .ohm.m                                  : Deep Resistivity 
KS5                .ohm.m                                  : Extra Deep Resistivity 
LLD                .ohm.m                                  : Lateral Log Resistivity 
OKS3               .ohm.m                                  : Medium Resistivity Inverted 
RM                 .ohm.m                                  : Mud Resistivity 
~Ascii
# ...
3021.4     9.1632     2.0451     6.8629     11.9349    17.3375    11.6834    5.0975     8.6634     0.129     
3021.6     9.0171     2.0316     6.6971     11.7802    16.9638    12.0285    4.9776     8.7124     0.133     
3021.8     8.8995     2.0047     6.531      11.6455    16.6241    12.3993    4.854      8.771      0.134     
3022       8.8154     1.9697     6.4583     11.4974    16.3892    12.7604    4.8613     8.8268     0.134     
3022.2     8.7559     1.9508     6.3112     11.299     16.1599    13.1234    4.8774     8.8769     0.136     
3022.4     8.7053     1.9643     6.3032     11.0695    15.9657    13.6282    5.115      8.9072     0.135     
3022.6     8.6471     1.9778     6.2955     10.8541    15.7933    14.1056    5.2276     8.8559     0.128     
3022.8     8.577      1.9963     6.3027     10.6355    15.65      14.5615    5.1713     8.8007     0.127     
3023       8.4981     1.9912     6.257      10.4396    15.4854    15.0144    4.9279     8.7371     0.127     
3023.2     8.4384     1.959      6.1757     10.2784    15.4366    15.5701    4.6627     8.6992     0.13      
3023.4     8.3777     1.9373     6.1654     10.2107    15.6126    16.1389    4.6469     8.72       0.133     
3023.6     8.3385     1.9394     6.2147     10.2621    15.89      16.6651    4.6343     8.8694     0.134     
3023.8     8.304      1.9373     6.28       10.3005    16.0767    17.029     4.7455     8.9199     0.138     
3024       8.3628     1.9373     6.2364     10.2304    15.928     17.2009    4.7968     8.7931     0.136     
3024.2     8.4029     1.9373     6.2124     10.1538    15.6743    17.0888    4.6812     8.5907     0.128     
3024.4     8.4242     1.9628     6.2793     10.0899    15.2936    16.8643    4.8173     8.4416     0.127     
3024.6     8.4418     1.9912     6.3315     10.0696    14.8692    16.5534    4.9392     8.2659     0.13      
3024.8     8.4278     2.0431     6.4311     10.0402    14.4124    16.1509    4.987      8.0551     0.133     
3025       8.3868     2.1095     6.5756     10.0389    13.9939    15.6451    5.0513     7.8017     0.134     
3025.2     8.307      2.1622     6.7168     9.895      13.3948    15.1346    4.9463     7.5238     0.131     
3025.4     8.2295     2.1663     6.6683     9.6857     12.7148    14.5486    4.5169     7.2745     0.129     
3025.6     8.1057     2.1574     6.7025     9.4564     12.0055    13.8447    4.4001     7.0761     0.133     
3025.8     8.0057     2.1327     6.6784     9.2582     11.4072    13.1431    4.2868     6.9109     0.134     
3026       7.8726     2.1214     6.5886     9.122      10.8491    12.5144    4.2127     6.8219     0.135     
3026.2     7.7716     2.1319     6.5758     8.9974     10.4136    11.9824    4.0839     6.7327     0.129     
3026.4     7.6821     2.0922     6.4459     8.8199     9.9868     11.472     3.9145     6.7513     0.132     
3026.6     7.5921     2.0451     6.2816     8.6056     9.5572     10.9985    3.8755     6.8348     0.134     
3026.8     7.5047     2.0269     6.1706     8.4359     9.1782     10.603     3.7547     7.0263     0.136     
3027       7.4515     1.9997     6.0435     8.2676     8.8588     10.2726    3.7218     7.2808     0.136     
3027.2     7.3847     1.9606     5.869      8.1456     8.6539     9.9693     3.847      7.5808     0.128     
3027.4     7.3053     2.0285     6.0062     8.03       8.4363     9.7605     3.8257     7.8287     0.125     
3027.6     7.258      2.0015     5.9029     7.8919     8.2776     9.5341     3.6226     8.0927     0.128     
3027.8     7.167      1.9807     5.7819     7.662      8.0634     9.341      3.5689     8.4521     0.133     
3028       7.1473     1.9334     5.6266     7.4353     7.8997     9.1617     3.4002     8.8609     0.134     
3028.2     7.1359     1.8977     5.5051     7.1761     7.6712     9.0504     3.4047     9.3068     0.135     
3028.4     7.2408     1.8687     5.3483     6.8699     7.4246     9.0138     3.1076     9.8553     0.136     
3028.6     7.4493     1.762      5.0224     6.498      7.1925     9.1481     3.0794     10.6303    0.131     
3028.8     7.8051     1.6423     4.7298     6.1889     7.139      9.4333     3.1514     11.6272    0.125     
3029       8.2216     1.6141     4.695      6.1414     7.3663     9.8365     4.0679     12.3011    0.128     
3029.2     8.776      1.6903     4.8763     6.2959     7.7307     10.3312    4.9348     12.8411    0.135     
3029.4     9.3        1.7554     4.9888     6.6231     8.1612     10.7603    6.7493     12.9265    0.138     
3029.6     9.682      1.9635     5.5214     7.0213     8.5028     11.0998    6.8054     12.6991    0.139     
3029.8     9.9512     2.1163     5.9674     7.3464     8.7265     11.3495    6.361      12.407     0.141     
3030       10.1254    2.1394     6.2938     7.5331     8.7714     11.5738    5.369      12.0761    0.132     
3030.2     10.2567    2.1473     6.6779     7.7493     8.8482     11.6972    5.9321     11.6288    0.128     
3030.4     10.3185    2.1946     7.0835     8.0566     8.9518     11.7952    6.1932     11.2815    0.129     
3030.6     10.3414    2.2606     7.4114     8.4119     9.0304     11.889     6.1486     10.8731    0.132     
3030.8     10.2799    2.2687     7.486      8.7984     9.0401     11.9439    6.2758     10.2413    0.136     
3031       10.0383    2.3578     7.7756     9.3611     9.1205     12.0571    6.2        9.7759     0.13      
3031.2     9.9981     2.5101     8.063      9.6626     8.9783     12.3459    3.2651     9.8796     0.138     
3031.4     9.9747     2.0224     6.8585     9.5862     8.8228     12.9001    4.1088     10.3794    0.136     
3031.6     10.1586    1.9553     6.8114     9.6708     9.1149     13.5179    4.9475     10.9243    0.13      
3031.8     10.4829    1.9395     6.8672     10.306     9.7072     14.1934    6.4711     11.1786    0.126     
3032       10.6596    2.1838     7.4645     11.3385    10.463     14.5916    13.879     10.9453    0.129     
3032.2     10.6652    2.5167     8.1927     12.3759    10.9326    14.6919    9.3356     10.2284    0.134     
3032.4     10.5886    2.7629     8.3957     12.552     10.7868    14.5012    4.0653     9.8812     0.136     
3032.6     10.3241    2.4531     7.7695     12.061     10.3099    13.9799    5.9787     9.9645     0.139     
3032.8     10.0032    2.4588     8.1684     11.8914    10.1541    13.254     7.8507     9.7786     0.137     
3033       9.7681     2.6481     8.9439     12.0396    10.2332    12.7062    5.049      9.5944     0.131     
3033.2     9.4696     2.5946     8.6487     11.541     9.9795     12.3245    3.7203     9.9722     0.127     
3033.4     8.9529     2.488      8.0389     11.0778    9.9737     12.0867    4.7996     10.3706    0.133     
3033.6     8.5603     2.5851     8.3134     10.8472    10.1252    12.2717    3.1182     11.1145    0.137     
3033.8     8.342      2.3841     7.6307     10.4385    9.9699     13.0723    2.3843     12.9839    0.139     
3034       8.1928     1.984      6.2862     9.7583     9.8978     14.7198    2.4437     16.0778    0.139     
3034.2     8.3776     1.7757     5.9404     9.3768     10.3978    16.7806    3.0401     18.8413    0.141     
3034.4     8.9633     1.6074     5.4824     9.6242     11.7309    18.8629    3.6972     22.7147    0.132     
3034.6     9.7138     1.5098     5.416      9.9474     13.07      20.6424    7.7745     25.3736    0.127     
3034.8     10.7519    1.6453     5.5478     10.3925    13.8091    21.7176    10.3912    26.3855    0.131     
3035       11.7222    1.8995     5.9594     10.6985    14.0027    21.4635    12.7566    24.8251    0.136     
3035.2     12.5284    2.1194     6.4312     10.5971    13.5465    20.1841    10.2985    22.6861    0.138     
3035.4     13.0401    2.2051     6.7006     10.1637    12.6567    18.4766    8.9194     20.8944    0.144     
3035.6     13.3159    2.2285     7.1978     9.8287     11.9605    16.8837    8.4756     19.7194    0.144     
3035.8     13.3798    2.3119     7.8819     9.8099     11.7784    15.7354    8.8081     18.8491    0.136     
