~Version
 VERS              .         2.0                           : CWLS LOG ASCII STANDARD - VERSION 2.0
 WRAP              .         NO                            : ONE LINE PER DEPTH STEP
 DLM               .         SPACE                         : DELIMITING CHARACTER(SPACE TAB OR COMMA)
~Well Information
#_______________________________________________________________________________
#
#PARAMETER_NAME    .UNIT     VALUE                         : DESCRIPTION
#_______________________________________________________________________________
STRT               .m        2890                          : First reference value
STOP               .m        3079                          : Last reference value
STEP               .m        0.2                           : Step increment
NULL               .         -9999                         : Missing value
COMP               .                                       : Company
WELL               .         301                           : Well name
FLD                .                                       : Field
LOC                .                                       : Location
CNTY               .                                       : County
STAT               .                                       : State
CTRY               .                                       : Country
SRVC               .                                       : Service Company
DATE               .                                       : Date
API                .                                       : API number
EREF               .m        138.34                        : 
Pad                .         3                             : 
X                  .m        219750                        : 
Y                  .m        249950                        : 
group              .         Pad3                          : 
Интер-р            .         Пузин                         : 
Куст               .         3                             : 
Статус             .         Не проверено                  : 
Тип                .         Эксплуатация                  : 
~Parameter Information Block
#_______________________________________________________________________________
#
#PARAMETER_NAME    .UNIT     VALUE                         : DESCRIPTION
#_______________________________________________________________________________
SET                .         LAS1                          : 
REAL_CREATION_DATE .         Ср апр 11 2012-13_17_08       : 
TLFamily_DEPTH     .         Measured Depth                : 
TLFamily_KS        .         Potential Resistivity         : 
TLFamily_KS1       .         Extra Shallow Resistivity     : 
TLFamily_KS2       .         Shallow Resistivity           : 
TLFamily_KS3       .         Medium Resistivity            : 
TLFamily_KS4       .         Deep Resistivity              : 
TLFamily_KS5       .         Extra Deep Resistivity        : 
TLFamily_LLD       .         Lateral Log Resistivity       : 
TLFamily_OKS3      .         Medium Resistivity Inverted   : 
TLFamily_RM        .         Mud Resistivity               : 
group              .         INI                           : 
~Curve Information
#_______________________________________________________________________________
#
#LOGNAME           .UNIT     LOG_ID                        : DESCRIPTION
#_______________________________________________________________________________
DEPTH              .m                                      : Measured Depth 
KS                 .ohm.m                                  : Potential Resistivity 
KS1                .ohm.m                                  : Extra Shallow Resistivity 
KS2                .ohm.m                                  : Shallow Resistivity 
KS3                .ohm.m                                  : Medium Resistivity 
KS4                .ohm.m                                  : Deep Resistivity 
KS5                .ohm.m                                  : Extra Deep Resistivity 
LLD                .ohm.m                                  : Lateral Log Resistivity 
OKS3               .ohm.m                                  : Medium Resistivity Inverted 
RM                 .ohm.m                                  : Mud Resistivity 
~Ascii
# ...
2992.2     18.2016    2.2761     8.9078     17.3367    24.0465    24.4073    9.7273     30.7741    0.141     
2992.4     18.7017    2.4415     9.4651     17.93      24.5245    24.8872    14.9884    30.3028    0.144     
2992.6     19.2637    2.4842     9.6499     18.2683    24.6888    25.4721    15.8523    29.5728    0.145     
2992.8     19.6751    2.5565     9.9173     18.4964    24.924     25.9346    15.552     28.9327    0.151     
2993       20.0154    2.5885     10.1244    18.6936    25.3026    26.4826    14.7249    28.0536    0.151     
2993.2     20.3284    2.5514     10.1999    18.9678    25.7504    27.1304    14.757     27.6418    0.144     
2993.4     20.6177    2.5814     10.4613    19.4048    26.5024    27.8098    12.6149    27.2711    0.142     
2993.6     20.8594    2.6116     10.8193    20.242     27.4663    28.43      14.4731    26.3066    0.14      
2993.8     21.2052    2.7292     11.2951    21.1287    28.4211    29.1367    19.1989    24.8894    0.135     
2994       21.5356    2.7051     11.1866    21.8036    28.9933    29.9099    17.6415    23.4241    0.131     
2994.2     21.696     2.7186     11.1862    22.6283    29.9329    30.8539    19.1838    22.3173    0.133     
2994.4     21.5944    2.9404     12.1315    24.0067    31.3064    32.0526    20.6728    21.4057    0.134     
2994.6     21.3057    3.0791     12.4874    26.1081    33.3873    33.6076    19.8248    20.5683    0.134     
2994.8     20.8426    3.2743     13.5894    28.3732    35.4932    34.6455    30.0472    19.21      0.134     
2995       20.3039    3.5429     14.8411    30.3457    37.4617    34.9497    33.281     17.6226    0.136     
2995.2     19.7347    3.5677     15.1568    31.5385    38.6243    34.5695    27.1913    16.457     0.14      
2995.4     19.0649    3.5267     14.909     31.452     38.5599    33.7564    14.3991    15.4201    0.141     
2995.6     18.2825    3.3523     14.3729    31.1163    38.2656    32.4928    11.6494    14.6665    0.143     
2995.8     17.3901    3.3112     14.4846    31.0046    38.4399    31.383     10.8057    13.8626    0.145     
2996       16.6795    3.3276     14.5178    30.9454    38.5767    30.0412    11.7393    12.9727    0.144     
2996.2     16.0093    3.1549     13.5185    30.1444    38.2423    28.6655    10.2822    12.2707    0.144     
2996.4     15.4337    3.1397     13.2731    28.9771    37.4678    27.2174    8.9571     11.6923    0.142     
2996.6     15.0395    3.0485     12.7052    28.0815    37.0891    25.7178    9.0824     11.1312    0.141     
2996.8     14.5586    2.988      12.2443    27.3188    36.5363    24.29      8.4007     10.5955    0.144     
2997       14.0608    3.0283     12.1767    26.5796    35.776     23.2188    8.7623     10.1559    0.148     
2997.2     13.6448    2.9568     11.5339    25.8823    35.2916    22.5245    8.3299     9.8846     0.142     
2997.4     13.0186    2.8228     11.6003    25.4838    35.5374    21.7692    6.7468     9.5971     0.138     
2997.6     12.3379    3.1164     12.4894    25.3764    35.9505    20.9191    11.6368    9.029      0.132     
2997.8     11.6838    3.0957     12.0568    24.4547    35.3756    20.0235    8.6351     8.2807     0.13      
2998       10.9856    3.0005     11.4845    22.4228    32.8333    18.8155    5.7497     7.7522     0.13      
2998.2     10.3974    2.7896     10.6184    20.1058    29.4984    17.341     5.0227     7.492      0.133     
2998.4     9.8952     2.5596     9.7152     18.5047    26.5542    16.0197    4.3023     7.5185     0.134     
2998.6     9.469      2.4355     9.298      17.4824    24.9745    14.7646    4.0005     7.6998     0.134     
2998.8     9.1772     2.3571     8.8173     16.6097    23.261     13.7656    4.2057     7.908      0.137     
2999       9.0398     2.2698     8.2363     15.4393    21.6834    13.0384    3.9213     8.0544     0.141     
2999.2     8.9365     2.131      7.4703     14.4186    20.5116    12.3621    3.6862     8.2974     0.142     
2999.4     8.9109     2.1327     7.2966     13.5198    19.4037    11.8461    4.2839     8.4178     0.144     
2999.6     8.9464     2.072      6.9204     12.9279    18.3929    11.562     4.2241     8.4999     0.142     
2999.8     8.8822     2.1664     7.1024     12.5856    17.6771    11.4049    5.1211     8.4505     0.141     
3000       8.8007     2.2606     7.2696     12.3953    17.1798    11.2083    5.2178     8.2736     0.141     
3000.2     8.6242     2.3558     7.5141     11.9676    16.1538    10.966     5.2971     7.9653     0.147     
3000.4     8.4226     2.3969     7.5136     11.2856    14.8651    10.6005    4.6846     7.7549     0.145     
3000.6     8.2142     2.2593     7.168      10.3786    13.7138    10.1554    3.5983     7.7377     0.139     
3000.8     8.0747     2.1354     6.9232     9.6087     12.7139    9.6293     3.4558     7.967      0.133     
3001       7.9715     2.0248     6.6321     9.0804     11.7826    9.2903     3.5516     8.2596     0.13      
3001.2     7.9877     2.0041     6.5053     8.7036     11.106     9.0413     3.6277     8.674      0.135     
3001.4     7.9935     1.8969     6.1089     8.5504     10.626     8.8992     3.4634     9.1034     0.138     
3001.6     8.0107     2.0248     6.3162     8.4959     10.1825    8.8043     4.6026     9.4438     0.144     
3001.8     8.0787     1.9872     6.0511     8.4586     9.768      8.7255     3.8234     9.7623     0.141     
3002       8.0983     2.0184     6.0858     8.2598     9.1875     8.657      4.0983     10.0221    0.143     
3002.2     8.1932     1.9367     5.8755     8.0999     8.6824     8.555      3.8292     10.2009    0.146     
3002.4     8.2073     1.9388     5.9095     7.9002     8.2089     8.4779     4.0321     10.1474    0.141     
3002.6     8.2275     2.0532     6.264      7.8163     7.906      8.5116     4.6929     10.0332    0.136     
3002.8     8.3316     1.9577     5.9476     7.5413     7.497      8.6762     4.0161     9.9138     0.13      
3003       8.3232     1.9373     5.8713     7.3152     7.3161     9.0608     3.8959     10.1846    0.132     
3003.2     8.3499     1.9643     5.9841     7.2686     7.3436     9.7308     3.9815     10.6474    0.137     
3003.4     8.5158     1.8653     5.6893     7.228      7.5427     10.4955    3.5676     11.5396    0.139     
3003.6     8.7488     1.7355     5.4645     7.2754     8.0844     11.6037    3.4367     12.6855    0.14      
3003.8     9.0545     1.7833     5.7102     7.7101     8.9124     13.341     4.8567     13.6531    0.142     
3004       9.5997     1.7792     5.7436     8.2753     9.9893     15.3408    5.0107     14.395     0.146     
3004.2     9.9494     1.8087     5.8602     9.2161     11.3799    16.5653    5.6694     14.8872    0.142     
3004.4     10.0483    2.2653     7.1615     10.5191    12.6718    16.9883    15.1561    14.2806    0.136     
3004.6     10.2717    2.564      8.0515     11.1462    12.6354    16.5507    10.4206    12.7187    0.13      
3004.8     10.2309    2.4222     7.6724     10.9567    11.7295    15.621     5.2628     11.3721    0.136     
3005       10.0598    2.4618     7.9872     10.5255    10.8681    14.4248    5.0667     10.5231    0.138     
3005.2     9.9636     2.3347     7.8575     10.2265    10.2439    13.3421    4.7769     9.8631     0.143     
3005.4     9.9062     2.2773     7.8272     9.8784     9.6007     12.4745    4.574      9.4622     0.139     
3005.6     9.8384     2.2337     7.7288     9.7274     9.1991     11.7737    4.6789     9.2139     0.143     
3005.8     9.8486     2.2177     7.5841     9.7869     9.0302     11.337     4.7589     9.0403     0.147     
3006       9.8658     2.1872     7.4541     10.111     9.0003     11.1884    4.9278     8.9674     0.139     
3006.2     9.8535     2.2317     7.6021     10.6597    9.2039     11.3678    5.2934     8.9029     0.135     
3006.4     9.8291     2.2876     7.818      11.521     9.7523     11.5157    5.5381     8.9068     0.13      
3006.6     9.5969     2.3338     8.1776     12.8084    10.486     11.4385    6.3142     8.7057     0.13      
