~Version
 VERS              .         2.0                           : CWLS LOG ASCII STANDARD - VERSION 2.0
 WRAP              .         NO                            : ONE LINE PER DEPTH STEP
 DLM               .         SPACE                         : DELIMITING CHARACTER(SPACE TAB OR COMMA)
~Well Information
#_______________________________________________________________________________
#
#PARAMETER_NAME    .UNIT     VALUE                         : DESCRIPTION
#_______________________________________________________________________________
STRT               .m        2890                          : First reference value
STOP               .m        3079                          : Last reference value
STEP               .m        0.2                           : Step increment
NULL               .         -9999                         : Missing value
COMP               .                                       : Company
WELL               .         301                           : Well name
FLD                .                                       : Field
LOC                .                                       : Location
CNTY               .                                       : County
STAT               .                                       : State
CTRY               .                                       : Country
SRVC               .                                       : Service Company
DATE               .                                       : Date
API                .                                       : API number
EREF               .m        138.34                        : 
Pad                .         3                             : 
X                  .m        219750                        : 
Y                  .m        249950                        : 
group              .         Pad3                          : 
Интер-р            .         Пузин                         : 
Куст               .         3                             : 
Статус             .         Не проверено                  : 
Тип                .         Эксплуатация                  : 
~Parameter Information Block
#_______________________________________________________________________________
#
#PARAMETER_NAME    .UNIT     VALUE                         : DESCRIPTION
#_______________________________________________________________________________
SET                .         LAS1                          : 
REAL_CREATION_DATE .         Ср апр 11 2012-13_17_08       : 
TLFamily_DEPTH     .         Measured Depth                : 
TLFamily_KS        .         Potential Resistivity         : 
TLFamily_KS1       .         Extra Shallow Resistivity     : 
TLFamily_KS2       .         Shallow Resistivity           : 
TLFamily_KS3       .         Medium Resistivity            : 
TLFamily_KS4       .         Deep Resistivity              : 
TLFamily_KS5       .         Extra Deep Resistivity        : 
TLFamily_LLD       .         Lateral Log Resistivity       : 
TLFamily_OKS3      .         Medium Resistivity Inverted   : 
TLFamily_RM        .         Mud Resistivity               : 
group              .         INI                           : 
~Curve Information
#_______________________________________________________________________________
#
#LOGNAME           .UNIT     LOG_ID                        : DESCRIPTION
#_______________________________________________________________________________
DEPTH              .m                                      : Measured Depth 
KS                 .ohm.m                                  : Potential Resistivity 
KS1                .ohm.m                                  : Extra Shallow Resistivity 
KS2                .ohm.m                                  : Shallow Resistivity 
KS3                .ohm.m                                  : Medium Resistivity 
KS4                .ohm.m                                  : Deep Resistivity 
KS5                .ohm.m                                  : Extra Deep Resistivity 
LLD                .ohm.m                                  : Lateral Log Resistivity 
OKS3               .ohm.m                                  : Medium Resistivity Inverted 
RM                 .ohm.m                                  : Mud Resistivity 
~Ascii
# ...
3050.6     10.2202    2.2922     8.4488     16.2952    26.8453    12.3408    5.5142     7.418      0.132     
3050.8     9.9829     2.2556     8.1725     15.3445    25.0865    11.3599    6.35       7.104      0.138     
3051       9.6971     2.2948     8.236      14.9836    23.6166    10.5098    5.5878     6.7765     0.142     
3051.2     9.4562     2.3401     8.2274     14.5169    21.4854    9.9583     5.2441     6.4325     0.133     
3051.4     9.1553     2.2185     7.695      14.065     19.7796    9.4698     5.9174     6.176      0.137     
3051.6     8.6723     2.2789     7.9349     13.8396    18.73      8.8515     7.0771     6.049      0.139     
3051.8     8.0934     2.4465     8.3791     13.8914    17.8634    8.2458     4.1226     5.9049     0.136     
3052       7.6604     2.488      8.2763     13.144     16.0257    7.6351     3.3282     5.8087     0.143     
3052.2     7.2284     2.1344     7.0703     11.5835    13.4408    6.9255     3.2714     5.8426     0.132     
3052.4     6.9689     1.8992     6.337      10.0924    11.3913    6.0953     3.261      5.9466     0.139     
3052.6     6.7718     1.7218     5.7607     9.0628     9.9434     5.4587     3.0712     6.1375     0.131     
3052.8     6.6538     1.6073     5.2605     8.3222     9.1611     5.0116     3.662      6.5336     0.136     
3053       6.5408     1.5737     4.9473     7.7537     8.6531     4.7045     3.9088     6.9054     0.132     
3053.2     6.5051     1.613      4.798      7.3228     8.2699     4.5104     3.3909     6.9918     0.136     
3053.4     6.4817     1.5857     4.5064     6.795      7.8917     4.4066     3.0726     7.0292     0.135     
3053.6     6.4242     1.545      4.2012     6.2071     7.5814     4.4535     2.7794     7.573      0.132     
3053.8     6.4493     1.4368     3.9639     5.8012     7.5868     4.8051     2.7042     8.782      0.135     
3054       6.6359     1.3041     3.7177     5.6219     8.0567     5.4258     3.8261     10.7188    0.132     
3054.2     7.034      1.1584     3.5913     5.6502     8.9436     6.252      6.049      12.2128    0.132     
3054.4     7.6488     1.1956     3.6987     5.9501     9.9585     7.3547     7.4176     12.7607    0.137     
3054.6     8.4181     1.3827     3.9557     6.4103     11.056     8.7059     8.45       12.13      0.138     
3054.8     8.99       1.6093     4.3335     7.0223     12.3924    10.2548    9.0432     11.7029    0.137     
3055       9.4066     1.8337     4.9227     7.8127     14.0525    11.7728    9.6713     11.694     0.135     
3055.2     9.647      1.9692     5.6849     8.8278     15.904     12.877     8.7163     11.9868    0.139     
3055.4     9.8172     2.2009     6.8466     9.5246     16.7267    13.5475    7.8489     11.848     0.133     
3055.6     9.9885     2.2276     7.1709     9.6014     16.142     14.0242    7.0791     11.1914    0.138     
3055.8     10.0558    2.2307     7.3476     9.2869     15.2332    14.1467    6.8956     10.3951    0.137     
3056       9.9254     2.2435     7.5522     9.4045     15.1091    14.0435    8.9188     9.8973     0.132     
3056.2     9.5796     2.4333     8.3414     10.0514    15.2211    13.9925    8.801      9.5176     0.14      
3056.4     9.1358     2.5891     9.0546     11.0723    14.9965    13.6253    8.2892     8.9029     0.139     
3056.6     8.5691     2.7174     9.4982     12.03      13.8423    12.7469    4.1445     8.0589     0.13      
3056.8     8.1642     2.7813     9.6322     12.0521    11.9293    11.3833    2.6573     7.4565     0.139     
3057       7.8755     2.2141     7.7011     11.03      9.6035     10.1293    3.4658     7.5159     0.139     
3057.2     7.7454     1.8691     6.6177     9.6396     7.8926     9.0567     5.8629     7.8858     0.127     
3057.4     7.8364     1.6949     6.1995     9.1674     7.1612     8.4472     7.2164     7.9178     0.136     
3057.6     8.0163     1.8379     6.3904     9.5081     6.9719     8.3312     8.0128     7.439      0.139     
3057.8     7.9346     2.1473     6.6932     10.035     6.8944     8.3323     5.9427     6.8217     0.13      
3058       7.5241     2.3366     6.7562     10.4358    6.8706     8.1389     3.6664     6.2808     0.132     
3058.2     7.0654     2.4835     7.1464     10.2699    6.6497     7.7518     2.7344     6.114      0.139     
3058.4     6.744      2.2044     6.7838     9.4522     6.2483     7.3492     2.5208     6.1132     0.138     
3058.6     6.6891     1.82       5.9499     8.3624     5.911      6.9848     2.6842     6.5044     0.128     
3058.8     6.7584     1.5484     5.1972     7.7376     6.0689     6.7007     4.6631     7.509      0.133     
3059       6.8824     1.5349     5.3036     7.765      6.6418     6.5872     5.6566     8.3757     0.139     
3059.2     7.19       1.7644     5.6509     7.9626     7.1958     6.49       5.9338     8.602      0.133     
3059.4     7.4372     1.8363     5.396      8.0169     7.4427     6.2725     6.1696     8.1803     0.129     
3059.6     7.4056     2.033      5.5945     8.1082     7.6325     5.8804     4.6456     7.425      0.136     
3059.8     7.2638     2.1545     5.8923     8.1264     7.6829     5.4436     3.8719     6.8013     0.14      
3060       7.0345     2.1041     5.9984     7.8012     7.458      5.0615     3.5844     6.5334     0.13      
3060.2     6.8786     1.9955     5.9496     7.2381     7.0778     4.7279     3.6672     6.4947     0.136     
3060.4     6.7854     1.8802     5.8144     6.7395     6.8387     4.4572     3.7447     6.5075     0.139     
3060.6     6.7106     1.8185     5.6694     6.4661     6.7945     4.2982     3.5547     6.4947     0.131     
3060.8     6.6889     1.8431     5.5476     6.3442     6.808      4.2263     3.5416     6.5055     0.136     
3061       6.7285     1.7895     5.3028     6.4746     6.8905     4.1633     5.0625     6.496      0.133     
3061.2     6.7491     1.7488     5.2952     6.9392     7.0507     4.0773     4.3721     6.5075     0.139     
3061.4     6.8436     1.9165     5.7248     7.2552     6.9325     3.9912     4.1999     6.4995     0.132     
3061.6     6.9908     1.8508     5.3963     7.0911     6.6071     3.8575     4.3789     6.4947     0.14      
3061.8     7.0727     1.8389     5.2265     6.8562     6.333      3.6958     4.4316     6.4947     0.133     
3062       7.0889     1.8431     5.2603     6.7167     6.1722     3.5939     4.7209     6.4947     0.134     
3062.2     7.0435     1.8835     5.5155     6.697      6.129      3.5372     4.3733     6.4947     0.138     
3062.4     6.9367     1.9115     5.6684     6.706      6.046      3.533      4.0218     6.4947     0.129     
3062.6     6.865      2.0047     5.94       6.7211     5.9276     3.6002     3.2171     6.4947     0.134     
3062.8     6.8465     2.0316     5.9562     6.645      5.6686     3.7475     3.032      6.5006     0.134     
3063       6.8457     2.0182     5.5633     6.3652     5.5057     3.9424     4.0041     6.4973     0.134     
3063.2     6.8263     2.0182     5.0953     6.0373     5.5985     4.1979     4.4323     6.4947     0.134     
3063.4     6.8081     2.0182     4.9853     6.0649     5.9072     4.553      4.6541     6.5067     0.134     
3063.6     6.8081     2.0316     4.9671     6.1999     6.2177     5.0396     4.9328     6.5052     0.134     
3063.8     6.8081     -9999      4.9547     6.4073     6.5843     5.6966     5.079      6.5075     0.134     
3064       6.8081     -9999      4.9541     6.6778     7.0193     6.5754     5.3104     6.4947     0.134     
3064.2     6.8081     -9999      4.9412     7.0757     7.6149     7.4677     7.3169     6.4947     0.134     
3064.4     6.8081     -9999      4.9412     7.8176     8.5118     8.2234     7.7673     6.4947     0.134     
3064.6     6.8081     -9999      4.9412     8.3705     9.2004     8.8047     7.2213     6.4947     0.134     
3064.8     6.8081     -9999      4.9412     8.4916     9.473      8.9883     5.9823     6.4947     0.134     
3065       6.8081     -9999      4.929      8.5295     9.3056     8.5957     2.9988     6.505      0.134     
