~Version
 VERS              .         2.0                           : CWLS LOG ASCII STANDARD - VERSION 2.0
 WRAP              .         NO                            : ONE LINE PER DEPTH STEP
 DLM               .         SPACE                         : DELIMITING CHARACTER(SPACE TAB OR COMMA)
~Well Information
#_______________________________________________________________________________
#
#PARAMETER_NAME    .UNIT     VALUE                         : DESCRIPTION
#_______________________________________________________________________________
STRT               .m        2890                          : First reference value
STOP               .m        3079                          : Last reference value
STEP               .m        0.2                           : Step increment
NULL               .         -9999                         : Missing value
COMP               .                                       : Company
WELL               .         301                           : Well name
FLD                .                                       : Field
LOC                .                                       : Location
CNTY               .                                       : County
STAT               .                                       : State
CTRY               .                                       : Country
SRVC               .                                       : Service Company
DATE               .                                       : Date
API                .                                       : API number
EREF               .m        138.34                        : 
Pad                .         3                             : 
X                  .m        219750                        : 
Y                  .m        249950                        : 
group              .         Pad3                          : 
Интер-р            .         Пузин                         : 
Куст               .         3                             : 
Статус             .         Не проверено                  : 
Тип                .         Эксплуатация                  : 
~Parameter Information Block
#_______________________________________________________________________________
#
#PARAMETER_NAME    .UNIT     VALUE                         : DESCRIPTION
#_______________________________________________________________________________
SET                .         LAS1                          : 
REAL_CREATION_DATE .         Ср апр 11 2012-13_17_08       : 
TLFamily_DEPTH     .         Measured Depth                : 
TLFamily_KS        .         Potential Resistivity         : 
TLFamily_KS1       .         Extra Shallow Resistivity     : 
TLFamily_KS2       .         Shallow Resistivity           : 
TLFamily_KS3       .         Medium Resistivity            : 
TLFamily_KS4       .         Deep Resistivity              : 
TLFamily_KS5       .         Extra Deep Resistivity        : 
TLFamily_LLD       .         Lateral Log Resistivity       : 
TLFamily_OKS3      .         Medium Resistivity Inverted   : 
TLFamily_RM        .         Mud Resistivity               : 
group              .         INI                           : 
~Curve Information
#_______________________________________________________________________________
#
#LOGNAME           .UNIT     LOG_ID                        : DESCRIPTION
#_______________________________________________________________________________
DEPTH              .m                                      : Measured Depth 
KS                 .ohm.m                                  : Potential Resistivity 
KS1                .ohm.m                                  : Extra Shallow Resistivity 
KS2                .ohm.m                                  : Shallow Resistivity 
KS3                .ohm.m                                  : Medium Resistivity 
KS4                .ohm.m                                  : Deep Resistivity 
KS5                .ohm.m                                  : Extra Deep Resistivity 
LLD                .ohm.m                                  : Lateral Log Resistivity 
OKS3               .ohm.m                                  : Medium Resistivity Inverted 
RM                 .ohm.m                                  : Mud Resistivity 
~Ascii
# ...
3006.8     9.2534     2.6784     9.144      13.8738    11.0067    11.0972    7.2155     8.1509     0.131     
3007       8.8939     2.7303     9.2032     13.9601    10.7766    10.4738    4.9357     7.3365     0.134     
3007.2     8.3861     2.6136     8.7585     13.3904    10.1462    9.4648     4.0649     6.8662     0.138     
3007.4     7.898      2.5201     8.5973     12.5842    9.4887     8.3962     3.7784     6.6466     0.141     
3007.6     7.5312     2.3416     8.124      11.75      8.8839     7.4468     3.2476     6.6131     0.141     
3007.8     7.2328     2.1824     7.6175     10.9176    8.3544     6.6407     3.1929     6.6656     0.146     
3008       7.0006     2.1151     7.1915     10.2421    8.055      5.9862     3.079      6.7892     0.141     
3008.2     6.8869     2.0279     6.6668     9.6635     7.8077     5.4903     3.0452     6.9122     0.135     
3008.4     6.7897     1.9386     6.2377     9.1935     7.6682     5.0587     3.1586     7.0167     0.131     
3008.6     6.7094     1.9702     6.1355     8.8876     7.6606     4.6927     3.6027     7          0.13      
3008.8     6.6646     1.9678     5.9563     8.6317     7.5288     4.3927     3.1327     6.9754     0.135     
3009       6.6348     1.9158     5.6971     8.2341     7.1451     4.1314     3.0365     7.0186     0.14      
3009.2     6.5781     1.8776     5.5174     7.728      6.7697     3.9136     3.0138     7.2137     0.142     
3009.4     6.5733     1.8523     5.4538     7.2859     6.5025     3.7644     3.0526     7.4079     0.139     
3009.6     6.6317     1.813      5.3797     6.949      6.2905     3.6573     3.1673     7.7267     0.144     
3009.8     6.711      1.8027     5.2987     6.6911     6.1735     3.5999     3.3978     8.1694     0.141     
3010       6.8063     1.8027     5.2695     6.5636     6.1353     3.5915     3.6696     8.5863     0.135     
3010.2     6.9436     1.8188     5.3152     6.5036     6.152      3.5969     3.7322     8.9451     0.129     
3010.4     7.0542     1.8565     5.3758     6.5269     6.1967     3.609      3.8494     9.325      0.132     
3010.6     7.0724     1.9324     5.5746     6.6213     6.3087     3.6304     3.9448     9.8006     0.137     
3010.8     7.1111     1.9508     5.6676     6.7108     6.3961     3.6304     3.804      10.3634    0.139     
3011       7.1313     1.9643     5.7324     6.6843     6.3813     3.6369     3.7215     11.046     0.141     
3011.2     7.1313     1.9616     5.7761     6.6401     6.2857     3.6369     3.664      11.8707    0.137     
3011.4     7.1554     1.9912     5.8751     6.5582     6.0806     3.6304     3.6991     12.7404    0.142     
3011.6     7.2736     1.9238     5.6663     6.4147     5.805      3.6368     3.1624     14.0003    0.142     
3011.8     7.435      1.8052     5.3824     6.1967     5.5155     3.6865     3.4741     15.566     0.135     
3012       7.7588     1.7386     5.2886     6.0231     5.2876     3.7656     3.7558     17.1934    0.129     
3012.2     8.2132     1.6814     5.0968     5.977      5.164      3.8984     3.9091     18.7722    0.127     
3012.4     8.6141     1.7049     5.0777     6.0901     5.1473     4.0645     4.5001     19.8788    0.133     
3012.6     9.1347     1.9058     5.5486     6.2134     5.1395     4.2388     6.4679     20.5173    0.137     
3012.8     9.7262     1.7537     5.1113     6.156      5.0139     4.4499     5.6566     21.4221    0.138     
3013       10.2267    1.7762     5.2051     5.9488     4.8195     4.6688     7.7185     22.5309    0.14      
3013.2     10.8282    1.737      5.2997     6.086      4.8399     4.8989     7.634      22.8383    0.137     
3013.4     11.457     1.8667     5.7604     6.2978     4.979      5.203      6.8353     22.8524    0.143     
3013.6     12.0558    1.8649     5.8321     6.6307     5.2811     5.5554     7.6173     23.567     0.141     
3013.8     12.5425    1.935      6.2256     7.056      5.6536     5.926      9.7321     24.6063    0.137     
3014       13.0387    1.9832     6.6049     7.7427     6.1575     6.293      10.9805    24.8909    0.132     
3014.2     13.6812    2.0482     6.9571     8.4253     6.5555     6.6609     11.1883    24.2599    0.128     
3014.4     14.1827    2.0855     7.148      9.1877     7.059      6.9567     11.3561    23.3591    0.131     
3014.6     14.6271    2.1257     7.3909     10.0528    7.613      7.2513     12.3726    22.4018    0.134     
3014.8     14.9482    2.1648     7.6294     11.044     8.2549     7.527      13.7519    21.3998    0.135     
3015       15.208     2.2395     8.147      11.8676    8.837      7.7947     14.0573    20.2559    0.139     
3015.2     15.407     2.2741     8.3912     12.7864    9.4229     8.0756     13.7613    18.9413    0.138     
3015.4     15.5135    2.2857     8.6394     13.6735    10.0597    8.3134     13.2443    17.8469    0.131     
3015.6     15.4448    2.3424     8.9443     14.7059    10.9011    8.4923     12.8073    17.141     0.127     
3015.8     15.3338    2.4088     9.3791     15.6994    11.8795    8.6498     12.4528    16.4582    0.127     
3016       15.18      2.4374     9.604      16.6897    12.962     8.7871     11.6815    15.7816    0.128     
3016.2     14.9928    2.4479     9.6917     17.6338    14.0903    8.9192     11.173     15.1598    0.134     
3016.4     14.7303    2.4635     9.7911     18.494     15.3673    9.0099     10.448     14.6789    0.134     
3016.6     14.4154    2.5166     10.0084    19.4432    16.8397    9.0377     10.2158    14.3611    0.139     
3016.8     14.2018    2.5188     9.8947     19.8495    18.0136    9.0884     8.8801     14.016     0.139     
3017       14.0294    2.4257     9.5189     19.7187    18.6086    9.1495     8.4385     13.7121    0.135     
3017.2     13.8235    2.3985     9.3906     19.7396    19.688     9.175      8.8761     13.5601    0.139     
3017.4     13.6039    2.432      9.4553     19.8163    20.9083    9.2292     10.1589    13.3351    0.137     
3017.6     13.4065    2.4589     9.413      19.7934    21.9393    9.3537     8.9499     13.0007    0.132     
3017.8     13.1301    2.4492     9.3478     19.7286    22.9146    9.486      9.1139     12.4671    0.128     
3018       12.8932    2.4408     9.3883     19.6508    23.8966    9.6366     8.6097     11.8539    0.129     
3018.2     12.5737    2.4357     9.3609     19.5386    25.0302    9.8005     8.0568     11.4422    0.133     
3018.4     12.154     2.455      9.4481     19.6787    26.2039    9.8987     7.3152     11.2872    0.136     
3018.6     11.7977    2.5647     9.7572     19.3378    26.7306    9.9577     6.5232     11.3326    0.137     
3018.8     11.63      2.3716     9.0206     18.3566    26.0672    9.9693     5.389      11.2475    0.137     
3019       11.5208    2.2083     8.3239     17.2375    24.9924    9.9573     5.8148     11.3252    0.137     
3019.2     11.5152    2.1879     8.1186     16.3911    24.2783    9.9917     6.4902     11.2721    0.134     
3019.4     11.5556    2.1837     7.9524     16.0954    24.2217    10.1721    7.1815     11.1894    0.127     
3019.6     11.4779    2.3051     8.1398     16.1445    24.4935    10.4374    8.5174     11.0036    0.127     
3019.8     11.2929    2.4618     8.454      16.3959    24.7901    10.6904    9.4717     10.5505    0.131     
3020       10.9818    2.64       8.8513     16.388     24.4824    10.8298    7.381      9.9557     0.136     
3020.2     10.6431    2.6532     8.7332     15.6904    23.1297    10.8729    6.1637     9.3704     0.135     
3020.4     10.2488    2.4585     8.2645     14.5465    21.3637    10.8479    5.2458     8.9979     0.136     
3020.6     9.9423     2.3115     7.9959     13.5696    19.9868    10.8277    4.969      8.8432     0.134     
3020.8     9.6455     2.1824     7.7079     12.9586    19.1045    10.9143    5.2769     8.7879     0.13      
3021       9.4777     2.1309     7.5257     12.5328    18.4607    11.1493    5.3375     8.732      0.125     
3021.2     9.3195     2.0623     7.1317     12.1825    17.8539    11.4159    5.1359     8.6683     0.127     
