~Version
 VERS              .         2.0                           : CWLS LOG ASCII STANDARD - VERSION 2.0
 WRAP              .         NO                            : ONE LINE PER DEPTH STEP
 DLM               .         SPACE                         : DELIMITING CHARACTER(SPACE TAB OR COMMA)
~Well Information
#_______________________________________________________________________________
#
#PARAMETER_NAME    .UNIT     VALUE                         : DESCRIPTION
#_______________________________________________________________________________
STRT               .m        2890                          : First reference value
STOP               .m        3079                          : Last reference value
STEP               .m        0.2                           : Step increment
NULL               .         -9999                         : Missing value
COMP               .                                       : Company
WELL               .         301                           : Well name
FLD                .                                       : Field
LOC                .                                       : Location
CNTY               .                                       : County
STAT               .                                       : State
CTRY               .                                       : Country
SRVC               .                                       : Service Company
DATE               .                                       : Date
API                .                                       : API number
EREF               .m        138.34                        : 
Pad                .         3                             : 
X                  .m        219750                        : 
Y                  .m        249950                        : 
group              .         Pad3                          : 
Интер-р            .         Пузин                         : 
Куст               .         3                             : 
Статус             .         Не проверено                  : 
Тип                .         Эксплуатация                  : 
~Parameter Information Block
#_______________________________________________________________________________
#
#PARAMETER_NAME    .UNIT     VALUE                         : DESCRIPTION
#_______________________________________________________________________________
SET                .         LAS1                          : 
REAL_CREATION_DATE .         Ср апр 11 2012-13_17_08       : 
TLFamily_DEPTH     .         Measured Depth                : 
TLFamily_KS        .         Potential Resistivity         : 
TLFamily_KS1       .         Extra Shallow Resistivity     : 
TLFamily_KS2       .         Shallow Resistivity           : 
TLFamily_KS3       .         Medium Resistivity            : 
TLFamily_KS4       .         Deep Resistivity              : 
TLFamily_KS5       .         Extra Deep Resistivity        : 
TLFamily_LLD       .         Lateral Log Resistivity       : 
TLFamily_OKS3      .         Medium Resistivity Inverted   : 
TLFamily_RM        .         Mud Resistivity               : 
group              .         INI                           : 
~Curve Information
#_______________________________________________________________________________
#
#LOGNAME           .UNIT     LOG_ID                        : DESCRIPTION
#_______________________________________________________________________________
DEPTH              .m                                      : Measured Depth 
KS                 .ohm.m                                  : Potential Resistivity 
KS1                .ohm.m                                  : Extra Shallow Resistivity 
KS2                .ohm.m                                  : Shallow Resistivity 
KS3                .ohm.m                                  : Medium Resistivity 
KS4                .ohm.m                                  : Deep Resistivity 
KS5                .ohm.m                                  : Extra Deep Resistivity 
LLD                .ohm.m                                  : Lateral Log Resistivity 
OKS3               .ohm.m                                  : Medium Resistivity Inverted 
RM                 .ohm.m                                  : Mud Resistivity 
~Ascii
# ...
2904.6     9.6681     2.1293     6.8213     9.6581     8.6598     6.1267     4.5824     11.2384    0.134     
2904.8     9.6839     2.194      7.0638     9.7872     8.8117     6.1529     5.2399     11.1021    0.136     
2905       9.6828     2.2202     7.2261     9.9372     8.9603     6.1884     5.5704     11.0474    0.135     
2905.2     9.6933     2.2202     7.2794     9.9986     9.0411     6.2251     5.6247     11.0132    0.137     
2905.4     9.6566     2.2337     7.401      10.0773    9.1255     6.2489     5.5804     11         0.137     
2905.6     9.6566     2.2337     7.4706     10.1754    9.2049     6.2524     5.551      10.9006    0.14      
2905.8     9.6378     2.208      7.3726     10.236     9.2801     6.2563     5.2793     10.798     0.141     
2906       9.5685     2.2442     7.4742     10.3879    9.3292     6.2776     5.3386     10.736     0.142     
2906.2     9.5132     2.2655     7.5485     10.5591    9.4538     6.2943     5.4529     10.6703    0.144     
2906.4     9.4729     2.2266     7.4482     10.5956    9.4505     6.3072     5.3395     10.677     0.144     
2906.6     9.4466     2.1873     7.3335     10.5889    9.4342     6.3317     5.3951     10.7334    0.144     
2906.8     9.4141     2.1798     7.3244     10.5956    9.4602     6.3635     5.2618     10.75      0.146     
2907       9.4156     2.1798     7.3211     10.6084    9.5342     6.3845     4.9679     10.6641    0.147     
2907.2     9.4321     2.1933     7.302      10.5944    9.5644     6.436      4.8611     10.5763    0.147     
2907.4     9.4343     2.1798     7.2416     10.57      9.5827     6.4771     4.9801     10.4664    0.147     
2907.6     9.4343     2.1695     7.2219     10.5443    9.6474     6.5023     5.1332     10.3778    0.145     
2907.8     9.4226     2.1978     7.2898     10.5828    9.7462     6.5305     5.1096     10.2896    0.145     
2908       9.4125     2.2067     7.3523     10.6166    9.8573     6.5557     5.0469     10.1472    0.144     
2908.2     9.3721     2.2067     7.334      10.6017    9.9291     6.5794     5.0491     9.8887     0.144     
2908.4     9.3448     2.2202     7.3539     10.5515    9.9666     6.6032     5.2265     9.5994     0.144     
2908.6     9.2863     2.2067     7.3608     10.5315    10.0272    6.631      5.2373     9.4853     0.144     
2908.8     9.2465     2.2067     7.3798     10.5315    10.0642    6.6433     5.1939     9.4118     0.144     
2909       9.1692     2.2206     7.4027     10.5702    10.0753    6.672      5.0664     9.397      0.147     
2909.2     9.0752     2.2337     7.4577     10.631     10.0996    6.6931     5.0114     9.3757     0.147     
2909.4     8.9444     2.2437     7.4754     10.6824    10.1245    6.7091     5.1542     9.2847     0.149     
2909.6     8.809      2.252      7.4699     10.6768    10.0866    6.7156     5.0746     9.2724     0.151     
2909.8     8.6864     2.2264     7.4073     10.6076    9.9896     6.7091     5.0522     9.2922     0.15      
2910       8.598      2.2012     7.3087     10.4907    9.87       6.7021     4.9968     9.3087     0.151     
2910.2     8.5227     2.1698     7.1806     10.3629    9.7392     6.6737     4.9052     9.3477     0.151     
2910.4     8.4556     2.1911     7.1194     10.2216    9.5936     6.6364     4.5633     9.4337     0.15      
2910.6     8.3813     2.1784     6.9145     9.9761     9.3956     6.5987     4.5441     9.5847     0.144     
2910.8     8.3642     2.0862     6.6887     9.6941     9.1731     6.5859     4.4755     9.8297     0.144     
2911       8.4523     2.0076     6.5864     9.4487     9.0177     6.579      4.3466     10.0341    0.141     
2911.2     8.5342     2.093      6.508      9.4058     9.0565     6.5752     4.1818     10.1602    0.139     
2911.4     8.5455     2.1259     6.6767     9.3979     9.0565     6.5859     3.9466     10.1585    0.137     
2911.6     8.5455     2.099      6.6432     9.3432     8.9869     6.5846     4.1517     10.1694    0.137     
2911.8     8.5455     2.099      6.6376     9.2252     8.9123     6.5442     4.787      10.2684    0.135     
2912       8.5666     2.099      6.7362     9.1393     8.8146     6.5046     4.8113     10.3876    0.134     
2912.2     8.5879     2.0992     6.7183     9.0668     8.708      6.4624     4.6487     10.4477    0.134     
2912.4     8.6238     2.1124     6.7053     9.0264     8.5856     6.4093     4.4228     10.5084    0.134     
2912.6     8.6488     2.099      6.6709     8.9284     8.4372     6.3593     4.5066     10.6512    0.134     
2912.8     8.7037     2.0855     6.627      8.7976     8.3003     6.3129     4.6129     10.753     0.134     
2913       8.8005     2.0586     6.5507     8.7311     8.1755     6.2598     4.5771     10.8261    0.134     
2913.2     8.8812     2.065      6.5972     8.8784     8.0636     6.2228     4.4567     10.9017    0.135     
2913.4     8.9586     2.0855     6.65       8.932      8.0276     6.1987     4.5024     10.9056    0.137     
2913.6     9.0373     2.099      6.6946     8.9406     7.9945     6.1841     4.5151     10.8688    0.135     
2913.8     9.0952     2.1152     6.7499     8.9836     7.9885     6.1711     4.6967     10.8309    0.135     
2914       9.153      2.1538     6.884      9.0951     7.9885     6.1711     4.8618     10.7562    0.134     
2914.2     9.196      2.1663     6.9219     9.1952     8.0036     6.1581     4.9377     10.6589    0.134     
2914.4     9.2632     2.1663     6.957      9.2336     8.0132     6.1581     5.0103     10.5927    0.134     
2914.6     9.2949     2.1663     6.9666     9.3153     7.9885     6.1581     5.0848     10.5819    0.134     
2914.8     9.3149     2.183      7.0417     9.4327     8.1049     6.1704     5.0558     10.5273    0.134     
2915       9.3333     2.1933     7.1204     9.5877     8.3112     6.1722     5.0355     10.4393    0.134     
2915.2     9.3321     2.2067     7.2041     9.7047     8.4903     6.1841     5.0357     10.3677    0.134     
2915.4     9.2885     2.2359     7.2902     9.8544     8.5398     6.1841     5.207      10.3312    0.134     
2915.6     9.2317     2.2597     7.3539     9.9722     8.5485     6.197      5.2831     10.2548    0.134     
2915.8     9.19       2.2204     7.3111     10.0586    8.6159     6.1841     5.3073     10.1402    0.134     
2916       9.1139     2.2412     7.3623     10.1072    8.6663     6.1804     5.1682     10.1263    0.137     
2916.2     9.0228     2.2242     7.327      10.1673    8.7058     6.1714     5.0412     10.2176    0.137     
2916.4     8.9697     2.1987     7.2635     10.1279    8.7287     6.1686     5.0118     10.2684    0.141     
2916.6     8.9697     2.1391     7.1132     10.0409    8.7083     6.1463     4.829      10.3363    0.141     
2916.8     8.9899     2.1178     7.0296     9.9481     8.6995     6.1452     4.5892     10.3767    0.141     
2917       9.0135     2.1124     6.9546     9.9323     8.7632     6.1556     4.5035     10.3806    0.141     
2917.2     9.0493     2.1259     6.9647     9.9285     8.8192     6.1581     4.5079     10.3454    0.144     
2917.4     9.0679     2.1259     6.9388     9.9413     8.9082     6.1759     4.6515     10.3701    0.147     
2917.6     9.0707     2.1643     7.0264     9.954      8.9863     6.2048     4.6886     10.383     0.147     
2917.8     9.0708     2.1899     7.1074     9.9907     9.0844     6.2135     4.805      10.3615    0.144     
2918       9.0788     2.1798     7.0936     9.958      9.1216     6.223      4.8231     10.3316    0.144     
2918.2     9.0689     2.1933     7.1184     9.8952     9.1321     6.2278     4.886      10.3129    0.144     
2918.4     9.0488     2.1993     7.1626     9.8706     9.1571     6.223      4.8958     10.3097    0.145     
2918.6     9.0233     2.1829     7.1304     9.89       9.2078     6.2117     4.8739     10.3044    0.148     
2918.8     9.0059     2.2165     7.2285     9.8739     9.1737     6.197      4.7905     10.2673    0.151     
2919       8.9871     2.1933     7.1535     9.8515     9.1177     6.1649     4.7549     10.2546    0.151     
