~Version
 VERS              .         2.0                           : CWLS LOG ASCII STANDARD - VERSION 2.0
 WRAP              .         NO                            : ONE LINE PER DEPTH STEP
 DLM               .         SPACE                         : DELIMITING CHARACTER(SPACE TAB OR COMMA)
~Well Information
#_______________________________________________________________________________
#
#PARAMETER_NAME    .UNIT     VALUE                         : DESCRIPTION
#_______________________________________________________________________________
STRT               .m        2890                          : First reference value
STOP               .m        3079                          : Last reference value
STEP               .m        0.2                           : Step increment
NULL               .         -9999                         : Missing value
COMP               .                                       : Company
WELL               .         301                           : Well name
FLD                .                                       : Field
LOC                .                                       : Location
CNTY               .                                       : County
STAT               .                                       : State
CTRY               .                                       : Country
SRVC               .                                       : Service Company
DATE               .                                       : Date
API                .                                       : API number
EREF               .m        138.34                        : 
Pad                .         3                             : 
X                  .m        219750                        : 
Y                  .m        249950                        : 
group              .         Pad3                          : 
Интер-р            .         Пузин                         : 
Куст               .         3                             : 
Статус             .         Не проверено                  : 
Тип                .         Эксплуатация                  : 
~Parameter Information Block
#_______________________________________________________________________________
#
#PARAMETER_NAME    .UNIT     VALUE                         : DESCRIPTION
#_______________________________________________________________________________
SET                .         LAS1                          : 
REAL_CREATION_DATE .         Ср апр 11 2012-13_17_08       : 
TLFamily_DEPTH     .         Measured Depth                : 
TLFamily_KS        .         Potential Resistivity         : 
TLFamily_KS1       .         Extra Shallow Resistivity     : 
TLFamily_KS2       .         Shallow Resistivity           : 
TLFamily_KS3       .         Medium Resistivity            : 
TLFamily_KS4       .         Deep Resistivity              : 
TLFamily_KS5       .         Extra Deep Resistivity        : 
TLFamily_LLD       .         Lateral Log Resistivity       : 
TLFamily_OKS3      .         Medium Resistivity Inverted   : 
TLFamily_RM        .         Mud Resistivity               : 
group              .         INI                           : 
~Curve Information
#_______________________________________________________________________________
#
#LOGNAME           .UNIT     LOG_ID                        : DESCRIPTION
#_______________________________________________________________________________
DEPTH              .m                                      : Measured Depth 
KS                 .ohm.m                                  : Potential Resistivity 
KS1                .ohm.m                                  : Extra Shallow Resistivity 
KS2                .ohm.m                                  : Shallow Resistivity 
KS3                .ohm.m                                  : Medium Resistivity 
KS4                .ohm.m                                  : Deep Resistivity 
KS5                .ohm.m                                  : Extra Deep Resistivity 
LLD                .ohm.m                                  : Lateral Log Resistivity 
OKS3               .ohm.m                                  : Medium Resistivity Inverted 
RM                 .ohm.m                                  : Mud Resistivity 
~Ascii
# ...
2948.4     8.8269     1.8905     5.8191     8.6012     9.234      6.4789     3.5156     13.8944    0.146     
2948.6     9.1662     1.9509     5.7843     8.5592     9.541      6.6107     4.1015     14.2309    0.143     
2948.8     9.4288     1.8835     5.6485     8.331      9.715      6.7132     5.2585     14.6815    0.141     
2949       9.6801     1.939      5.9037     8.3504     9.995      6.7755     4.5043     14.7259    0.138     
2949.2     10.0271    2.02       6.2558     8.4004     10.0965    6.9117     4.439      14.2279    0.135     
2949.4     10.2923    2.0182     6.2597     8.4018     10.0574    7.0357     5.6467     13.8905    0.134     
2949.6     10.4339    2.1718     6.7545     8.4724     10.0333    7.1681     6.4213     14.1122    0.133     
2949.8     10.5651    2.1314     6.7371     8.6904     10.1725    7.4083     6.0299     14.4138    0.134     
2950       10.8788    2.0928     6.8481     8.7105     10.2776    7.7946     5.4223     14.6974    0.134     
2950.2     11.3203    1.9292     6.5273     8.8501     10.6165    8.2625     5.3745     15.3666    0.134     
2950.4     11.7279    1.8614     6.4793     9.4227     11.3926    8.7549     5.4854     15.7115    0.138     
2950.6     12.1149    2.1114     7.3773     10.6498    12.3466    9.15       4.4951     14.8364    0.141     
2950.8     12.4108    2.5153     8.4275     11.8789    12.8663    9.3481     8.6279     13.1716    0.141     
2951       12.4488    2.6486     8.6994     12.5853    12.7687    9.3776     22.9806    11.7674    0.141     
2951.2     12.1842    2.7051     8.9436     12.9756    12.4266    9.2538     21.8878    10.952     0.141     
2951.4     11.9083    2.6763     9.3247     13.2221    12.112     9.0458     8.627      10.4771    0.144     
2951.6     11.6436    2.5839     9.3754     13.3078    11.8589    8.9195     7.3128     10.1189    0.145     
2951.8     11.3539    2.5787     9.5768     13.4009    11.7747    8.9011     6.2466     9.8233     0.147     
2952       11.0664    2.5738     9.534      13.7482    11.8905    8.9406     6.3137     9.5517     0.146     
2952.2     10.713     2.5839     9.4502     14.0957    12.0775    8.9826     6.3875     9.4328     0.144     
2952.4     10.3328    2.6103     9.4224     14.3501    12.2951    9.0494     6.4135     9.4188     0.144     
2952.6     10.041     2.5449     9.1529     14.5979    12.388     9.1175     5.7152     9.3506     0.144     
2952.8     9.7923     2.3903     8.619      14.6291    12.324     9.2053     5.205      9.3729     0.141     
2953       9.5672     2.3905     8.5123     14.4304    12.2848    9.3103     4.7169     9.4682     0.142     
2953.2     9.4206     2.3484     8.2892     13.9037    12.241     9.4067     4.5985     9.4037     0.142     
2953.4     9.2948     2.2202     7.6835     13.3107    12.2209    9.4562     4.5914     9.3987     0.145     
2953.6     9.1505     2.2741     7.7467     12.827     12.1042    9.4632     4.5159     9.4782     0.147     
2953.8     9.0458     2.2679     7.6271     12.468     12.0223    9.4507     4.4595     9.5745     0.147     
2954       8.9883     2.1933     7.369      12.0322    11.927     9.3884     4.4537     9.6113     0.147     
2954.2     8.9475     2.1933     7.294      11.5513    11.8106    9.296      4.4137     9.7299     0.15      
2954.4     8.9269     2.1574     7.1434     11.1522    11.755     9.2075     4.3169     9.8878     0.148     
2954.6     8.8889     2.1294     7.0282     10.8791    11.9083    9.0787     4.2249     9.8823     0.144     
2954.8     8.8992     2.2067     7.2015     10.6372    12.0235    8.9575     4.2419     9.8312     0.141     
2955       8.9206     2.1736     7.032      10.4105    11.9444    8.8108     4.8151     9.862      0.139     
2955.2     8.8621     2.1588     7.0418     10.2094    11.7299    8.6044     4.7238     9.8193     0.136     
2955.4     8.8294     2.2312     7.1089     10.1347    11.4455    8.3771     4.0873     9.6952     0.134     
2955.6     8.8248     2.2173     7.0648     9.8537     10.9241    8.2197     4.9735     9.6258     0.133     
2955.8     8.7879     2.139      6.8924     9.5764     10.4984    8.0632     4.4256     9.7124     0.134     
2956       8.7896     2.087      6.7619     9.4546     10.2496    7.965      3.9664     9.9792     0.136     
2956.2     8.8126     2.122      6.8781     9.4645     10.0999    7.9341     3.9781     10.2414    0.141     
2956.4     8.8594     2.1259     6.9255     9.5275     10.0082    7.9213     4.1058     10.4085    0.141     
2956.6     8.899      2.1661     6.9316     9.6111     9.8612     7.9003     4.256      10.3358    0.142     
2956.8     8.9561     2.2067     7.0113     9.6462     9.6629     7.8549     4.5245     10.3125    0.143     
2957       9.0111     2.1907     6.8964     9.5893     9.3836     7.7788     4.7577     10.2743    0.144     
2957.2     9.0334     2.1663     6.8477     9.4188     9.1011     7.7282     4.5199     10.3736    0.144     
2957.4     9.0488     2.1393     6.8387     9.4093     9.0214     7.6745     4.3101     10.5827    0.143     
2957.6     9.0075     2.2539     7.2956     9.5704     9.0334     7.6243     4.3419     10.5883    0.144     
2957.8     8.9847     2.2643     7.2761     9.7075     9.0211     7.5169     4.7018     10.5799    0.141     
2958       8.9554     2.2777     7.3141     9.4891     8.7122     7.3802     4.9687     10.5897    0.141     
2958.2     8.9458     2.1915     7.0337     9.2634     8.3969     7.1837     4.5818     10.6732    0.141     
2958.4     8.9019     2.1455     6.9129     9.1844     8.1874     6.9892     4.1596     10.7264    0.144     
2958.6     8.917      2.1748     7.0331     9.189      8.042      6.8075     4.0621     10.7603    0.145     
2958.8     8.9505     2.136      6.8818     9.113      7.8545     6.7251     4.5303     10.8464    0.147     
2959       8.9903     2.1115     6.7525     8.9913     7.6999     6.6935     4.2999     11.0728    0.147     
2959.2     9.0141     2.0867     6.6437     8.9149     7.6084     6.7275     4.1748     11.4436    0.149     
2959.4     9.083      2.1067     6.6858     8.9021     7.6005     6.8022     4.2107     11.7882    0.151     
2959.6     9.1646     2.0893     6.6654     8.9517     7.6763     6.9699     4.2651     12.12      0.151     
2959.8     9.3207     2.0552     6.5542     8.9628     7.7497     7.2653     4.3564     12.4928    0.145     
2960       9.4737     2.0249     6.4978     9.074      8.0861     7.5936     4.2887     13.1394    0.143     
2960.2     9.6163     2.0584     6.7168     9.4224     8.6612     7.8994     4.266      13.67      0.141     
2960.4     9.7966     2.1422     7.007      9.84       9.1535     8.1824     4.404      13.8587    0.137     
2960.6     10.0505    2.1933     7.1334     10.044     9.37       8.4262     5.215      13.693     0.134     
2960.8     10.2797    2.1935     7.0818     10.0943    9.5221     8.5136     5.3955     13.4311    0.132     
2961       10.4932    2.2129     7.1417     10.0824    9.6432     8.543      5.1967     13.2883    0.133     
2961.2     10.687     2.256      7.3294     10.1842    9.7994     8.5794     5.1123     13.1995    0.134     
2961.4     10.8209    2.2621     7.4691     10.3942    10.0659    8.6117     5.6232     13.002     0.137     
2961.6     10.8687    2.4016     7.9532     10.7515    10.3577    8.5708     5.6125     12.6565    0.141     
2961.8     10.8383    2.493      8.3168     11.1858    10.628     8.4625     6.8486     12.1329    0.142     
2962       10.7603    2.5626     8.6093     11.3909    10.616     8.2806     6.7002     11.6867    0.142     
2962.2     10.6281    2.4876     8.4375     11.4991    10.4666    8.0432     6.6242     11.3977    0.145     
2962.4     10.4143    2.5553     8.7494     11.6889    10.3232    7.7682     5.5677     11.2299    0.147     
2962.6     10.2375    2.5297     8.7678     12.0439    10.2385    7.4834     5.4331     11.1069    0.147     
2962.8     10.0439    2.491      8.6455     12.1562    10.0377    7.2125     5.3567     11.0659    0.144     
