~Version
 VERS              .         2.0                           : CWLS LOG ASCII STANDARD - VERSION 2.0
 WRAP              .         NO                            : ONE LINE PER DEPTH STEP
 DLM               .         SPACE                         : DELIMITING CHARACTER(SPACE TAB OR COMMA)
~Well Information
#_______________________________________________________________________________
#
#PARAMETER_NAME    .UNIT     VALUE                         : DESCRIPTION
#_______________________________________________________________________________
STRT               .m        2890                          : First reference value
STOP               .m        3079                          : Last reference value
STEP               .m        0.2                           : Step increment
NULL               .         -9999                         : Missing value
COMP               .                                       : Company
WELL               .         301                           : Well name
FLD                .                                       : Field
LOC                .                                       : Location
CNTY               .                                       : County
STAT               .                                       : State
CTRY               .                                       : Country
SRVC               .                                       : Service Company
DATE               .                                       : Date
API                .                                       : API number
EREF               .m        138.34                        : 
Pad                .         3                             : 
X                  .m        219750                        : 
Y                  .m        249950                        : 
group              .         Pad3                          : 
Интер-р            .         Пузин                         : 
Куст               .         3                             : 
Статус             .         Не проверено                  : 
Тип                .         Эксплуатация                  : 
~Parameter Information Block
#_______________________________________________________________________________
#
#PARAMETER_NAME    .UNIT     VALUE                         : DESCRIPTION
#_______________________________________________________________________________
SET                .         LAS1                          : 
REAL_CREATION_DATE .         Ср апр 11 2012-13_17_08       : 
TLFamily_DEPTH     .         Measured Depth                : 
TLFamily_KS        .         Potential Resistivity         : 
TLFamily_KS1       .         Extra Shallow Resistivity     : 
TLFamily_KS2       .         Shallow Resistivity           : 
TLFamily_KS3       .         Medium Resistivity            : 
TLFamily_KS4       .         Deep Resistivity              : 
TLFamily_KS5       .         Extra Deep Resistivity        : 
TLFamily_LLD       .         Lateral Log Resistivity       : 
TLFamily_OKS3      .         Medium Resistivity Inverted   : 
TLFamily_RM        .         Mud Resistivity               : 
group              .         INI                           : 
~Curve Information
#_______________________________________________________________________________
#
#LOGNAME           .UNIT     LOG_ID                        : DESCRIPTION
#_______________________________________________________________________________
DEPTH              .m                                      : Measured Depth 
KS                 .ohm.m                                  : Potential Resistivity 
KS1                .ohm.m                                  : Extra Shallow Resistivity 
KS2                .ohm.m                                  : Shallow Resistivity 
KS3                .ohm.m                                  : Medium Resistivity 
KS4                .ohm.m                                  : Deep Resistivity 
KS5                .ohm.m                                  : Extra Deep Resistivity 
LLD                .ohm.m                                  : Lateral Log Resistivity 
OKS3               .ohm.m                                  : Medium Resistivity Inverted 
RM                 .ohm.m                                  : Mud Resistivity 
~Ascii
# ...
2933.8     11.4747    2.3428     8.1462     13.1707    13.3262    7.9788     6.9012     13.2076    0.139     
2934       11.4987    2.4394     8.3676     13.451     13.7574    8.2574     6.0998     13.1323    0.141     
2934.2     11.538     2.4629     8.4427     13.4951    14.0399    8.5433     6.1972     13.2503    0.142     
2934.4     11.6094    2.3953     8.296      13.373     14.1869    8.8278     7.6441     13.2643    0.142     
2934.6     11.5676    2.328      8.1717     13.6469    14.5979    9.0332     6.4815     12.6533    0.141     
2934.8     11.3808    2.6813     9.264      14.286     15.2077    9.1436     6.2099     11.9197    0.141     
2935       11.0093    2.7926     9.5091     14.9116    15.7293    9.1183     8.2262     11.2921    0.142     
2935.2     10.5457    2.7959     9.5962     14.6632    15.5104    8.9363     12.0133    10.9081    0.141     
2935.4     10.2629    2.6166     9.2053     14.053     14.7931    8.6023     8.5198     10.9123    0.143     
2935.6     10.0977    2.3067     8.3401     13.0754    13.7148    8.279      6.4828     11.3328    0.141     
2935.8     10.0612    2.0982     7.6615     12.2151    12.9128    8.0205     4.9955     11.708     0.143     
2936       10.1132    2.0569     7.4267     11.9436    12.601     7.9092     4.0885     11.8643    0.147     
2936.2     10.1967    2.118      7.4233     12.1112    12.7176    7.9496     4.0197     11.9014    0.148     
2936.4     10.2735    2.2281     7.5345     12.313     12.8709    8.0508     4.6335     11.9743    0.149     
2936.6     10.2812    2.2268     7.3735     12.4556    12.9508    8.1791     5.8404     12.0211    0.145     
2936.8     10.2626    2.301      7.5906     12.5456    12.9378    8.3129     5.9752     12.0353    0.142     
2937       10.2586    2.2876     7.6889     12.56      13.0159    8.4109     5.7964     12.0421    0.141     
2937.2     10.2194    2.2883     7.7557     12.3638    12.9971    8.4843     5.9762     12.0775    0.139     
2937.4     10.1622    2.3145     7.8598     12.1919    13.0206    8.5603     5.7263     12.0785    0.137     
2937.6     10.1208    2.3145     7.8598     11.9925    13.0088    8.6168     5.5977     12.0289    0.134     
2937.8     10.0634    2.301      7.8101     11.7841    12.9212    8.6247     5.7989     12.0594    0.134     
2938       10.0346    2.328      7.8598     11.6845    12.8471    8.6175     5.6014     12.1565    0.131     
2938.2     10.093     2.2358     7.7078     11.505     12.6254    8.5838     5.5037     12.3571    0.13      
2938.4     10.1804    2.1529     7.3213     11.2126    12.3033    8.5427     5.5333     12.5461    0.13      
2938.6     10.2785    2.1442     7.317      11.1185    12.1519    8.5227     5.1289     12.6373    0.133     
2938.8     10.3888    2.2269     7.5797     11.2676    12.2604    8.4939     4.935      12.4746    0.134     
2939       10.4256    2.3174     7.7209     11.4695    12.3394    8.4915     5.828      12.4005    0.134     
2939.2     10.4217    2.3427     7.6927     11.5065    12.1852    8.5139     6.5182     12.4906    0.136     
2939.4     10.3692    2.2906     7.7106     11.5083    12.0186    8.551      6.5283     12.5814    0.139     
2939.6     10.3636    2.328      7.9029     11.5932    11.8685    8.5458     5.7192     12.635     0.139     
2939.8     10.3741    2.3253     7.9425     11.5245    11.6486    8.5116     5.6535     12.6778    0.139     
2940       10.4115    2.2616     7.6631     11.2794    11.3141    8.4689     6.0023     12.7237    0.137     
2940.2     10.4242    2.1798     7.4418     11.2232    11.1849    8.383      5.7442     12.8144    0.139     
2940.4     10.4529    2.2704     7.7765     11.2802    11.1862    8.2496     5.1654     12.8351    0.143     
2940.6     10.5898    2.2546     7.6251     11.1986    10.9985    8.1526     5.2044     12.9469    0.142     
2940.8     10.685     2.1261     7.2372     11.0405    10.7768    8.1038     5.8315     13.0201    0.144     
2941       10.7657    2.2177     7.4883     11.1597    10.8743    7.9877     5.0615     12.5962    0.142     
2941.2     10.7592    2.4154     7.9325     11.5362    11.0623    7.8648     4.9586     12.159     0.142     
2941.4     10.7332    2.441      7.9274     11.5568    10.9785    7.7662     6.6296     12.259     0.143     
2941.6     10.6489    2.3288     7.6465     11.1577    10.5296    7.6868     8.5943     12.5536    0.143     
2941.8     10.5796    2.2017     7.4998     11.0634    10.4668    7.5918     5.7829     12.7496    0.144     
2942       10.5657    2.2803     7.8366     11.0727    10.5244    7.5571     4.9964     12.9775    0.147     
2942.2     10.5616    2.2864     7.7897     11.2161    10.5934    7.6332     5.1195     13.2751    0.148     
2942.4     10.5047    2.2741     7.6425     11.23      10.6606    7.7707     6.5302     13.7734    0.144     
2942.6     10.4667    2.2514     7.4949     11.3651    10.8473    7.9238     5.7624     14.3415    0.14      
2942.8     10.4687    2.2015     7.513      11.5106    11.0749    8.1361     5.3161     14.2134    0.137     
2943       10.5164    2.3196     7.8487     11.4649    11.118     8.3683     5.6096     13.9913    0.137     
2943.2     10.7001    2.1396     7.0891     11.3232    11.0932    8.6187     5.3953     13.8842    0.135     
2943.4     10.9553    1.9912     6.7831     10.9128    11.0203    8.9461     6.0002     13.8021    0.134     
2943.6     11.2606    2.0571     6.9349     10.9374    11.4188    9.3845     4.5392     13.3729    0.13      
2943.8     11.5577    2.242      7.3276     11.175     11.9342    10.0255    5.9951     13.207     0.133     
2944       11.9006    2.0445     7.115      11.3429    12.5463    10.8391    7.0663     13.6497    0.132     
2944.2     12.2569    2.0316     7.0124     11.5538    13.475     11.7232    7.2371     14.3888    0.131     
2944.4     12.6132    2.1403     7.5851     12.3096    14.7547    12.7204    5.1757     14.0506    0.133     
2944.6     12.9171    2.3943     8.684      13.4176    16.2267    13.707     5.1871     12.882     0.134     
2944.8     12.8739    2.7536     10.0575    14.9327    17.8144    14.2545    10.3462    11.3116    0.137     
2945       12.2216    3.2185     11.6233    16.6239    19.3228    14.1684    27.9786    10.0484    0.139     
2945.2     11.3983    3.6274     12.1501    17.4816    19.2375    13.7463    40.5634    9.1928     0.141     
2945.4     10.6992    3.1672     10.9394    16.4084    17.5939    12.9646    39.8855    8.9931     0.141     
2945.6     10.1418    2.6036     9.973      14.6092    15.3835    11.9057    11.3531    9.2003     0.142     
2945.8     9.7622     2.3692     9.4219     14.0596    14.3222    10.8022    3.9162     9.3532     0.143     
2946       9.5476     2.3776     9.266      14.1091    13.9755    10.1584    3.6943     9.2062     0.144     
2946.2     9.2343     2.4809     9.0294     14.246     13.7479    9.5922     4.2832     8.9154     0.144     
2946.4     8.8581     2.527      8.6264     14.1375    13.0846    9.059      5.5849     8.6661     0.142     
2946.6     8.5786     2.433      8.1007     13.7158    12.1169    8.4891     5.7948     8.5979     0.143     
2946.8     8.3448     2.1793     7.3173     12.8747    10.994     7.9177     4.8973     8.7542     0.143     
2947       8.1972     2.1055     7.0685     11.8907    10.2097    7.3037     3.801      8.9218     0.143     
2947.2     8.1203     2.0182     6.6378     11.0718    9.6453     6.8349     3.4425     9.2707     0.144     
2947.4     8.0598     2.0182     6.4086     10.1261    9.1389     6.4951     3.8243     9.695      0.145     
2947.6     8.0622     1.9643     6.0909     9.3426     8.7811     6.3065     3.8378     10.2904    0.146     
2947.8     8.1595     1.8632     5.7457     8.7488     8.5871     6.2415     3.704      11.1201    0.145     
2948       8.3459     1.7919     5.536      8.4737     8.6308     6.2785     3.6194     12.3766    0.145     
2948.2     8.5613     1.7622     5.4842     8.4688     8.954      6.3457     3.5379     13.3696    0.146     
