~Version
 VERS              .         2.0                           : CWLS LOG ASCII STANDARD - VERSION 2.0
 WRAP              .         NO                            : ONE LINE PER DEPTH STEP
 DLM               .         SPACE                         : DELIMITING CHARACTER(SPACE TAB OR COMMA)
~Well Information
#_______________________________________________________________________________
#
#PARAMETER_NAME    .UNIT     VALUE                         : DESCRIPTION
#_______________________________________________________________________________
STRT               .m        2890                          : First reference value
STOP               .m        3079                          : Last reference value
STEP               .m        0.2                           : Step increment
NULL               .         -9999                         : Missing value
COMP               .                                       : Company
WELL               .         301                           : Well name
FLD                .                                       : Field
LOC                .                                       : Location
CNTY               .                                       : County
STAT               .                                       : State
CTRY               .                                       : Country
SRVC               .                                       : Service Company
DATE               .                                       : Date
API                .                                       : API number
EREF               .m        138.34                        : 
Pad                .         3                             : 
X                  .m        219750                        : 
Y                  .m        249950                        : 
group              .         Pad3                          : 
Интер-р            .         Пузин                         : 
Куст               .         3                             : 
Статус             .         Не проверено                  : 
Тип                .         Эксплуатация                  : 
~Parameter Information Block
#_______________________________________________________________________________
#
#PARAMETER_NAME    .UNIT     VALUE                         : DESCRIPTION
#_______________________________________________________________________________
SET                .         LAS3                          : 
REAL_CREATION_DATE .         Ср апр 11 2012-13_17_08       : 
TLFamily_DEPTH     .         Measured Depth                : 
TLFamily_GR        .         Gamma Ray                     : 
TLFamily_TNPH      .         Neutron Porosity              : 
group              .         INI                           : 
~Curve Information
#_______________________________________________________________________________
#
#LOGNAME           .UNIT     LOG_ID                        : DESCRIPTION
#_______________________________________________________________________________
DEPTH              .m                                      : Measured Depth 
GR                 .gAPI                                   :  
TNPH               .v/v                                    : Neutron Porosity 
~Ascii
2890.0     72.58      0.244     
2890.2     68.06      0.255     
2890.4     63.09      0.27      
2890.6     57.4       0.298     
2890.8     59.28      0.301     
2891       64.38      0.282     
2891.2     62.52      0.31      
2891.4     54.97      0.299     
2891.6     53.16      0.269     
2891.8     51.54      0.305     
2892       47.09      0.286     
2892.2     43.66      0.331     
2892.4     52.77      0.314     
2892.6     76.19      0.256     
2892.8     93.29001   0.232     
2893       101.77     0.188     
2893.2     108.64     0.183     
2893.4     103.22     0.199     
2893.6     91.18      0.193     
2893.8     88.34      0.208     
2894       100.32     0.195     
2894.2     113.91     0.229     
2894.4     116.94     0.242     
2894.6     118.01     0.245     
2894.8     109.27     0.214     
2895       92.46001   0.183     
2895.2     93.46      0.184     
2895.4     90.89      0.183     
2895.6     89.06      0.191     
2895.8     90.71      0.216     
2896       102.16     0.205     
2896.2     102.77     0.215     
2896.4     98.43001   0.214     
2896.6     88.26      0.23      
2896.8     87.34      0.226     
2897       89.20999   0.211     
2897.2     89.41      0.21      
2897.4     86.21001   0.191     
2897.6     86.95      0.209     
2897.8     93.25      0.189     
2898       93.85001   0.21      
2898.2     86.73      0.212     
2898.4     91.82999   0.188     
2898.6     93.24001   0.198     
2898.8     91.93      0.22      
2899       90.66      0.243     
2899.2     87.51      0.239     
2899.4     92.3       0.248     
2899.6     103.54     0.242     
2899.8     102.04     0.231     
2900       103.6      0.217     
2900.2     110.84     0.232     
2900.4     111.13     0.225     
2900.6     109.03     0.214     
2900.8     102.56     0.214     
2901       96.35001   0.231     
2901.2     95.06      0.269     
2901.4     93         0.231     
2901.6     96.02      0.22      
2901.8     97.06001   0.211     
2902       94.83      0.217     
2902.2     92.62      0.225     
2902.4     95.28      0.246     
2902.6     99.24      0.226     
2902.8     96.04      0.248     
2903       95.88      0.235     
2903.2     96.96999   0.241     
2903.4     98.33      0.243     
2903.6     92.71      0.262     
2903.8     83.41      0.227     
2904       85.06      0.237     
2904.2     98.78999   0.229     
2904.4     112.55     0.22      
2904.6     114.24     0.237     
2904.8     103.64     0.174     
2905       99.01      0.185     
2905.2     90.64999   0.182     
2905.4     92.49      0.208     
2905.6     100.71     0.217     
2905.8     104.86     0.213     
2906       101.52     0.201     
2906.2     90.39      0.218     
2906.4     86.03      0.198     
2906.6     87.77      0.189     
2906.8     97.04001   0.197     
2907       97.03      0.225     
2907.2     95.53001   0.209     
2907.4     94         0.194     
2907.6     99.41      0.2       
2907.8     109.72     0.218     
2908       96.7       0.24      
2908.2     93.39      0.264     
2908.4     94.22      0.25      
2908.6     90.7       0.233     
2908.8     95.05      0.272     
2909       98.77      0.249     
2909.2     101.92     0.254     
2909.4     100.55     0.258     
2909.6     88.16      0.227     
2909.8     88.64999   0.234     
2910       102.55     0.204     
2910.2     95.16      0.196     
2910.4     97.15      0.208     
2910.6     98.67      0.194     
2910.8     97.55      0.216     
2911       98.2       0.229     
2911.2     98.95      0.228     
2911.4     100.31     0.253     
2911.6     98.3       0.25      
2911.8     96.45      0.226     
2912       91.25      0.206     
2912.2     92.66      0.169     
2912.4     99.68001   0.209     
2912.6     105.17     0.214     
2912.8     105.31     0.218     
2913       102.36     0.266     
2913.2     105.89     0.25      
2913.4     93.57001   0.241     
2913.6     102.95     0.231     
2913.8     96.81      0.269     
2914       91.8       0.222     
2914.2     90.45      0.234     
2914.4     90.12      0.224     
2914.6     96.22      0.204     
2914.8     104.06     0.193     
2915       113.62     0.191     
2915.2     113.23     0.22      
2915.4     96.7       0.252     
2915.6     83.14      0.241     
2915.8     88.85001   0.239     
2916       92.38      0.264     
2916.2     95.5       0.253     
2916.4     96.96      0.231     
2916.6     101.75     0.239     
2916.8     99.75      0.203     
2917       103.04     0.235     
2917.2     108.37     0.22      
2917.4     106.54     0.203     
2917.6     122.3      0.207     
2917.8     102.81     0.204     
2918       93.35      0.214     
2918.2     109.97     0.198     
2918.4     107.01     0.211     
2918.6     124.34     0.229     
2918.8     108.53     0.247     
2919       101.44     0.244     
2919.2     109.47     0.243     
2919.4     98.13      0.195     
2919.6     100.65     0.214     
2919.8     98.53      0.21      
2920       98.57001   0.187     
2920.2     105.77     0.198     
2920.4     98.58      0.224     
2920.6     87.36      0.264     
2920.8     93.27      0.25      
2921       97.73      0.259     
2921.2     92.95999   0.222     
2921.4     98.14      0.211     
2921.6     93.27      0.208     
2921.8     96.6       0.219     
2922       98.59      0.208     
2922.2     100.84     0.202     
2922.4     91.99001   0.247     
2922.6     87.51      0.222     
2922.8     90.26      0.213     
2923       96.44      0.214     
2923.2     97.61      0.203     
2923.4     86.98      0.228     
2923.6     87.3       0.231     
2923.8     88.17001   0.241     
2924       93.54      0.26      
2924.2     104.44     0.261     
2924.4     101.8      0.237     
2924.6     103.34     0.244     
2924.8     99.53      0.279     
2925       92.16      0.271     
2925.2     100.24     0.256     
2925.4     106.36     0.251     
2925.6     106.35     0.264     
2925.8     96.62      0.255     
2926       93.6       0.236     
2926.2     92.51      0.262     
2926.4     101.7      0.246     
2926.6     104.53     0.238     
2926.8     103.78     0.261     
2927       96.42      0.279     
2927.2     108.27     0.245     
2927.4     98.19      0.238     
2927.6     102.07     0.278     
2927.8     102.82     0.27      
2928       107.61     0.248     
2928.2     118.12     0.238     
2928.4     125.17     0.236     
2928.6     121.77     0.288     
2928.8     111.5      0.244     
2929       115.79     0.228     
2929.2     113.19     0.212     
2929.4     89.94      0.2       
2929.6     88.11      0.184     
2929.8     91.68999   0.211     
2930       92.8       0.206     
2930.2     97.29      0.198     
2930.4     100.57     0.193     
2930.6     94.89      0.242     
2930.8     109.89     0.235     
2931       91.78001   0.211     
2931.2     66.46      0.213     
2931.4     63.34      0.212     
2931.6     61.15      0.198     
2931.8     54.06      0.183     
2932       53.97      0.169     
2932.2     57.07      0.156     
2932.4     59.9       0.161     
2932.6     62.14      0.205     
2932.8     61.75      0.208     
2933       67.76      0.221     
2933.2     73.75      0.194     
2933.4     82.95999   0.196     
2933.6     78.13      0.185     
2933.8     60.84      0.179     
2934       68.61      0.179     
2934.2     75.60001   0.191     
2934.4     67.93      0.174     
2934.6     52.7       0.151     
2934.8     56.65      0.178     
2935       55.56      0.209     
2935.2     60.21      0.197     
2935.4     51.95      0.208     
2935.6     52.83      0.191     
2935.8     64.42001   0.18      
2936       79.17      0.186     
2936.2     92.78      0.192     
2936.4     97.37      0.21      
2936.6     107.03     0.228     
2936.8     110.9      0.234     
2937       111.4      0.214     
2937.2     114.5      0.205     
2937.4     112.27     0.201     
2937.6     115.19     0.207     
2937.8     125.68     0.205     
2938       118.82     0.183     
2938.2     118.41     0.172     
2938.4     110.2      0.201     
