~Version
 VERS              .         2.0                           : CWLS LOG ASCII STANDARD - VERSION 2.0
 WRAP              .         NO                            : ONE LINE PER DEPTH STEP
 DLM               .         SPACE                         : DELIMITING CHARACTER(SPACE TAB OR COMMA)
~Well Information
#_______________________________________________________________________________
#
#PARAMETER_NAME    .UNIT     VALUE                         : DESCRIPTION
#_______________________________________________________________________________
STRT               .m        2890                          : First reference value
STOP               .m        3079                          : Last reference value
STEP               .m        0.2                           : Step increment
NULL               .         -9999                         : Missing value
COMP               .                                       : Company
WELL               .         301                           : Well name
FLD                .                                       : Field
LOC                .                                       : Location
CNTY               .                                       : County
STAT               .                                       : State
CTRY               .                                       : Country
SRVC               .                                       : Service Company
DATE               .                                       : Date
API                .                                       : API number
EREF               .m        138.34                        : 
Pad                .         3                             : 
X                  .m        219750                        : 
Y                  .m        249950                        : 
group              .         Pad3                          : 
Интер-р            .         Пузин                         : 
Куст               .         3                             : 
Статус             .         Не проверено                  : 
Тип                .         Эксплуатация                  : 
~Parameter Information Block
#_______________________________________________________________________________
#
#PARAMETER_NAME    .UNIT     VALUE                         : DESCRIPTION
#_______________________________________________________________________________
SET                .         LAS1                          : 
REAL_CREATION_DATE .         Ср апр 11 2012-13_17_08       : 
TLFamily_DEPTH     .         Measured Depth                : 
TLFamily_KS        .         Potential Resistivity         : 
TLFamily_KS1       .         Extra Shallow Resistivity     : 
TLFamily_KS2       .         Shallow Resistivity           : 
TLFamily_KS3       .         Medium Resistivity            : 
TLFamily_KS4       .         Deep Resistivity              : 
TLFamily_KS5       .         Extra Deep Resistivity        : 
TLFamily_LLD       .         Lateral Log Resistivity       : 
TLFamily_OKS3      .         Medium Resistivity Inverted   : 
TLFamily_RM        .         Mud Resistivity               : 
group              .         INI                           : 
~Curve Information
#_______________________________________________________________________________
#
#LOGNAME           .UNIT     LOG_ID                        : DESCRIPTION
#_______________________________________________________________________________
DEPTH              .m                                      : Measured Depth 
KS                 .ohm.m                                  : Potential Resistivity 
KS1                .ohm.m                                  : Extra Shallow Resistivity 
KS2                .ohm.m                                  : Shallow Resistivity 
KS3                .ohm.m                                  : Medium Resistivity 
KS4                .ohm.m                                  : Deep Resistivity 
KS5                .ohm.m                                  : Extra Deep Resistivity 
LLD                .ohm.m                                  : Lateral Log Resistivity 
OKS3               .ohm.m                                  : Medium Resistivity Inverted 
RM                 .ohm.m                                  : Mud Resistivity 
~Ascii
# ...
3036       13.1862    2.4446     8.9064     10.3969    12.3618    14.575     9.5971     18.5189    0.13      
3036.2     12.8261    2.7668     10.8278    11.3813    12.9015    13.5077    8.9125     18.0993    0.136     
3036.4     12.757     2.6847     9.7938     12.0186    12.5205    12.3782    6.4015     17.1677    0.139     
3036.6     12.7767    2.3517     8.9932     11.6579    10.8999    11.1773    5.555      16.0913    0.142     
3036.8     12.8081    2.2067     8.4013     12.0616    9.9615     9.8022     6.4164     15.5585    0.145     
3037       12.8283    2.2152     8.3158     12.8983    9.6548     8.8975     7.9658     15.0943    0.136     
3037.2     12.8471    2.304      8.3497     13.6879    9.4492     8.4651     7.5363     14.7481    0.133     
3037.4     12.794     2.2987     8.0913     14.2088    9.33       8.4926     6.5273     14.9553    0.141     
3037.6     12.6023    2.2538     8.2276     15.0689    9.6953     8.8371     6.5837     15.7889    0.14      
3037.8     12.3919    2.3569     8.8385     16.4413    10.8292    9.1889     7.9421     17.1158    0.144     
3038       12.2103    2.4788     9.5698     18.3657    12.3396    9.4263     10.7961    18.6314    0.133     
3038.2     12.0609    2.7044     10.7202    19.8445    13.6345    9.4242     9.6972     19.1201    0.134     
3038.4     12.0399    2.5842     10.0639    19.8983    14.3371    9.1001     8.4605     18.0899    0.141     
3038.6     11.9971    2.5438     9.6669     19.0188    14.7716    8.4006     7.9031     16.2757    0.144     
3038.8     11.8984    2.4908     9.3762     18.2206    15.8858    7.6622     8.1094     14.6879    0.134     
3039       11.7943    2.5269     9.3641     17.6047    17.0536    7.1042     8.9014     13.4404    0.137     
3039.2     11.4885    2.5921     9.5828     17.3935    18.378     6.6108     9.1291     12.6203    0.141     
3039.4     11.0472    2.7614     10.1954    17.3441    19.0153    6.0821     8.6599     12.0705    0.143     
3039.6     10.6482    2.7967     10.0628    16.6395    18.3704    5.512      4.72       12.2415    0.137     
3039.8     10.4116    2.5811     9.3638     15.0972    16.8426    4.9599     4.4965     12.8096    0.133     
3040       10.442     2.2438     8.3506     13.7028    15.0584    4.4074     4.6622     13.4998    0.139     
3040.2     10.6232    2.0487     7.4076     12.6123    13.4884    3.9777     6.0823     13.6876    0.136     
3040.4     10.9006    2.0896     7.2395     12.036     12.5945    3.6684     6.1661     13.9074    0.131     
3040.6     11.1343    2.0451     6.6924     11.705     12.0442    3.48       6.0814     14.213     0.14      
3040.8     11.2481    2.0614     6.6199     11.5564    11.7931    3.3297     7.3424     14.6159    0.141     
3041       11.359     2.2688     7.2523     11.4833    11.5687    3.212      5.8641     15.2889    0.131     
3041.2     11.5485    2.156      6.9682     11.1147    11.074     3.1237     5.7333     16.3083    0.139     
3041.4     11.7459    1.9776     6.5827     10.4965    10.4829    3.0154     6.3605     17.029     0.138     
3041.6     12.1354    2.0501     6.8405     9.947      9.9846     2.9214     6.1049     17.6788    0.132     
3041.8     12.5082    1.9424     6.4622     9.454      9.6648     2.8846     5.9874     18.5247    0.138     
3042       13.0183    1.8478     6.1969     9.1149     9.6573     2.9101     7.4944     19.2167    0.141     
3042.2     13.5568    1.8638     6.2052     9.1704     10.019     2.9813     9.1076     19.7499    0.143     
3042.4     14.0792    1.9595     6.4881     9.4796     10.6785    3.1739     9.9685     20.0332    0.133     
3042.6     14.6033    2.04       6.7084     9.9367     11.5069    3.5301     11.1745    20.1502    0.14      
3042.8     15.0824    2.1197     7.0941     10.3771    12.1686    4.0116     11.7945    20.1217    0.144     
3043       15.4744    2.2121     7.4911     10.8874    12.7801    4.6875     11.9823    20.3394    0.133     
3043.2     15.8272    2.3145     7.9072     11.3939    13.3559    5.5529     12.1063    20.9521    0.14      
3043.4     16.1461    2.3541     8.2355     11.9622    13.9797    6.5573     12.1399    21.5114    0.142     
3043.6     16.3316    2.3812     8.5499     12.6396    14.5436    7.6769     12.3326    21.9865    0.142     
3043.8     16.5245    2.461      8.9106     13.265     15.129     8.7317     11.9247    22.6074    0.134     
3044       16.6231    2.4642     9.0516     13.975     15.8557    9.7922     11.7653    23.6767    0.142     
3044.2     16.6439    2.5326     9.4205     14.8754    16.9429    11.0421    11.4322    25.0395    0.142     
3044.4     16.6107    2.6345     9.877      15.9222    18.4952    12.8652    11.1243    26.3312    0.134     
3044.6     16.6863    2.6276     9.8978     16.7798    20.1475    15.4528    10.3425    27.7241    0.142     
3044.8     16.7534    2.5751     9.7978     17.4145    21.7319    18.9154    9.2126     29.0118    0.147     
3045       17.0957    2.6141     9.9174     17.6518    24.0653    22.5353    6.2571     31.4285    0.135     
3045.2     17.7366    2.1187     8.3935     17.5372    26.6987    26.0046    12.7302    34.9357    0.14      
3045.4     18.4908    1.9076     8.0139     17.706     29.2446    29.4706    25.2763    37.0377    0.144     
3045.6     19.6018    2.1757     9.0007     18.9021    31.1887    32.4972    48.4182    35.9421    0.134     
3045.8     20.541     2.4669     9.7462     20.2029    32.2908    34.5021    35.3158    32.8924    0.141     
3046       21.3351    2.6604     10.2722    20.6358    32.2391    35.6475    27.1209    29.7323    0.145     
3046.2     21.7644    2.6162     10.0321    21.0449    32.3256    36.0598    57.5733    27.1065    0.133     
3046.4     21.9635    2.9279     11.6023    21.4473    32.1768    37.3011    98.2186    24.812     0.139     
3046.6     22.0157    2.9278     11.9709    21.6876    31.4675    39.1753    108.2347   21.2665    0.134     
3046.8     21.6819    2.6881     11.2648    22.9065    32.5503    40.7146    40.6607    18.1811    0.126     
3047       20.6815    3.4099     14.5011    25.2661    35.2495    41.3492    21.7013    16.1789    0.138     
3047.2     19.5333    3.5655     15.5227    27.8497    37.0218    41.789     11.2981    15.0716    0.142     
3047.4     18.5505    3.4327     15.5116    28.472     35.9865    40.6797    9.7696     13.6478    0.139     
3047.6     17.679     3.1799     14.6139    28.7818    34.2497    37.9009    9.6705     12.8392    0.135     
3047.8     16.9886    2.9454     13.5342    28.7611    32.5751    35.0133    9.6279     12.3807    0.144     
3048       16.3002    2.9071     13.0026    28.9444    31.7741    32.3403    9.0674     12.0591    0.139     
3048.2     15.6292    2.9071     12.4842    29.2168    31.5058    30.1168    7.0042     12.0274    0.139     
3048.4     15.0629    2.8942     11.9826    28.537     30.624     28.6564    6.5384     12.6402    0.141     
3048.6     14.4898    2.6651     11.1253    27.9514    30.3703    27.6747    8.3526     13.4502    0.135     
3048.8     14.0164    2.6634     11.3281    28.5999    32.0227    26.948     10.5503    14.1697    0.141     
3049       13.5053    2.8048     12.0213    30.1123    35.0574    26.4649    17.703     14.5136    0.141     
3049.2     12.8181    2.9893     12.5935    31.6298    38.4244    25.7181    11.1027    14.1644    0.133     
3049.4     12.2209    3.337      13.6222    31.3011    39.6211    24.2088    6.3579     13.0593    0.142     
3049.6     11.6643    3.0341     12.0044    28.493     38.5661    22.1104    4.9565     11.7068    0.136     
3049.8     11.2237    2.6942     10.6672    24.4458    35.392     19.4943    5.5813     10.3128    0.138     
3050       10.8863    2.4711     9.9268     21.529     33.0361    16.8408    5.8918     9.2476     0.14      
3050.2     10.629     2.3939     9.4812     19.5815    31.2871    14.8671    5.6864     8.4369     0.133     
3050.4     10.4154    2.3863     9.1562     17.8478    29.1506    13.455     5.4373     7.8501     0.138     
