~Version
 VERS              .         2.0                           : CWLS LOG ASCII STANDARD - VERSION 2.0
 WRAP              .         NO                            : ONE LINE PER DEPTH STEP
 DLM               .         SPACE                         : DELIMITING CHARACTER(SPACE TAB OR COMMA)
~Well Information
#_______________________________________________________________________________
#
#PARAMETER_NAME    .UNIT     VALUE                         : DESCRIPTION
#_______________________________________________________________________________
STRT               .m        2890                          : First reference value
STOP               .m        3079                          : Last reference value
STEP               .m        0.2                           : Step increment
NULL               .         -9999                         : Missing value
COMP               .                                       : Company
WELL               .         301                           : Well name
FLD                .                                       : Field
LOC                .                                       : Location
CNTY               .                                       : County
STAT               .                                       : State
CTRY               .                                       : Country
SRVC               .                                       : Service Company
DATE               .                                       : Date
API                .                                       : API number
EREF               .m        138.34                        : 
Pad                .         3                             : 
X                  .m        219750                        : 
Y                  .m        249950                        : 
group              .         Pad3                          : 
Интер-р            .         Пузин                         : 
Куст               .         3                             : 
Статус             .         Не проверено                  : 
Тип                .         Эксплуатация                  : 
~Parameter Information Block
#_______________________________________________________________________________
#
#PARAMETER_NAME    .UNIT     VALUE                         : DESCRIPTION
#_______________________________________________________________________________
SET                .         LAS3                          : 
REAL_CREATION_DATE .         Ср апр 11 2012-13_17_08       : 
TLFamily_DEPTH     .         Measured Depth                : 
TLFamily_GR        .         Gamma Ray                     : 
TLFamily_TNPH      .         Neutron Porosity              : 
group              .         INI                           : 
~Curve Information
#_______________________________________________________________________________
#
#LOGNAME           .UNIT     LOG_ID                        : DESCRIPTION
#_______________________________________________________________________________
DEPTH              .m                                      : Measured Depth 
GR                 .gAPI                                   :  
TNPH               .v/v                                    : Neutron Porosity 
~Ascii
# ...
2938.6     107.07     0.205     
2938.8     109.08     0.198     
2939       98.49      0.22      
2939.2     87.03      0.197     
2939.4     73.77      0.178     
2939.6     84.17      0.195     
2939.8     102.27     0.24      
2940       118.67     0.224     
2940.2     116.75     0.229     
2940.4     114.26     0.207     
2940.6     119.97     0.208     
2940.8     114.06     0.196     
2941       98         0.192     
2941.2     83.48      0.166     
2941.4     74.45      0.15      
2941.6     72.67999   0.149     
2941.8     59.19      0.159     
2942       56.84      0.168     
2942.2     53.92      0.165     
2942.4     57.54      0.192     
2942.6     66.7       0.165     
2942.8     74.37      0.166     
2943       88.85001   0.19      
2943.2     106.78     0.177     
2943.4     99.56001   0.149     
2943.6     91.33      0.167     
2943.8     85.29      0.155     
2944       77.69      0.137     
2944.2     83.77      0.149     
2944.4     80.39      0.15      
2944.6     68.94      0.137     
2944.8     60.37      0.147     
2945       50.09      0.158     
2945.2     54.07      0.162     
2945.4     52.86      0.138     
2945.6     61.29      0.139     
2945.8     67.07      0.139     
2946       77.69      0.181     
2946.2     92.75      0.173     
2946.4     110.83     0.166     
2946.6     113.56     0.163     
2946.8     97.72      0.18      
2947       85.29      0.203     
2947.2     64.59      0.192     
2947.4     65.01      0.165     
2947.6     62.13      0.174     
2947.8     63.5       0.169     
2948       72.22      0.184     
2948.2     80.76      0.176     
2948.4     93.73      0.181     
2948.6     98.29001   0.202     
2948.8     116.25     0.211     
2949       120        0.185     
2949.2     107.35     0.187     
2949.4     91.54      0.2       
2949.6     89.78      0.193     
2949.8     89.25      0.185     
2950       80.88      0.151     
2950.2     84.75      0.168     
2950.4     83.67      0.164     
2950.6     84.84      0.202     
2950.8     69.96001   0.197     
2951       67.2       0.19      
2951.2     73.31001   0.19      
2951.4     84.29      0.188     
2951.6     88.35      0.156     
2951.8     102.53     0.149     
2952       95.37      0.175     
2952.2     92.24      0.185     
2952.4     108.22     0.177     
2952.6     116.72     0.203     
2952.8     119.72     0.215     
2953       124.34     0.236     
2953.2     128.72     0.24      
2953.4     128.91     0.223     
2953.6     129.72     0.199     
2953.8     123.43     0.195     
2954       123.4      0.211     
2954.2     129.64     0.221     
2954.4     134.37     0.225     
2954.6     124.4      0.243     
2954.8     120.6      0.207     
2955       104.61     0.226     
2955.2     112.63     0.22      
2955.4     122.7      0.202     
2955.6     126.91     0.213     
2955.8     130.8      0.225     
2956       137.5      0.255     
2956.2     148.44     0.238     
2956.4     155.42     0.2       
2956.6     152.23     0.176     
2956.8     153.5      0.196     
2957       152.49     0.211     
2957.2     161.86     0.209     
2957.4     158        0.213     
2957.6     154.94     0.201     
2957.8     131.77     0.187     
2958       135.61     0.213     
2958.2     132.11     0.252     
2958.4     142.87     0.212     
2958.6     121.79     0.201     
2958.8     127.32     0.217     
2959       126.17     0.189     
2959.2     130.41     0.192     
2959.4     134.5      0.18      
2959.6     129.44     0.188     
2959.8     127.81     0.209     
2960       131.31     0.23      
2960.2     140.5      0.231     
2960.4     166.7      0.247     
2960.6     184.89     0.308     
2960.8     221.39     0.309     
2961       217.99     0.299     
2961.2     191.33     0.267     
2961.4     199.53     0.265     
2961.6     203.57     0.251     
2961.8     227.74     0.256     
2962       239.03     0.237     
2962.2     259.58     0.223     
2962.4     245.04     0.229     
2962.6     225.06     0.204     
2962.8     218.31     0.232     
2963       223.15     0.262     
2963.2     213.86     0.237     
2963.4     205.13     0.207     
2963.6     195.83     0.226     
2963.8     186.97     0.234     
2964       198.51     0.262     
2964.2     214.64     0.288     
2964.4     223.89     0.291     
2964.6     230.09     0.303     
2964.8     259.03     0.27      
2965       270.54     0.287     
2965.2     258.57     0.301     
2965.4     249.41     0.291     
2965.6     230.98     0.281     
2965.8     215.01     0.271     
2966       188.51     0.258     
2966.2     179.75     0.257     
2966.4     169.46     0.262     
2966.6     169.21     0.233     
2966.8     184.61     0.229     
2967       186.14     0.251     
2967.2     194.16     0.229     
2967.4     213.28     0.21      
2967.6     242.23     0.24      
2967.8     255.46     0.277     
2968       264.84     0.265     
2968.2     278        0.221     
2968.4     308.58     0.291     
2968.6     349.1      0.324     
2968.8     369.72     0.272     
2969       364.68     0.319     
2969.2     353.93     0.342     
2969.4     352.4      0.309     
2969.6     379.82     0.343     
2969.8     375.5      0.329     
2970       363.72     0.31      
2970.2     369.84     0.307     
2970.4     361.01     0.334     
2970.6     378.43     0.29      
2970.8     378.4      0.273     
2971       368.77     0.293     
2971.2     399.72     0.28      
2971.4     383.01     0.332     
2971.6     365.16     0.344     
2971.8     340.14     0.313     
2972       352.75     0.306     
2972.2     360.13     0.323     
2972.4     366.55     0.321     
2972.6     355.73     0.336     
2972.8     352.67     0.292     
2973       375.84     0.27      
2973.2     375.77     0.316     
2973.4     378.22     0.243     
2973.6     358.13     0.299     
2973.8     352.08     0.323     
2974       345.71     0.374     
2974.2     334.37     0.364     
2974.4     323.49     0.309     
2974.6     314.37     0.27      
2974.8     290.42     0.27      
2975       292.37     0.278     
2975.2     297.94     0.332     
2975.4     290.92     0.313     
2975.6     294.68     0.272     
2975.8     292.18     0.235     
2976       256.86     0.226     
2976.2     237.98     0.231     
2976.4     234.14     0.252     
2976.6     234.52     0.265     
2976.8     242.28     0.295     
2977       232.09     0.262     
2977.2     220.93     0.345     
2977.4     210.84     0.31      
2977.6     184.84     0.291     
2977.8     169.07     0.288     
2978       161.24     0.284     
2978.2     167.93     0.256     
2978.4     164.67     0.248     
2978.6     168.25     0.254     
2978.8     177.75     0.266     
2979       174.17     0.256     
2979.2     163.55     0.268     
2979.4     149.39     0.274     
2979.6     134.47     0.261     
2979.8     126.85     0.223     
2980       109.76     0.19      
2980.2     95.41      0.202     
2980.4     94.81      0.199     
2980.6     120.6      0.183     
2980.8     132.24     0.195     
2981       150.94     0.253     
2981.2     156.91     0.273     
2981.4     144.39     0.234     
2981.6     122.61     0.201     
2981.8     121.5      0.217     
2982       115.44     0.233     
2982.2     106.28     0.223     
2982.4     108.69     0.23      
2982.6     105.86     0.216     
2982.8     117.7      0.228     
2983       119.67     0.243     
2983.2     115.75     0.223     
2983.4     120.55     0.213     
2983.6     114.99     0.211     
2983.8     119.92     0.211     
2984       141.1      0.247     
2984.2     146.08     0.266     
2984.4     139.66     0.269     
2984.6     135.83     0.269     
2984.8     144.11     0.257     
2985       135.43     0.284     
2985.2     144.33     0.264     
2985.4     161.16     0.25      
2985.6     162.15     0.269     
2985.8     171.63     0.253     
2986       171.95     0.269     
2986.2     165.46     0.275     
2986.4     153.28     0.249     
2986.6     139.26     0.245     
2986.8     135.54     0.241     
2987       115.89     0.243     
