~Version
 VERS              .         2.0                           : CWLS LOG ASCII STANDARD - VERSION 2.0
 WRAP              .         NO                            : ONE LINE PER DEPTH STEP
 DLM               .         SPACE                         : DELIMITING CHARACTER(SPACE TAB OR COMMA)
~Well Information
#_______________________________________________________________________________
#
#PARAMETER_NAME    .UNIT     VALUE                         : DESCRIPTION
#_______________________________________________________________________________
STRT               .m        2890                          : First reference value
STOP               .m        3079                          : Last reference value
STEP               .m        0.2                           : Step increment
NULL               .         -9999                         : Missing value
COMP               .                                       : Company
WELL               .         301                           : Well name
FLD                .                                       : Field
LOC                .                                       : Location
CNTY               .                                       : County
STAT               .                                       : State
CTRY               .                                       : Country
SRVC               .                                       : Service Company
DATE               .                                       : Date
API                .                                       : API number
EREF               .m        138.34                        : 
Pad                .         3                             : 
X                  .m        219750                        : 
Y                  .m        249950                        : 
group              .         Pad3                          : 
Интер-р            .         Пузин                         : 
Куст               .         3                             : 
Статус             .         Не проверено                  : 
Тип                .         Эксплуатация                  : 
~Parameter Information Block
#_______________________________________________________________________________
#
#PARAMETER_NAME    .UNIT     VALUE                         : DESCRIPTION
#_______________________________________________________________________________
SET                .         LAS1                          : 
REAL_CREATION_DATE .         Ср апр 11 2012-13_17_08       : 
TLFamily_DEPTH     .         Measured Depth                : 
TLFamily_KS        .         Potential Resistivity         : 
TLFamily_KS1       .         Extra Shallow Resistivity     : 
TLFamily_KS2       .         Shallow Resistivity           : 
TLFamily_KS3       .         Medium Resistivity            : 
TLFamily_KS4       .         Deep Resistivity              : 
TLFamily_KS5       .         Extra Deep Resistivity        : 
TLFamily_LLD       .         Lateral Log Resistivity       : 
TLFamily_OKS3      .         Medium Resistivity Inverted   : 
TLFamily_RM        .         Mud Resistivity               : 
group              .         INI                           : 
~Curve Information
#_______________________________________________________________________________
#
#LOGNAME           .UNIT     LOG_ID                        : DESCRIPTION
#_______________________________________________________________________________
DEPTH              .m                                      : Measured Depth 
KS                 .ohm.m                                  : Potential Resistivity 
KS1                .ohm.m                                  : Extra Shallow Resistivity 
KS2                .ohm.m                                  : Shallow Resistivity 
KS3                .ohm.m                                  : Medium Resistivity 
KS4                .ohm.m                                  : Deep Resistivity 
KS5                .ohm.m                                  : Extra Deep Resistivity 
LLD                .ohm.m                                  : Lateral Log Resistivity 
OKS3               .ohm.m                                  : Medium Resistivity Inverted 
RM                 .ohm.m                                  : Mud Resistivity 
~Ascii
# ...
2977.6     16.2124    2.7382     10.5514    19.6775    23.0707    12.0122    12.2894    25.7527    0.152     
2977.8     16.2424    2.7724     10.6262    19.8161    23.2072    12.0822    12.1129    26.078     0.15      
2978       16.2679    2.7829     10.6815    19.6711    23.0065    12.1337    11.6515    26.2185    0.15      
2978.2     16.3426    2.7024     10.4469    19.2602    22.5464    12.1089    11.1744    26.3291    0.143     
2978.4     16.4015    2.6621     10.3207    18.8248    22.0718    12.081     10.1118    26.7159    0.142     
2978.6     16.5098    2.6012     10.1583    18.5519    21.8531    12.0462    9.4558     27.3955    0.139     
2978.8     16.7748    2.514      9.899      18.1082    21.3849    12.1046    9.4572     27.9656    0.135     
2979       17.1536    2.4279     9.5116     17.6444    20.9445    12.168     9.4614     28.8558    0.13      
2979.2     17.6638    2.3515     9.1887     17.3165    20.6733    12.3019    9.2328     29.9221    0.133     
2979.4     18.3449    2.2926     8.9929     17.0907    20.5623    12.5322    9.4889     30.9912    0.135     
2979.6     19.2322    2.1971     8.6792     17.0727    20.7381    12.9592    10.4265    31.8286    0.139     
2979.8     19.9956    2.234      8.833      17.6604    21.6278    13.5985    12.2147    31.2764    0.141     
2980       20.6026    2.5311     9.8962     19.3016    23.6153    14.3629    33.5983    29.356     0.144     
2980.2     20.8942    2.8885     11.2068    21.4739    26.0866    15.1345    73.9017    26.84      0.147     
2980.4     20.7201    3.3111     12.8725    23.5214    28.2328    15.8014    268.8255   24.8258    0.147     
2980.6     20.4066    3.4639     13.6188    24.5813    29.3089    16.2786    108.4658   23.7405    0.144     
2980.8     19.9362    3.3029     13.456     24.6578    29.1915    16.4524    19.1633    23.6668    0.144     
2981       19.5332    3.2147     13.5447    24.5231    28.9724    16.3108    12.3915    24.0649    0.144     
2981.2     19.3054    3.0839     13.3036    24.3464    28.682     16.1329    11.9823    24.2526    0.146     
2981.4     19.2501    2.9151     12.589     24.0361    28.3456    15.9753    11.7335    24.6595    0.147     
2981.6     19.2535    2.7991     11.9682    23.779     27.9729    15.8802    11.0119    25.1107    0.151     
2981.8     19.2964    2.7865     11.6966    24.0684    28.1349    15.8916    12.0224    25.3529    0.151     
2982       19.4094    2.8115     11.6682    24.6743    28.5386    16.0134    13.9733    25.1214    0.151     
2982.2     19.506     2.8228     11.5565    25.1442    28.9647    16.2098    14.7574    24.9395    0.149     
2982.4     19.4843    2.8833     11.6893    25.3495    29.2686    16.5293    14.6951    24.6939    0.145     
2982.6     19.464     2.8797     11.6788    25.4393    29.8689    16.8328    15.5826    24.4078    0.141     
2982.8     19.3642    2.9341     11.894     25.2661    30.4525    17.0866    15.0187    24.3578    0.141     
2983       19.2871    2.964      12.0536    24.9137    30.8955    17.3576    14.495     24.3332    0.134     
2983.2     19.2122    2.868      11.7658    24.5432    31.2112    17.61      13.99      24.6196    0.132     
2983.4     19.2109    2.84       11.6282    24.0132    31.3978    17.8514    12.2838    25.102     0.134     
2983.6     19.2304    2.7748     11.4       23.6666    31.8408    18.1164    12.0028    25.5734    0.134     
2983.8     19.2895    2.8016     11.499     23.6047    32.5552    18.4506    13.2072    25.7742    0.139     
2984       19.3469    2.7994     11.4401    23.8245    33.5501    18.7936    14.0134    25.9823    0.141     
2984.2     19.3851    2.8065     11.4592    23.8129    34.1091    19.2383    14.0773    25.8148    0.143     
2984.4     19.4545    2.8129     11.4141    23.9188    34.5498    19.6002    13.5429    25.6533    0.146     
2984.6     19.476     2.8398     11.5049    23.8969    34.5455    19.9908    14.2316    25.4974    0.144     
2984.8     19.5142    2.8667     11.5896    23.8959    34.2633    20.4564    14.2846    25.3684    0.143     
2985       19.5134    2.8259     11.5166    23.8473    34.1621    20.8725    13.8404    25.3459    0.141     
2985.2     19.5699    2.8785     11.7084    23.7972    34.0255    21.3432    13.8773    25.3699    0.144     
2985.4     19.6882    2.7989     11.4872    23.3883    33.5791    21.9636    13.6738    25.1094    0.144     
2985.6     19.8596    2.6604     10.9191    23.0894    33.3325    22.711     12.3813    25.0781    0.144     
2985.8     19.9621    2.7379     11.316     23.2103    33.6593    23.4725    13.13      24.54      0.151     
2986       20.0621    2.7994     11.5707    24.0243    34.889     24.4119    17.1557    23.7278    0.146     
2986.2     20.0568    2.9375     12.1206    24.9761    36.202     25.2971    19.3965    22.521     0.141     
2986.4     19.8948    3.0847     12.5646    25.8047    37.1232    26.0513    21.8642    21.5127    0.14      
2986.6     19.6431    3.1528     12.7249    26.4108    37.5773    26.6799    19.9678    20.7802    0.137     
2986.8     19.408     3.0671     12.8668    26.3745    37.4557    27.0638    15.8548    20.4377    0.134     
2987       19.1748    3.0024     12.5354    26.0495    36.8815    27.4349    12.6712    20.5705    0.131     
2987.2     18.9096    2.9982     12.6017    26.0653    36.7597    27.9859    12.0206    20.7318    0.132     
2987.4     18.6272    3.0688     12.9124    26.7214    37.5694    28.5986    13.2482    20.3442    0.132     
2987.6     18.2982    3.1924     13.3513    27.5539    38.4612    29.2505    16.7602    19.6539    0.135     
2987.8     17.7719    3.3045     13.7375    28.4206    39.3663    29.6502    18.4993    18.7934    0.141     
2988       17.2391    3.392      13.7534    28.5231    38.9218    29.7501    16.2306    17.9656    0.141     
2988.2     16.7773    3.1182     12.5118    27.5174    37.1713    29.3754    13.5655    17.6759    0.139     
2988.4     16.3556    3.0375     12.4519    25.421     34.656     28.7536    8.5946     18.1811    0.145     
2988.6     16.1647    2.7628     11.487     23.9169    32.9081    27.9328    7.6698     19.0844    0.144     
2988.8     16.1407    2.5653     10.6988    22.5424    31.5128    27.3623    7.4128     19.8833    0.141     
2989       16.2844    2.5475     10.4595    21.9867    30.8878    26.9522    8.6891     20.5337    0.143     
2989.2     16.4515    2.5509     10.235     21.7316    30.7262    26.8758    9.3635     20.9214    0.147     
2989.4     16.6126    2.6195     10.2812    21.8313    30.8605    26.9074    10.9728    21.0074    0.15      
2989.6     16.7154    2.7186     10.4813    22.001     31.2808    26.9768    12.5392    20.8416    0.146     
2989.8     16.7418    2.7528     10.5961    22.0595    31.4647    26.9798    12.52      20.8755    0.141     
2990       16.68      2.8398     10.9066    21.8727    31.466     27.024     12.7788    21.0365    0.137     
2990.2     16.5005    2.8132     10.941     21.8984    31.7596    26.8353    12.5286    21.2492    0.134     
2990.4     16.2494    2.9838     11.6521    21.6986    31.6073    26.4414    11.7608    21.3471    0.132     
2990.6     16.1237    2.8672     11.1557    21.0325    30.307     25.8641    12.108     21.9006    0.132     
2990.8     16.0192    2.742      10.7542    19.9185    28.2634    25.3448    8.4351     22.8396    0.134     
2991       16.0402    2.5996     10.2222    19.0946    27.0002    24.6997    7.7227     24.2344    0.137     
2991.2     16.1984    2.4542     9.6925     18.4195    26.0189    24.3017    7.3726     25.8566    0.141     
2991.4     16.4282    2.4088     9.4424     18.2682    25.7416    23.9868    8.2273     27.3435    0.142     
2991.6     16.7666    2.4958     9.6546     18.2469    25.4414    23.9044    9.913      28.2357    0.144     
2991.8     17.24      2.402      9.1873     17.8838    24.7107    24.0294    9.7377     29.1913    0.145     
2992       17.7363    2.2471     8.5918     17.2325    23.9051    24.2404    9.019      30.3737    0.142     
