~Version
 VERS              .         2.0                           : CWLS LOG ASCII STANDARD - VERSION 2.0
 WRAP              .         NO                            : ONE LINE PER DEPTH STEP
 DLM               .         SPACE                         : DELIMITING CHARACTER(SPACE TAB OR COMMA)
~Well Information
#_______________________________________________________________________________
#
#PARAMETER_NAME    .UNIT     VALUE                         : DESCRIPTION
#_______________________________________________________________________________
STRT               .m        2718.7                        : First reference value
STOP               .m        2945.100113                   : Last reference value
STEP               .m        0.2000001                     : Step increment
NULL               .         -9999                         : Missing value
COMP               .                                       : Company
WELL               .         302                           : Well name
FLD                .                                       : Field
LOC                .                                       : Location
CNTY               .                                       : County
STAT               .                                       : State
CTRY               .                                       : Country
SRVC               .                                       : Service Company
DATE               .                                       : Date
API                .                                       : API number
EREF               .m        138.34                        : 
Pad                .         3                             : 
X                  .m        219750                        : 
Y                  .m        249950                        : 
group              .         Pad3                          : 
Интер-р            .         Зайцев                        : 
Куст               .         3                             : 
Статус             .         Не проверено                  : 
Тип                .         Разведка                      : 
~Parameter Information Block
#_______________________________________________________________________________
#
#PARAMETER_NAME    .UNIT     VALUE                         : DESCRIPTION
#_______________________________________________________________________________
SET                .         LAS1                          : 
REAL_CREATION_DATE .         Ср апр 11 2012-13_17_08       : 
TLFamily_DEPTH     .         Measured Depth                : 
TLFamily_KS        .         Potential Resistivity         : 
TLFamily_KS1       .         Extra Shallow Resistivity     : 
TLFamily_KS2       .         Shallow Resistivity           : 
TLFamily_KS3       .         Medium Resistivity            : 
TLFamily_KS4       .         Deep Resistivity              : 
TLFamily_KS5       .         Extra Deep Resistivity        : 
TLFamily_LLD       .         Lateral Log Resistivity       : 
TLFamily_OKS3      .         Medium Resistivity Inverted   : 
TLFamily_RM        .         Mud Resistivity               : 
group              .         INI                           : 
~Curve Information
#_______________________________________________________________________________
#
#LOGNAME           .UNIT     LOG_ID                        : DESCRIPTION
#_______________________________________________________________________________
DEPTH              .m                                      : Measured Depth 
KS                 .ohm.m                                  : Potential Resistivity 
KS1                .ohm.m                                  : Extra Shallow Resistivity 
KS2                .ohm.m                                  : Shallow Resistivity 
KS3                .ohm.m                                  : Medium Resistivity 
KS4                .ohm.m                                  : Deep Resistivity 
KS5                .ohm.m                                  : Extra Deep Resistivity 
LLD                .ohm.m                                  : Lateral Log Resistivity 
OKS3               .ohm.m                                  : Medium Resistivity Inverted 
RM                 .ohm.m                                  : Mud Resistivity 
~Ascii
# ...
2762.500022 6.943      2.7765     8.5275     10.8153    8.811      5.699      5.984      11.1547    0.195     
2762.700022 6.9532     2.7461     8.4162     10.8476    8.8536     5.7251     5.892      11.1095    0.188     
2762.900022 6.9329     2.7833     8.4817     10.9185    8.9682     5.7512     6.0721     11.0708    0.188     
2763.100022 6.9126     2.8036     8.5668     10.9894    9.0534     5.7772     6.1137     11.0837    0.192     
2763.300022 6.872      2.8238     8.6126     10.9829    9.0665     5.8294     5.9139     11.1741    0.195     
2763.500022 6.8584     2.7833     8.5144     10.9056    9.0403     5.8685     5.6919     11.258     0.192     
2763.700022 6.8517     2.736      8.4162     10.8024    9.0469     5.9206     5.6571     11.3031    0.188     
2763.900023 6.8381     2.7698     8.521      10.7831    9.1058     5.9337     5.9402     11.3677    0.192     
2764.100023 6.8111     2.7833     8.5275     10.8347    9.1386     5.9467     5.8492     11.4645    0.195     
2764.300023 6.8246     2.7833     8.4882     10.8024    9.0665     5.9858     5.7984     11.4322    0.195     
2764.500023 6.8517     2.7089     8.2461     10.6574    8.9813     5.9988     5.7965     11.4064    0.195     
2764.700023 6.8584     2.7157     8.2591     10.5381    8.9682     6.0119     5.6511     11.4709    0.192     
2764.900023 6.8584     2.736      8.2853     10.5768    9.0403     6.0249     5.6933     11.5935    0.195     
2765.100023 6.8652     2.7292     8.3311     10.5768    9.06       6.051      5.8047     11.5935    0.199     
2765.300023 6.9329     2.7292     8.305      10.493     8.9944     6.077      6.0547     11.4387    0.199     
2765.500023 6.9938     2.6819     8.1479     10.3899    8.8896     6.0901     5.9668     11.2515    0.195     
2765.700023 7.0209     2.736      8.2264     10.3899    8.8503     6.1161     6.0479     11.1741    0.195     
2765.900024 7.0073     2.7495     8.2657     10.5317    8.8962     6.1422     6.0479     11.2257    0.199     
2766.100024 6.987      2.8103     8.5471     10.6606    9.0075     6.1813     6.0138     11.3031    0.199     
2766.300024 6.9938     2.7968     8.5733     10.7186    9.0665     6.2074     6.0547     11.2192    0.199     
2766.500024 7.0445     2.7427     8.4097     10.6477    9.001      6.2334     6.1136     11.0708    0.199     
2766.700024 7.0141     2.8036     8.4555     10.6413    8.9617     6.2465     6.0648     11.045     0.199     
2766.900024 6.9599     2.8576     8.5799     10.7895    9.0796     6.266      6.0373     11.1353    0.202     
2767.100024 6.9396     2.8374     8.7108     10.9378    9.1582     6.2986     5.9495     11.1482    0.199     
2767.300024 6.9464     2.7833     8.5668     10.9507    9.1124     6.3247     5.8535     11.0902    0.195     
2767.500024 6.9329     2.7833     8.521      10.9056    9.0403     6.3377     5.8406     11.0321    0.195     
2767.700024 6.8923     2.8171     8.5733     10.9314    9.0665     6.3377     5.8022     11.045     0.195     
2767.900025 6.8652     2.8238     8.5602     10.9507    9.0927     6.3116     5.7363     11.0127    0.195     
2768.100025 6.8787     2.7698     8.4555     10.8476    9.0272     6.2986     5.7564     10.7675    0.192     
2768.300025 6.899      2.7292     8.3181     10.7122    8.9486     6.2856     5.7724     10.5545    0.188     
2768.500025 6.899      2.763      8.3377     10.6671    8.9224     6.2856     5.7131     10.348     0.188     
2768.700025 6.8855     2.7562     8.3246     10.6735    8.9486     6.2986     5.6537     10.206     0.188     
2768.900025 6.8855     2.763      8.3704     10.6477    8.9944     6.3377     5.7456     10.0576    0.188     
2769.100025 6.899      2.7495     8.377      10.6606    9.0534     6.3768     5.8688     9.9091     0.188     
2769.300025 6.9126     2.7698     8.3966     10.6735    9.1058     6.4159     5.8974     9.8059     0.188     
2769.500025 6.9193     2.7765     8.3704     10.6864    9.1517     6.455      5.88       9.7671     0.188     
2769.700025 6.8855     2.8103     8.4555     10.738     9.191      6.4941     5.9157     9.7671     0.192     
2769.900026 6.8449     2.8306     8.5602     10.8669    9.3154     6.5463     5.9208     9.78       0.192     
2770.100026 6.7772     2.8509     8.6584     11.0023    9.4268     6.5984     6.0558     9.7865     0.192     
2770.300026 6.6757     2.905      8.8286     11.1441    9.5316     6.6636     5.9913     9.7671     0.192     
2770.500026 6.4727     2.9388     8.9071     11.2472    9.6299     6.6896     5.6732     9.78       0.195     
2770.700026 6.3035     2.9421     8.966      11.1763    9.5447     6.6896     5.1088     9.9349     0.195     
2770.900026 6.1885     2.8171     8.7042     10.9507    9.3351     6.6245     4.6129     10.2254    0.199     
2771.100026 6.1343     2.7022     8.4097     10.5639    9.0534     6.5463     4.5439     10.5416    0.199     
2771.300026 6.1411     2.594      7.9155     10.19      8.7979     6.455      4.6059     10.8062    0.199     
2771.500026 6.2155     2.5264     7.5916     9.8613     8.5621     6.3898     4.6414     11.0321    0.195     
2771.700026 6.3035     2.5129     7.4214     9.597      8.418      6.3507     4.842      11.1611    0.195     
2771.900027 6.4321     2.5264     7.3625     9.4423     8.3197     6.3247     5.0254     11.1031    0.192     
2772.100027 6.5471     2.5602     7.3756     9.3392     8.2607     6.3247     5.2835     10.8191    0.192     
2772.300027 6.6148     2.6278     7.5196     9.2876     8.228      6.3247     5.767      10.5932    0.192     
2772.500027 6.6419     2.6954     7.7355     9.3005     8.2345     6.3507     5.588      10.4319    0.188     
2772.700027 6.6757     2.6819     7.8206     9.2876     8.228      6.3898     5.8314     10.277     0.188     
2772.900027 6.7163     2.6819     7.945      9.2618     8.228      6.4289     5.8913     10.0898    0.188     
2773.100027 6.7569     2.6954     8.0563     9.3005     8.2345     6.4681     5.8473     9.8704     0.192     
2773.300027 6.7908     2.7224     8.0955     9.4101     8.2542     6.5202     5.8404     9.6832     0.192     
2773.500027 6.784      2.7562     8.1937     9.6099     8.3        6.5984     5.8404     9.5606     0.192     
2773.700028 6.7502     2.79       8.3246     9.8742     8.4114     6.7027     5.8439     9.5413     0.195     
2773.900028 6.6893     2.8036     8.4424     10.1514    8.5293     6.846      5.8241     9.5606     0.195     
2774.100028 6.6216     2.8171     8.5471     10.4543    8.6734     6.9764     5.6432     9.6187     0.199     
2774.300028 6.5201     2.8103     8.6649     10.738     8.8634     7.0807     5.9434     9.6316     0.199     
2774.500028 6.3407     2.8779     8.8089     10.9442    9.0141     7.1067     5.3328     9.6832     0.199     
2774.700028 6.1885     2.8509     8.7566     10.9442    8.9158     7.0741     4.9047     9.7736     0.199     
2774.900028 6.0667     2.7765     8.5471     10.7831    8.7062     6.9112     4.6389     9.9414     0.199     
2775.100028 5.999      2.6684     8.305      10.4866    8.4376     6.7548     4.4426     10.1673    0.195     
2775.300028 5.9787     2.5805     7.8697     10.1514    8.1952     6.5984     4.4867     10.4448    0.195     
2775.500028 5.999      2.5332     7.5981     9.842      8.0183     6.455      4.5663     10.7481    0.192     
2775.700028 6.0802     2.4926     7.3625     9.5648     7.9135     6.3507     4.6181     10.9998    0.192     
2775.900029 6.1749     2.4656     7.1727     9.3198     7.8349     6.2856     4.8277     11.3451    0.188     
2776.100029 6.29       2.4994     7.1858     9.1522     7.8087     6.2334     5.2032     11.5419    0.185     
2776.300029 6.405      2.5264     7.2185     9.0684     7.8087     6.1813     5.2816     11.6065    0.185     
2776.500029 6.5133     2.5872     7.3363     8.9749     7.7628     6.1422     5.5943     11.6065    0.185     
2776.700029 6.6148     2.594      7.3887     8.8944     7.7039     6.1031     5.4515     11.5806    0.185     
2776.900029 6.6825     2.621      7.5523     8.9008     7.7104     6.051      5.6653     11.5613    0.185     
