~Version
 VERS              .         2.0                           : CWLS LOG ASCII STANDARD - VERSION 2.0
 WRAP              .         NO                            : ONE LINE PER DEPTH STEP
 DLM               .         SPACE                         : DELIMITING CHARACTER(SPACE TAB OR COMMA)
~Well Information
#_______________________________________________________________________________
#
#PARAMETER_NAME    .UNIT     VALUE                         : DESCRIPTION
#_______________________________________________________________________________
STRT               .m        2718.7                        : First reference value
STOP               .m        2945.100113                   : Last reference value
STEP               .m        0.2000001                     : Step increment
NULL               .         -9999                         : Missing value
COMP               .                                       : Company
WELL               .         302                           : Well name
FLD                .                                       : Field
LOC                .                                       : Location
CNTY               .                                       : County
STAT               .                                       : State
CTRY               .                                       : Country
SRVC               .                                       : Service Company
DATE               .                                       : Date
API                .                                       : API number
EREF               .m        138.34                        : 
Pad                .         3                             : 
X                  .m        219750                        : 
Y                  .m        249950                        : 
group              .         Pad3                          : 
Интер-р            .         Зайцев                        : 
Куст               .         3                             : 
Статус             .         Не проверено                  : 
Тип                .         Разведка                      : 
~Parameter Information Block
#_______________________________________________________________________________
#
#PARAMETER_NAME    .UNIT     VALUE                         : DESCRIPTION
#_______________________________________________________________________________
SET                .         LAS1                          : 
REAL_CREATION_DATE .         Ср апр 11 2012-13_17_08       : 
TLFamily_DEPTH     .         Measured Depth                : 
TLFamily_KS        .         Potential Resistivity         : 
TLFamily_KS1       .         Extra Shallow Resistivity     : 
TLFamily_KS2       .         Shallow Resistivity           : 
TLFamily_KS3       .         Medium Resistivity            : 
TLFamily_KS4       .         Deep Resistivity              : 
TLFamily_KS5       .         Extra Deep Resistivity        : 
TLFamily_LLD       .         Lateral Log Resistivity       : 
TLFamily_OKS3      .         Medium Resistivity Inverted   : 
TLFamily_RM        .         Mud Resistivity               : 
group              .         INI                           : 
~Curve Information
#_______________________________________________________________________________
#
#LOGNAME           .UNIT     LOG_ID                        : DESCRIPTION
#_______________________________________________________________________________
DEPTH              .m                                      : Measured Depth 
KS                 .ohm.m                                  : Potential Resistivity 
KS1                .ohm.m                                  : Extra Shallow Resistivity 
KS2                .ohm.m                                  : Shallow Resistivity 
KS3                .ohm.m                                  : Medium Resistivity 
KS4                .ohm.m                                  : Deep Resistivity 
KS5                .ohm.m                                  : Extra Deep Resistivity 
LLD                .ohm.m                                  : Lateral Log Resistivity 
OKS3               .ohm.m                                  : Medium Resistivity Inverted 
RM                 .ohm.m                                  : Mud Resistivity 
~Ascii
# ...
2791.700036 6.29       2.5872     7.9057     9.9258     8.4311     6.2986     4.84       10.8707    0.195     
2791.900037 6.3712     2.5467     7.6701     9.7517     8.2607     6.3116     4.9684     11.0514    0.195     
2792.100037 6.4524     2.5332     7.4803     9.5841     8.1625     6.3116     5.3271     11.1741    0.195     
2792.300037 6.5268     2.5737     7.6374     9.5519     8.1428     6.3116     5.7963     11.2321    0.199     
2792.500037 6.608      2.6481     7.7028     9.6099     8.1756     6.3247     5.5763     11.1321    0.199     
2792.700037 6.669      2.6548     7.7355     9.655      8.169      6.3507     5.6733     11.0063    0.195     
2792.900037 6.6893     2.7224     7.9384     9.6937     8.1821     6.3507     5.5134     10.9611    0.192     
2793.100037 6.7028     2.736      8.017      9.6808     8.2018     6.3377     5.4455     10.9288    0.188     
2793.300037 6.7096     2.7157     8.0563     9.6421     8.1625     6.3507     5.5626     10.8901    0.188     
2793.500037 6.7096     2.736      8.1872     9.6744     8.169      6.3247     5.374      10.8772    0.185     
2793.700037 6.7163     2.7292     8.2002     9.7001     8.169      6.3116     5.2585     10.8965    0.185     
2793.900038 6.7434     2.6954     8.0955     9.7517     8.169      6.3247     5.4215     10.9353    0.182     
2794.100038 6.7637     2.6886     8.1217     9.8742     8.2018     6.3247     5.7669     10.9482    0.185     
2794.300038 6.7908     2.7562     8.2788     10.0547    8.2673     6.3247     5.8637     10.8707    0.185     
2794.500038 6.8246     2.736      8.2068     10.1707    8.2804     6.3247     5.8497     10.7417    0.185     
2794.700038 6.8381     2.7698     8.2591     10.2158    8.2411     6.2856     5.501      10.7352    0.185     
2794.900038 6.7908     2.7698     8.2788     10.2932    8.2673     6.253      5.5564     10.8514    0.185     
2795.100038 6.7299     2.7799     8.4097     10.3899    8.3295     6.2334     5.7314     10.9288    0.185     
2795.300038 6.696      2.7968     8.521      10.4737    8.3459     6.2204     5.4692     10.9675    0.185     
2795.500038 6.6419     2.7833     8.5275     10.4801    8.3066     6.2074     5.2431     11.0643    0.188     
2795.700038 6.608      2.736      8.413      10.435     8.3066     6.1813     5.2161     11.2192    0.188     
2795.900039 6.5674     2.7292     8.3377     10.4092    8.3459     6.1422     5.2995     11.3935    0.188     
2796.100039 6.5674     2.7224     8.2788     10.377     8.3393     6.0901     4.824      11.5226    0.192     
2796.300039 6.6284     2.6548     7.9908     10.2094    8.2542     6.0901     4.6559     11.742     0.192     
2796.500039 6.6893     2.5196     7.6635     10.0482    8.2345     6.051      5.5275     12.013     0.192     
2796.700039 6.784      2.6008     7.8992     9.9709     8.2738     6.0119     5.6647     11.984     0.195     
2796.900039 6.9193     2.6008     7.8272     9.9773     8.3197     6.0119     5.9438     11.7936    0.192     
2797.100039 7.0073     2.6413     7.873      9.9515     8.3262     6.0119     6.2072     11.6194    0.188     
2797.300039 7.0615     2.7089     8.0563     10.0676    8.3983     5.9988     6.1094     11.4516    0.188     
2797.500039 7.0885     2.763      8.2591     10.19      8.5097     5.9988     6.1132     11.2644    0.185     
2797.70004 7.1021     2.7968     8.4555     10.2223    8.5686     6.0119     5.8789     11.0966    0.185     
2797.90004 7.1021     2.7562     8.4097     10.2352    8.5621     6.0249     5.827      10.9611    0.188     
2798.10004 7.0885     2.763      8.5144     10.3319    8.6014     6.0379     5.9578     10.8449    0.188     
2798.30004 7.0412     2.7968     8.6846     10.5575    8.7521     6.051      5.7935     10.7675    0.188     
2798.50004 7.0005     2.8238     8.7762     10.738     8.9027     6.0901     5.9368     10.6513    0.188     
2798.70004 6.9464     2.8103     8.7762     10.912     8.9879     6.1292     5.6889     10.5029    0.195     
2798.90004 6.9058     2.8374     8.8024     11.0603    8.9977     6.1422     5.3338     10.3738    0.195     
2799.10004 6.8754     2.7698     8.5602     11.0538    8.9158     6.1683     5.4727     10.3222    0.192     
2799.30004 6.8449     2.7292     8.449      11.0152    8.9158     6.1683     5.5511     10.2963    0.195     
2799.50004 6.8314     2.736      8.462      11.0667    8.9944     6.2204     5.5026     10.2254    0.195     
2799.70004 6.8111     2.7562     8.4686     11.1118    9.0796     6.2595     5.5633     10.1931    0.195     
2799.900041 6.7975     2.7427     8.4326     11.1183    9.1451     6.2986     5.6266     10.1544    0.192     
2800.100041 6.7637     2.7765     8.4817     11.1118    9.2237     6.3377     5.7163     10.1285    0.192     
2800.300041 6.7231     2.8171     8.5471     11.1183    9.2958     6.3768     5.6469     10.0834    0.188     
2800.500041 6.669      2.8036     8.4948     11.099     9.3417     6.4029     5.5045     10.0253    0.185     
2800.700041 6.5877     2.8036     8.5079     11.0345    9.3941     6.4159     5.4622     9.9446     0.185     
2800.900041 6.4795     2.8306     8.5929     11.0152    9.4792     6.4159     5.1291     9.9995     0.182     
2801.100041 6.3915     2.7968     8.5144     10.8669    9.4268     6.4029     4.8037     10.1415    0.182     
2801.300041 6.3441     2.6751     8.1806     10.551     9.3089     6.3768     4.7413     10.2447    0.185     
2801.500041 6.2968     2.6548     8.1806     10.3641    9.1517     6.3377     5.1595     10.2447    0.188     
2801.700041 6.29       2.6413     8.0563     10.2996    9.0993     6.2986     4.9349     10.2576    0.185     
2801.900042 6.29       2.621      7.8926     10.1191    8.9617     6.2725     4.6818     10.4319    0.188     
2802.100042 6.2832     2.6075     7.8075     9.958      8.7979     6.2334     4.9165     10.5609    0.192     
2802.300042 6.3238     2.567      7.6766     9.7839     8.6341     6.2074     5.157      10.5351    0.192     
2802.500042 6.4186     2.5264     7.5719     9.6486     8.4835     6.1813     5.2577     10.4835    0.192     
2802.700042 6.4727     2.5602     7.6177     9.6099     8.4245     6.1813     5.3505     10.4964    0.192     
2802.900042 6.4998     2.6346     7.7617     9.6357     8.4311     6.1813     5.4967     10.477     0.188     
2803.100042 6.5201     2.6481     7.8272     9.6357     8.4278     6.1943     5.6459     10.3996    0.188     
2803.300042 6.5302     2.6751     7.9712     9.655      8.3983     6.1943     5.5163     10.277     0.185     
2803.500042 6.493      2.7393     8.1086     9.7388     8.3983     6.1943     5.3326     10.2124    0.185     
2803.700042 6.4592     2.7495     8.2133     9.8033     8.3852     6.1943     5.0844     10.2124    0.188     
2803.900043 6.4321     2.7089     8.1806     9.8033     8.3459     6.1813     5.0298     10.2834    0.188     
2804.100043 6.4253     2.6616     8.0824     9.7388     8.2738     6.1813     5.1872     10.3673    0.188     
2804.300043 6.4456     2.6616     8.0497     9.713      8.2214     6.1683     5.2559     10.4157    0.195     
2804.500043 6.4592     2.6413     7.9515     9.771      8.1952     6.1683     5.3989     10.4061    0.195     
2804.700043 6.4659     2.6684     7.9777     9.8355     8.2018     6.1552     5.5508     10.3286    0.195     
2804.900043 6.4456     2.7292     8.1152     9.9193     8.1952     6.1292     5.4421     10.1995    0.192     
2805.100043 6.4321     2.7224     8.089      9.9902     8.1494     6.1161     5.2042     10.0769    0.192     
2805.300043 6.3983     2.7157     8.0955     9.9741     8.0642     6.077      5.1591     10.0188    0.188     
2805.500043 6.3644     2.6954     8.089      9.9258     7.9987     6.0249     5.1378     9.9543     0.185     
2805.700043 6.3577     2.6819     8.0497     9.8162     7.9397     5.9597     5.051      9.8317     0.185     
2805.900044 6.3577     2.6413     7.9188     9.6937     7.848      5.8946     5.16       9.7091     0.182     
2806.100044 6.3577     2.6346     7.8992     9.6228     7.789      5.8294     5.2564     9.5413     0.182     
