~Version
 VERS              .         2.0                           : CWLS LOG ASCII STANDARD - VERSION 2.0
 WRAP              .         NO                            : ONE LINE PER DEPTH STEP
 DLM               .         SPACE                         : DELIMITING CHARACTER(SPACE TAB OR COMMA)
~Well Information
#_______________________________________________________________________________
#
#PARAMETER_NAME    .UNIT     VALUE                         : DESCRIPTION
#_______________________________________________________________________________
STRT               .m        2718.7                        : First reference value
STOP               .m        2945.100113                   : Last reference value
STEP               .m        0.2000001                     : Step increment
NULL               .         -9999                         : Missing value
COMP               .                                       : Company
WELL               .         302                           : Well name
FLD                .                                       : Field
LOC                .                                       : Location
CNTY               .                                       : County
STAT               .                                       : State
CTRY               .                                       : Country
SRVC               .                                       : Service Company
DATE               .                                       : Date
API                .                                       : API number
EREF               .m        138.34                        : 
Pad                .         3                             : 
X                  .m        219750                        : 
Y                  .m        249950                        : 
group              .         Pad3                          : 
Интер-р            .         Зайцев                        : 
Куст               .         3                             : 
Статус             .         Не проверено                  : 
Тип                .         Разведка                      : 
~Parameter Information Block
#_______________________________________________________________________________
#
#PARAMETER_NAME    .UNIT     VALUE                         : DESCRIPTION
#_______________________________________________________________________________
SET                .         LAS1                          : 
REAL_CREATION_DATE .         Ср апр 11 2012-13_17_08       : 
TLFamily_DEPTH     .         Measured Depth                : 
TLFamily_KS        .         Potential Resistivity         : 
TLFamily_KS1       .         Extra Shallow Resistivity     : 
TLFamily_KS2       .         Shallow Resistivity           : 
TLFamily_KS3       .         Medium Resistivity            : 
TLFamily_KS4       .         Deep Resistivity              : 
TLFamily_KS5       .         Extra Deep Resistivity        : 
TLFamily_LLD       .         Lateral Log Resistivity       : 
TLFamily_OKS3      .         Medium Resistivity Inverted   : 
TLFamily_RM        .         Mud Resistivity               : 
group              .         INI                           : 
~Curve Information
#_______________________________________________________________________________
#
#LOGNAME           .UNIT     LOG_ID                        : DESCRIPTION
#_______________________________________________________________________________
DEPTH              .m                                      : Measured Depth 
KS                 .ohm.m                                  : Potential Resistivity 
KS1                .ohm.m                                  : Extra Shallow Resistivity 
KS2                .ohm.m                                  : Shallow Resistivity 
KS3                .ohm.m                                  : Medium Resistivity 
KS4                .ohm.m                                  : Deep Resistivity 
KS5                .ohm.m                                  : Extra Deep Resistivity 
LLD                .ohm.m                                  : Lateral Log Resistivity 
OKS3               .ohm.m                                  : Medium Resistivity Inverted 
RM                 .ohm.m                                  : Mud Resistivity 
~Ascii
# ...
2893.900088 6.1343     2.6278     7.7159     10.2094    14.1174    6.2856     5.2958     8.0763     0.178     
2894.100088 6.0734     2.6346     7.5719     9.842      13.4295    6.1552     5.1285     8.4183     0.175     
2894.300088 5.9787     2.5534     7.369      9.4842     12.6663    6.0379     4.8966     8.7604     0.175     
2894.500088 5.8772     2.665      7.5326     9.2489     11.6607    5.9206     4.301      9.0572     0.175     
2894.700088 5.7824     2.6075     7.3559     8.9782     10.7763    5.8163     4.1509     9.438      0.178     
2894.900088 5.6809     2.5737     7.1858     8.5463     9.8395     5.8163     3.6776     10.0317    0.178     
2895.100088 5.5727     2.5061     6.9501     8.2111     9.1582     5.8685     3.7748     10.8901    0.172     
2895.300088 5.5321     2.4318     6.7145     7.8372     8.5948     6.1422     3.7654     12.155     0.172     
2895.500088 5.5794     2.229      6.204      7.3924     8.1297     6.7027     3.8685     13.7039    0.182     
2895.700088 5.7418     2.114      5.8506     7.0314     7.9921     7.3674     6.565      15.8788    0.178     
2895.900089 6.0464     1.9653     5.5037     6.9025     8.2083     8.1755     8.0937     18.6797    0.172     
2896.100089 6.4592     1.8572     5.2877     6.9412     8.5948     9.2052     8.1619     19.6736    0.172     
2896.300089 7.2103     1.9991     5.6542     7.2796     9.0469     10.3392    7.4476     19.8737    0.178     
2896.500089 7.7652     2.2966     6.0404     7.6889     9.453      11.3558    8.1174     19.764     0.175     
2896.700089 8.2322     2.3844     6.3676     7.8823     9.6954     13.0242    8.5924     19.6865    0.182     
2896.900089 8.6721     2.3777     6.5443     8.0048     9.8788     14.471     8.1969     19.6865    0.175     
2897.100089 9.0375     2.4453     7.2807     8.34       10.4488    15.8656    9.1908     20.3125    0.165     
2897.300089 9.3488     2.6616     8.39       8.9588     11.2677    17.4427    13.5168    21.8292    0.178     
2897.500089 9.5856     2.7157     8.8351     9.8162     12.1521    19.1372    16.0646    23.3458    0.178     
2897.700089 9.836      2.932      10.0001    10.8282    12.8727    20.9098    14.4844    23.7943    0.175     
2897.90009 9.9105     3.2835     10.9819    12.169     13.6981    22.7476    5.6822     23.4426    0.185     
2898.10009 9.8293     3.635      12.0618    13.5163    14.4515    24.3377    8.1948     24.4881    0.178     
2898.30009 9.9138     3.4728     11.1455    14.596     14.9854    25.563     11.9878    26.3403    0.178     
2898.50009 9.9037     2.9489     10.3928    14.9022    14.9297    26.0582    12.9501    27.8118    0.178     
2898.70009 10.012     3.1483     11.2568    15.7853    14.517     24.8982    8.9399     27.0761    0.185     
2898.90009 10.1135    3.1821     11.7804    16.127     13.5606    22.6433    7.9692     25.1593    0.182     
2899.10009 10.2218    2.9928     10.7463    15.637     12.0866    20.1017    7.7995     23.0231    0.175     
2899.30009 10.3165    2.8374     10.0525    14.9409    10.8484    17.4167    8.5656     21.6097    0.175     
2899.50009 10.3909    2.7157     9.7383     14.4896    10.023     15.3051    8.7469     20.8837    0.188     
2899.70009 10.5127    2.6886     9.6074     14.3929    9.5447     13.5846    9.1966     20.4029    0.178     
2899.900091 10.6616    2.6481     9.4045     14.4638    9.3875     12.3073    9.8374     20.2738    0.177     
2900.100091 10.797     2.6886     9.4765     14.625     9.5775     11.3298    10.0397    20.3771    0.182     
2900.300091 10.9526    2.7664     9.6794     15.0762    10.4488    10.5607    10.8418    20.5126    0.178     
2900.500091 11.088     2.8103     9.7842     15.3792    11.1236    9.8504     11.0394    20.2932    0.185     
2900.700091 11.2233    2.8036     9.758      15.8627    11.6673    9.3486     11.6332    19.7898    0.178     
2900.900091 11.3248    2.8847     10.0263    16.359     12.3093    9.0488     11.4233    19.2735    0.175     
2901.100091 11.3992    2.9455     10.3012    16.9069    13.0561    8.9315     10.9968    19.1767    0.178     
2901.300091 11.4331    2.959      10.5172    17.3517    13.9405    8.9836     12.6674    19.4542    0.182     
2901.500091 11.4331    2.9861     10.7332    17.8932    15.0739    9.14       13.9964    19.9221    0.178     
2901.700091 11.4128    3.0807     11.1979    18.6281    16.7378    9.4529     14.0585    20.1447    0.185     
2901.900092 11.3248    3.2497     11.7346    19.5563    18.6114    9.9612     11.5317    20.248     0.175     
2902.100092 11.1083    3.3105     11.9506    20.5813    20.5964    10.7302    10.7329    20.7191    0.178     
2902.300092 10.8579    3.3376     12.2124    22.2186    24.229     11.812     11.4994    21.7775    0.182     
2902.500092 10.6142    3.3511     12.6247    23.8946    28.8115    12.972     11.2474    23.1651    0.182     
2902.700092 10.3774    3.3579     12.9192    25.764     33.7314    13.4543    14.7134    24.4365    0.182     
2902.900092 10.2353    3.4931     13.6556    26.4795    36.319     13.2979    9.6623     24.5075    0.178     
2903.100092 10.2285    3.3241     12.7622    25.4352    35.0219    12.6462    8.6748     23.2232    0.175     
2903.300092 10.2759    3.1145     11.7739    23.3015    32.1198    11.3819    8.4302     20.7708    0.185     
2903.500092 10.3436    2.959      11.1455    21.4837    29.4076    10.1176    9.2778     19.5058    0.182     
2903.700092 10.418     2.932      10.9099    20.5103    27.6323    9.2313     10.733     18.7701    0.183     
2903.900093 10.4586    3.0131     11.1586    20.1365    26.5317    8.6187     11.492     18.1376    0.175     
2904.100093 10.4857    3.1348     11.355     19.9334    25.5163    8.2798     11.1312    17.5503    0.182     
2904.300093 10.4315    3.2294     11.4793    19.6788    24.2388    8.0973     11.5929    16.9243    0.182     
2904.500093 10.2962    3.3038     11.6299    19.6401    23.623     7.9148     11.541     16.4145    0.182     
2904.700093 10.0999    3.4119     11.9408    19.479     22.66      7.7324     9.9817     16.066     0.182     
2904.900093 9.9578     3.3443     11.3811    18.6474    20.924     7.5238     6.121      16.4403    0.175     
2905.100093 9.8766     2.9861     10.4976    17.4806    18.8276    7.2631     7.2031     17.4987    0.182     
2905.300093 9.9375     2.8238     9.9478     16.3332    17.2423    7.0155     7.3123     19.1573    0.182     
2905.500093 10.0796    2.6548     9.3784     15.708     16.312     6.9894     8.7444     20.2093    0.185     
2905.700093 10.2285    2.6954     9.4176     15.6177    16.181     7.1067     10.1659    21.0805    0.175     
2905.900094 10.3842    2.8678     9.6794     16.185     16.5937    7.4326     9.3522     22.4294    0.178     
2906.100094 10.5127    2.8914     9.8103     16.6298    17.1047    7.8366     8.6145     24.017     0.178     
2906.300094 10.7022    2.7833     9.686      16.4235    16.9082    8.0843     8.6794     25.0431    0.182     
2906.500094 11.0947    2.7224     9.3882     15.5081    16.0696    8.2733     9.2927     25.3787    0.185     
2906.700094 11.5278    2.5061     8.5733     14.5605    15.5128    8.358      10.1493    25.34      0.175     
2906.900094 11.9609    2.5534     8.6977     13.8966    15.5914    8.6969     12.2621    25.5852    0.185     
2907.100094 12.3331    2.6684     8.9791     13.8644    16.3644    9.2052     13.2973    26.2274    0.182     
2907.300094 12.658     2.7765     9.4504     14.148     17.2423    9.7787     14.9832    26.8244    0.185     
2907.500094 12.9219    2.932      9.9805     14.6766    18.0546    10.3131    15.9339    27.3536    0.175     
2907.700094 13.1926    3.0672     10.4976    15.3663    18.7556    10.7954    15.4727    28.1667    0.175     
2907.900095 13.382     3.1348     10.8968    16.0689    19.4336    11.3428    13.9085    29.9867    0.182     
2908.100095 13.5039    3.0469     10.9557    16.6233    20.3344    11.9815    12.5092    31.7163    0.188     
2908.300095 13.5851    3.1686     11.2241    17.4162    21.376     12.8808    14.018     33.5943    0.182     
