~Version
 VERS              .         2.0                           : CWLS LOG ASCII STANDARD - VERSION 2.0
 WRAP              .         NO                            : ONE LINE PER DEPTH STEP
 DLM               .         SPACE                         : DELIMITING CHARACTER(SPACE TAB OR COMMA)
~Well Information
#_______________________________________________________________________________
#
#PARAMETER_NAME    .UNIT     VALUE                         : DESCRIPTION
#_______________________________________________________________________________
STRT               .m        2718.7                        : First reference value
STOP               .m        2945.100113                   : Last reference value
STEP               .m        0.2000001                     : Step increment
NULL               .         -9999                         : Missing value
COMP               .                                       : Company
WELL               .         302                           : Well name
FLD                .                                       : Field
LOC                .                                       : Location
CNTY               .                                       : County
STAT               .                                       : State
CTRY               .                                       : Country
SRVC               .                                       : Service Company
DATE               .                                       : Date
API                .                                       : API number
EREF               .m        138.34                        : 
Pad                .         3                             : 
X                  .m        219750                        : 
Y                  .m        249950                        : 
group              .         Pad3                          : 
Интер-р            .         Зайцев                        : 
Куст               .         3                             : 
Статус             .         Не проверено                  : 
Тип                .         Разведка                      : 
~Parameter Information Block
#_______________________________________________________________________________
#
#PARAMETER_NAME    .UNIT     VALUE                         : DESCRIPTION
#_______________________________________________________________________________
SET                .         LAS1                          : 
REAL_CREATION_DATE .         Ср апр 11 2012-13_17_08       : 
TLFamily_DEPTH     .         Measured Depth                : 
TLFamily_KS        .         Potential Resistivity         : 
TLFamily_KS1       .         Extra Shallow Resistivity     : 
TLFamily_KS2       .         Shallow Resistivity           : 
TLFamily_KS3       .         Medium Resistivity            : 
TLFamily_KS4       .         Deep Resistivity              : 
TLFamily_KS5       .         Extra Deep Resistivity        : 
TLFamily_LLD       .         Lateral Log Resistivity       : 
TLFamily_OKS3      .         Medium Resistivity Inverted   : 
TLFamily_RM        .         Mud Resistivity               : 
group              .         INI                           : 
~Curve Information
#_______________________________________________________________________________
#
#LOGNAME           .UNIT     LOG_ID                        : DESCRIPTION
#_______________________________________________________________________________
DEPTH              .m                                      : Measured Depth 
KS                 .ohm.m                                  : Potential Resistivity 
KS1                .ohm.m                                  : Extra Shallow Resistivity 
KS2                .ohm.m                                  : Shallow Resistivity 
KS3                .ohm.m                                  : Medium Resistivity 
KS4                .ohm.m                                  : Deep Resistivity 
KS5                .ohm.m                                  : Extra Deep Resistivity 
LLD                .ohm.m                                  : Lateral Log Resistivity 
OKS3               .ohm.m                                  : Medium Resistivity Inverted 
RM                 .ohm.m                                  : Mud Resistivity 
~Ascii
# ...
2879.30008 5.4373     2.0667     5.7949     6.245      4.71       3.3138     5.3564     17.034     0.182     
2879.50008 5.8095     1.8639     5.1633     5.7551     4.3039     3.3138     6.0386     17.7633    0.175     
2879.70008 6.2968     1.7693     4.895      5.3683     4.0091     3.4181     7.0144     17.8859    0.172     
2879.900081 6.8517     1.8234     4.9015     5.2136     3.9108     3.6266     8.8973     18.3054    0.175     
2880.100081 7.3186     1.8977     5.1437     5.4263     4.0942     3.9134     11.5396    19.2735    0.178     
2880.300081 7.7111     2.1681     5.9226     5.8969     4.4611     4.2392     12.943     19.906     0.178     
2880.500081 8.2559     2.3574     6.6032     6.6382     5.0474     4.539      14.3148    19.9511    0.175     
2880.700081 8.5502     2.692      7.4345     7.7147     5.4831     4.7736     9.2929     19.3574    0.175     
2880.900081 8.6721     3.0334     8.3966     8.4947     5.8172     4.9561     8.7164     18.5442    0.178     
2881.100081 8.7262     2.9996     8.7631     9.0878     6.053      5.0473     8.5182     17.8408    0.182     
2881.300081 8.7736     2.932      8.9169     9.4294     6.2102     5.1255     9.0435     17.3503    0.182     
2881.500081 8.7736     2.7698     8.9333     9.9515     6.5181     5.1907     9.0607     17.1502    0.175     
2881.700081 8.8006     2.79       9.3325     10.6542    6.9178     5.308      8.9808     17.1244    0.178     
2881.900082 8.8209     2.736      9.1755     11.4406    7.3894     5.4384     9.1619     17.1276    0.175     
2882.100082 8.8886     2.7224     9.1558     11.9627    7.7825     5.6078     9.0514     16.976     0.178     
2882.300082 8.9461     2.7089     9.1427     12.5493    8.2149     5.7381     8.8552     16.8662    0.175     
2882.500082 9.0172     2.7326     9.2278     13.4357    8.7783     5.8946     9.9432     16.7823    0.182     
2882.700082 9.0578     2.736      9.1689     14.148     9.6234     6.0444     9.4328     16.6791    0.175     
2882.900082 9.1119     2.8171     9.3587     14.6508    10.3112    6.1683     9.0322     16.3241    0.178     
2883.100082 9.1525     2.8306     9.4536     14.9538    10.9532    6.2856     8.97       15.8659    0.172     
2883.300082 9.1931     2.8171     9.2671     15.0311    11.6018    6.3898     9.4663     15.5174    0.175     
2883.500082 9.1931     2.8171     9.4765     15.1407    12.3617    6.5072     8.4712     15.3948    0.178     
2883.700083 9.1999     2.8509     9.5878     15.2825    13.1806    6.6505     9.6806     15.3174    0.175     
2883.900083 9.2473     2.7765     9.3064     15.3599    13.9929    6.82       8.9553     15.4851    0.178     
2884.100083 9.2608     2.8103     9.6532     15.4759    14.6022    6.9894     9.1423     15.6465    0.178     
2884.300083 9.3149     2.8103     9.5747     15.7273    15.3883    7.211      8.929      15.9756    0.172     
2884.500083 9.3217     2.8103     9.6074     16.056     16.6494    7.5759     8.1723     16.4855    0.172     
2884.700083 9.2743     2.9252     9.9151     16.6233    18.1267    8.1429     9.5693     17.673     0.178     
2884.900083 9.1119     2.9928     10.0787    17.5322    19.7775    8.5926     7.7759     19.4865    0.178     
2885.100083 9.0375     3.1821     10.9132    18.1188    20.7274    8.8011     8.5911     21.0805    0.178     
2885.300083 9.0781     2.9523     10.275     17.9899    20.4785    8.8924     7.252      21.9131    0.172     
2885.500083 9.1931     2.9388     9.8823     16.7974    19.1552    8.762      8.1956     22.197     0.172     
2885.700083 9.2946     2.7765     9.2671     15.8369    18.0546    8.4492     7.9919     22.9392    0.178     
2885.900084 9.3555     2.7833     9.1493     14.9538    17.1112    8.2407     7.4883     24.9496    0.172     
2886.100084 9.4571     2.736      8.966      14.3414    16.3972    8.1103     7.1796     26.9083    0.172     
2886.300084 9.6093     2.7292     8.8024     13.5614    15.503     8.1103     7.4067     29.0509    0.175     
2886.500084 9.8496     2.6481     8.5929     12.775     14.6742    8.2407     7.5268     31.7163    0.172     
2886.700084 10.127     2.5602     8.3311     12.3108    14.3336    8.5014     7.203      34.8786    0.172     
2886.900084 10.6007    2.452      8.0563     11.8403    14.0519    9.4789     7.5065     37.6795    0.182     
2887.100084 11.3248    2.2695     7.5686     11.4406    14.0322    10.3652    10.506     41.6357    0.178     
2887.300084 12.3737    2.0059     6.7407     11.2601    14.3401    11.3558    58.7415    47.1084    0.172     
2887.500084 13.6257    1.7287     6.3414     11.5695    15.0411    12.4377    258.3315   50.5289    0.168     
2887.700084 15.0062    1.9586     7.1138     12.3495    16.122     13.5195    654.0856   49.7738    0.175     
2887.900085 16.495     2.2898     8.1806     13.6516    17.406     14.471     1295.834   42.5586    0.178     
2888.100085 17.6725    2.7157     9.5354     15.1536    18.8342    15.4225    1017.136   35.8531    0.177     
2888.300085 18.4879    3.1618     11.2961    17.2615    20.7373    16.4       397.306    30.0125    0.175     
2888.500085 18.8094    3.6756     13.2203    20.2589    23.4527    17.4688    102.9529   24.7527    0.182     
2888.700085 18.4981    4.311      15.6158    23.0501    25.8242    18.7005    21.4327    20.8353    0.178     
2888.900085 17.8417    4.8518     18.0637    26.3892    27.8812    19.3978    8.8246     17.7762    0.175     
2889.100085 17.3273    5.0343     20.5115    27.9041    28.0254    19.9192    25.3826    15.5497    0.178     
2889.300085 16.9551    4.0677     16.9052    27.3304    26.8724    20.4406    129.8553   14.8979    0.172     
2889.500085 16.4882    3.6756     16.2638    27.6076    27.1082    20.7012    710.8903   15.2012    0.175     
2889.700085 16.0213    3.8649     17.3175    30.7984    29.5387    21.3138    409.8131   15.0076    0.188     
2889.900086 15.6288    4.1758     18.7771    35.7942    32.5653    22.7085    29.6025    13.1231    0.182     
2890.100086 15.0468    4.6085     20.1385    41.0929    35.9194    24.1944    6.2023     11.258     0.175     
2890.300086 13.7948    5.0546     21.5653    47.1491    40.2497    24.9895    5.3154     9.7155     0.182     
2890.500086 11.7376    5.6765     23.7317    52.4588    43.8004    24.7939    5.3077     8.7087     0.178     
2890.700086 10.3842    5.467      23.6073    50.3496    42.5622    23.0604    5.2027     8.2892     0.182     
2890.900086 9.2405     4.5544     20.8388    44.4256    38.7888    20.988     5.0228     8.1666     0.182     
2891.100086 8.469      3.9527     18.0604    38.4242    35.5395    18.2508    5.1051     8.1537     0.178     
2891.300086 7.9277     3.5336     15.0791    33.5767    33.489     16.0481    5.2406     8.1408     0.175     
2891.500086 7.5352     3.3105     13.2923    29.3674    31.8512    14.2624    5.2761     8.1537     0.178     
2891.700086 7.2442     3.1416     11.6691    26.1507    30.9406    12.6723    5.1933     8.1957     0.182     
2891.900087 7.0547     2.9928     10.4845    23.6367    29.9121    11.434     5.1404     8.0569     0.178     
2892.100087 6.9261     2.8712     9.5943     21.6384    28.5822    10.3652    5.0504     7.9601     0.172     
2892.300087 6.7637     2.8779     9.4176     19.5563    26.7381    9.4659     5.0346     7.7923     0.178     
2892.500087 6.6284     2.8306     8.894      17.1712    24.3961    8.736      5.0479     7.7084     0.175     
2892.700087 6.5471     2.7765     8.7238     15.3276    22.3783    7.8627     4.9028     7.5729     0.175     
2892.900087 6.4659     2.736      8.3966     13.6903    20.4982    7.3935     4.9226     7.4696     0.182     
2893.100087 6.4118     2.6751     8.0628     12.4591    18.6508    7.0024     5.2619     7.3212     0.175     
2893.300087 6.3509     2.6278     7.8075     11.5824    17.0916    6.6896     4.9213     7.3212     0.172     
2893.500087 6.2629     2.6548     7.8206     11.0152    15.8272    6.5072     4.8281     7.4438     0.175     
2893.700087 6.1952     2.6616     7.7617     10.5704    14.8446    6.4029     4.8864     7.631      0.182     
