~Version
 VERS              .         2.0                           : CWLS LOG ASCII STANDARD - VERSION 2.0
 WRAP              .         NO                            : ONE LINE PER DEPTH STEP
 DLM               .         SPACE                         : DELIMITING CHARACTER(SPACE TAB OR COMMA)
~Well Information
#_______________________________________________________________________________
#
#PARAMETER_NAME    .UNIT     VALUE                         : DESCRIPTION
#_______________________________________________________________________________
STRT               .m        2718                          : First reference value
STOP               .m        2945                          : Last reference value
STEP               .m        0.2                           : Step increment
NULL               .         -9999                         : Missing value
COMP               .                                       : Company
WELL               .         302                           : Well name
FLD                .                                       : Field
LOC                .                                       : Location
CNTY               .                                       : County
STAT               .                                       : State
CTRY               .                                       : Country
SRVC               .                                       : Service Company
DATE               .                                       : Date
API                .                                       : API number
EREF               .m        138.34                        : 
Pad                .         3                             : 
X                  .m        219750                        : 
Y                  .m        249950                        : 
group              .         Pad3                          : 
Интер-р            .         Зайцев                        : 
Куст               .         3                             : 
Статус             .         Не проверено                  : 
Тип                .         Разведка                      : 
~Parameter Information Block
#_______________________________________________________________________________
#
#PARAMETER_NAME    .UNIT     VALUE                         : DESCRIPTION
#_______________________________________________________________________________
SET                .         LAS3                          : 
REAL_CREATION_DATE .         Ср апр 11 2012-13_17_08       : 
TLFamily_DEPTH     .         Measured Depth                : 
TLFamily_GR        .         Gamma Ray                     : 
TLFamily_TNPH      .         Neutron Porosity              : 
group              .         INI                           : 
~Curve Information
#_______________________________________________________________________________
#
#LOGNAME           .UNIT     LOG_ID                        : DESCRIPTION
#_______________________________________________________________________________
DEPTH              .m                                      : Measured Depth 
GR                 .gAPI                                   :  
TNPH               .v/v                                    : Neutron Porosity 
~Ascii
# ...
2912.4     66.13      0.347     
2912.6     74.6       0.318     
2912.8     84.2       0.29      
2913       89.15      0.29      
2913.2     92.53999   0.237     
2913.4     92.2       0.212     
2913.6     82.45      0.21      
2913.8     76.86      0.235     
2914       80.8       0.248     
2914.2     87.60001   0.228     
2914.4     98.83      0.214     
2914.6     102.64     0.222     
2914.8     90.88      0.245     
2915       74.52      0.22      
2915.2     61.89999   0.194     
2915.4     57.97      0.194     
2915.6     57.98      0.2       
2915.8     54.38      0.198     
2916       56.59      0.195     
2916.2     58.85      0.194     
2916.4     62.17      0.2       
2916.6     87.59      0.205     
2916.8     100.4      0.212     
2917       94.6       0.244     
2917.2     84.77      0.253     
2917.4     84.75      0.244     
2917.6     88.56      0.249     
2917.8     93.89      0.274     
2918       97.13      0.298     
2918.2     98.33      0.266     
2918.4     103.4      0.239     
2918.6     105.79     0.244     
2918.8     92.93      0.264     
2919       74.42001   0.251     
2919.2     66.59      0.227     
2919.4     70.01      0.203     
2919.6     77.48      0.201     
2919.8     82.25999   0.214     
2920       83.72      0.215     
2920.2     90.63      0.205     
2920.4     100.4      0.212     
2920.6     96.68      0.22      
2920.8     83.33      0.211     
2921       75.33      0.215     
2921.2     71.44      0.221     
2921.4     67.01      0.215     
2921.6     66.2       0.211     
2921.8     68.00999   0.215     
2922       69.48      0.195     
2922.2     71.37      0.185     
2922.4     83.10001   0.2       
2922.6     102.56     0.232     
2922.8     109.97     0.258     
2923       98.36      0.254     
2923.2     80.37      0.231     
2923.4     68.59      0.223     
2923.6     65.86      0.224     
2923.8     66.46      0.221     
2924       64.7       0.223     
2924.2     60.7       0.217     
2924.4     61.17      0.203     
2924.6     63.74      0.209     
2924.8     65.92      0.216     
2925       67.51      0.211     
2925.2     68.68      0.201     
2925.4     70.23      0.198     
2925.6     73.27      0.182     
2925.8     77.02      0.195     
2926       79.61      0.211     
2926.2     81.35001   0.206     
2926.4     84.01      0.192     
2926.6     87.81999   0.197     
2926.8     94.2       0.225     
2927       101.37     0.236     
2927.2     103.24     0.221     
2927.4     104.33     0.202     
2927.6     108.72     0.225     
2927.8     109.94     0.233     
2928       105.92     0.228     
2928.2     97.67999   0.237     
2928.4     90.45999   0.256     
2928.6     79.20999   0.26      
2928.8     68.27      0.238     
2929       64.82001   0.219     
2929.2     69.54001   0.221     
2929.4     79.79      0.238     
2929.6     83.61      0.256     
2929.8     75.63      0.253     
2930       64.09      0.225     
2930.2     57.78      0.209     
2930.4     55.83      0.213     
2930.6     57.22      0.205     
2930.8     61.28      0.221     
2931       72.06001   0.301     
2931.2     83.52      0.314     
2931.4     85.29      0.271     
2931.6     81.4       0.258     
2931.8     80.87      0.259     
2932       81.19      0.271     
2932.2     81.17      0.256     
2932.4     81.61      0.246     
2932.6     88.8       0.264     
2932.8     97.95      0.267     
2933       98.28      0.253     
2933.2     90.45      0.269     
2933.4     72.71      0.356     
2933.6     48.71      0.413     
2933.8     40.94      0.466     
2934       53.68      0.378     
2934.2     71.54      0.277     
2934.4     79.25      0.224     
2934.6     82.58      0.21      
2934.8     87.89      0.205     
2935       90.56      0.223     
2935.2     84.94      0.239     
2935.4     78.87      0.237     
2935.6     77.88      0.227     
2935.8     78.37      0.23      
2936       85.29      0.236     
2936.2     98.77      0.243     
2936.4     111.15     0.262     
2936.6     118.39     0.291     
2936.8     119.07     0.306     
2937       114.25     0.304     
2937.2     109.71     0.306     
2937.4     101.94     0.284     
2937.6     86.06      0.256     
2937.8     72.24      0.244     
2938       69.55      0.258     
2938.2     75.79001   0.25      
2938.4     78.61      0.222     
2938.6     73.62      0.216     
2938.8     68.72      0.22      
2939       68.47      0.212     
2939.2     67.81999   0.191     
2939.4     60.81001   0.168     
2939.6     56.34      0.173     
2939.8     64.46999   0.192     
2940       74.65      0.205     
2940.2     80.69      0.211     
2940.4     84.46      0.241     
2940.6     84.99      0.237     
2940.8     86.51      0.213     
2941       86.47      0.203     
2941.2     83.14999   0.214     
2941.4     86.28      0.232     
2941.6     93.34      0.245     
2941.8     92.18001   0.245     
2942       87.14      0.228     
2942.2     89.03      0.228     
2942.4     96.06      0.256     
2942.6     99.65      0.267     
2942.8     96.17      0.274     
2943       94.11      0.279     
2943.2     96.66      0.281     
2943.4     95.55      0.274     
2943.6     92.59      0.282     
2943.8     93.29001   0.306     
2944       93.77      0.321     
2944.2     91.22      0.316     
2944.4     92.39      0.313     
2944.6     96.45      0.315     
2944.8     95.56      0.296     
2945       94.69      0.278     
