~Version
 VERS              .         2.0                           : CWLS LOG ASCII STANDARD - VERSION 2.0
 WRAP              .         NO                            : ONE LINE PER DEPTH STEP
 DLM               .         SPACE                         : DELIMITING CHARACTER(SPACE TAB OR COMMA)
~Well Information
#_______________________________________________________________________________
#
#PARAMETER_NAME    .UNIT     VALUE                         : DESCRIPTION
#_______________________________________________________________________________
STRT               .m        2718                          : First reference value
STOP               .m        2945                          : Last reference value
STEP               .m        0.2                           : Step increment
NULL               .         -9999                         : Missing value
COMP               .                                       : Company
WELL               .         302                           : Well name
FLD                .                                       : Field
LOC                .                                       : Location
CNTY               .                                       : County
STAT               .                                       : State
CTRY               .                                       : Country
SRVC               .                                       : Service Company
DATE               .                                       : Date
API                .                                       : API number
EREF               .m        138.34                        : 
Pad                .         3                             : 
X                  .m        219750                        : 
Y                  .m        249950                        : 
group              .         Pad3                          : 
Интер-р            .         Зайцев                        : 
Куст               .         3                             : 
Статус             .         Не проверено                  : 
Тип                .         Разведка                      : 
~Parameter Information Block
#_______________________________________________________________________________
#
#PARAMETER_NAME    .UNIT     VALUE                         : DESCRIPTION
#_______________________________________________________________________________
SET                .         LAS3                          : 
REAL_CREATION_DATE .         Ср апр 11 2012-13_17_08       : 
TLFamily_DEPTH     .         Measured Depth                : 
TLFamily_GR        .         Gamma Ray                     : 
TLFamily_TNPH      .         Neutron Porosity              : 
group              .         INI                           : 
~Curve Information
#_______________________________________________________________________________
#
#LOGNAME           .UNIT     LOG_ID                        : DESCRIPTION
#_______________________________________________________________________________
DEPTH              .m                                      : Measured Depth 
GR                 .gAPI                                   :  
TNPH               .v/v                                    : Neutron Porosity 
~Ascii
# ...
2863.8     115.74     0.289     
2864       116.19     0.269     
2864.2     117.36     0.278     
2864.4     123.53     0.317     
2864.6     132.76     0.337     
2864.8     140.27     0.301     
2865       146.31     0.285     
2865.2     149.4      0.287     
2865.4     145.3      0.309     
2865.6     133.7      0.318     
2865.8     125.48     0.33      
2866       130.46     0.342     
2866.2     138.01     0.311     
2866.4     137        0.295     
2866.6     137.05     0.33      
2866.8     135.74     0.355     
2867       133.68     0.342     
2867.2     136.13     0.349     
2867.4     132.84     0.359     
2867.6     124.53     0.344     
2867.8     121.73     0.308     
2868       122.31     0.281     
2868.2     128.97     0.294     
2868.4     133.95     0.329     
2868.6     130.56     0.341     
2868.8     126.54     0.305     
2869       128.13     0.281     
2869.2     135.32     0.282     
2869.4     138.42     0.293     
2869.6     137.85     0.297     
2869.8     136.6      0.3       
2870       134.45     0.301     
2870.2     134.03     0.291     
2870.4     131.42     0.279     
2870.6     122.38     0.27      
2870.8     103.64     0.257     
2871       73.59      0.201     
2871.2     61.17      0.196     
2871.4     80.13      0.228     
2871.6     128.22     0.267     
2871.8     139.65     0.293     
2872       139.52     0.306     
2872.2     132.48     0.295     
2872.4     126.44     0.298     
2872.6     124.76     0.298     
2872.8     127.05     0.293     
2873       129.08     0.294     
2873.2     132.26     0.311     
2873.4     139.27     0.315     
2873.6     142.03     0.313     
2873.8     138.6      0.318     
2874       134.12     0.304     
2874.2     130.78     0.284     
2874.4     127.31     0.291     
2874.6     129.42     0.307     
2874.8     131.89     0.321     
2875       125.12     0.338     
2875.2     120.92     0.33      
2875.4     123.83     0.307     
2875.6     124.94     0.294     
2875.8     125        0.301     
2876       126.74     0.281     
2876.2     129.36     0.259     
2876.4     129.95     0.282     
2876.6     129.3      0.298     
2876.8     130.77     0.297     
2877       134.87     0.311     
2877.2     137.12     0.312     
2877.4     135.3      0.294     
2877.6     133.35     0.291     
2877.8     130.6      0.305     
2878       130.82     0.317     
2878.2     141.35     0.34      
2878.4     145.96     0.384     
2878.6     139.6      0.388     
2878.8     132.51     0.335     
2879       127.83     0.303     
2879.2     135.86     0.306     
2879.4     162.33     0.253     
2879.6     177.66     0.198     
2879.8     143.19     0.165     
2880       85.64      0.163     
2880.2     53.7       0.164     
2880.4     42.73      0.14      
2880.6     40.12      0.144     
2880.8     42.48      0.166     
2881       45.3       0.174     
2881.2     47.75      0.166     
2881.4     47.79      0.175     
2881.6     46.98      0.184     
2881.8     50.21      0.179     
2882       52.19      0.17      
2882.2     50.18      0.166     
2882.4     50.13      0.157     
2882.6     51.69      0.15      
2882.8     52.15      0.147     
2883       51.76      0.156     
2883.2     51.15      0.162     
2883.4     50.72      0.169     
2883.6     50.36      0.188     
2883.8     49.58      0.2       
2884       48.61      0.19      
2884.2     46.23      0.188     
2884.4     44.57      0.206     
2884.6     46.33      0.214     
2884.8     47.11      0.207     
2885       46.46      0.2       
2885.2     50.61      0.193     
2885.4     62.47      0.177     
2885.6     73.66      0.179     
2885.8     79.35001   0.179     
2886       79.14      0.174     
2886.2     72.05      0.186     
2886.4     67.77      0.194     
2886.6     66.07001   0.188     
2886.8     62.72      0.181     
2887       57.67      0.166     
2887.2     52.19      0.148     
2887.4     44.51      0.108     
2887.6     38.7       0.089     
2887.8     41.14      0.081     
2888       45.78      0.079     
2888.2     42.64      0.081     
2888.4     37.47      0.088     
2888.6     38.08      0.112     
2888.8     41.57      0.151     
2889       41.82      0.17      
2889.2     38.1       0.15      
2889.4     34.35      0.108     
2889.6     30.74      0.093     
2889.8     29.22      0.083     
2890       31.47      0.087     
2890.2     36.66      0.103     
2890.4     41.73      0.16      
2890.6     44.5       0.191     
2890.8     46.87      0.185     
2891       48.67      0.182     
2891.2     49.16      0.195     
2891.4     48.84      0.192     
2891.6     49.05      0.184     
2891.8     50.09      0.184     
2892       50.31      0.185     
2892.2     48.96      0.166     
2892.4     49.45      0.153     
2892.6     51.58      0.158     
2892.8     52.24      0.166     
2893       50.49      0.19      
2893.2     48.93      0.224     
2893.4     49.53      0.211     
2893.6     51.34      0.181     
2893.8     53.87      0.167     
2894       56.34      0.173     
2894.2     57.97      0.179     
2894.4     59.17      0.187     
2894.6     58.82      0.197     
2894.8     58.12      0.195     
2895       59.42      0.2       
2895.2     61.23      0.222     
2895.4     64.29      0.249     
2895.6     73.26      0.247     
2895.8     81.5       0.237     
2896       83.94      0.259     
2896.2     89.25      0.278     
2896.4     98.02      0.29      
2896.6     98.92      0.269     
2896.8     96.05      0.248     
2897       82.07      0.199     
2897.2     61.17      0.156     
2897.4     46.75      0.14      
2897.6     42.02      0.107     
2897.8     40.53      0.105     
2898       54.89      0.199     
2898.2     79.31      0.271     
2898.4     95.86      0.297     
2898.6     102.4      0.31      
2898.8     107.53     0.329     
2899       109.21     0.345     
2899.2     105.33     0.31      
2899.4     97.11      0.257     
2899.6     86.89      0.233     
2899.8     84.94      0.214     
2900       92.5       0.236     
2900.2     97.13      0.254     
2900.4     99.22      0.253     
2900.6     99.16      0.261     
2900.8     95.91      0.254     
2901       94.73      0.246     
2901.2     96.27      0.252     
2901.4     97.24      0.273     
2901.6     95.05      0.327     
2901.8     90.69      0.336     
2902       94.64      0.294     
2902.2     101        0.272     
2902.4     100.22     0.259     
2902.6     98.41      0.293     
2902.8     97.39999   0.302     
2903       95.29      0.293     
2903.2     96.75999   0.264     
2903.4     99.5       0.254     
2903.6     105.9      0.246     
2903.8     114.7      0.237     
2904       118.25     0.25      
2904.2     109.98     0.257     
2904.4     90.67001   0.237     
2904.6     72.81999   0.231     
2904.8     66.07001   0.226     
2905       61.05      0.21      
2905.2     55.67      0.198     
2905.4     61.22      0.195     
2905.6     73.42      0.211     
2905.8     83.45      0.238     
2906       87.81      0.249     
2906.2     90.76      0.243     
2906.4     96.75      0.223     
2906.6     99.29      0.217     
2906.8     95.83      0.222     
2907       97.25      0.229     
2907.2     105.34     0.256     
2907.4     108.37     0.274     
2907.6     100.47     0.286     
2907.8     92.65      0.304     
2908       95.4       0.295     
2908.2     105.93     0.264     
2908.4     114.36     0.266     
2908.6     112.24     0.284     
2908.8     106.47     0.292     
2909       96.64      0.325     
2909.2     65.7       0.375     
2909.4     30.85      0.408     
2909.6     13.7       0.44      
2909.8     7.5        0.505     
2910       4.230001   0.552     
2910.2     4.31       0.543     
2910.4     8.529999   0.502     
2910.6     19.98      0.498     
2910.8     38.97      0.495     
2911       52.41      0.482     
2911.2     91.59      0.429     
2911.4     95.42      0.342     
2911.6     88.41      0.279     
2911.8     86.11      0.26      
2912       81.19      0.316     
2912.2     69.43      0.372     
