~Version
 VERS              .         2.0                           : CWLS LOG ASCII STANDARD - VERSION 2.0
 WRAP              .         NO                            : ONE LINE PER DEPTH STEP
 DLM               .         SPACE                         : DELIMITING CHARACTER(SPACE TAB OR COMMA)
~Well Information
#_______________________________________________________________________________
#
#PARAMETER_NAME    .UNIT     VALUE                         : DESCRIPTION
#_______________________________________________________________________________
STRT               .m        2718.7                        : First reference value
STOP               .m        2945.100113                   : Last reference value
STEP               .m        0.2000001                     : Step increment
NULL               .         -9999                         : Missing value
COMP               .                                       : Company
WELL               .         302                           : Well name
FLD                .                                       : Field
LOC                .                                       : Location
CNTY               .                                       : County
STAT               .                                       : State
CTRY               .                                       : Country
SRVC               .                                       : Service Company
DATE               .                                       : Date
API                .                                       : API number
EREF               .m        138.34                        : 
Pad                .         3                             : 
X                  .m        219750                        : 
Y                  .m        249950                        : 
group              .         Pad3                          : 
Интер-р            .         Зайцев                        : 
Куст               .         3                             : 
Статус             .         Не проверено                  : 
Тип                .         Разведка                      : 
~Parameter Information Block
#_______________________________________________________________________________
#
#PARAMETER_NAME    .UNIT     VALUE                         : DESCRIPTION
#_______________________________________________________________________________
SET                .         LAS1                          : 
REAL_CREATION_DATE .         Ср апр 11 2012-13_17_08       : 
TLFamily_DEPTH     .         Measured Depth                : 
TLFamily_KS        .         Potential Resistivity         : 
TLFamily_KS1       .         Extra Shallow Resistivity     : 
TLFamily_KS2       .         Shallow Resistivity           : 
TLFamily_KS3       .         Medium Resistivity            : 
TLFamily_KS4       .         Deep Resistivity              : 
TLFamily_KS5       .         Extra Deep Resistivity        : 
TLFamily_LLD       .         Lateral Log Resistivity       : 
TLFamily_OKS3      .         Medium Resistivity Inverted   : 
TLFamily_RM        .         Mud Resistivity               : 
group              .         INI                           : 
~Curve Information
#_______________________________________________________________________________
#
#LOGNAME           .UNIT     LOG_ID                        : DESCRIPTION
#_______________________________________________________________________________
DEPTH              .m                                      : Measured Depth 
KS                 .ohm.m                                  : Potential Resistivity 
KS1                .ohm.m                                  : Extra Shallow Resistivity 
KS2                .ohm.m                                  : Shallow Resistivity 
KS3                .ohm.m                                  : Medium Resistivity 
KS4                .ohm.m                                  : Deep Resistivity 
KS5                .ohm.m                                  : Extra Deep Resistivity 
LLD                .ohm.m                                  : Lateral Log Resistivity 
OKS3               .ohm.m                                  : Medium Resistivity Inverted 
RM                 .ohm.m                                  : Mud Resistivity 
~Ascii
# ...
2908.500095 13.7272    3.2362     11.8557    18.5701    22.7255    14.7838    14.6394    34.9238    0.178     
2908.700095 13.8896    3.243      11.9113    19.4854    24.1995    16.4521    14.204     35.9887    0.178     
2908.900095 14.1129    3.2362     11.9113    20.2074    25.6932    18.8504    13.6489    38.4411    0.178     
2909.100095 14.3971    3.1416     11.5644    20.7553    27.5209    21.5876    12.1019    40.8516    0.182     
2909.300095 14.8099    2.9861     11.1521    21.2774    30.03      24.3377    11.4421    43.7073    0.182     
2909.500095 15.4562    2.8103     11.0473    21.993     32.9059    26.5144    12.7905    44.5463    0.175     
2909.700095 16.5017    2.8543     11.4859    22.9663    34.7206    28.0655    12.7905    41.655     0.185     
2909.900096 17.6251    2.9252     11.9375    21.8576    32.6242    30.3334    31.583     33.4975    0.178     
2910.100096 18.0244    2.452      9.11       22.9728    33.5414    31.4674    90.8211    28.8896    0.165     
2910.300096 17.8484    3.9145     14.4291    26.2864    38.4092    32.9272    54.1595    27.0566    0.185     
2910.500096 17.4492    3.8581     15.7205    29.2642    40.5838    33.4877    40.7999    27.3084    0.175     
2910.700096 17.3409    4.0677     17.4092    29.8637    39.8894    35.143     45.8967    23.8815    0.188     
2910.900096 17.5777    3.8919     15.5765    27.8912    36.5942    36.7071    126.741    18.1086    0.178     
2911.100096 16.9484    2.79       14.0581    29.8057    38.2909    37.9192    95.5136    14.0976    0.165     
2911.300096 15.8115    4.8789     21.4606    34.9368    44.3572    38.7925    44.4981    14.2396    0.18      
2911.500096 14.475     4.7437     20.6228    40.1195    48.3141    42.0641    11.9503    14.9818    0.185     
2911.700096 13.4023    4.2029     19.4512    40.126     45.8017    43.6021    11.9141    14.5687    0.178     
2911.900097 12.6444    4.0541     18.9931    41.3765    45.1696    41.0213    11.8652    14.6333    0.185     
2912.100097 12.0218    4.1623     18.5807    41.7182    44.2786    38.61      7.9073     15.1431    0.182     
2912.300097 11.5278    3.8175     17.0263    40.0809    42.6736    35.7556    10.1889    16.0337    0.178     
2912.500097 11.088     3.6283     15.4325    37.7216    41.8482    33.983     22.0509    16.9824    0.182     
2912.700097 10.5601    3.6012     15.6551    38.6821    43.6956    31.5586    9.9756     17.0147    0.172     
2912.900097 10.0864    3.9865     16.6303    39.2042    44.8289    29.4732    7.7466     15.8659    0.182     
2913.100097 9.7345     3.8175     14.9286    37.4379    43.4008    27.3095    7.3931     14.2009    0.175     
2913.300097 9.3691     3.5201     13.6065    32.8418    40.0139    24.5072    7.6799     12.71      0.182     
2913.500097 8.9021     3.297      12.6705    28.1458    37.4884    21.2617    6.2604     11.3677    0.182     
2913.700097 8.5502     3.1551     12.1535    24.3394    35.1923    18.4203    5.5815     10.1931    0.182     
2913.900098 8.354      2.9996     11.4073    21.4515    32.6504    16.1263    7.2513     9.6929     0.182     
2914.100098 8.1983     2.7157     10.2161    18.8086    29.5256    13.2327    7.004      9.3089     0.182     
2914.300098 8.1036     2.6143     9.2605     16.8747    26.4793    11.7338    8.3338     8.9411     0.182     
2914.500098 8.063      2.5737     8.8417     15.9207    24.5729    10.6911    7.9306     8.5474     0.178     
2914.700098 7.9344     2.7089     8.9791     15.4823    23.6951    10.0264    6.8881     8.4119     0.178     
2914.900098 7.7585     2.8779     9.1755     15.3921    22.6797    9.4137     6.2641     8.386      0.178     
2915.100098 7.6028     2.8509     8.9726     14.9602    21.0157    8.9315     7.4609     8.386      0.175     
2915.300098 7.3727     2.6616     8.3508     14.0771    18.8276    8.345      6.0415     8.2699     0.172     
2915.500098 7.1021     2.8576     8.9595     13.3035    16.7673    7.6802     5.3565     8.2634     0.175     
2915.700098 6.9193     2.8238     8.7042     12.5751    14.7332    7.1198     6.6072     8.1795     0.175     
2915.900099 6.7908     2.5737     7.8141     11.389     12.9579    6.6375     5.9107     8.315      0.182     
2916.100099 6.5336     2.4858     7.5261     10.5381    11.9293    6.0119     4.2324     8.5022     0.178     
2916.300099 6.3712     2.5974     7.6112     10.0869    11.307     5.7381     3.6834     8.6345     0.178     
2916.500099 6.3001     2.4994     6.9567     9.481      10.7632    5.7642     4.9217     8.8862     0.18      
2916.700099 6.2968     2.185      6.0993     8.7654     10.7239    5.9858     9.5708     9.8317     0.18      
2916.900099 6.4389     1.9112     5.3924     8.5785     11.5756    6.4289     10.9915    11.7323    0.172     
2917.100099 6.7028     1.7591     5.5626     8.9588     13.043     7.2762     11.2591    12.6423    0.173     
2917.300099 7.0648     1.9349     5.9553     9.6486     14.6349    8.4753     9.3416     12.0614    0.18      
2917.500099 7.3897     2.2357     6.3774     10.4157    17.1637    10.1176    7.8216     11.3322    0.175     
2917.700099 7.5013     2.5433     6.8716     11.2923    20.092     12.6201    8.8601     11.1708    0.173     
2917.9001  7.5284     2.6819     7.441      12.4398    24.1995    17.7686    12.1963    11.7258    0.175     
2918.1001  7.4743     2.6379     8.0399     14.4993    29.3028    21.2747    8.7883     13.1263    0.18      
2918.3001  7.41       2.665      9.0053     15.7853    32.1067    24.1683    8.0601     14.4396    0.172     
2918.5001  7.3998     2.8779     10.1147    15.9755    30.803     26.0452    9.2098     14.5978    0.173     
2918.7001  7.4743     2.8745     9.8332     15.3566    27.5209    25.6412    11.4532    13.7071    0.17      
2918.9001  7.3288     2.9117     9.7023     14.5444    25.6211    24.8721    7.1037     12.7423    0.183     
2919.1001  7.0209     3.1585     10.203     14.7507    24.1668    23.3602    3.5455     12.0518    0.173     
2919.3001  6.5674     3.4187     11.2208    15.3792    21.2188    21.6527    3.7398     11.0063    0.178     
2919.5001  6.1885     3.4931     11.4924    15.0827    17.0654    19.3196    4.332      10.348     0.178     
2919.7001  5.911      2.8914     9.3685     13.2649    13.1871    15.9959    4.5249     10.1737    0.173     
2919.900101 5.7824     2.4453     8.2919     11.1344    10.9467    12.1118    8.6812     10.5255    0.178     
2920.100101 5.8501     2.2357     7.6374     10.0031    9.227      10.5347    8.1059     11.2612    0.177     
2920.300101 6.0159     2.1715     7.2054     9.655      8.4311     9.518      9.2738     11.8001    0.168     
2920.500101 6.2765     2.2932     7.2152     9.7066     7.9299     8.8403     8.7268     11.6097    0.173     
2920.700101 6.5099     2.4216     7.0712     10.074     7.5434     8.3319     5.796      10.7255    0.172     
2920.900101 6.5065     2.6886     7.4443     10.2996    7.1503     7.7454     4.4887     9.7671     0.18      
2921.100101 6.3983     2.8407     7.8534     10.3448    6.885      7.2501     4.9184     9.0379     0.172     
2921.300101 6.1716     2.8712     8.2166     10.1868    6.7212     6.7548     6.0259     8.5797     0.172     
2921.500101 5.9821     2.7799     8.3344     9.6453     6.4035     6.2074     6.3128     8.5054     0.173     
2921.700101 5.867      2.4385     7.6275     8.8138     5.9842     5.5622     6.5539     8.7184     0.178     
2921.900102 5.8806     2.3439     7.5032     8.2659     5.7713     4.93       6.5267     8.8862     0.173     
2922.100102 5.9516     2.3304     7.2512     8.224      5.7222     4.6042     6.1758     8.812      0.173     
2922.300102 6.0058     2.4013     7.0876     8.3626     5.827      4.3435     5.4369     8.6119     0.172     
2922.500102 5.9787     2.5196     7.1399     8.7622     6.1644     4.161      5.0121     8.5635     0.172     
2922.700102 5.9415     2.5534     7.1269     9.1683     6.6295     4.0698     7.4337     8.6861     0.172     
2922.900102 5.9618     2.4622     7.0287     9.2328     7.0586     4.0437     9.1999     9.2767     0.173     
