~Version
 VERS              .         2.0                           : CWLS LOG ASCII STANDARD - VERSION 2.0
 WRAP              .         NO                            : ONE LINE PER DEPTH STEP
 DLM               .         SPACE                         : DELIMITING CHARACTER(SPACE TAB OR COMMA)
~Well Information
#_______________________________________________________________________________
#
#PARAMETER_NAME    .UNIT     VALUE                         : DESCRIPTION
#_______________________________________________________________________________
STRT               .m        2718                          : First reference value
STOP               .m        2945                          : Last reference value
STEP               .m        0.2                           : Step increment
NULL               .         -9999                         : Missing value
COMP               .                                       : Company
WELL               .         302                           : Well name
FLD                .                                       : Field
LOC                .                                       : Location
CNTY               .                                       : County
STAT               .                                       : State
CTRY               .                                       : Country
SRVC               .                                       : Service Company
DATE               .                                       : Date
API                .                                       : API number
EREF               .m        138.34                        : 
Pad                .         3                             : 
X                  .m        219750                        : 
Y                  .m        249950                        : 
group              .         Pad3                          : 
Интер-р            .         Зайцев                        : 
Куст               .         3                             : 
Статус             .         Не проверено                  : 
Тип                .         Разведка                      : 
~Parameter Information Block
#_______________________________________________________________________________
#
#PARAMETER_NAME    .UNIT     VALUE                         : DESCRIPTION
#_______________________________________________________________________________
SET                .         LAS3                          : 
REAL_CREATION_DATE .         Ср апр 11 2012-13_17_08       : 
TLFamily_DEPTH     .         Measured Depth                : 
TLFamily_GR        .         Gamma Ray                     : 
TLFamily_TNPH      .         Neutron Porosity              : 
group              .         INI                           : 
~Curve Information
#_______________________________________________________________________________
#
#LOGNAME           .UNIT     LOG_ID                        : DESCRIPTION
#_______________________________________________________________________________
DEPTH              .m                                      : Measured Depth 
GR                 .gAPI                                   :  
TNPH               .v/v                                    : Neutron Porosity 
~Ascii
# ...
2815.2     110.91     0.24      
2815.4     105.08     0.234     
2815.6     100.5      0.235     
2815.8     101.91     0.229     
2816       105.76     0.219     
2816.2     103.19     0.207     
2816.4     98.10001   0.214     
2816.6     101.55     0.235     
2816.8     105.17     0.228     
2817       98.73      0.222     
2817.2     89.34      0.22      
2817.4     80.47      0.204     
2817.6     75.28      0.192     
2817.8     77.39      0.199     
2818       77.81999   0.22      
2818.2     68.55      0.231     
2818.4     55.42      0.195     
2818.6     47.59      0.166     
2818.8     42.71      0.141     
2819       41.69      0.139     
2819.2     49.1       0.142     
2819.4     55.29      0.153     
2819.6     50.98      0.162     
2819.8     48.32      0.166     
2820       56.83      0.168     
2820.2     65.55      0.181     
2820.4     68.63      0.196     
2820.6     69.02      0.205     
2820.8     68.62      0.21      
2821       70.35      0.198     
2821.2     73.21      0.184     
2821.4     74.51      0.189     
2821.6     82.53      0.2       
2821.8     99.71      0.22      
2822       113.12     0.253     
2822.2     120.28     0.26      
2822.4     119.73     0.236     
2822.6     106.78     0.215     
2822.8     86.48      0.205     
2823       70.43      0.167     
2823.2     60.68      0.145     
2823.4     56.34      0.124     
2823.6     55.84      0.127     
2823.8     61.82      0.14      
2824       82.53      0.176     
2824.2     109.43     0.206     
2824.4     124.11     0.233     
2824.6     125.61     0.23      
2824.8     122.43     0.244     
2825       125.06     0.261     
2825.2     134.13     0.258     
2825.4     140.89     0.27      
2825.6     131.74     0.29      
2825.8     120.44     0.291     
2826       118.05     0.276     
2826.2     120.99     0.256     
2826.4     128.95     0.254     
2826.6     140.66     0.275     
2826.8     150.21     0.296     
2827       154.58     0.301     
2827.2     154.98     0.292     
2827.4     152.89     0.287     
2827.6     151.74     0.285     
2827.8     149.83     0.278     
2828       139.46     0.268     
2828.2     124.55     0.259     
2828.4     117.98     0.247     
2828.6     121.4      0.252     
2828.8     118.76     0.246     
2829       115.58     0.225     
2829.2     120.91     0.226     
2829.4     126.93     0.234     
2829.6     129.28     0.232     
2829.8     131.2      0.24      
2830       148.17     0.27      
2830.2     191.85     0.299     
2830.4     231.06     0.329     
2830.6     227.88     0.321     
2830.8     203.02     0.33      
2831       192.4      0.324     
2831.2     197.29     0.308     
2831.4     193.85     0.295     
2831.6     194.88     0.29      
2831.8     214.62     0.29      
2832       229.34     0.316     
2832.2     229.72     0.315     
2832.4     224.39     0.313     
2832.6     220.87     0.33      
2832.8     218.67     0.343     
2833       210.02     0.349     
2833.2     204.05     0.326     
2833.4     211.03     0.311     
2833.6     219.43     0.316     
2833.8     230.49     0.328     
2834       244.39     0.335     
2834.2     253.16     0.343     
2834.4     260.96     0.357     
2834.6     258.74     0.382     
2834.8     247.33     0.388     
2835       240.49     0.335     
2835.2     232.35     0.306     
2835.4     213.78     0.293     
2835.6     188.92     0.286     
2835.8     174.75     0.283     
2836       172.26     0.272     
2836.2     170.24     0.252     
2836.4     172.2      0.24      
2836.6     191.29     0.267     
2836.8     214.21     0.3       
2837       226.48     0.329     
2837.2     236.27     0.352     
2837.4     262.57     0.369     
2837.6     309.61     0.362     
2837.8     343.54     0.357     
2838       352.54     0.38      
2838.2     350.26     0.405     
2838.4     352.2      0.381     
2838.6     367.85     0.343     
2838.8     361.89     0.313     
2839       315.19     0.289     
2839.2     272.5      0.292     
2839.4     279.91     0.285     
2839.6     337.67     0.309     
2839.8     399.84     0.346     
2840       414.61     0.38      
2840.2     397.52     0.335     
2840.4     365.47     0.33      
2840.6     326.98     0.364     
2840.8     303.17     0.374     
2841       301.21     0.382     
2841.2     307.43     0.395     
2841.4     317.2      0.391     
2841.6     335.65     0.354     
2841.8     345.51     0.334     
2842       345.55     0.327     
2842.2     351.62     0.346     
2842.4     354.5      0.363     
2842.6     334.71     0.34      
2842.8     312.07     0.333     
2843       303.68     0.332     
2843.2     295.25     0.325     
2843.4     289.18     0.334     
2843.6     290.49     0.348     
2843.8     294.31     0.356     
2844       295.49     0.364     
2844.2     277.94     0.371     
2844.4     244.2      0.376     
2844.6     224.73     0.372     
2844.8     224.26     0.338     
2845       230.9      0.341     
2845.2     232.81     0.37      
2845.4     227.28     0.363     
2845.6     220.08     0.351     
2845.8     208.63     0.36      
2846       186.5      0.357     
2846.2     166.33     0.356     
2846.4     160.46     0.353     
2846.6     151.09     0.325     
2846.8     135.06     0.303     
2847       127.52     0.289     
2847.2     133.68     0.261     
2847.4     147.36     0.273     
2847.6     155.15     0.298     
2847.8     157.27     0.316     
2848       161.63     0.314     
2848.2     169.05     0.289     
2848.4     165.41     0.263     
2848.6     144.94     0.268     
2848.8     128.53     0.292     
2849       120.27     0.302     
2849.2     115.39     0.3       
2849.4     114.61     0.296     
2849.6     114.32     0.303     
2849.8     112.83     0.298     
2850       110.58     0.283     
2850.2     109.32     0.288     
2850.4     107.78     0.297     
2850.6     107.59     0.298     
2850.8     114.61     0.284     
2851       125.89     0.295     
2851.2     129.32     0.334     
2851.4     126.9      0.346     
2851.6     129.67     0.341     
2851.8     134.46     0.35      
2852       133.43     0.353     
2852.2     125.32     0.333     
2852.4     113.35     0.314     
2852.6     109.21     0.3       
2852.8     117.05     0.272     
2853       127.57     0.259     
2853.2     133.26     0.252     
2853.4     134.81     0.271     
2853.6     137.2      0.295     
2853.8     138.05     0.318     
2854       132.74     0.324     
2854.2     122.83     0.291     
2854.4     111.53     0.275     
2854.6     109.88     0.291     
2854.8     124.05     0.308     
2855       137.7      0.305     
2855.2     137.09     0.284     
2855.4     124.31     0.276     
2855.6     108.82     0.281     
2855.8     99.39999   0.276     
2856       97.41      0.282     
2856.2     93.49      0.294     
2856.4     94.31      0.322     
2856.6     110.11     0.341     
2856.8     130.77     0.333     
2857       147.34     0.336     
2857.2     159.44     0.37      
2857.4     159.47     0.363     
2857.6     147.14     0.33      
2857.8     130.95     0.313     
2858       113.5      0.291     
2858.2     105.85     0.274     
2858.4     109.85     0.292     
2858.6     115.76     0.319     
2858.8     116.39     0.336     
2859       125.14     0.348     
2859.2     158.27     0.348     
2859.4     191.08     0.355     
2859.6     207.34     0.366     
2859.8     215.74     0.396     
2860       205.65     0.419     
2860.2     192.32     0.434     
2860.4     194.67     0.429     
2860.6     209.1      0.409     
2860.8     228.31     0.39      
2861       236.53     0.354     
2861.2     222.53     0.349     
2861.4     200.12     0.36      
2861.6     193.16     0.358     
2861.8     202.74     0.332     
2862       197.09     0.315     
2862.2     166.41     0.296     
2862.4     136.22     0.284     
2862.6     123.48     0.31      
2862.8     121.55     0.358     
2863       123.95     0.374     
2863.2     126.79     0.322     
2863.4     125.46     0.307     
2863.6     118.66     0.311     
