~Version
 VERS              .         2.0                           : CWLS LOG ASCII STANDARD - VERSION 2.0
 WRAP              .         NO                            : ONE LINE PER DEPTH STEP
 DLM               .         SPACE                         : DELIMITING CHARACTER(SPACE TAB OR COMMA)
~Well Information
#_______________________________________________________________________________
#
#PARAMETER_NAME    .UNIT     VALUE                         : DESCRIPTION
#_______________________________________________________________________________
STRT               .m        2718.7                        : First reference value
STOP               .m        2945.100113                   : Last reference value
STEP               .m        0.2000001                     : Step increment
NULL               .         -9999                         : Missing value
COMP               .                                       : Company
WELL               .         302                           : Well name
FLD                .                                       : Field
LOC                .                                       : Location
CNTY               .                                       : County
STAT               .                                       : State
CTRY               .                                       : Country
SRVC               .                                       : Service Company
DATE               .                                       : Date
API                .                                       : API number
EREF               .m        138.34                        : 
Pad                .         3                             : 
X                  .m        219750                        : 
Y                  .m        249950                        : 
group              .         Pad3                          : 
Интер-р            .         Зайцев                        : 
Куст               .         3                             : 
Статус             .         Не проверено                  : 
Тип                .         Разведка                      : 
~Parameter Information Block
#_______________________________________________________________________________
#
#PARAMETER_NAME    .UNIT     VALUE                         : DESCRIPTION
#_______________________________________________________________________________
SET                .         LAS1                          : 
REAL_CREATION_DATE .         Ср апр 11 2012-13_17_08       : 
TLFamily_DEPTH     .         Measured Depth                : 
TLFamily_KS        .         Potential Resistivity         : 
TLFamily_KS1       .         Extra Shallow Resistivity     : 
TLFamily_KS2       .         Shallow Resistivity           : 
TLFamily_KS3       .         Medium Resistivity            : 
TLFamily_KS4       .         Deep Resistivity              : 
TLFamily_KS5       .         Extra Deep Resistivity        : 
TLFamily_LLD       .         Lateral Log Resistivity       : 
TLFamily_OKS3      .         Medium Resistivity Inverted   : 
TLFamily_RM        .         Mud Resistivity               : 
group              .         INI                           : 
~Curve Information
#_______________________________________________________________________________
#
#LOGNAME           .UNIT     LOG_ID                        : DESCRIPTION
#_______________________________________________________________________________
DEPTH              .m                                      : Measured Depth 
KS                 .ohm.m                                  : Potential Resistivity 
KS1                .ohm.m                                  : Extra Shallow Resistivity 
KS2                .ohm.m                                  : Shallow Resistivity 
KS3                .ohm.m                                  : Medium Resistivity 
KS4                .ohm.m                                  : Deep Resistivity 
KS5                .ohm.m                                  : Extra Deep Resistivity 
LLD                .ohm.m                                  : Lateral Log Resistivity 
OKS3               .ohm.m                                  : Medium Resistivity Inverted 
RM                 .ohm.m                                  : Mud Resistivity 
~Ascii
# ...
2850.100066 14.1941    3.3241     12.664     21.9027    22.5945    12.1509    16.5267    28.8186    0.178     
2850.300066 14.3836    3.3579     12.664     22.3733    23.4789    12.3334    17.0145    28.4378    0.178     
2850.500066 14.4783    3.4457     13.0632    22.9857    24.383     12.5941    18.0623    28.057     0.185     
2850.700066 14.5122    3.5607     13.469     23.8301    25.4115    12.8678    17.2299    27.6633    0.192     
2850.900066 14.5325    3.5877     13.7243    24.5972    26.2435    13.1936    15.8545    27.2761    0.188     
2851.100066 14.4648    3.6621     14.0712    25.2193    26.9444    13.4804    13.9859    27.2697    0.185     
2851.300066 14.4107    3.6823     14.2544    25.5964    27.5406    13.7411    13.3669    27.6569    0.182     
2851.500066 14.3971    3.5742     14.0843    25.4997    27.7044    14.0278    14.1069    28.1667    0.182     
2851.700066 14.4377    3.4795     13.7701    25.3256    27.855     14.3928    14.8541    28.5475    0.185     
2851.900067 14.4986    3.4728     13.6294    25.3772    28.2678    14.6795    15.6097    28.6637    0.185     
2852.100067 14.5595    3.5133     13.7832    25.6995    28.9425    15.0836    15.3557    28.7218    0.188     
2852.300067 14.5934    3.5269     13.685     26.0476    29.7155    15.5528    15.804     28.6604    0.188     
2852.500067 14.6204    3.5471     13.7701    26.3119    30.5082    16.0351    16.3772    28.483     0.188     
2852.700067 14.6543    3.5877     13.9272    26.4859    31.2485    16.5043    15.6547    28.2829    0.183     
2852.900067 14.678     3.5742     13.8552    26.6664    32.0019    17.0517    15.0795    28.1732    0.182     
2853.100067 14.7017    3.6046     14.0057    26.7051    32.6701    17.56      14.8512    28.0054    0.182     
2853.300067 14.7693    3.5404     13.8748    26.4473    33.0763    18.0814    13.5027    27.915     0.182     
2853.500067 14.9047    3.4457     13.5607    26.0154    33.109     18.6679    13.9344    27.8376    0.185     
2853.700067 15.04      3.4052     13.3578    25.9058    33.5152    19.7367    18.6792    27.4375    0.185     
2853.900068 15.1551    3.4728     13.7439    26.4924    34.7206    20.4797    22.5281    26.5339    0.185     
2854.100068 15.2227    3.6621     14.477     27.5818    36.3518    21.3008    23.4153    25.1044    0.185     
2854.300068 15.1686    3.8513     15.0464    28.6389    37.7144    21.9786    17.2052    23.7588    0.188     
2854.500068 15.0062    3.973      15.4849    29.3351    38.2975    22.8388    13.1804    23.1006    0.185     
2854.700068 14.8065    3.9865     15.5307    29.4189    38.1665    23.5296    14.9742    22.7843    0.185     
2854.900068 14.5392    3.8277     15.2231    29.2739    38.042     24.0901    19.1226    22.7843    0.182     
2855.100068 14.3159    3.8311     15.3867    29.5801    38.494     24.5593    20.9316    22.7327    0.188     
2855.300068 14.0452    3.9595     15.8056    30.3987    39.2932    25.0807    18.7349    22.1906    0.195     
2855.500068 13.7001    4.0947     16.3325    31.3657    40.0335    25.4652    11.3037    21.1644    0.188     
2855.700068 13.2941    4.2434     16.7154    31.7589    40.0663    25.3414    8.8391     19.9834    0.185     
2855.900069 12.9083    4.1285     15.9889    31.3399    39.0508    24.833     7.7834     19.196     0.182     
2856.100069 12.5903    3.8716     14.9678    29.7412    36.8038    24.1813    8.9285     19.5833    0.182     
2856.300069 12.3737    3.5404     13.7701    27.7687    34.2489    23.5166    10.5228    20.7901    0.182     
2856.500069 12.2858    3.3038     13.0371    26.0798    32.3884    23.2168    12.0838    21.8873    0.188     
2856.700069 12.3703    3.1686     12.4742    24.9969    31.6285    23.1516    14.0931    22.6811    0.178     
2856.900069 12.4752    3.2294     12.2975    24.6552    31.6776    23.4645    13.6743    23.1651    0.178     
2857.100069 12.5294    3.3646     12.5331    24.9195    32.3229    23.9858    14.0115    23.4684    0.185     
2857.300069 12.57      3.4593     12.6705    25.1       32.6242    24.4681    13.1085    23.6491    0.188     
2857.500069 12.5497    3.5336     12.9912    25.1322    32.7094    24.9243    13.0584    23.6685    0.188     
2857.700069 12.482     3.5742     13.0763    24.9646    32.7225    24.9243    13.1459    23.7459    0.182     
2857.90007 12.3061    3.6485     13.5345    24.7197    32.6832    24.6506    8.9124     23.9073    0.188     
2858.10007 12.1707    3.7229     13.6588    24.0557    32.0936    24.2335    8.9124     24.3139    0.182     
2858.30007 12.1098    3.4795     12.8342    22.8761    30.6786    23.8164    8.2684     25.1012    0.182     
2858.50007 12.103     3.3105     12.2189    21.2968    28.8639    23.3732    9.7805     26.8179    0.178     
2858.70007 12.2316    3.0773     11.4859    20.1332    27.4882    23.0995    12.0756    28.754     0.185     
2858.90007 12.3737    3.0537     11.3877    20.1494    27.0689    23.0474    10.7414    30.3933    0.192     
2859.10007 12.6444    3.1551     11.643     20.2009    26.82      23.2299    9.9153     31.5614    0.188     
2859.30007 13.0234    3.0131     11.1488    20.0204    26.3417    23.8294    13.7882    32.8457    0.188     
2859.50007 13.3956    2.9117     10.7266    19.7626    26.1911    24.3769    17.1769    33.7492    0.185     
2859.700071 13.8084    2.9996     11.0343    19.9946    26.5252    24.7288    18.2814    33.7492    0.182     
2859.900071 14.2212    3.1348     11.5775    20.5232    26.8658    25.2501    17.1396    33.078     0.182     
2860.100071 14.5528    3.3105     12.1404    21.0196    27.0886    25.7194    16.8459    31.6582    0.192     
2860.300071 14.837     3.3646     12.376     21.4257    27.1672    26.0843    14.2695    30.3352    0.185     
2860.500071 15.2058    3.3984     12.5854    21.4998    27.0755    26.5144    17.0608    29.4317    0.178     
2860.700071 15.4325    3.368      12.7425    21.8834    27.5668    27.114     21.8451    28.825     0.182     
2860.900071 15.5746    3.466      13.2203    22.8954    28.7656    27.6354    15.9743    27.7537    0.182     
2861.100071 15.7235    3.6215     13.8814    24.0815    29.8466    28.2349    21.2076    26.2371    0.185     
2861.300071 15.8521    3.6621     14.2512    25.0871    30.613     29.1343    21.2062    24.9399    0.182     
2861.500071 15.8182    3.7094     14.6799    26.0089    31.2944    29.6687    20.3436    23.6298    0.188     
2861.700071 15.737     3.8784     15.4522    27.5624    32.598     30.164     27.8533    22.3003    0.185     
2861.900072 15.5543    3.9865     15.9103    29.3674    34.0524    30.542     19.1857    20.7804    0.185     
2862.100072 15.2363    4.1691     16.9903    31.1143    35.3036    30.9069    15.4516    18.4668    0.185     
2862.300072 14.8302    4.3043     17.3175    32.584     36.3059    30.946     11.7609    16.7178    0.188     
2862.500072 14.2618    4.3043     17.5531    33.4897    36.4566    30.568     11.7098    15.3044    0.188     
2862.700072 13.4362    4.3245     17.6775    33.5187    36.057     29.8642    13.5236    14.459     0.188     
2862.900072 12.8136    4.115      17.0492    33.5122    36.1094    28.9257    9.8746     13.8007    0.192     
2863.100072 12.2587    4.1893     17.1735    33.5509    36.3583    27.1922    10.375     13.0715    0.188     
2863.300072 11.7782    3.9933     16.7841    33.2995    36.4042    26.1234    9.4334     12.3809    0.182     
2863.500072 11.2504    3.9392     15.8187    32.2488    35.8015    24.9764    9.2074     11.7033    0.182     
2863.700072 10.7699    3.8581     15.2427    31.5268    35.6377    23.7773    10.0808    11.1353    0.178     
2863.900073 10.3097    3.7567     14.7126    30.7339    35.5526    22.6042    8.4008     10.5222    0.182     
2864.100073 9.836      3.7432     14.5097    29.9604    35.3364    21.366     7.5633     9.7123     0.185     
2864.300073 9.4232     3.7094     13.9664    28.8646    34.524     20.1408    7.2703     9.1863     0.182     
2864.500073 8.7736     3.5945     13.5148    27.3143    32.9387    18.8895    6.5487     8.741      0.185     
