~Version
 VERS              .         2.0                           : CWLS LOG ASCII STANDARD - VERSION 2.0
 WRAP              .         NO                            : ONE LINE PER DEPTH STEP
 DLM               .         SPACE                         : DELIMITING CHARACTER(SPACE TAB OR COMMA)
~Well Information
#_______________________________________________________________________________
#
#PARAMETER_NAME    .UNIT     VALUE                         : DESCRIPTION
#_______________________________________________________________________________
STRT               .m        2718.7                        : First reference value
STOP               .m        2945.100113                   : Last reference value
STEP               .m        0.2000001                     : Step increment
NULL               .         -9999                         : Missing value
COMP               .                                       : Company
WELL               .         302                           : Well name
FLD                .                                       : Field
LOC                .                                       : Location
CNTY               .                                       : County
STAT               .                                       : State
CTRY               .                                       : Country
SRVC               .                                       : Service Company
DATE               .                                       : Date
API                .                                       : API number
EREF               .m        138.34                        : 
Pad                .         3                             : 
X                  .m        219750                        : 
Y                  .m        249950                        : 
group              .         Pad3                          : 
Интер-р            .         Зайцев                        : 
Куст               .         3                             : 
Статус             .         Не проверено                  : 
Тип                .         Разведка                      : 
~Parameter Information Block
#_______________________________________________________________________________
#
#PARAMETER_NAME    .UNIT     VALUE                         : DESCRIPTION
#_______________________________________________________________________________
SET                .         LAS1                          : 
REAL_CREATION_DATE .         Ср апр 11 2012-13_17_08       : 
TLFamily_DEPTH     .         Measured Depth                : 
TLFamily_KS        .         Potential Resistivity         : 
TLFamily_KS1       .         Extra Shallow Resistivity     : 
TLFamily_KS2       .         Shallow Resistivity           : 
TLFamily_KS3       .         Medium Resistivity            : 
TLFamily_KS4       .         Deep Resistivity              : 
TLFamily_KS5       .         Extra Deep Resistivity        : 
TLFamily_LLD       .         Lateral Log Resistivity       : 
TLFamily_OKS3      .         Medium Resistivity Inverted   : 
TLFamily_RM        .         Mud Resistivity               : 
group              .         INI                           : 
~Curve Information
#_______________________________________________________________________________
#
#LOGNAME           .UNIT     LOG_ID                        : DESCRIPTION
#_______________________________________________________________________________
DEPTH              .m                                      : Measured Depth 
KS                 .ohm.m                                  : Potential Resistivity 
KS1                .ohm.m                                  : Extra Shallow Resistivity 
KS2                .ohm.m                                  : Shallow Resistivity 
KS3                .ohm.m                                  : Medium Resistivity 
KS4                .ohm.m                                  : Deep Resistivity 
KS5                .ohm.m                                  : Extra Deep Resistivity 
LLD                .ohm.m                                  : Lateral Log Resistivity 
OKS3               .ohm.m                                  : Medium Resistivity Inverted 
RM                 .ohm.m                                  : Mud Resistivity 
~Ascii
# ...
2864.700073 8.239      3.5167     13.0371    25.1451    31.5105    17.4949    5.3242     8.4441     0.182     
2864.900073 7.8126     3.3917     12.5723    23.2435    29.7155    15.8721    4.9471     8.2182     0.182     
2865.100073 7.4404     3.2024     11.8851    21.387     27.6847    14.497     4.7034     8.115      0.185     
2865.300073 7.1359     3.0064     10.7266    19.6723    25.8111    13.5195    4.4336     8.0892     0.182     
2865.500073 6.9126     2.8914     10.1245    18.2284    24.2388    12.7896    5.1791     8.2763     0.175     
2865.700073 6.7434     2.736      9.3914     17.1261    23.0924    12.2291    5.1793     8.6377     0.185     
2865.900074 6.6216     2.6684     9.0184     16.1334    21.9263    11.7729    4.7508     8.8539     0.178     
2866.100074 6.5742     2.6751     8.6911     15.3341    20.9895    11.3037    4.7298     8.8894     0.182     
2866.300074 6.5877     2.6346     8.1937     14.4574    19.7775    10.9909    5.4618     9.0701     0.178     
2866.500074 6.5877     2.5332     7.7879     13.2681    18.5918    10.665     5.1619     9.2186     0.182     
2866.700074 6.6487     2.5703     7.8206     12.5429    17.4454    10.4434    6.3048     9.3606     0.182     
2866.900074 6.696      2.5332     7.657      12.0788    16.882     10.3131    6.4556     9.4186     0.182     
2867.100074 6.6757     2.6886     7.9843     11.8467    16.6265    10.2088    6.2322     9.3154     0.182     
2867.300074 6.6013     2.8036     8.3671     11.7178    16.2662    10.0785    4.6205     9.096      0.185     
2867.500074 6.4727     2.9523     8.7238     11.3826    15.3883    9.896      4.4192     8.7023     0.188     
2867.700074 6.3441     2.8712     8.4555     10.8089    14.1829    9.5702     4.3008     8.4893     0.185     
2867.900075 6.1952     2.7292     8.1348     10.132     12.9054    9.2573     4.5187     8.5732     0.178     
2868.100075 6.0802     2.621      7.9188     9.6744     11.9031    8.9185     4.2899     9.0217     0.175     
2868.300075 6.0193     2.5129     7.7225     9.3456     11.117     8.749      5.1219     9.5477     0.182     
2868.500075 6.0328     2.4385     7.3363     9.062      10.3112    8.6187     5.021      10.2254    0.182     
2868.700075 6.0464     2.4622     7.297      8.933      9.7282     8.5665     4.7319     10.6771    0.185     
2868.900075 6.1073     2.4453     7.2185     8.9846     9.3023     8.5274     5.2638     11.1547    0.182     
2869.100075 6.1276     2.4723     7.0221     8.8364     8.7783     8.5274     4.6883     11.4645    0.182     
2869.300075 6.1885     2.4723     7.0058     8.7526     8.3328     8.5014     5.7331     11.7291    0.182     
2869.500075 6.2359     2.398      6.924      8.6107     7.9594     8.5144     4.8652     11.5548    0.185     
2869.700075 6.2629     2.5196     7.2316     8.4625     7.6515     8.5926     4.7848     11.3031    0.188     
2869.900076 6.3509     2.452      6.9174     8.1853     7.3763     8.8403     4.9926     11.1741    0.185     
2870.100076 6.3644     2.4318     6.8585     7.921      7.2977     9.2964     4.4528     11.6161    0.178     
2870.300076 6.3847     2.4723     7.0483     7.863      7.4811     10.1046    4.1865     12.3551    0.175     
2870.500076 6.5945     2.3168     6.5771     7.8662     7.9692     11.408     5.718      13.5555    0.178     
2870.700076 6.9261     2.1309     6.3742     8.1466     9.0796     13.2849    6.1281     14.9237    0.188     
2870.900076 7.3457     2.1952     6.6883     8.8428     10.5077    16.9083    8.0427     16.0983    0.182     
2871.100076 7.8329     2.1276     6.6883     9.8806     12.3093    19.3457    28.4556    16.8921    0.175     
2871.300076 8.1171     2.5264     7.5817     11.3052    14.196     20.7403    45.0692    16.7307    0.182     
2871.500076 8.2186     3.1078     9.7514     13.0457    15.4473    21.1314    5.6725     15.1689    0.185     
2871.700076 8.266      3.635      10.7528    13.7225    15.1001    20.4145    6.313      12.994     0.188     
2871.900077 8.0833     3.3984     10.1376    13.4131    13.7833    18.7592    5.4436     11.3225    0.182     
2872.100077 7.7923     3.3241     10.4452    12.53      12.2241    16.6346    5.4732     9.9995     0.178     
2872.300077 7.6231     3.0875     10.3339    12.0143    11.1629    14.5752    5.6904     9.438      0.175     
2872.500077 7.4675     2.9523     10.1638    11.4954    9.9706     13.1285    5.7245     9.0766     0.182     
2872.700077 7.3186     2.8678     9.8561     11.2408    9.3154     11.6426    6.0315     8.7991     0.188     
2872.900077 7.2442     2.8171     9.4307     11.4406    9.001      10.5347    6.6195     8.6377     0.182     
2873.100077 7.1224     2.8306     9.3195     12.0079    8.87       9.909      5.7197     8.4506     0.178     
2873.300077 6.987      2.9388     9.5453     12.7492    8.9224     9.3746     7.181      8.2634     0.182     
2873.500077 6.7908     2.9388     9.6663     13.7096    9.0796     8.8663     5.6367     8.0827     0.182     
2873.700077 6.5336     3.1145     10.0918    14.4316    9.1124     8.3319     4.7949     7.7794     0.188     
2873.900078 6.2562     3.1078     9.8431     14.4638    8.9355     7.7324     3.9509     7.4277     0.178     
2874.100078 5.9246     3.074      9.7122     13.7612    8.549      7.0546     3.8907     7.1534     0.178     
2874.300078 5.6674     2.9117     9.182      12.9361    8.0838     6.3638     3.9303     7.1598     0.178     
2874.500078 5.3933     2.6819     8.4686     11.8822    7.5663     5.7903     3.8546     7.2115     0.182     
2874.700078 5.2411     2.5501     8.1282     10.8218    7.1601     5.2689     3.9378     7.3212     0.182     
2874.900078 5.1599     2.4385     7.657      10.2416    7.0881     4.7085     4.3504     7.4438     0.182     
2875.100078 5.099      2.3912     7.2512     9.7453     7.1405     4.3956     3.8888     7.5212     0.178     
2875.300078 5.0584     2.425      6.9796     9.3005     7.206      4.135      3.7919     7.4825     0.178     
2875.500078 5.0516     2.3642     6.6622     8.875      7.2846     3.9394     3.8987     7.4567     0.178     
2875.700079 5.0448     2.3236     6.4723     8.4302     7.3501     3.7961     4.3907     7.5148     0.178     
2875.900079 5.0516     2.2695     6.348      8.1595     7.4025     3.6918     4.2904     7.6568     0.182     
2876.100079 5.0854     2.3033     6.42       7.9081     7.3632     3.6397     4.3412     7.8149     0.182     
2876.300079 5.1463     2.2898     6.3938     7.7018     7.2846     3.6006     4.6083     7.902      0.175     
2876.500079 5.1971     2.3236     6.3742     7.4859     7.1798     3.5745     4.5472     7.9988     0.178     
2876.700079 5.2275     2.3642     6.4658     7.4118     7.0815     3.5484     4.7488     8.0634     0.185     
2876.900079 5.2478     2.3642     6.5116     7.4246     7.075      3.5484     4.704      8.1731     0.178     
2877.100079 5.2275     2.4318     6.6687     7.502      7.0881     3.5484     4.6959     8.386      0.182     
2877.300079 5.1937     2.5061     6.9501     7.6116     7.0881     3.5484     4.536      8.741      0.178     
2877.500079 5.1599     2.4926     7.0156     7.6309     6.9964     3.5484     4.5922     9.1669     0.185     
2877.700079 5.1057     2.4858     6.9698     7.5665     6.8457     3.5093     3.9958     9.6897     0.185     
2877.90008 5.0448     2.5129     7.0483     7.4633     6.6623     3.4572     3.9044     10.4093    0.178     
2878.10008 5.0178     2.452      6.8192     7.3408     6.3871     3.4311     4.3887     11.6581    0.175     
2878.30008 5.0042     2.3304     6.5313     7.1604     6.1054     3.405      4.5417     12.7423    0.183     
2878.50008 4.9941     2.2966     6.5313     7.0862     5.8663     3.379      4.2036     13.7168    0.178     
2878.70008 5.0245     2.3202     6.5378     7.0766     5.6992     3.379      3.802      14.4138    0.175     
2878.90008 5.0787     2.3439     6.5313     6.967      5.47       3.3529     3.7324     15.0657    0.178     
2879.10008 5.2072     2.229      6.2694     6.6833     5.1162     3.3268     4.2349     15.9627    0.182     
