~Version
 VERS              .         2.0                           : CWLS LOG ASCII STANDARD - VERSION 2.0
 WRAP              .         NO                            : ONE LINE PER DEPTH STEP
 DLM               .         SPACE                         : DELIMITING CHARACTER(SPACE TAB OR COMMA)
~Well Information
#_______________________________________________________________________________
#
#PARAMETER_NAME    .UNIT     VALUE                         : DESCRIPTION
#_______________________________________________________________________________
STRT               .m        2718.7                        : First reference value
STOP               .m        2945.100113                   : Last reference value
STEP               .m        0.2000001                     : Step increment
NULL               .         -9999                         : Missing value
COMP               .                                       : Company
WELL               .         302                           : Well name
FLD                .                                       : Field
LOC                .                                       : Location
CNTY               .                                       : County
STAT               .                                       : State
CTRY               .                                       : Country
SRVC               .                                       : Service Company
DATE               .                                       : Date
API                .                                       : API number
EREF               .m        138.34                        : 
Pad                .         3                             : 
X                  .m        219750                        : 
Y                  .m        249950                        : 
group              .         Pad3                          : 
Интер-р            .         Зайцев                        : 
Куст               .         3                             : 
Статус             .         Не проверено                  : 
Тип                .         Разведка                      : 
~Parameter Information Block
#_______________________________________________________________________________
#
#PARAMETER_NAME    .UNIT     VALUE                         : DESCRIPTION
#_______________________________________________________________________________
SET                .         LAS1                          : 
REAL_CREATION_DATE .         Ср апр 11 2012-13_17_08       : 
TLFamily_DEPTH     .         Measured Depth                : 
TLFamily_KS        .         Potential Resistivity         : 
TLFamily_KS1       .         Extra Shallow Resistivity     : 
TLFamily_KS2       .         Shallow Resistivity           : 
TLFamily_KS3       .         Medium Resistivity            : 
TLFamily_KS4       .         Deep Resistivity              : 
TLFamily_KS5       .         Extra Deep Resistivity        : 
TLFamily_LLD       .         Lateral Log Resistivity       : 
TLFamily_OKS3      .         Medium Resistivity Inverted   : 
TLFamily_RM        .         Mud Resistivity               : 
group              .         INI                           : 
~Curve Information
#_______________________________________________________________________________
#
#LOGNAME           .UNIT     LOG_ID                        : DESCRIPTION
#_______________________________________________________________________________
DEPTH              .m                                      : Measured Depth 
KS                 .ohm.m                                  : Potential Resistivity 
KS1                .ohm.m                                  : Extra Shallow Resistivity 
KS2                .ohm.m                                  : Shallow Resistivity 
KS3                .ohm.m                                  : Medium Resistivity 
KS4                .ohm.m                                  : Deep Resistivity 
KS5                .ohm.m                                  : Extra Deep Resistivity 
LLD                .ohm.m                                  : Lateral Log Resistivity 
OKS3               .ohm.m                                  : Medium Resistivity Inverted 
RM                 .ohm.m                                  : Mud Resistivity 
~Ascii
# ...
2835.500058 7.454      2.905      9.11       11.8338    9.774      5.6469     6.4662     13.549     0.182     
2835.700058 7.4032     2.9523     9.2409     11.6469    9.7675     5.4775     5.5215     13.5813    0.188     
2835.900059 7.3592     2.8982     9.11       11.4277    9.6627     5.295      5.3979     13.8007    0.199     
2836.100059 7.3524     2.8103     8.8678     11.1376    9.5185     5.1516     5.4985     14.246     0.195     
2836.300059 7.3998     2.7157     8.678      10.854     9.2958     5.0604     5.3926     14.8269    0.192     
2836.500059 7.5216     2.6278     8.2428     10.609     9.0927     5.0343     5.8631     15.6465    0.188     
2836.700059 7.6705     2.6143     8.1282     10.5381    9.0075     5.0995     6.3286     16.621     0.185     
2836.900059 7.8329     2.6075     8.0759     10.6735    9.1451     5.2429     7.0259     17.9182    0.182     
2837.100059 8.0021     2.6886     8.3181     10.9314    9.3941     5.4514     6.7959     19.6672    0.182     
2837.300059 8.1848     2.763      8.521      11.2537    9.6889     5.7251     7.2186     20.7966    0.182     
2837.500059 8.4623     2.7833     8.5471     11.4922    9.9706     6.0249     8.3778     21.9712    0.185     
2837.700059 8.6721     2.7934     8.7042     11.9434    10.5896    6.2595     8.7326     22.9069    0.188     
2837.90006 8.848      2.9252     9.1493     12.4269    11.1301    6.4289     7.4518     23.3845    0.199     
2838.10006 9.0578     2.9996     9.5616     12.5751    11.2415    6.5593     7.5559     23.4297    0.188     
2838.30006 9.2811     2.959      9.5191     12.4462    11.0646    6.5984     7.0599     23.4555    0.185     
2838.50006 9.4977     2.932      9.5027     12.2399    10.8812    6.5463     7.3357     23.7717    0.185     
2838.70006 9.7886     2.7968     9.1362     12.0143    10.7043    6.5984     8.1826     24.4817    0.188     
2838.90006 10.1405    2.7495     9.1558     11.8532    10.6126    6.7678     9.1551     25.4304    0.185     
2839.10006 10.621     2.6886     9.0184     11.8854    10.6519    7.0676     13.1511    26.3855    0.188     
2839.30006 11.1556    2.594      8.8351     12.1561    10.9336    7.5499     21.036     26.7082    0.182     
2839.50006 11.7681    2.8374     9.8627     13.4744    11.5952    7.967      23.8899    26.2693    0.195     
2839.70006 12.1301    3.2632     10.6546    15.2116    12.9644    8.3841     14.0206    25.1464    0.192     
2839.900061 12.2452    3.6012     11.8917    16.5653    13.6785    8.7229     12.2194    23.9589    0.188     
2840.100061 12.2587    3.6553     12.3956    17.5709    13.9078    9.0097     11.0119    22.9715    0.185     
2840.300061 12.1639    3.6688     12.9225    18.2284    14.0846    9.1009     11.1392    22.7004    0.185     
2840.500061 12.0354    3.6621     13.3578    18.7376    14.2681    9.1791     10.5541    22.7133    0.182     
2840.700061 11.9203    3.6283     13.4625    19.1889    14.4777    9.1922     10.6302    22.7262    0.185     
2840.900061 11.8391    3.5607     13.3512    19.5434    14.7004    9.1661     9.8037     22.5423    0.188     
2841.100061 11.7782    3.5201     13.0698    19.8593    14.969     9.0879     9.4096     22.5843    0.188     
2841.300061 11.7376    3.4728     12.8669    20.1816    15.218     9.0227     9.9886     22.9263    0.195     
2841.500061 11.7173    3.3849     12.5004    20.5651    15.6209    8.9445     10.5261    23.4168    0.192     
2841.700061 11.7376    3.3376     12.3956    20.9809    16.05      8.8794     11.0324    23.7782    0.188     
2841.900062 11.8188    3.3511     12.376     21.2001    16.6658    8.8337     11.2182    23.6556    0.192     
2842.100062 11.9       3.3376     12.304     21.3677    17.3536    8.8403     10.7591    23.4297    0.185     
2842.300062 11.9745    3.3714     12.2778    21.1743    17.9498    8.8794     11.6342    23.3523    0.185     
2842.500062 12.0286    3.3443     12.1993    21.1421    18.4739    8.9706     11.6516    23.3523    0.185     
2842.700062 12.076     3.3984     12.4414    21.1163    19.0635    9.0879     11.6644    23.2167    0.188     
2842.900062 12.1301    3.3984     12.5069    21.2645    19.7579    9.2052     12.4294    22.9166    0.192     
2843.100062 12.1436    3.439      12.6967    21.4386    20.5833    9.3746     11.573     22.5843    0.194     
2843.300062 12.1233    3.5133     12.9716    21.7093    21.5463    9.518      11.0538    22.2358    0.192     
2843.500062 12.103     3.5269     12.9978    21.9349    22.719     9.6353     11.9544    21.8679    0.188     
2843.700062 12.076     3.5066     12.9978    22.0832    23.5641    9.7657     11.877     21.8292    0.182     
2843.900063 12.0286    3.5269     13.0763    22.3088    24.1668    9.8569     11.8032    21.8937    0.182     
2844.100063 11.9812    3.5404     13.1418    22.5796    24.5991    9.896      11.6797    21.8614    0.185     
2844.300063 11.9       3.5809     13.3054    22.7923    24.7695    9.8699     11.8605    21.784     0.188     
2844.500063 11.812     3.5674     13.2661    22.8954    24.7695    9.8178     11.1043    21.7065    0.188     
2844.700063 11.7105    3.5945     13.3119    22.8761    24.6122    9.7526     11.799     21.613     0.192     
2844.900063 11.5752    3.5742     13.2923    22.9792    24.5467    9.7266     11.377     21.7195    0.195     
2845.100063 11.3789    3.6215     13.5214    23.1404    24.6253    9.7135     10.3745    21.8937    0.19      
2845.300063 11.1455    3.6756     13.6916    23.3467    24.7105    9.7787     9.9391     22.1002    0.185     
2845.500063 10.7699    3.6654     13.5803    23.4562    24.586     9.7135     6.0411     22.3713    0.185     
2845.700063 10.7496    3.7567     13.7701    22.3733    23.3479    9.694      9.3039     23.7137    0.185     
2845.900064 10.8037    2.9117     11.7346    20.9938    22.1752    9.6614     13.0002    25.9854    0.185     
2846.100064 10.8714    3.0064     11.2404    19.6852    21.2188    9.6223     12.745     27.5988    0.188     
2846.300064 11.203     3.0807     11.4924    20.014     21.6118    9.5832     11.7802    27.1922    0.188     
2846.500064 11.4399    3.1956     11.4401    19.9495    21.4546    9.7266     11.3856    26.5017    0.188     
2846.700064 11.6023    3.243      11.3092    19.6659    21.0812    9.6875     10.7825    26.0241    0.188     
2846.900064 11.7444    3.2497     11.1652    19.2598    20.6161    9.6744     11.5954    26.0241    0.185     
2847.100064 11.8797    3.2092     11.3092    18.8988    20.3082    9.6744     13.5366    26.1467    0.178     
2847.300064 12.0218    3.2159     11.6168    18.8376    20.3246    9.7396     11.2574    26.2629    0.182     
2847.500064 12.1436    3.3274     11.944     18.9117    20.472     9.9221     10.9344    26.7598    0.185     
2847.700064 12.279     3.27       11.8328    18.757     20.3671    10.3131    12.0264    27.5924    0.195     
2847.900065 12.4346    3.2024     11.6822    18.6796    20.4523    10.7563    13.3281    28.4572    0.192     
2848.100065 12.6377    3.2024     11.7902    18.9439    20.8323    11.1733    14.8265    29.1542    0.185     
2848.300065 12.8204    3.2565     12.0553    19.9366    21.4612    11.6556    15.5216    29.7931    0.185     
2848.500065 12.9625    3.3714     12.52      20.9616    22.2276    12.0336    15.1064    30.1448    0.182     
2848.700065 13.0911    3.439      12.8145    21.8447    22.9745    12.2943    14.0589    29.8705    0.185     
2848.900065 13.2535    3.4863     12.9454    22.109     23.1514    12.4507    14.02      29.4059    0.188     
2849.100065 13.3651    3.439      12.8734    22.1928    23.0007    12.4768    13.6837    29.0186    0.188     
2849.300065 13.4971    3.4795     13.0567    22.2218    22.8893    12.3855    13.1194    28.7992    0.192     
2849.500065 13.6324    3.4187     12.9454    22.0768    22.6011    12.2291    12.1861    28.8315    0.192     
2849.700065 13.8084    3.3511     12.7818    21.7544    22.2801    12.1314    14.161     29.0057    0.185     
2849.900066 13.9979    3.27       12.4873    21.6707    22.2735    12.0727    16.469     29.0832    0.182     
