~Version
 VERS              .         2.0                           : CWLS LOG ASCII STANDARD - VERSION 2.0
 WRAP              .         NO                            : ONE LINE PER DEPTH STEP
 DLM               .         SPACE                         : DELIMITING CHARACTER(SPACE TAB OR COMMA)
~Well Information
#_______________________________________________________________________________
#
#PARAMETER_NAME    .UNIT     VALUE                         : DESCRIPTION
#_______________________________________________________________________________
STRT               .m        2718.7                        : First reference value
STOP               .m        2945.100113                   : Last reference value
STEP               .m        0.2000001                     : Step increment
NULL               .         -9999                         : Missing value
COMP               .                                       : Company
WELL               .         302                           : Well name
FLD                .                                       : Field
LOC                .                                       : Location
CNTY               .                                       : County
STAT               .                                       : State
CTRY               .                                       : Country
SRVC               .                                       : Service Company
DATE               .                                       : Date
API                .                                       : API number
EREF               .m        138.34                        : 
Pad                .         3                             : 
X                  .m        219750                        : 
Y                  .m        249950                        : 
group              .         Pad3                          : 
Интер-р            .         Зайцев                        : 
Куст               .         3                             : 
Статус             .         Не проверено                  : 
Тип                .         Разведка                      : 
~Parameter Information Block
#_______________________________________________________________________________
#
#PARAMETER_NAME    .UNIT     VALUE                         : DESCRIPTION
#_______________________________________________________________________________
SET                .         LAS1                          : 
REAL_CREATION_DATE .         Ср апр 11 2012-13_17_08       : 
TLFamily_DEPTH     .         Measured Depth                : 
TLFamily_KS        .         Potential Resistivity         : 
TLFamily_KS1       .         Extra Shallow Resistivity     : 
TLFamily_KS2       .         Shallow Resistivity           : 
TLFamily_KS3       .         Medium Resistivity            : 
TLFamily_KS4       .         Deep Resistivity              : 
TLFamily_KS5       .         Extra Deep Resistivity        : 
TLFamily_LLD       .         Lateral Log Resistivity       : 
TLFamily_OKS3      .         Medium Resistivity Inverted   : 
TLFamily_RM        .         Mud Resistivity               : 
group              .         INI                           : 
~Curve Information
#_______________________________________________________________________________
#
#LOGNAME           .UNIT     LOG_ID                        : DESCRIPTION
#_______________________________________________________________________________
DEPTH              .m                                      : Measured Depth 
KS                 .ohm.m                                  : Potential Resistivity 
KS1                .ohm.m                                  : Extra Shallow Resistivity 
KS2                .ohm.m                                  : Shallow Resistivity 
KS3                .ohm.m                                  : Medium Resistivity 
KS4                .ohm.m                                  : Deep Resistivity 
KS5                .ohm.m                                  : Extra Deep Resistivity 
LLD                .ohm.m                                  : Lateral Log Resistivity 
OKS3               .ohm.m                                  : Medium Resistivity Inverted 
RM                 .ohm.m                                  : Mud Resistivity 
~Ascii
# ...
2923.100102 6.043      2.2864     6.8291     9.2425     7.491      4.0307     9.0183     9.9446     0.167     
2923.300102 6.131      2.2628     6.9992     9.5293     8.1985     3.9785     7.1926     10.3706    0.175     
2923.500102 6.1749     2.5399     7.6472     9.9902     8.942      3.8743     6.4407     10.4028    0.172     
2923.700102 6.1614     2.7968     8.1152     10.0547    9.0534     3.7179     5.9657     9.9446     0.182     
2923.900103 6.114      2.7022     7.8337     9.7388     8.621      3.4963     5.3916     9.3541     0.168     
2924.100103 5.999      2.6582     7.6766     9.3617     8.2181     3.3138     5.0908     8.8507     0.175     
2924.300103 5.8298     2.594      7.7552     9.1361     7.9561     3.1574     5.1409     8.6958     0.17      
2924.500103 5.6776     2.5196     7.6603     8.8492     7.7858     3.0662     4.8316     8.6281     0.178     
2924.700103 5.5794     2.398      7.3952     8.5205     7.6384     3.0531     5.3863     9.0572     0.172     
2924.900103 5.5896     2.2661     7.1432     8.1917     7.5073     3.0792     6.0287     9.4057     0.17      
2925.100103 5.6742     2.2053     6.7047     7.8855     7.2093     3.177      6.4004     10.0995    0.168     
2925.300103 5.8298     2.1512     6.2989     7.7792     7.1536     3.3529     7.1045     10.874     0.168     
2925.500103 6.0768     2.1073     6.0862     7.8404     7.0717     3.594      7.5263     11.8646    0.173     
2925.700103 6.3171     2.1276     6.06       8.0177     7.1667     4.0111     7.8447     12.4713    0.173     
2925.900104 6.5607     2.1546     6.1516     8.2175     7.4287     4.5586     8.1075     12.652     0.173     
2926.100104 6.784      2.2492     6.4167     8.5334     7.8611     5.2689     8.5527     12.6455    0.17      
2926.300104 6.9092     2.4081     6.9665     9.1103     8.621      5.9206     5.2715     12.6649    0.168     
2926.500104 6.9126     2.6008     7.6046     9.6905     9.2467     6.4094     6.5285     12.6745    0.177     
2926.700104 7.0175     2.7123     8.1446     9.5873     9.0698     7.0807     6.8945     12.71      0.173     
2926.900104 7.2137     2.4047     7.2185     9.0168     8.3328     7.7324     8.5168     12.7681    0.172     
2927.100104 7.3694     2.3405     7.1334     8.4496     7.9561     8.1494     8.5289     12.7714    0.17      
2927.300104 7.5758     2.3236     7.1563     8.4431     8.0052     8.5014     9.4267     12.7681    0.178     
2927.500104 7.8431     2.3844     7.333      8.6043     8.1985     8.8142     9.4307     12.7681    0.17      
2927.700104 8.0968     2.4385     7.4312     8.8686     8.4147     9.0944     7.8698     12.7681    0.173     
2927.900105 8.31       2.5602     7.693      9.2328     8.6014     9.3421     8.797      12.7681    0.17      
2928.100105 8.4352     2.736      8.1152     9.7453     8.7553     9.5376     9.5665     12.7681    0.172     
2928.300105 8.4792     2.7157     8.4195     10.1675    8.8012     9.6484     9.5117     12.7681    0.172     
2928.500105 8.4826     2.7731     8.5962     10.5027    8.7783     9.7852     9.4191     12.7681    0.172     
2928.700105 8.4826     2.7867     9.0053     10.8669    8.8274     9.9742     6.4615     12.7681    0.168     
2928.900105 8.4826     2.79       9.4536     11.3955    8.9224     10.287     5.6978     12.7681    0.168     
2929.100105 8.4893     2.7968     9.8496     11.9047    9.1681     10.6455    6.0367     12.7649    0.173     
2929.300105 8.4961     2.7867     9.8823     12.3205    9.2696     11.0691    5.9969     12.7649    0.175     
2929.500105 8.4961     2.7867     9.8823     12.2657    9.2598     11.8055    6.7122     12.7681    0.175     
2929.700105 8.4961     2.7968     9.8823     12.053     9.3384     12.7244    6.9626     12.7681    0.175     
2929.900106 8.4961     2.7968     9.8791     12.0336    9.7806     13.9626    7.6078     12.7681    0.175     
2930.100106 8.4961     2.7968     9.866      12.0788    10.3341    15.4811    6.045      12.7681    0.175     
2930.300106 8.4961     2.7968     9.8561     12.1851    11.0384    16.8236    5.4896     12.7584    0.175     
2930.500106 8.4961     2.7968     9.8496     12.2012    11.7688    18.8178    5.7923     12.7649    0.175     
2930.700106 8.4961     2.7968     9.8496     12.2077    12.3617    21.4963    5.1287     12.7681    0.175     
2930.900106 8.4961     2.7968     9.8561     12.2109    12.8694    25.8236    5.3418     12.7681    0.175     
2931.100106 8.4961     2.7968     9.8561     12.2238    13.9209    32.1973    12.1163    -9999      0.173     
2931.300106 8.4961     2.7968     9.8561     12.2335    16.2334    37.463     21.5009    -9999      0.175     
2931.500106 8.4995     2.7968     9.8561     12.2303    19.6138    42.8135    17.578     -9999      0.175     
2931.700106 8.4961     2.7968     9.8561     12.2303    21.9132    45.8244    19.3273    -9999      0.175     
2931.900107 8.4961     2.7968     9.8561     12.2238    21.7003    45.8179    18.3897    -9999      0.175     
2932.100107 8.4961     2.7968     9.8561     12.2238    19.8529    43.2371    18.0885    -9999      0.173     
2932.300107 8.4961     2.7968     9.8561     12.2238    18.8407    39.5355    19.737     -9999      0.173     
2932.500107 8.4995     2.7968     9.8561     12.2206    18.7261    35.7621    20.6455    -9999      0.173     
2932.700107 8.4961     2.7968     9.8561     12.227     18.6802    32.8034    15.8126    -9999      0.173     
2932.900107 8.4961     2.7968     9.8561     12.2335    18.6311    30.4833    13.3453    -9999      0.172     
2933.100107 8.4961     2.7968     9.8561     12.2335    18.5721    29.3102    15.9493    -9999      0.173     
2933.300107 8.4961     2.7968     9.8561     12.2335    18.4149    28.5152    22.7027    -9999      0.172     
2933.500107 8.4961     2.7968     9.8561     12.2335    18.3494    28.3131    36.14      -9999      -9999     
2933.700107 -9999      2.7968     9.8561     12.2303    18.3527    28.9323    129.7361   -9999      -9999     
2933.900108 -9999      -9999      9.8561     12.2141    18.356     29.786     39.3975    -9999      -9999     
2934.100108 -9999      -9999      9.8561     12.2141    18.3625    30.4181    8.6359     -9999      -9999     
2934.300108 -9999      -9999      9.8561     12.2206    18.3625    30.2487    6.0116     -9999      -9999     
2934.500108 -9999      -9999      -9999      12.2206    18.3625    28.8019    6.2761     -9999      -9999     
2934.700108 -9999      -9999      -9999      12.2206    18.3658    26.0778    6.3876     -9999      -9999     
2934.900108 -9999      -9999      -9999      12.227     18.3625    22.9822    6.8004     -9999      -9999     
2935.100108 -9999      -9999      -9999      12.2303    18.3723    19.8084    6.6424     -9999      -9999     
2935.300108 -9999      -9999      -9999      12.2335    18.3756    16.4587    5.3827     -9999      -9999     
2935.500108 -9999      -9999      -9999      12.2335    18.3756    13.9757    5.1016     -9999      -9999     
2935.700108 -9999      -9999      -9999      -9999      18.3756    11.7599    5.8234     -9999      -9999     
2935.900109 -9999      -9999      -9999      -9999      18.3756    9.9481     5.7605     -9999      -9999     
2936.100109 -9999      -9999      -9999      -9999      18.3756    8.1429     6.6282     -9999      -9999     
2936.300109 -9999      -9999      -9999      -9999      18.3789    6.631      8.0725     -9999      -9999     
2936.500109 -9999      -9999      -9999      -9999      18.3756    5.9467     7.8638     -9999      -9999     
2936.700109 -9999      -9999      -9999      -9999      18.3789    5.8424     7.7342     -9999      -9999     
2936.900109 -9999      -9999      -9999      -9999      18.3756    5.8229     7.6234     -9999      -9999     
2937.100109 -9999      -9999      -9999      -9999      18.3789    5.8033     7.5144     -9999      -9999     
2937.300109 -9999      -9999      -9999      -9999      18.3811    5.7642     7.853      -9999      -9999     
2937.500109 -9999      -9999      -9999      -9999      18.3782    5.673      8.5502     -9999      -9999     
