~Version
 VERS              .         2.0                           : CWLS LOG ASCII STANDARD - VERSION 2.0
 WRAP              .         NO                            : ONE LINE PER DEPTH STEP
 DLM               .         SPACE                         : DELIMITING CHARACTER(SPACE TAB OR COMMA)
~Well Information
#_______________________________________________________________________________
#
#PARAMETER_NAME    .UNIT     VALUE                         : DESCRIPTION
#_______________________________________________________________________________
STRT               .m        2718.7                        : First reference value
STOP               .m        2945.100113                   : Last reference value
STEP               .m        0.2000001                     : Step increment
NULL               .         -9999                         : Missing value
COMP               .                                       : Company
WELL               .         302                           : Well name
FLD                .                                       : Field
LOC                .                                       : Location
CNTY               .                                       : County
STAT               .                                       : State
CTRY               .                                       : Country
SRVC               .                                       : Service Company
DATE               .                                       : Date
API                .                                       : API number
EREF               .m        138.34                        : 
Pad                .         3                             : 
X                  .m        219750                        : 
Y                  .m        249950                        : 
group              .         Pad3                          : 
Интер-р            .         Зайцев                        : 
Куст               .         3                             : 
Статус             .         Не проверено                  : 
Тип                .         Разведка                      : 
~Parameter Information Block
#_______________________________________________________________________________
#
#PARAMETER_NAME    .UNIT     VALUE                         : DESCRIPTION
#_______________________________________________________________________________
SET                .         LAS1                          : 
REAL_CREATION_DATE .         Ср апр 11 2012-13_17_08       : 
TLFamily_DEPTH     .         Measured Depth                : 
TLFamily_KS        .         Potential Resistivity         : 
TLFamily_KS1       .         Extra Shallow Resistivity     : 
TLFamily_KS2       .         Shallow Resistivity           : 
TLFamily_KS3       .         Medium Resistivity            : 
TLFamily_KS4       .         Deep Resistivity              : 
TLFamily_KS5       .         Extra Deep Resistivity        : 
TLFamily_LLD       .         Lateral Log Resistivity       : 
TLFamily_OKS3      .         Medium Resistivity Inverted   : 
TLFamily_RM        .         Mud Resistivity               : 
group              .         INI                           : 
~Curve Information
#_______________________________________________________________________________
#
#LOGNAME           .UNIT     LOG_ID                        : DESCRIPTION
#_______________________________________________________________________________
DEPTH              .m                                      : Measured Depth 
KS                 .ohm.m                                  : Potential Resistivity 
KS1                .ohm.m                                  : Extra Shallow Resistivity 
KS2                .ohm.m                                  : Shallow Resistivity 
KS3                .ohm.m                                  : Medium Resistivity 
KS4                .ohm.m                                  : Deep Resistivity 
KS5                .ohm.m                                  : Extra Deep Resistivity 
LLD                .ohm.m                                  : Lateral Log Resistivity 
OKS3               .ohm.m                                  : Medium Resistivity Inverted 
RM                 .ohm.m                                  : Mud Resistivity 
~Ascii
# ...
2733.300007 6.1208     2.6684     8.0137     10.5059    9.2041     6.9047     5.2718     10.9611    0.195     
2733.500007 6.1479     2.5433     7.7094     10.0096    8.8798     6.7548     4.895      11.1644    0.195     
2733.700007 6.2257     2.4994     7.441      9.3359     8.5555     6.6179     4.8026     11.3999    0.195     
2733.900008 6.3396     2.4791     7.2948     9.0534     8.3656     6.5332     4.9221     11.6452    0.199     
2734.100008 6.4727     2.4656     7.2119     9.0168     8.2149     6.4811     5.2051     11.7226    0.202     
2734.300008 6.6487     2.5095     7.2512     9.0104     8.1297     6.4681     5.7877     11.5355    0.205     
2734.500008 6.7535     2.5737     7.3821     9.0265     8.1035     6.4615     6.3851     11.2709    0.205     
2734.700008 6.8314     2.6379     7.5785     9.0684     8.1166     6.4941     6.3494     11.0902    0.205     
2734.900008 6.8652     2.6886     7.8501     9.207      8.1625     6.5202     6.2574     11.0127    0.202     
2735.100008 6.9126     2.7292     8.1413     9.3456     8.2149     6.5593     6.4366     10.9353    0.199     
2735.300008 6.9329     2.7495     8.2297     9.5003     8.2738     6.6179     6.3928     10.8514    0.199     
2735.500008 6.9464     2.7495     8.2919     9.6357     8.2935     6.6766     6.3698     10.7739    0.199     
2735.700008 6.9193     2.7968     8.3704     9.8871     8.4376     6.7157     6.329      10.7158    0.199     
2735.900009 6.8855     2.8036     8.5308     10.0998    8.549      6.7548     6.4171     10.7029    0.195     
2736.100009 6.8517     2.8238     8.606      10.3383    8.621      6.8069     6.3366     10.7158    0.199     
2736.300009 6.8178     2.7934     8.5864     10.5639    8.6276     6.846      6.1741     10.6771    0.195     
2736.500009 6.784      2.7765     8.606      10.6928    8.6407     6.8591     6.1436     10.6707    0.195     
2736.700009 6.7299     2.79       8.5537     10.7702    8.6538     6.8591     6.0473     10.7513    0.199     
2736.900009 6.6757     2.7765     8.5177     10.8024    8.6309     6.8591     5.8902     10.903     0.199     
2737.100009 6.6554     2.7562     8.4686     10.7605    8.5948     6.846      5.8088     10.974     0.199     
2737.300009 6.6622     2.6886     8.305      10.6477    8.5785     6.833      5.7406     11.0385    0.199     
2737.500009 6.669      2.6954     8.1872     10.522     8.5686     6.82       5.6427     11.1353    0.199     
2737.700009 6.669      2.7022     8.1806     10.4995    8.6145     6.82       5.701      11.2644    0.199     
2737.90001 6.669      2.7157     8.1806     10.4286    8.6407     6.7939     5.8051     11.3483    0.199     
2738.10001 6.6893     2.6819     8.0824     10.3576    8.6571     6.7809     5.8001     11.3677    0.199     
2738.30001 6.7096     2.6684     8.1021     10.2867    8.7062     6.7548     5.7662     11.3741    0.199     
2738.50001 6.7231     2.7022     8.1937     10.2738    8.7586     6.7287     5.8955     11.3612    0.199     
2738.70001 6.7434     2.7022     8.1086     10.2416    8.7914     6.7027     5.8775     11.3612    0.199     
2738.90001 6.7772     2.6954     8.1152     10.132     8.7783     6.6896     5.8701     11.3677    0.199     
2739.10001 6.8111     2.6819     8.0824     10.0805    8.7029     6.6766     5.8261     11.3225    0.199     
2739.30001 6.8686     2.6684     8.0628     10.0869    8.6669     6.6636     5.8871     11.2773    0.199     
2739.50001 6.9126     2.692      8.1152     10.0998    8.6702     6.6114     6.0289     11.187     0.199     
2739.70001 6.9464     2.6751     8.1086     10.1965    8.7062     6.5984     5.9561     11.0772    0.199     
2739.900011 6.9802     2.7427     8.2788     10.2932    8.7586     6.6049     6.1888     10.9288    0.199     
2740.100011 6.9735     2.7833     8.4293     10.4479    8.8208     6.6114     6.3807     10.8385    0.199     
2740.300011 6.9599     2.79       8.4882     10.551     8.8307     6.5658     6.488      10.7739    0.199     
2740.500011 6.9261     2.8103     8.5537     10.6284    8.8307     6.5463     6.3695     10.6384    0.199     
2740.700011 6.872      2.7968     8.5864     10.6993    8.8307     6.5397     6.2153     10.5416    0.199     
2740.900011 6.8246     2.8036     8.6191     10.7444    8.811      6.5202     6.0793     10.4254    0.199     
2741.100011 6.784      2.7765     8.5602     10.7638    8.7979     6.4876     6.1206     10.2254    0.202     
2741.300011 6.7434     2.7562     8.5144     10.8057    8.8438     6.455      5.9719     10.1027    0.199     
2741.500011 6.6893     2.763      8.5013     10.8347    8.8765     6.442      5.8239     10.0511    0.199     
2741.700011 6.6419     2.7698     8.5013     10.8604    8.8765     6.442      5.9002     10.0059    0.199     
2741.900012 6.6013     2.7562     8.4424     10.8604    8.9027     6.4224     5.8051     9.9995     0.202     
2742.100012 6.5742     2.7427     8.3377     10.7831    8.8896     6.4029     5.6035     9.993      0.202     
2742.300012 6.5945     2.7157     8.2657     10.6928    8.87       6.3898     5.5833     9.9349     0.202     
2742.500012 6.6216     2.6886     8.1086     10.5317    8.8241     6.3768     5.6785     9.8317     0.199     
2742.700012 6.6284     2.6886     8.0563     10.4157    8.811      6.3898     5.5963     9.7736     0.199     
2742.900012 6.6419     2.6886     8.1479     10.4543    8.9158     6.3898     5.6144     9.651      0.199     
2743.100012 6.6351     2.7055     8.4031     10.5446    8.9944     6.3768     5.9762     9.3606     0.202     
2743.300012 6.5742     2.8036     8.4817     10.5897    9.037      6.3442     6.629      9.1282     0.199     
2743.500012 6.3509     2.8441     8.5013     10.5188    8.9748     6.2856     6.1852     8.9733     0.202     
2743.700012 6.1343     2.8036     8.462      10.4221    8.8962     6.2009     5.609      8.9217     0.199     
2743.900013 6.0125     2.7022     8.462      10.3383    8.8438     6.1422     5.4406     8.9475     0.205     
2744.100013 5.9719     2.6481     8.3966     10.2158    8.7652     6.1031     5.2557     8.9411     0.205     
2744.300013 5.9652     2.6075     8.017      10.0869    8.6407     6.0444     5.2526     8.9346     0.202     
2744.500013 5.9719     2.6075     7.6832     9.9902     8.4704     5.9988     5.1027     8.9798     0.202     
2744.700013 5.9652     2.6075     7.5457     9.9515     8.3459     5.9467     5.0884     9.0443     0.205     
2744.900013 5.9584     2.6075     7.5588     9.8839     8.1952     5.8815     5.0417     9.0895     0.202     
2745.100013 5.9449     2.5872     7.5654     9.713      8.0773     5.8294     5.0531     9.154      0.199     
2745.300013 5.9381     2.5872     7.5654     9.539      7.9725     5.7772     5.1162     9.1992     0.199     
2745.500013 5.911      2.6075     7.5588     9.2489     7.8742     5.7381     5.131      9.3347     0.199     
2745.700013 5.8975     2.6143     7.5457     8.8944     7.7825     5.7121     5.1415     9.4703     0.199     
2745.900014 5.884      2.594      7.4868     8.7268     7.6711     5.673      5.0777     9.6058     0.195     
2746.100014 5.8975     2.5737     7.4214     8.643      7.5467     5.6469     5.0048     9.7994     0.195     
2746.300014 5.8907     2.567      7.3887     8.6236     7.4746     5.6208     4.9947     10.0446    0.192     
2746.500014 5.8907     2.594      7.4214     8.6236     7.4615     5.6078     5.0048     10.2576    0.192     
2746.700014 5.9246     2.5737     7.3625     8.6172     7.4418     5.5687     5.1043     10.4383    0.192     
2746.900014 5.9787     2.5737     7.3363     8.5334     7.4025     5.5296     5.1282     10.5868    0.188     
2747.100014 6.0464     2.5399     7.2578     8.4109     7.2519     5.5035     5.1541     10.6642    0.188     
2747.300014 6.1005     2.5399     7.153      8.3142     7.0619     5.4775     5.234      10.761     0.192     
2747.500014 6.1546     2.567      7.2512     8.3013     6.9505     5.4644     5.265      10.8385    0.192     
2747.700014 6.2223     2.5399     7.2316     8.3078     6.9505     5.4905     5.3798     10.9546    0.192     
