~Version
 VERS              .         2.0                           : CWLS LOG ASCII STANDARD - VERSION 2.0
 WRAP              .         NO                            : ONE LINE PER DEPTH STEP
 DLM               .         SPACE                         : DELIMITING CHARACTER(SPACE TAB OR COMMA)
~Well Information
#_______________________________________________________________________________
#
#PARAMETER_NAME    .UNIT     VALUE                         : DESCRIPTION
#_______________________________________________________________________________
STRT               .m        2718                          : First reference value
STOP               .m        2945                          : Last reference value
STEP               .m        0.2                           : Step increment
NULL               .         -9999                         : Missing value
COMP               .                                       : Company
WELL               .         302                           : Well name
FLD                .                                       : Field
LOC                .                                       : Location
CNTY               .                                       : County
STAT               .                                       : State
CTRY               .                                       : Country
SRVC               .                                       : Service Company
DATE               .                                       : Date
API                .                                       : API number
EREF               .m        138.34                        : 
Pad                .         3                             : 
X                  .m        219750                        : 
Y                  .m        249950                        : 
group              .         Pad3                          : 
Интер-р            .         Зайцев                        : 
Куст               .         3                             : 
Статус             .         Не проверено                  : 
Тип                .         Разведка                      : 
~Parameter Information Block
#_______________________________________________________________________________
#
#PARAMETER_NAME    .UNIT     VALUE                         : DESCRIPTION
#_______________________________________________________________________________
SET                .         LAS3                          : 
REAL_CREATION_DATE .         Ср апр 11 2012-13_17_08       : 
TLFamily_DEPTH     .         Measured Depth                : 
TLFamily_GR        .         Gamma Ray                     : 
TLFamily_TNPH      .         Neutron Porosity              : 
group              .         INI                           : 
~Curve Information
#_______________________________________________________________________________
#
#LOGNAME           .UNIT     LOG_ID                        : DESCRIPTION
#_______________________________________________________________________________
DEPTH              .m                                      : Measured Depth 
GR                 .gAPI                                   :  
TNPH               .v/v                                    : Neutron Porosity 
~Ascii
2718.0     61.89      0.308     
2718.2     64.09      0.322     
2718.4     67.91      0.371     
2718.6     64.59      0.363     
2718.8     53.91      0.327     
2719       38.96      0.328     
2719.2     29.54      0.337     
2719.4     44.22      0.296     
2719.6     72.25999   0.264     
2719.8     85.33      0.286     
2720       87.14      0.301     
2720.2     88.06      0.295     
2720.4     91.98      0.272     
2720.6     96.08      0.267     
2720.8     97.75      0.273     
2721       94.96001   0.266     
2721.2     88.57001   0.263     
2721.4     87.05      0.269     
2721.6     93.92999   0.276     
2721.8     103.43     0.268     
2722       101.47     0.237     
2722.2     89.46      0.23      
2722.4     83.43001   0.224     
2722.6     82.07      0.231     
2722.8     79.41      0.234     
2723       81.87      0.234     
2723.2     85.39      0.233     
2723.4     81.68999   0.232     
2723.6     80.06      0.233     
2723.8     83.05      0.235     
2724       81.11      0.237     
2724.2     77.66      0.241     
2724.4     74.55      0.254     
2724.6     74.39      0.264     
2724.8     75.12      0.248     
2725       73.44      0.234     
2725.2     76.31      0.241     
2725.4     83.11      0.255     
2725.6     84.28001   0.249     
2725.8     81.44      0.228     
2726       79.65      0.218     
2726.2     81.08      0.243     
2726.4     82.35      0.274     
2726.6     80.48      0.279     
2726.8     81.14      0.258     
2727       83.83      0.242     
2727.2     82.43      0.233     
2727.4     79.20999   0.235     
2727.6     80.13      0.245     
2727.8     81.13      0.234     
2728       80.45      0.225     
2728.2     82.13      0.239     
2728.4     84.79      0.263     
2728.6     84.7       0.27      
2728.8     83.26      0.257     
2729       83.35      0.243     
2729.2     84.08      0.238     
2729.4     81.78001   0.242     
2729.6     81.99001   0.265     
2729.8     87.65      0.299     
2730       89.54001   0.294     
2730.2     86.77      0.247     
2730.4     85.60001   0.224     
2730.6     87.17      0.248     
2730.8     91.08      0.276     
2731       95.37      0.288     
2731.2     94.86      0.295     
2731.4     89.55      0.287     
2731.6     89.61      0.268     
2731.8     91.7       0.273     
2732       90.4       0.289     
2732.2     92.53999   0.295     
2732.4     97.02      0.278     
2732.6     95.66      0.266     
2732.8     90         0.274     
2733       89.42001   0.303     
2733.2     95.95      0.301     
2733.4     100.78     0.262     
2733.6     98.69      0.237     
2733.8     93.36      0.239     
2734       90.79001   0.259     
2734.2     88.94      0.299     
2734.4     82.48      0.293     
2734.6     79.3       0.258     
2734.8     83.43001   0.247     
2735       89.51      0.239     
2735.2     92.55      0.234     
2735.4     91.88      0.233     
2735.6     88.54      0.235     
2735.8     86.68999   0.261     
2736       87.35      0.296     
2736.2     90.88      0.272     
2736.4     95.67001   0.243     
2736.6     92.51      0.242     
2736.8     85.12      0.255     
2737       88.56      0.262     
2737.2     97.36      0.264     
2737.4     96.00999   0.259     
2737.6     87.81999   0.248     
2737.8     82.81      0.24      
2738       82.83      0.256     
2738.2     86.08      0.285     
2738.4     88.67      0.277     
2738.6     87.35      0.266     
2738.8     84.04      0.275     
2739       80.43999   0.291     
2739.2     81.23      0.294     
2739.4     84.81      0.28      
2739.6     85.71      0.259     
2739.8     85.35      0.244     
2740       84.99      0.242     
2740.2     84.44      0.26      
2740.4     82.46001   0.267     
2740.6     81.93      0.266     
2740.8     85.12      0.273     
2741       87.12      0.272     
2741.2     87.48      0.271     
2741.4     88.31001   0.273     
2741.6     90.37      0.26      
2741.8     94.55      0.249     
2742       95.61      0.254     
2742.2     91.64      0.271     
2742.4     89.13      0.285     
2742.6     90.37      0.275     
2742.8     90.39      0.262     
2743       90.29      0.263     
2743.2     90.34      0.267     
2743.4     86.56999   0.26      
2743.6     87.25999   0.244     
2743.8     91.75999   0.233     
2744       94.02      0.239     
2744.2     94.58      0.264     
2744.4     93.16      0.288     
2744.6     91.07001   0.29      
2744.8     91.59      0.284     
2745       93.36      0.268     
2745.2     89.89999   0.266     
2745.4     85.55      0.292     
2745.6     89.49001   0.299     
2745.8     92.58      0.289     
2746       94.02      0.288     
2746.2     96.26      0.283     
2746.4     96.58      0.271     
2746.6     94.46999   0.264     
2746.8     90.5       0.269     
2747       90         0.295     
2747.2     94.84      0.321     
2747.4     98.62      0.299     
2747.6     98.34      0.266     
2747.8     97.75      0.257     
2748       97.78      0.274     
2748.2     97.39      0.279     
2748.4     94.92      0.268     
2748.6     90.33      0.269     
2748.8     86.28999   0.254     
2749       85.66      0.235     
2749.2     89.61      0.22      
2749.4     91.6       0.218     
2749.6     93.33      0.244     
2749.8     93.37      0.256     
2750       92.88      0.243     
2750.2     93.33      0.236     
2750.4     88.74      0.265     
2750.6     83.76      0.292     
2750.8     82.39      0.272     
2751       84.55      0.246     
2751.2     89.69      0.237     
2751.4     91.21001   0.259     
2751.6     88.53      0.295     
2751.8     87.72      0.286     
2752       85.01      0.247     
2752.2     84.89999   0.235     
2752.4     89.8       0.267     
2752.6     93         0.296     
2752.8     92.86      0.298     
2753       91.99001   0.286     
2753.2     93.42      0.278     
2753.4     92.17      0.268     
2753.6     90.14      0.259     
2753.8     91.23      0.262     
2754       95.12      0.28      
2754.2     100.48     0.307     
2754.4     100.3      0.305     
2754.6     96.54      0.294     
2754.8     95.06      0.32      
2755       93.6       0.33      
2755.2     93.33      0.296     
2755.4     90.57      0.281     
2755.6     87.42      0.287     
2755.8     90         0.283     
2756       93.8       0.267     
2756.2     94.92      0.236     
2756.4     91.67      0.222     
2756.6     86.78001   0.237     
2756.8     87.09      0.264     
2757       88.03001   0.282     
2757.2     85.27      0.292     
2757.4     84.57      0.29      
2757.6     85.96      0.275     
2757.8     88.04      0.277     
2758       94.45      0.286     
2758.2     94.99      0.283     
2758.4     86.13      0.262     
2758.6     82.62      0.241     
2758.8     88.63      0.242     
2759       92.93      0.249     
2759.2     92.57      0.241     
2759.4     88.42      0.243     
2759.6     84.88      0.252     
2759.8     85.2       0.246     
2760       88         0.245     
2760.2     87.89      0.246     
2760.4     81.1       0.238     
2760.6     80.26      0.242     
2760.8     89.06      0.248     
2761       90.9       0.251     
2761.2     84.91      0.258     
2761.4     87.23      0.262     
2761.6     92.57      0.267     
2761.8     91.07001   0.284     
2762       94.22      0.274     
2762.2     98.78999   0.238     
2762.4     92.57      0.242     
2762.6     85.60001   0.266     
2762.8     84.89      0.287     
2763       87.14      0.302     
2763.2     88.03001   0.289     
2763.4     89.27      0.238     
2763.6     90.49      0.234     
2763.8     90.47      0.249     
2764       92.89      0.234     
2764.2     96.6       0.225     
2764.4     98.82      0.236     
2764.6     96.98      0.255     
2764.8     94.38      0.277     
2765       92.22      0.265     
2765.2     91.56      0.238     
2765.4     92.55      0.243     
2765.6     92.13      0.258     
2765.8     92.64      0.246     
2766       92.28      0.234     
2766.2     88.99001   0.244     
2766.4     86.24      0.253     
