~Version
 VERS              .         2.0                           : CWLS LOG ASCII STANDARD - VERSION 2.0
 WRAP              .         NO                            : ONE LINE PER DEPTH STEP
 DLM               .         SPACE                         : DELIMITING CHARACTER(SPACE TAB OR COMMA)
~Well Information
#_______________________________________________________________________________
#
#PARAMETER_NAME    .UNIT     VALUE                         : DESCRIPTION
#_______________________________________________________________________________
STRT               .m        2718.7                        : First reference value
STOP               .m        2945.100113                   : Last reference value
STEP               .m        0.2000001                     : Step increment
NULL               .         -9999                         : Missing value
COMP               .                                       : Company
WELL               .         302                           : Well name
FLD                .                                       : Field
LOC                .                                       : Location
CNTY               .                                       : County
STAT               .                                       : State
CTRY               .                                       : Country
SRVC               .                                       : Service Company
DATE               .                                       : Date
API                .                                       : API number
EREF               .m        138.34                        : 
Pad                .         3                             : 
X                  .m        219750                        : 
Y                  .m        249950                        : 
group              .         Pad3                          : 
Интер-р            .         Зайцев                        : 
Куст               .         3                             : 
Статус             .         Не проверено                  : 
Тип                .         Разведка                      : 
~Parameter Information Block
#_______________________________________________________________________________
#
#PARAMETER_NAME    .UNIT     VALUE                         : DESCRIPTION
#_______________________________________________________________________________
SET                .         LAS1                          : 
REAL_CREATION_DATE .         Ср апр 11 2012-13_17_08       : 
TLFamily_DEPTH     .         Measured Depth                : 
TLFamily_KS        .         Potential Resistivity         : 
TLFamily_KS1       .         Extra Shallow Resistivity     : 
TLFamily_KS2       .         Shallow Resistivity           : 
TLFamily_KS3       .         Medium Resistivity            : 
TLFamily_KS4       .         Deep Resistivity              : 
TLFamily_KS5       .         Extra Deep Resistivity        : 
TLFamily_LLD       .         Lateral Log Resistivity       : 
TLFamily_OKS3      .         Medium Resistivity Inverted   : 
TLFamily_RM        .         Mud Resistivity               : 
group              .         INI                           : 
~Curve Information
#_______________________________________________________________________________
#
#LOGNAME           .UNIT     LOG_ID                        : DESCRIPTION
#_______________________________________________________________________________
DEPTH              .m                                      : Measured Depth 
KS                 .ohm.m                                  : Potential Resistivity 
KS1                .ohm.m                                  : Extra Shallow Resistivity 
KS2                .ohm.m                                  : Shallow Resistivity 
KS3                .ohm.m                                  : Medium Resistivity 
KS4                .ohm.m                                  : Deep Resistivity 
KS5                .ohm.m                                  : Extra Deep Resistivity 
LLD                .ohm.m                                  : Lateral Log Resistivity 
OKS3               .ohm.m                                  : Medium Resistivity Inverted 
RM                 .ohm.m                                  : Mud Resistivity 
~Ascii
# ...
2806.300044 6.3712     2.6413     7.8599     9.6099     7.7497     5.7772     5.222      9.4251     0.185     
2806.500044 6.3712     2.6278     7.8141     9.6099     7.7432     5.7251     5.2214     9.3541     0.187     
2806.700044 6.3475     2.6548     7.8992     9.6679     7.7563     5.699      5.2323     9.2767     0.192     
2806.900044 6.2968     2.6616     7.9254     9.7517     7.8218     5.686      5.3025     9.1863     0.195     
2807.100044 6.2494     2.6954     8.0432     9.8291     7.8873     5.686      5.1631     9.2186     0.192     
2807.300044 6.2088     2.6751     8.0432     9.8291     7.943      5.699      4.8832     9.4122     0.188     
2807.500044 6.1546     2.6481     7.9712     9.8097     7.9659     5.699      5.0135     9.6381     0.188     
2807.700044 6.1073     2.6684     8.0235     9.7968     7.9725     5.686      5.1671     9.793      0.188     
2807.900045 6.0667     2.6413     7.9057     9.7839     7.9463     5.6599     4.8863     10.0317    0.185     
2808.100045 5.9787     2.6684     7.9384     9.7388     7.9135     5.6208     4.7378     10.3351    0.185     
2808.300045 5.9449     2.6346     7.801      9.655      7.848      5.5557     4.4921     10.9482    0.188     
2808.500045 5.9246     2.5467     7.5392     9.4487     7.6908     5.5166     4.7187     11.5677    0.188     
2808.700045 5.9043     2.5196     7.4541     9.1716     7.5532     5.4514     4.8479     12.1292    0.192     
2808.900045 5.884      2.5534     7.4868     8.9846     7.4811     5.3862     4.5202     12.7617    0.192     
2809.100045 5.9043     2.5399     7.3167     8.7526     7.3632     5.3211     4.2555     13.4458    0.195     
2809.300045 5.9787     2.4318     6.9763     8.3722     7.1405     5.282      4.3724     14.2783    0.192     
2809.500045 6.1343     2.3439     6.7472     8.0306     6.9046     5.2689     4.6766     15.1689    0.192     
2809.700045 6.3644     2.283      6.5574     7.8308     6.754      5.282      5.2019     15.9627    0.192     
2809.900046 6.6351     2.283      6.5051     7.7663     6.7147     5.3471     5.7901     16.55      0.188     
2810.100046 6.8855     2.3506     6.5902     7.7856     6.7671     5.4644     5.9665     17.047     0.188     
2810.300046 7.1291     2.3777     6.6883     7.8759     6.8719     5.6078     6.2972     17.5762    0.188     
2810.500046 7.3863     2.425      6.9043     7.9984     6.9833     5.7772     6.8046     17.8859    0.183     
2810.700046 7.6671     2.4723     7.2578     8.2111     7.1503     5.9597     7.4382     17.8343    0.182     
2810.900046 8.0698     2.5534     7.4737     8.4431     7.3829     6.1813     7.1391     17.5697    0.178     
2811.100046 8.3202     2.5872     7.6897     8.7074     7.6122     6.442      7.1978     17.389     0.182     
2811.300046 8.5232     2.6684     7.8534     9.1458     7.9659     6.7157     8.8702     17.2406    0.182     
2811.500046 8.7668     2.7562     8.3737     9.7066     8.359      7.1523     7.9125     16.9179    0.185     
2811.700046 8.9292     2.7427     8.6453     10.3061    8.7455     7.6281     9.0988     16.6597    0.185     
2811.900047 9.0375     2.8847     9.3064     11.0732    9.2696     8.0452     10.6805    16.1692    0.185     
2812.100047 9.1525     3.0064     9.5878     11.8274    9.8395     8.4232     8.015      15.8078    0.192     
2812.300047 9.2337     2.9117     9.6402     12.4913    10.3833    8.749      9.1457     15.4271    0.195     
2812.500047 9.227      2.9996     10.1965    13.1811    10.9139    8.9967     11.0525    14.9559    0.192     
2812.700047 9.2337     3.1348     10.6612    14.2286    11.4577    9.1922     10.414     14.2009    0.182     
2812.900047 9.0713     3.27       11.1652    15.7208    11.9883    9.14       9.944      13.6394    0.182     
2813.100047 8.8209     3.4593     11.7673    16.3461    12.4403    8.9836     8.5712     13.2457    0.188     
2813.300047 8.6247     3.439      11.6757    16.2752    12.401     8.6969     6.9668     12.7488    0.178     
2813.500047 8.442      3.1956     10.9884    15.7531    11.9948    8.371      6.1177     12.5552    0.178     
2813.700047 8.354      3.101      10.6285    15.4114    11.7459    7.9148     5.7504     12.6132    0.182     
2813.900048 8.239      2.8847     9.9281     15.0827    11.6673    7.5499     7.473      12.9037    0.182     
2814.100048 8.2254     2.9793     10.0394    15.0504    11.89      7.2501     7.4986     12.852     0.185     
2814.300048 8.1916     2.9523     9.7972     14.8957    11.9883    7.0285     7.9128     12.7359    0.185     
2814.500048 8.151      3.074      9.6794     14.6701    12.0735    6.8591     5.9376     12.8585    0.185     
2814.700048 8.0529     2.9996     9.2736     14.264     12.0669    6.6896     5.7636     13.4845    0.185     
2814.900048 8.0427     2.8238     8.966      13.7483    12.1586    6.5984     6.725      14.046     0.192     
2815.100048 8.0901     2.7157     8.8024     13.4131    12.4141    6.5202     6.5386     14.5494    0.192     
2815.300048 8.1307     2.7495     8.8351     13.2455    12.7613    6.5463     6.7968     15.0334    0.188     
2815.500048 8.1307     2.7968     8.9137     13.2584    13.1413    6.5854     7.0066     15.5174    0.188     
2815.700048 8.1577     2.8509     9.0642     13.2004    13.3902    6.5984     6.7066     15.9369    0.188     
2815.900049 8.1983     2.8509     9.0249     13.0264    13.4033    6.5984     6.644      16.4597    0.188     
2816.100049 8.3134     2.8036     8.8875     12.6912    13.2133    6.5984     5.9754     17.2728    0.182     
2816.300049 8.4961     2.6481     8.4293     12.2979    12.8792    6.6114     6.9695     18.3377    0.178     
2816.500049 8.6585     2.6346     8.3966     12.0208    12.8465    6.6375     8.1776     19.0863    0.178     
2816.700049 8.8412     2.7698     8.7369     11.9498    12.9644    6.7548     8.2726     19.5962    0.182     
2816.900049 9.0375     2.7968     8.7631     11.9563    13.0234    6.9112     7.5414     20.1254    0.182     
2817.100049 9.2067     2.7562     8.7173     12.0079    13.0037    7.1328     8.1453     20.4932    0.182     
2817.300049 9.3217     2.8103     9.0642     12.2979    13.1478    7.4065     10.496     19.893     0.182     
2817.500049 9.4503     2.9252     9.542      12.6912    13.3575    7.7845     8.8357     19.1509    0.182     
2817.700049 9.5315     2.9928     9.7383     12.9812    13.4099    8.2146     8.0701     19.196     0.182     
2817.90005 9.6127     3.0334     9.8234     13.0135    13.3313    8.7881     7.3428     19.3122    0.192     
2818.10005 9.7886     2.79       9.2867     12.8845    13.3313    9.7526     8.6201     18.7507    0.185     
2818.30005 10.0458    2.7089     9.1166     13.0328    13.6588    10.8605    7.8917     18.6733    0.182     
2818.50005 10.3233    2.7562     9.3914     13.5485    14.5694    12.0988    7.6871     19.409     0.185     
2818.70005 10.7936    2.6481     9.1493     14.4832    16.1188    13.8062    11.3046    20.1577    0.182     
2818.90005 11.2571    2.7022     9.5158     15.708     18.4608    15.618     13.6661    20.532     0.182     
2819.10005 11.4331    3.1078     10.5434    17.732     20.6881    18.3812    49.9586    20.0221    0.182     
2819.30005 11.3113    3.6891     12.1666    20.2654    22.9548    19.072     77.5994    18.6668    0.182     
2819.50005 11.0744    4.3786     14.8369    22.3797    23.5837    19.1632    11.1984    17.3374    0.188     
2819.70005 10.8173    3.8446     13.4298    22.3475    22.3587    19.0068    6.1209     16.7307    0.192     
2819.900051 10.3503    3.5742     13.2465    21.1743    21.2384    18.2508    27.8973    15.5658    0.188     
2820.100051 9.8631     4.0271     15.426     21.8576    21.7101    16.8692    10.6523    14.2267    0.185     
2820.300051 9.4029     4.1488     15.2362    22.6827    21.4153    15.9438    6.2112     13.2973    0.188     
2820.500051 8.9292     3.7905     13.6785    21.7287    19.2666    14.9011    5.5053     12.9488    0.188     
2820.700051 8.5908     3.297      11.8982    19.0213    17.275     13.2718    5.6023     13.2328    0.185     
