~Version
 VERS              .         2.0                           : CWLS LOG ASCII STANDARD - VERSION 2.0
 WRAP              .         NO                            : ONE LINE PER DEPTH STEP
 DLM               .         SPACE                         : DELIMITING CHARACTER(SPACE TAB OR COMMA)
~Well Information
#_______________________________________________________________________________
#
#PARAMETER_NAME    .UNIT     VALUE                         : DESCRIPTION
#_______________________________________________________________________________
STRT               .m        2718.7                        : First reference value
STOP               .m        2945.100113                   : Last reference value
STEP               .m        0.2000001                     : Step increment
NULL               .         -9999                         : Missing value
COMP               .                                       : Company
WELL               .         302                           : Well name
FLD                .                                       : Field
LOC                .                                       : Location
CNTY               .                                       : County
STAT               .                                       : State
CTRY               .                                       : Country
SRVC               .                                       : Service Company
DATE               .                                       : Date
API                .                                       : API number
EREF               .m        138.34                        : 
Pad                .         3                             : 
X                  .m        219750                        : 
Y                  .m        249950                        : 
group              .         Pad3                          : 
Интер-р            .         Зайцев                        : 
Куст               .         3                             : 
Статус             .         Не проверено                  : 
Тип                .         Разведка                      : 
~Parameter Information Block
#_______________________________________________________________________________
#
#PARAMETER_NAME    .UNIT     VALUE                         : DESCRIPTION
#_______________________________________________________________________________
SET                .         LAS1                          : 
REAL_CREATION_DATE .         Ср апр 11 2012-13_17_08       : 
TLFamily_DEPTH     .         Measured Depth                : 
TLFamily_KS        .         Potential Resistivity         : 
TLFamily_KS1       .         Extra Shallow Resistivity     : 
TLFamily_KS2       .         Shallow Resistivity           : 
TLFamily_KS3       .         Medium Resistivity            : 
TLFamily_KS4       .         Deep Resistivity              : 
TLFamily_KS5       .         Extra Deep Resistivity        : 
TLFamily_LLD       .         Lateral Log Resistivity       : 
TLFamily_OKS3      .         Medium Resistivity Inverted   : 
TLFamily_RM        .         Mud Resistivity               : 
group              .         INI                           : 
~Curve Information
#_______________________________________________________________________________
#
#LOGNAME           .UNIT     LOG_ID                        : DESCRIPTION
#_______________________________________________________________________________
DEPTH              .m                                      : Measured Depth 
KS                 .ohm.m                                  : Potential Resistivity 
KS1                .ohm.m                                  : Extra Shallow Resistivity 
KS2                .ohm.m                                  : Shallow Resistivity 
KS3                .ohm.m                                  : Medium Resistivity 
KS4                .ohm.m                                  : Deep Resistivity 
KS5                .ohm.m                                  : Extra Deep Resistivity 
LLD                .ohm.m                                  : Lateral Log Resistivity 
OKS3               .ohm.m                                  : Medium Resistivity Inverted 
RM                 .ohm.m                                  : Mud Resistivity 
~Ascii
# ...
2777.100029 6.7366     2.6886     7.8272     8.9911     7.7694     6.0119     5.9133     11.5161    0.185     
2777.300029 6.7772     2.7157     7.9319     9.062      7.7825     5.9858     5.8404     11.458     0.185     
2777.500029 6.8246     2.7022     7.9973     9.1329     7.7432     5.9467     5.6393     11.4709    0.188     
2777.700029 6.8178     2.7089     8.1021     9.2747     7.7432     5.9076     5.6457     11.5096    0.188     
2777.90003 6.8449     2.7427     8.2133     9.4294     7.7235     5.8946     5.7854     11.5548    0.188     
2778.10003 6.8855     2.6886     8.1413     9.6099     7.7366     5.9076     5.4632     11.6387    0.194     
2778.30003 6.916      2.6954     8.2199     9.8548     7.8021     5.8946     5.6704     11.6129    0.195     
2778.50003 6.9735     2.7326     8.3311     10.0934    7.9299     5.8946     6.1092     11.4257    0.199     
2778.70003 7.0005     2.79       8.4031     10.2803    7.9856     5.9011     6.2003     11.187     0.195     
2778.90003 7.0141     2.8103     8.4424     10.3963    7.9921     5.8815     5.8382     10.9675    0.195     
2779.10003 7.0412     2.763      8.4326     10.4608    8.0249     5.8685     5.8337     10.7481    0.192     
2779.30003 7.0615     2.7765     8.449      10.4866    8.0511     5.8555     5.9973     10.5739    0.192     
2779.50003 7.0615     2.7833     8.5406     10.5639    8.1494     5.8685     5.7829     10.4512    0.188     
2779.70003 7.0479     2.7968     8.6126     10.6735    8.3066     5.8946     6.1316     10.206     0.188     
2779.900031 7.0344     2.8441     8.7435     10.7895    8.4769     5.9337     6.0696     9.9285     0.188     
2780.100031 7.0141     2.8171     8.6846     10.8798    8.6472     5.9858     5.7484     9.7284     0.185     
2780.300031 6.9126     2.8576     8.9202     11.0796    8.9158     6.0249     6.4019     9.5413     0.188     
2780.500031 6.8111     2.9658     9.1362     11.4599    9.1582     6.0379     6.3192     9.4251     0.192     
2780.700031 6.7028     2.9388     9.0576     11.5115    9.2237     6.051      5.4663     9.438      0.188     
2780.900031 6.5674     2.9117     8.9464     11.389     9.1779     6.0119     5.1644     9.5929     0.188     
2781.100031 6.4727     2.8306     8.75       11.2085    9.1189     5.9728     5.0737     9.7478     0.188     
2781.300031 6.405      2.763      8.5668     11.0023    9.0403     5.9337     5.0881     9.9285     0.188     
2781.500031 6.3509     2.7089     8.3704     10.8476    8.9879     5.8946     4.9997     10.2318    0.192     
2781.700032 6.2494     2.7224     8.3704     10.854     9.001      5.8555     5.4991     10.4577    0.188     
2781.900032 6.1682     2.8238     8.449      10.8282    9.001      5.8033     5.1132     10.6061    0.192     
2782.100032 6.1073     2.7562     8.1806     10.5446    8.8438     5.7512     4.635      10.8126    0.192     
2782.300032 6.0464     2.7022     7.9908     10.1643    8.5588     5.673      4.4881     11.1676    0.192     
2782.500032 6.0396     2.6075     7.7094     9.771      8.2345     5.6078     4.335      11.5742    0.192     
2782.700032 6.1614     2.4757     7.3756     9.352      8.0118     5.5557     4.2715     12.0647    0.195     
2782.900032 6.3238     2.4115     7.1661     8.9975     7.8677     5.5557     4.5864     12.4583    0.192     
2783.100032 6.5201     2.4182     7.0549     8.8041     7.8087     5.5557     5.1038     12.6778    0.195     
2783.300032 6.7231     2.4656     7.0123     8.6945     7.7694     5.5948     5.5537     12.6778    0.195     
2783.500032 6.899      2.5467     7.2185     8.701      7.7694     5.6339     6.0066     12.5422    0.195     
2783.700032 7.0344     2.594      7.4345     8.7848     7.8349     5.673      6.2624     12.3357    0.195     
2783.900033 7.1359     2.6684     7.7355     8.9266     7.8939     5.7121     6.4901     12.1744    0.195     
2784.100033 7.1968     2.736      8.0628     9.1393     7.9659     5.7903     6.4482     12.0227    0.199     
2784.300033 7.2239     2.7833     8.3115     9.3585     8.0707     5.8555     6.3499     11.9098    0.195     
2784.500033 7.2103     2.8171     8.534      9.6421     8.1887     5.9206     6.1926     11.8904    0.195     
2784.700033 7.1968     2.8441     8.7173     9.9902     8.2804     5.9988     6.1771     11.8001    0.192     
2784.900033 7.2036     2.8238     8.7304     10.2029    8.2935     6.064      6.0147     11.6839    0.192     
2785.100033 7.2239     2.79       8.6584     10.435     8.3        6.1031     6.033      11.6065    0.188     
2785.300033 7.2103     2.7968     8.6519     10.6864    8.3131     6.1422     6.0044     11.5419    0.188     
2785.500033 7.2036     2.7968     8.6584     10.9378    8.3786     6.1813     6.1391     11.4516    0.185     
2785.700033 7.1968     2.8238     8.7697     11.1441    8.4638     6.2074     6.1133     11.3031    0.185     
2785.900034 7.19       2.8171     8.7304     11.2794    8.5424     6.2334     5.8828     11.1353    0.185     
2786.100034 7.19       2.7833     8.6649     11.2859    8.5948     6.2595     5.9756     10.9804    0.185     
2786.300034 7.1765     2.79       8.6519     11.3375    8.6538     6.2856     5.9318     10.8578    0.185     
2786.500034 7.1494     2.8171     8.7435     11.3955    8.7815     6.3116     5.9836     10.7546    0.185     
2786.700034 7.0919     2.8036     8.75       11.4922    9.0141     6.3638     5.9603     10.6319    0.188     
2786.900034 7.0547     2.8407     8.8809     11.5373    9.1582     6.3898     5.9107     10.4964    0.188     
2787.100034 7.0073     2.7968     8.7828     11.518     9.263      6.4159     5.8017     10.3802    0.188     
2787.300034 6.9532     2.8238     8.7108     11.4728    9.4006     6.4159     5.6601     10.3093    0.188     
2787.500034 6.872      2.8374     8.8188     11.4857    9.5447     6.4159     5.4756     10.3157    0.188     
2787.700034 6.8043     2.8238     8.7958     11.5244    9.6758     6.442      5.4467     10.3222    0.192     
2787.900035 6.7502     2.7968     8.7108     11.4728    9.7413     6.442      5.4467     10.3415    0.192     
2788.100035 6.696      2.763      8.606      11.3826    9.7413     6.455      5.4242     10.419     0.195     
2788.300035 6.6419     2.7833     8.5799     11.273     9.7085     6.455      5.4016     10.4319    0.199     
2788.500035 6.608      2.7427     8.4424     11.1763    9.6692     6.442      5.3175     10.3996    0.195     
2788.700035 6.581      2.7157     8.3311     10.9346    9.5709     6.4159     5.2517     10.4061    0.192     
2788.900035 6.5539     2.7157     8.2853     10.7702    9.4792     6.4159     5.1659     10.3609    0.192     
2789.100035 6.5471     2.6684     8.1675     10.6477    9.4334     6.4029     5.2948     10.2899    0.188     
2789.300035 6.5539     2.6751     8.1348     10.5059    9.381      6.3898     5.2838     10.206     0.188     
2789.500035 6.5674     2.6684     8.0955     10.3705    9.3023     6.3768     5.2779     10.206     0.188     
2789.700036 6.581      2.6481     8.0039     10.2287    9.1975     6.3638     5.4142     10.2254    0.188     
2789.900036 6.5945     2.6616     8.0039     10.1578    9.1189     6.3507     5.4086     10.2254    0.185     
2790.100036 6.6148     2.6548     8.0366     10.1127    9.0731     6.3638     5.4268     10.1931    0.188     
2790.300036 6.608      2.6616     8.0432     10.1707    9.1189     6.3898     5.4936     10.2254    0.188     
2790.500036 6.5742     2.7427     8.305      10.261     9.1582     6.4159     5.6199     10.2512    0.192     
2790.700036 6.5201     2.7495     8.2984     10.3254    9.1025     6.4289     5.5392     10.2254    0.192     
2790.900036 6.4592     2.7765     8.3181     10.3061    9.0141     6.3898     5.2468     10.1479    0.192     
2791.100036 6.3678     2.79       8.3835     10.2996    8.9027     6.3638     4.9634     10.1866    0.192     
2791.300036 6.2832     2.736      8.2788     10.2416    8.7586     6.3377     4.6773     10.3673    0.192     
2791.500036 6.2629     2.6548     8.1021     10.0805    8.5752     6.3247     4.6284     10.6384    0.195     
