~Version
 VERS              .         2.0                           : CWLS LOG ASCII STANDARD - VERSION 2.0
 WRAP              .         NO                            : ONE LINE PER DEPTH STEP
 DLM               .         SPACE                         : DELIMITING CHARACTER(SPACE TAB OR COMMA)
~Well Information
#_______________________________________________________________________________
#
#PARAMETER_NAME    .UNIT     VALUE                         : DESCRIPTION
#_______________________________________________________________________________
STRT               .m        2718.7                        : First reference value
STOP               .m        2945.100113                   : Last reference value
STEP               .m        0.2000001                     : Step increment
NULL               .         -9999                         : Missing value
COMP               .                                       : Company
WELL               .         302                           : Well name
FLD                .                                       : Field
LOC                .                                       : Location
CNTY               .                                       : County
STAT               .                                       : State
CTRY               .                                       : Country
SRVC               .                                       : Service Company
DATE               .                                       : Date
API                .                                       : API number
EREF               .m        138.34                        : 
Pad                .         3                             : 
X                  .m        219750                        : 
Y                  .m        249950                        : 
group              .         Pad3                          : 
Интер-р            .         Зайцев                        : 
Куст               .         3                             : 
Статус             .         Не проверено                  : 
Тип                .         Разведка                      : 
~Parameter Information Block
#_______________________________________________________________________________
#
#PARAMETER_NAME    .UNIT     VALUE                         : DESCRIPTION
#_______________________________________________________________________________
SET                .         LAS1                          : 
REAL_CREATION_DATE .         Ср апр 11 2012-13_17_08       : 
TLFamily_DEPTH     .         Measured Depth                : 
TLFamily_KS        .         Potential Resistivity         : 
TLFamily_KS1       .         Extra Shallow Resistivity     : 
TLFamily_KS2       .         Shallow Resistivity           : 
TLFamily_KS3       .         Medium Resistivity            : 
TLFamily_KS4       .         Deep Resistivity              : 
TLFamily_KS5       .         Extra Deep Resistivity        : 
TLFamily_LLD       .         Lateral Log Resistivity       : 
TLFamily_OKS3      .         Medium Resistivity Inverted   : 
TLFamily_RM        .         Mud Resistivity               : 
group              .         INI                           : 
~Curve Information
#_______________________________________________________________________________
#
#LOGNAME           .UNIT     LOG_ID                        : DESCRIPTION
#_______________________________________________________________________________
DEPTH              .m                                      : Measured Depth 
KS                 .ohm.m                                  : Potential Resistivity 
KS1                .ohm.m                                  : Extra Shallow Resistivity 
KS2                .ohm.m                                  : Shallow Resistivity 
KS3                .ohm.m                                  : Medium Resistivity 
KS4                .ohm.m                                  : Deep Resistivity 
KS5                .ohm.m                                  : Extra Deep Resistivity 
LLD                .ohm.m                                  : Lateral Log Resistivity 
OKS3               .ohm.m                                  : Medium Resistivity Inverted 
RM                 .ohm.m                                  : Mud Resistivity 
~Ascii
# ...
2820.900051 8.4149     3.0875     11.2437    17.5387    15.611     11.7729    6.24       13.7039    0.182     
2821.100051 8.2863     2.8576     10.2358    16.8747    14.6546    10.5477    6.0116     14.4848    0.178     
2821.300051 8.2254     2.8847     9.9151     16.3139    13.8423    9.7266     6.372      15.1818    0.182     
2821.500051 8.1645     2.8509     9.2867     15.7402    13.3247    8.9967     6.0123     16.0466    0.185     
2821.700051 8.1916     2.736      8.8678     14.8957    12.7613    8.5405     5.858      16.9566    0.185     
2821.900052 8.2322     2.6684     8.6257     14.3607    12.4403    8.1885     6.8707     17.5116    0.182     
2822.100052 8.3269     2.6481     8.606      14.2511    12.4534    7.9539     6.9214     17.6407    0.18      
2822.300052 8.4555     2.6886     8.678      14.2447    12.7417    7.7715     7.0064     17.5116    0.182     
2822.500052 8.6856     2.7562     8.8351     13.8772    12.9185    7.6281     6.0949     17.5955    0.182     
2822.700052 9.0172     2.5399     8.449      13.1553    12.781     7.5368     6.2304     17.744     0.182     
2822.900052 9.5112     2.3912     7.9777     12.3946    12.8792    7.4977     7.1978     17.5826    0.178     
2823.100052 10.0796    2.283      7.6406     12.0723    13.5933    7.615      9.0319     17.3116    0.182     
2823.300052 10.5601    2.4791     8.2853     12.4655    15.1066    7.8497     16.0657    16.8404    0.188     
2823.500052 11.0135    2.7698     9.2802     13.4454    17.0064    8.2146     30.9229    15.8272    0.192     
2823.700052 11.2639    3.2092     10.7201    14.8571    18.7032    8.5926     45.8667    13.8588    0.192     
2823.900053 11.1286    3.7229     12.304     16.4686    20.3082    8.8403     35.6367    11.2515    0.192     
2824.100053 10.6549    4.1488     13.757     17.9899    21.3367    8.9576     15.4379    9.8317     0.188     
2824.300053 9.9443     4.2637     14.6406    19.2598    21.5791    8.9185     8.67       9.2057     0.182     
2824.500053 9.2405     4.115      14.922     19.6401    20.9502    8.7751     6.5808     9.1089     0.188     
2824.700053 8.6044     3.7905     14.3919    19.2985    19.8103    8.5405     5.9283     9.2379     0.188     
2824.900053 8.1239     3.4795     13.5017    18.9117    18.6442    8.3189     5.6933     9.3541     0.188     
2825.100053 7.7652     3.2497     12.4414    18.6861    17.6615    8.1364     5.541      9.509      0.188     
2825.300053 7.4675     3.1416     11.6691    18.5249    16.9868    8.0061     5.543      9.6768     0.188     
2825.500053 7.2306     3.0604     10.8445    18.3122    16.3579    7.8888     5.3091     9.8769     0.195     
2825.700053 7.0682     2.9658     10.1572    17.8287    15.6373    7.8497     5.0885     10.0576    0.195     
2825.900054 6.9735     2.8644     9.4831     17.023     14.897     7.8236     5.2656     10.2641    0.192     
2826.100054 6.8787     2.763      9.0446     16.1076    14.386     7.7584     5.4916     10.3222    0.192     
2826.300054 6.7975     2.8238     8.9464     15.0891    13.9602    7.7324     5.0083     10.348     0.188     
2826.500054 6.7502     2.7393     8.5733     13.9482    13.3706    7.8236     4.8391     10.4319    0.185     
2826.700054 6.7231     2.6751     8.3573     12.9103    13.1413    7.9539     4.904      10.6578    0.182     
2826.900054 6.7299     2.6346     8.1806     12.2012    13.0823    8.1885     5.1619     10.9804    0.182     
2827.100054 6.7637     2.6481     8.1577     11.7242    13.102     8.6447     5.4447     11.187     0.182     
2827.300054 6.8111     2.6616     8.1348     11.389     13.0627    9.0097     5.4676     11.3225    0.182     
2827.500054 6.8381     2.7089     8.1806     11.1312    13.0037    9.3746     5.5255     11.4257    0.185     
2827.700054 6.8923     2.7224     8.1544     10.9249    12.853     9.7135     5.4382     11.5355    0.188     
2827.900055 6.9599     2.6751     8.0366     10.6284    12.4403    9.9872     5.4116     11.6387    0.192     
2828.100055 7.0276     2.6481     8.0039     10.3899    12.0276    10.2219    5.6356     11.8646    0.192     
2828.300055 7.0479     2.6751     8.1086     10.4447    11.7852    10.3001    6.4584     12.0711    0.188     
2828.500055 7.0276     2.8576     8.7958     10.6284    11.5035    10.1958    6.9645     11.9162    0.188     
2828.700055 7.0412     2.905      8.6911     10.6155    10.9925    10.0264    5.6417     11.6258    0.185     
2828.900055 7.0276     2.8509     8.5733     10.2738    10.1605    9.7787     5.4776     11.4257    0.185     
2829.100055 6.9735     2.7968     8.4424     10.132     9.5709     9.3616     5.219      11.4709    0.188     
2829.300055 6.9261     2.7765     8.4293     10.0611    9.1189     9.0097     5.2356     11.7613    0.188     
2829.500055 6.899      2.7224     8.3508     9.9902     8.7717     8.7881     5.2734     12.2067    0.188     
2829.700055 6.9058     2.6616     8.2002     9.9129     8.5228     8.6578     5.4016     12.5681    0.192     
2829.900056 6.9532     2.6413     8.089      9.9        8.3786     8.6708     5.2798     12.9037    0.195     
2830.100056 7.0445     2.621      7.945      9.9258     8.3721     8.8794     5.2165     13.2973    0.192     
2830.300056 7.1833     2.5839     7.7617     10.016     8.6964     9.2573     5.5613     13.9233    0.192     
2830.500056 7.3051     2.6008     7.8599     10.3448    9.2761     9.7526     6.2928     14.6526    0.188     
2830.700056 7.454      2.6751     8.0693     10.8862    9.8068     10.4695    6.9518     15.0463    0.188     
2830.900056 7.657      2.7562     8.413      11.273     10.1343    10.8866    6.8364     14.9688    0.188     
2831.100056 7.8532     2.8238     8.5406     11.3826    10.3112    11.1994    6.2459     14.6591    0.185     
2831.300056 8.0292     2.8036     8.4751     11.3375    10.5143    11.5644    6.5898     14.672     0.185     
2831.500056 8.2051     2.8103     8.6388     11.2988    10.8353    11.8251    8.0744     14.8333    0.185     
2831.700056 8.3134     2.7765     8.8678     11.6275    11.4183    12.0075    10.1536    14.8011    0.182     
2831.900057 8.3608     3.1145     9.9674     12.1561    11.8769    12.0727    7.6505     14.2783    0.185     
2832.100057 8.3675     3.2227     10.2554    12.7524    12.021     11.9033    6.5604     13.5103    0.185     
2832.300057 8.2728     3.3038     10.4976    12.8716    11.7328    11.4731    6.642      12.7681    0.185     
2832.500057 8.1374     3.2092     10.2947    12.9039    11.4118    10.8214    6.3302     12.3615    0.182     
2832.700057 7.948      3.2227     10.563     12.9941    11.058     10.1828    6.0109     12.1034    0.182     
2832.900057 7.7855     3.1956     10.6154    13.3035    10.8353    9.518      5.7803     11.9872    0.185     
2833.100057 7.6231     3.1754     10.4648    13.3551    10.4291    8.9445     5.1974     11.9033    0.185     
2833.300057 7.5216     3.0807     10.0852    13.1295    9.9378     8.4101     5.2325     11.9033    0.185     
2833.500057 7.4743     2.9185     9.47       12.8136    9.4661     7.9409     5.9965     12.0259    0.188     
2833.700057 7.4303     2.8644     9.3195     12.704     9.1779     7.589      5.7235     12.1873    0.185     
2833.900058 7.4269     2.8441     9.2016     12.8136    9.1124     7.3153     6.3671     12.3809    0.185     
2834.100058 7.4201     2.905      9.1362     12.9554    9.1222     7.1328     5.786      12.5552    0.185     
2834.300058 7.4066     2.8982     9.1885     13.0586    9.2434     6.9373     6.0049     12.8714    0.185     
2834.500058 7.4201     2.9455     9.1526     12.8781    9.2827     6.7287     6.1006     13.0392    0.185     
2834.700058 7.454      2.8644     9.0118     12.6074    9.322      6.455      6.1613     13.1747    0.188     
2834.900058 7.4743     2.8914     9.0249     12.3108    9.4334     6.2334     6.0151     13.2683    0.188     
2835.100058 7.4946     2.8779     8.966      12.0852    9.5644     6.0379     6.3435     13.4522    0.185     
2835.300058 7.481      2.8847     9.0184     11.9112    9.6758     5.8424     6.3698     13.5297    0.185     
