~Version
 VERS              .         2.0                           : CWLS LOG ASCII STANDARD - VERSION 2.0
 WRAP              .         NO                            : ONE LINE PER DEPTH STEP
 DLM               .         SPACE                         : DELIMITING CHARACTER(SPACE TAB OR COMMA)
~Well Information
#_______________________________________________________________________________
#
#PARAMETER_NAME    .UNIT     VALUE                         : DESCRIPTION
#_______________________________________________________________________________
STRT               .m        2718.7                        : First reference value
STOP               .m        2945.100113                   : Last reference value
STEP               .m        0.2000001                     : Step increment
NULL               .         -9999                         : Missing value
COMP               .                                       : Company
WELL               .         302                           : Well name
FLD                .                                       : Field
LOC                .                                       : Location
CNTY               .                                       : County
STAT               .                                       : State
CTRY               .                                       : Country
SRVC               .                                       : Service Company
DATE               .                                       : Date
API                .                                       : API number
EREF               .m        138.34                        : 
Pad                .         3                             : 
X                  .m        219750                        : 
Y                  .m        249950                        : 
group              .         Pad3                          : 
Интер-р            .         Зайцев                        : 
Куст               .         3                             : 
Статус             .         Не проверено                  : 
Тип                .         Разведка                      : 
~Parameter Information Block
#_______________________________________________________________________________
#
#PARAMETER_NAME    .UNIT     VALUE                         : DESCRIPTION
#_______________________________________________________________________________
SET                .         LAS1                          : 
REAL_CREATION_DATE .         Ср апр 11 2012-13_17_08       : 
TLFamily_DEPTH     .         Measured Depth                : 
TLFamily_KS        .         Potential Resistivity         : 
TLFamily_KS1       .         Extra Shallow Resistivity     : 
TLFamily_KS2       .         Shallow Resistivity           : 
TLFamily_KS3       .         Medium Resistivity            : 
TLFamily_KS4       .         Deep Resistivity              : 
TLFamily_KS5       .         Extra Deep Resistivity        : 
TLFamily_LLD       .         Lateral Log Resistivity       : 
TLFamily_OKS3      .         Medium Resistivity Inverted   : 
TLFamily_RM        .         Mud Resistivity               : 
group              .         INI                           : 
~Curve Information
#_______________________________________________________________________________
#
#LOGNAME           .UNIT     LOG_ID                        : DESCRIPTION
#_______________________________________________________________________________
DEPTH              .m                                      : Measured Depth 
KS                 .ohm.m                                  : Potential Resistivity 
KS1                .ohm.m                                  : Extra Shallow Resistivity 
KS2                .ohm.m                                  : Shallow Resistivity 
KS3                .ohm.m                                  : Medium Resistivity 
KS4                .ohm.m                                  : Deep Resistivity 
KS5                .ohm.m                                  : Extra Deep Resistivity 
LLD                .ohm.m                                  : Lateral Log Resistivity 
OKS3               .ohm.m                                  : Medium Resistivity Inverted 
RM                 .ohm.m                                  : Mud Resistivity 
~Ascii
2718.6999512 -9999      -9999      -9999      -9999      -9999      0.4333     -9999      -9999      0.148     
2718.9     0.01       0          0.0647     0          0          0.4854     -9999      0.0285     0.148     
2719.1     0.01       0          0.0713     0          0          0.3942     -9999      0.0285     0.138     
2719.3     0.01       0          0.0713     0          0          0.3681     -9999      0.0414     0.141     
2719.5     0.01       0          0.0516     0          0          0.329      -9999      1.771      0.155     
2719.7     0.01       0          0.0713     0          0          0.2899     -9999      15.0657    0.155     
2719.900001 0.1047     0          0.0647     0          0          0.2378     -9999      24.5591    0.173     
2720.100001 1.5766     0          0.0647     0          0          0.2899     -9999      25.8821    0.175     
2720.300001 3.4139     0.5525     0.0647     0          0          0.2638     -9999      22.3971    0.178     
2720.500001 4.5339     1.3231     0.0647     0          0          0.2769     -9999      19.9705    0.182     
2720.700001 5.2478     1.776      0.1956     0          0          0.3029     -9999      18.5571    0.182     
2720.900001 5.8061     2.0464     1.9759     0          0          0.3029     -9999      17.1696    0.185     
2721.100001 6.2968     2.2492     4.1947     0          0          0.316      -9999      16.2209    0.185     
2721.300001 6.5844     2.4656     5.6019     0          0          0.329      -9999      15.3464    0.185     
2721.500001 6.8246     2.6109     6.4985     0          0          0.3225     -9999      14.943     0.183     
2721.700001 6.9295     2.6684     7.1432     0          0          0.329      -9999      14.8785    0.185     
2721.900002 7.0344     2.7191     7.7683     0.096      0          0.329      -9999      14.8075    0.185     
2722.100002 7.1866     2.6954     7.9286     2.3741     0          0.329      -9999      14.6429    0.185     
2722.300002 7.3051     2.621      7.9254     5.2652     0          0.329      -9999      14.672     0.185     
2722.500002 7.3863     2.8441     8.5799     7.1442     0          0.342      -9999      14.6752    0.192     
2722.700002 7.5419     2.8306     8.6257     8.3787     0          0.342      -9999      14.4267    0.192     
2722.900002 7.6299     2.7968     8.5373     9.1748     0          0.342      -9999      14.0395    0.192     
2723.100002 7.6637     2.8948     8.8417     9.9322     0          0.342      -9999      13.5232    0.192     
2723.300002 7.6807     2.9388     8.9987     10.522     0          0.342      5.3002     13.1457    0.195     
2723.500002 7.6434     2.959      9.2082     10.9829    0          0.342      6.7694     12.8972    0.195     
2723.700002 7.6231     2.959      9.2998     11.1376    0          0.342      6.4794     12.7584    0.195     
2723.900003 7.6367     2.8982     9.1885     11.2085    0.0359     0.3486     6.5293     12.5616    0.195     
2724.100003 7.6434     2.8576     9.1002     11.3085    1.7915     0.342      6.3934     12.4003    0.195     
2724.300003 7.6434     2.8745     9.1231     11.518     4.0746     0.3486     6.3868     12.2454    0.199     
2724.500003 7.6299     2.9117     9.182      11.721     5.5322     0.3551     6.6475     12.1066    0.202     
2724.700003 7.6231     2.9016     9.182      11.9821    6.4919     0.3551     6.9312     11.9033    0.202     
2724.900003 7.5961     2.9117     9.2082     12.1497    7.2781     0.3551     6.7393     11.7646    0.202     
2725.100003 7.5419     2.9185     9.2278     12.2979    8.038      0.3551     6.8046     11.6645    0.202     
2725.300003 7.4472     2.9286     9.3456     12.4591    8.5785     0.3551     6.6889     11.6581    0.202     
2725.500003 7.3423     2.9726     9.4569     12.5429    9.0665     0.3551     6.6685     11.7291    0.202     
2725.700003 7.2848     2.8847     9.3129     12.4107    9.2499     0.342      6.4566     11.8323    0.199     
2725.900004 7.2442     2.8036     9.0347     12.2528    9.4334     0.3551     5.9336     11.9098    0.199     
2726.100004 7.2239     2.834      9.038      12.1948    9.6135     0.3551     6.0596     11.8807    0.199     
2726.300004 7.2239     2.8238     8.9235     12.1368    9.8199     0.3551     6.5425     11.813     0.199     
2726.500004 7.2103     2.7934     8.7631     11.9789    9.8985     0.3551     6.1467     11.8323    0.195     
2726.700004 7.2036     2.7765     8.6289     11.8209    10.0426    0.3551     6.0252     11.9066    0.195     
2726.900004 7.2171     2.7562     8.6388     11.7178    10.1474    0.3551     6.1402     11.8711    0.192     
2727.100004 7.234      2.736      8.5799     11.605     10.2392    0.3551     6.3558     11.8291    0.192     
2727.300004 7.2306     2.7731     8.6322     11.5373    10.3341    0.3551     6.3046     11.8194    0.192     
2727.500004 7.2137     2.7968     8.6944     11.5405    10.4488    0.3551     6.4097     11.9001    0.195     
2727.700004 7.1968     2.7968     8.7108     11.5437    10.5045    0.3551     6.2772     11.9679    0.195     
2727.900005 7.1934     2.8036     8.7468     11.4857    10.5012    0.3616     6.2826     11.8517    0.199     
2728.100005 7.2103     2.763      8.6584     11.4342    10.4488    0.3551     6.3647     11.7549    0.199     
2728.300005 7.2069     2.763      8.5962     11.3794    10.3702    0.9937     6.2715     11.7129    0.199     
2728.500005 7.2036     2.7731     8.5929     11.3568    10.3407    2.4145     6.348      11.6904    0.202     
2728.700005 7.19       2.7495     8.5897     11.3504    10.3309    3.2421     6.2618     11.6419    0.199     
2728.900005 7.19       2.7731     8.6715     11.3697    10.3309    3.9134     6.3453     11.5935    0.202     
2729.100005 7.1799     2.7833     8.6911     11.4309    10.3112    4.4087     6.3666     11.4548    0.205     
2729.300005 7.1765     2.7799     8.6584     11.4342    10.2654    4.9822     6.3808     11.1934    0.205     
2729.500005 7.1697     2.8036     8.6813     11.3923    10.1966    5.3211     6.4384     11.074     0.209     
2729.700005 7.163      2.7698     8.5799     11.4148    10.1867    5.7251     6.2658     10.9353    0.209     
2729.900006 7.1325     2.7833     8.6453     11.4825    10.2097    5.9597     6.3188     10.9288    0.212     
2730.100006 7.0953     2.8171     8.7697     11.576     10.2588    6.2204     6.4556     10.8126    0.205     
2730.300006 7.0648     2.8171     8.7468     11.5985    10.2686    6.3638     6.2634     10.6352    0.205     
2730.500006 7.0344     2.8137     8.7566     11.5631    10.2326    6.5723     6.285      10.3738    0.202     
2730.700006 7.0276     2.7765     8.6584     11.4664    10.1311    6.7027     6.3318     10.1092    0.202     
2730.900006 7.0005     2.79       8.606      11.4213    10.095     6.8591     6.2416     9.9027     0.199     
2731.100006 6.9464     2.8103     8.6879     11.4342    10.1245    6.9633     6.1307     9.8446     0.199     
2731.300006 6.872      2.8069     8.6715     11.4599    10.1343    7.0937     6.0606     9.78       0.195     
2731.500006 6.8314     2.7765     8.606      11.418     10.0983    7.1849     5.9115     9.7736     0.192     
2731.700006 6.6926     2.763      8.5995     11.3761    10.1212    7.2892     6.0171     9.8543     0.192     
2731.900007 6.5607     2.8238     8.6191     11.4342    10.1998    7.3413     5.982      9.9414     0.192     
2732.100007 6.4795     2.8306     8.7108     11.4857    10.2261    7.3544     6.0126     9.9833     0.192     
2732.300007 6.4524     2.7529     8.6649     11.3504    10.1278    7.3153     5.9889     9.9995     0.192     
2732.500007 6.4389     2.7224     8.3475     11.0732    9.9378     7.2631     5.7697     10.0188    0.192     
2732.700007 6.3577     2.7055     8.4424     10.9636    9.7413     7.224      5.4712     10.1737    0.192     
2732.900007 6.2257     2.8103     8.2526     10.8798    9.6561     7.0937     5.3943     10.4706    0.195     
2733.100007 6.1276     2.7664     8.1544     10.825     9.5742     6.9894     5.3998     10.7933    0.195     
