~Version
 VERS              .         2.0                           : CWLS LOG ASCII STANDARD - VERSION 2.0
 WRAP              .         NO                            : ONE LINE PER DEPTH STEP
 DLM               .         SPACE                         : DELIMITING CHARACTER(SPACE TAB OR COMMA)
~Well Information
#_______________________________________________________________________________
#
#PARAMETER_NAME    .UNIT     VALUE                         : DESCRIPTION
#_______________________________________________________________________________
STRT               .m        2718.7                        : First reference value
STOP               .m        2945.100113                   : Last reference value
STEP               .m        0.2000001                     : Step increment
NULL               .         -9999                         : Missing value
COMP               .                                       : Company
WELL               .         302                           : Well name
FLD                .                                       : Field
LOC                .                                       : Location
CNTY               .                                       : County
STAT               .                                       : State
CTRY               .                                       : Country
SRVC               .                                       : Service Company
DATE               .                                       : Date
API                .                                       : API number
EREF               .m        138.34                        : 
Pad                .         3                             : 
X                  .m        219750                        : 
Y                  .m        249950                        : 
group              .         Pad3                          : 
Интер-р            .         Зайцев                        : 
Куст               .         3                             : 
Статус             .         Не проверено                  : 
Тип                .         Разведка                      : 
~Parameter Information Block
#_______________________________________________________________________________
#
#PARAMETER_NAME    .UNIT     VALUE                         : DESCRIPTION
#_______________________________________________________________________________
SET                .         LAS1                          : 
REAL_CREATION_DATE .         Ср апр 11 2012-13_17_08       : 
TLFamily_DEPTH     .         Measured Depth                : 
TLFamily_KS        .         Potential Resistivity         : 
TLFamily_KS1       .         Extra Shallow Resistivity     : 
TLFamily_KS2       .         Shallow Resistivity           : 
TLFamily_KS3       .         Medium Resistivity            : 
TLFamily_KS4       .         Deep Resistivity              : 
TLFamily_KS5       .         Extra Deep Resistivity        : 
TLFamily_LLD       .         Lateral Log Resistivity       : 
TLFamily_OKS3      .         Medium Resistivity Inverted   : 
TLFamily_RM        .         Mud Resistivity               : 
group              .         INI                           : 
~Curve Information
#_______________________________________________________________________________
#
#LOGNAME           .UNIT     LOG_ID                        : DESCRIPTION
#_______________________________________________________________________________
DEPTH              .m                                      : Measured Depth 
KS                 .ohm.m                                  : Potential Resistivity 
KS1                .ohm.m                                  : Extra Shallow Resistivity 
KS2                .ohm.m                                  : Shallow Resistivity 
KS3                .ohm.m                                  : Medium Resistivity 
KS4                .ohm.m                                  : Deep Resistivity 
KS5                .ohm.m                                  : Extra Deep Resistivity 
LLD                .ohm.m                                  : Lateral Log Resistivity 
OKS3               .ohm.m                                  : Medium Resistivity Inverted 
RM                 .ohm.m                                  : Mud Resistivity 
~Ascii
# ...
2747.900015 6.2968     2.5534     7.3657     8.3207     7.0619     5.5296     5.3855     11.1353    0.188     
2748.100015 6.378      2.5602     7.3625     8.4045     7.1077     5.5817     5.4324     11.3289    0.188     
2748.300015 6.4727     2.5602     7.4476     8.4754     7.1077     5.6469     5.5378     11.3935    0.192     
2748.500015 6.5877     2.5805     7.5065     8.6172     7.1077     5.673      5.8907     11.3354    0.195     
2748.700015 6.6893     2.6346     7.6505     8.7848     7.1143     5.699      6.0034     11.2709    0.195     
2748.900015 6.7502     2.6684     7.7486     8.9717     7.147      5.699      6.102      11.2128    0.192     
2749.100015 6.8111     2.7157     7.9254     9.1651     7.1863     5.7121     6.2722     10.9998    0.192     
2749.300015 6.8381     2.7562     8.1152     9.352      7.2584     5.7121     6.4072     10.7739    0.195     
2749.500015 6.8246     2.7833     8.2657     9.5261     7.3567     5.7121     6.2988     10.5932    0.199     
2749.700015 6.7975     2.8036     8.3835     9.6937     7.4418     5.7121     6.1986     10.4706    0.199     
2749.900016 6.7705     2.7968     8.4424     9.8291     7.4811     5.7121     6.1316     10.3609    0.199     
2750.100016 6.7434     2.763      8.4162     9.9064     7.5073     5.699      5.9192     10.2447    0.199     
2750.300016 6.7163     2.7495     8.4293     10.016     7.5336     5.686      5.8604     10.135     0.202     
2750.500016 6.696      2.7562     8.4031     10.1514    7.6122     5.686      5.7992     10.0576    0.202     
2750.700016 6.6825     2.7157     8.3181     10.2545    7.7039     5.686      5.7992     9.9478     0.202     
2750.900016 6.669      2.7157     8.3181     10.319     7.7825     5.686      5.9427     9.7994     0.202     
2751.100016 6.6385     2.7157     8.2853     10.4221    7.8939     5.699      5.9359     9.6252     0.192     
2751.300016 6.5877     2.7698     8.3704     10.5188    8.0118     5.699      5.9359     9.4315     0.195     
2751.500016 6.5404     2.7427     8.3639     10.551     8.1035     5.7251     5.8823     9.3735     0.195     
2751.700016 6.4592     2.7427     8.3181     10.551     8.1952     5.7772     5.8102     9.3218     0.199     
2751.900017 6.3915     2.7495     8.377      10.5446    8.3        5.7772     5.6161     9.2379     0.192     
2752.100017 6.3306     2.7022     8.2395     10.4866    8.3393     5.7512     5.3899     9.1734     0.185     
2752.300017 6.2832     2.7089     8.2461     10.3963    8.3917     5.7251     5.3564     9.0992     0.188     
2752.500017 6.2291     2.6886     8.1479     10.3319    8.4638     5.7251     5.1983     9.0121     0.192     
2752.700017 6.1817     2.6954     8.0955     10.261     8.5228     5.7381     5.1607     8.954      0.195     
2752.900017 6.1411     2.6819     8.017      10.1836    8.5359     5.7381     5.1659     8.8959     0.195     
2753.100017 6.1073     2.6481     7.8926     10.0257    8.5031     5.7251     5.1494     8.8894     0.192     
2753.300017 6.0599     2.6548     7.8926     9.9064     8.4704     5.7121     5.2341     8.9282     0.195     
2753.500017 6.0261     2.6616     7.8599     9.7839     8.418      5.7121     5.1477     8.9862     0.199     
2753.700017 5.999      2.6008     7.6832     9.6163     8.3393     5.7121     5.0532     9.1282     0.199     
2753.900018 5.9516     2.6143     7.7028     9.5068     8.2935     5.699      4.9997     9.3412     0.199     
2754.100018 5.9043     2.6548     7.7683     9.4874     8.2673     5.699      5.1185     9.4961     0.195     
2754.300018 5.884      2.6481     7.729      9.4101     8.2149     5.699      5.2149     9.6187     0.195     
2754.500018 5.8772     2.6481     7.6439     9.2876     8.1035     5.699      5.0482     9.7542     0.199     
2754.700018 5.8366     2.6278     7.5588     9.1587     7.9725     5.6469     4.9299     10.0124    0.199     
2754.900018 5.8163     2.6143     7.4803     9.004      7.8349     5.6339     4.8113     10.3028    0.195     
2755.100018 5.8434     2.5737     7.3887     8.8557     7.6384     5.6208     4.7457     10.5416    0.195     
2755.300018 5.9043     2.5196     7.2839     8.6881     7.5008     5.5687     4.8018     10.7481    0.195     
2755.500018 5.999      2.5196     7.1988     8.5269     7.3632     5.5296     4.8691     10.9546    0.199     
2755.700018 6.1073     2.4926     7.0876     8.3464     7.1601     5.5035     4.9939     11.0837    0.199     
2755.900019 6.2291     2.4994     7.0352     8.2046     6.9833     5.4644     5.236      11.1095    0.192     
2756.100019 6.3509     2.5467     7.1465     8.1788     6.9112     5.4384     5.458      11.1063    0.195     
2756.300019 6.4456     2.5737     7.2447     8.2562     6.9112     5.4253     5.5689     11.1741    0.199     
2756.500019 6.5336     2.621      7.4541     8.3464     6.9178     5.4644     5.6915     11.2386    0.202     
2756.700019 6.6216     2.6481     7.5719     8.4174     6.9374     5.5035     5.8128     11.2902    0.199     
2756.900019 6.6825     2.6413     7.6766     8.6204     6.9702     5.5557     5.9293     11.2192    0.202     
2757.100019 6.7231     2.79       8.1152     8.9137     7.0422     5.5817     6.9873     11.1095    0.205     
2757.300019 6.7434     2.8238     8.2002     9.1651     7.1339     5.6078     5.9622     11.0579    0.202     
2757.500019 6.7163     2.8306     8.2591     9.3134     7.1405     5.6078     5.9098     11.1031    0.199     
2757.700019 6.7096     2.8103     8.2919     9.423      7.1274     5.6078     5.7708     11.1095    0.195     
2757.90002 6.7096     2.7562     8.2461     9.5196     7.0946     5.5817     5.749      11.0966    0.199     
2758.10002 6.7096     2.736      8.2395     9.6292     7.1143     5.5687     5.7888     11.1611    0.195     
2758.30002 6.7163     2.736      8.2199     9.7388     7.1732     5.5557     5.7131     11.2902    0.195     
2758.50002 6.7163     2.7292     8.2133     9.8484     7.2322     5.5557     5.6417     11.4387    0.192     
2758.70002 6.7502     2.7157     8.161      9.9129     7.2912     5.5557     5.7099     11.5226    0.188     
2758.90002 6.7975     2.7191     8.1741     9.9838     7.3698     5.5557     5.8494     11.5226    0.188     
2759.10002 6.8178     2.7292     8.1872     10.0869    7.4746     5.5557     5.9412     11.4838    0.188     
2759.30002 6.8314     2.7495     8.1741     10.1772    7.6056     5.5557     5.9699     11.4709    0.188     
2759.50002 6.8449     2.7698     8.2624     10.2094    7.6973     5.5296     5.9333     11.4709    0.192     
2759.70002 6.872      2.7224     8.1872     10.1772    7.7628     5.5296     5.858      11.458     0.192     
2759.900021 6.8855     2.7427     8.2919     10.1707    7.8611     5.5296     5.7536     11.4838    0.192     
2760.100021 6.9058     2.7292     8.2722     10.2094    7.9987     5.5296     5.8086     11.5968    0.192     
2760.300021 6.9464     2.7224     8.2722     10.2416    8.11       5.5557     5.8066     11.6516    0.192     
2760.500021 6.9938     2.7427     8.3377     10.2738    8.228      5.5687     5.9897     11.5935    0.192     
2760.700021 7.0344     2.7427     8.3181     10.3609    8.3066     5.5817     6.1632     11.4774    0.192     
2760.900021 7.0547     2.7765     8.4097     10.493     8.3852     5.5948     6.2722     11.3354    0.195     
2761.100021 7.0276     2.8306     8.5733     10.6606    8.5228     5.5948     6.4651     11.2063    0.199     
2761.300021 7.0005     2.8644     8.6977     10.7573    8.6472     5.5948     6.2313     11.1611    0.202     
2761.500021 6.9735     2.8238     8.6126     10.7251    8.6734     5.5948     5.8749     11.1741    0.202     
2761.700021 6.9532     2.7698     8.5471     10.68      8.6341     5.6078     5.7671     11.187     0.199     
2761.900022 6.9396     2.763      8.5799     10.7057    8.68       5.6208     5.8662     11.1676    0.195     
2762.100022 6.9396     2.7562     8.5406     10.7573    8.7521     5.6339     5.905      11.1611    0.195     
2762.300022 6.9396     2.7698     8.5537     10.8153    8.8045     5.6599     5.9641     11.1611    0.195     
