~Version
 VERS              .         2.0                           : CWLS LOG ASCII STANDARD - VERSION 2.0
 WRAP              .         NO                            : ONE LINE PER DEPTH STEP
 DLM               .         SPACE                         : DELIMITING CHARACTER(SPACE TAB OR COMMA)
~Well Information
#_______________________________________________________________________________
#
#PARAMETER_NAME    .UNIT     VALUE                         : DESCRIPTION
#_______________________________________________________________________________
STRT               .m        2718                          : First reference value
STOP               .m        2945                          : Last reference value
STEP               .m        0.2                           : Step increment
NULL               .         -9999                         : Missing value
COMP               .                                       : Company
WELL               .         302                           : Well name
FLD                .                                       : Field
LOC                .                                       : Location
CNTY               .                                       : County
STAT               .                                       : State
CTRY               .                                       : Country
SRVC               .                                       : Service Company
DATE               .                                       : Date
API                .                                       : API number
EREF               .m        138.34                        : 
Pad                .         3                             : 
X                  .m        219750                        : 
Y                  .m        249950                        : 
group              .         Pad3                          : 
Интер-р            .         Зайцев                        : 
Куст               .         3                             : 
Статус             .         Не проверено                  : 
Тип                .         Разведка                      : 
~Parameter Information Block
#_______________________________________________________________________________
#
#PARAMETER_NAME    .UNIT     VALUE                         : DESCRIPTION
#_______________________________________________________________________________
SET                .         LAS3                          : 
REAL_CREATION_DATE .         Ср апр 11 2012-13_17_08       : 
TLFamily_DEPTH     .         Measured Depth                : 
TLFamily_GR        .         Gamma Ray                     : 
TLFamily_TNPH      .         Neutron Porosity              : 
group              .         INI                           : 
~Curve Information
#_______________________________________________________________________________
#
#LOGNAME           .UNIT     LOG_ID                        : DESCRIPTION
#_______________________________________________________________________________
DEPTH              .m                                      : Measured Depth 
GR                 .gAPI                                   :  
TNPH               .v/v                                    : Neutron Porosity 
~Ascii
# ...
2766.6     86.49001   0.251     
2766.8     85.31999   0.245     
2767       86.47      0.239     
2767.2     92.46001   0.242     
2767.4     97.85      0.238     
2767.6     98.11      0.244     
2767.8     91.5       0.261     
2768       85.69      0.269     
2768.2     86.94      0.274     
2768.4     91.66      0.282     
2768.6     92.01      0.28      
2768.8     91.78001   0.26      
2769       92.93      0.234     
2769.2     90.94      0.22      
2769.4     85.9       0.231     
2769.6     83.69      0.262     
2769.8     83.97      0.274     
2770       85         0.277     
2770.2     90.64999   0.27      
2770.4     100.18     0.249     
2770.6     106.71     0.243     
2770.8     109.01     0.259     
2771       108.64     0.262     
2771.2     106.74     0.264     
2771.4     104.69     0.258     
2771.6     101.69     0.253     
2771.8     97.85      0.244     
2772       96.2       0.246     
2772.2     94.11      0.268     
2772.4     93.45      0.271     
2772.6     94.95      0.243     
2772.8     92.53      0.228     
2773       90.21      0.227     
2773.2     95.15      0.242     
2773.4     102.41     0.252     
2773.6     99.62      0.248     
2773.8     88.16      0.246     
2774       82.69      0.246     
2774.2     89.98      0.253     
2774.4     99.20999   0.266     
2774.6     103.91     0.273     
2774.8     108.13     0.287     
2775       109.07     0.298     
2775.2     108.62     0.294     
2775.4     107.82     0.289     
2775.6     105.4      0.304     
2775.8     100.46     0.295     
2776       93         0.262     
2776.2     89.31      0.254     
2776.4     91.8       0.241     
2776.6     91.00999   0.217     
2776.8     91.12      0.23      
2777       97.64      0.235     
2777.2     98.97      0.226     
2777.4     97         0.235     
2777.6     97.93      0.253     
2777.8     98.39      0.253     
2778       95.52      0.237     
2778.2     91.06      0.228     
2778.4     87.28      0.231     
2778.6     91.8       0.249     
2778.8     100.51     0.262     
2779       103.07     0.267     
2779.2     98.37      0.253     
2779.4     92.3       0.238     
2779.6     90.52      0.234     
2779.8     90.15      0.235     
2780       87.28      0.234     
2780.2     84.86      0.225     
2780.4     85.8       0.228     
2780.6     89.91      0.242     
2780.8     92.91      0.264     
2781       92.39999   0.271     
2781.2     93.5       0.262     
2781.4     93.2       0.263     
2781.6     88.62      0.286     
2781.8     89.77      0.299     
2782       96.09      0.289     
2782.2     100.56     0.277     
2782.4     102.71     0.264     
2782.6     102.81     0.256     
2782.8     98.49      0.247     
2783       92.2       0.232     
2783.2     89.59      0.225     
2783.4     89.15      0.217     
2783.6     90.64999   0.219     
2783.8     95.34      0.233     
2784       97.47      0.253     
2784.2     98.34      0.259     
2784.4     98.47      0.252     
2784.6     92.29      0.257     
2784.8     86.73      0.264     
2785       84.72      0.271     
2785.2     83.83      0.301     
2785.4     87.13      0.312     
2785.6     93.78999   0.281     
2785.8     96.6       0.258     
2786       94         0.25      
2786.2     91.67      0.244     
2786.4     91.96999   0.237     
2786.6     92.59      0.251     
2786.8     93.24001   0.278     
2787       95.15      0.275     
2787.2     94.49001   0.263     
2787.4     90.52      0.266     
2787.6     89.06      0.268     
2787.8     96.91      0.269     
2788       103.3      0.269     
2788.2     103.2      0.264     
2788.4     102.99     0.259     
2788.6     101.7      0.259     
2788.8     98.32      0.273     
2789       91.75      0.291     
2789.2     90.28      0.285     
2789.4     93.39      0.275     
2789.6     92.9       0.283     
2789.8     93.64999   0.287     
2790       91.62      0.291     
2790.2     91.13      0.289     
2790.4     96.72      0.264     
2790.6     99.39999   0.245     
2790.8     96.4       0.232     
2791       94.61      0.229     
2791.2     99.69      0.25      
2791.4     105.02     0.279     
2791.6     103.29     0.281     
2791.8     96.56      0.278     
2792       91.13      0.286     
2792.2     91.28      0.276     
2792.4     94.05      0.273     
2792.6     96.28999   0.282     
2792.8     99.59      0.269     
2793       95.57      0.26      
2793.2     89.86      0.267     
2793.4     95.57      0.261     
2793.6     100.64     0.253     
2793.8     99.6       0.261     
2794       98.10001   0.258     
2794.2     95.2       0.256     
2794.4     93.89      0.258     
2794.6     92.67      0.267     
2794.8     90.42      0.281     
2795       95.24001   0.269     
2795.2     99.86      0.247     
2795.4     98.28      0.253     
2795.6     99.75      0.264     
2795.8     104.27     0.263     
2796       106.39     0.274     
2796.2     102.08     0.27      
2796.4     93.92      0.257     
2796.6     91.08      0.279     
2796.8     93.34      0.293     
2797       92.84      0.264     
2797.2     86.82999   0.252     
2797.4     84.22      0.257     
2797.6     85.54      0.251     
2797.8     86.00999   0.253     
2798       88.28      0.248     
2798.2     89.86      0.234     
2798.4     91.99001   0.234     
2798.6     96.53      0.239     
2798.8     97         0.246     
2799       94.89999   0.26      
2799.2     95.28      0.268     
2799.4     93.86      0.258     
2799.6     90.35      0.253     
2799.8     89.71      0.261     
2800       94.06      0.254     
2800.2     95.93001   0.239     
2800.4     94.85      0.25      
2800.6     94.2       0.278     
2800.8     95.28      0.294     
2801       100.46     0.294     
2801.2     102.86     0.29      
2801.4     102.83     0.275     
2801.6     105.33     0.263     
2801.8     103.91     0.284     
2802       101.14     0.303     
2802.2     95.52      0.288     
2802.4     86.47      0.272     
2802.6     84.44      0.276     
2802.8     93.83      0.277     
2803       99.14      0.282     
2803.2     97.13      0.298     
2803.4     95.59      0.296     
2803.6     100.36     0.27      
2803.8     105.49     0.251     
2804       105.13     0.244     
2804.2     101.49     0.259     
2804.4     97.47      0.264     
2804.6     95.60001   0.24      
2804.8     95.03999   0.227     
2805       94.75      0.235     
2805.2     97.33      0.242     
2805.4     101.46     0.237     
2805.6     103.21     0.253     
2805.8     104.35     0.27      
2806       106.96     0.261     
2806.2     106.04     0.254     
2806.4     101.32     0.246     
2806.6     101.23     0.261     
2806.8     103.88     0.288     
2807       103.05     0.305     
2807.2     100.55     0.275     
2807.4     96.42999   0.244     
2807.6     95.84      0.256     
2807.8     101.93     0.267     
2808       106.13     0.263     
2808.2     108.45     0.257     
2808.4     110.22     0.254     
2808.6     113.67     0.258     
2808.8     119.78     0.27      
2809       125.05     0.295     
2809.2     125.56     0.302     
2809.4     118.14     0.28      
2809.6     107.22     0.256     
2809.8     99.64      0.242     
2810       94.75999   0.229     
2810.2     90.17      0.235     
2810.4     91.82999   0.25      
2810.6     96.99001   0.248     
2810.8     92.48      0.228     
2811       79.71      0.211     
2811.2     70.27      0.202     
2811.4     64.36      0.188     
2811.6     57.1       0.181     
2811.8     53.74      0.178     
2812       54.21      0.189     
2812.2     52.94      0.199     
2812.4     52.71      0.19      
2812.6     55.4       0.185     
2812.8     61.65      0.2       
2813       68.34      0.222     
2813.2     68.11      0.221     
2813.4     65.99      0.207     
2813.6     68.19      0.192     
2813.8     69.08      0.201     
2814       66.68      0.224     
2814.2     64.88      0.22      
2814.4     67.59      0.213     
2814.6     80.17      0.221     
2814.8     97.51      0.237     
2815       109.35     0.24      
