~Version
 VERS              .         2.0                           : CWLS LOG ASCII STANDARD - VERSION 2.0
 WRAP              .         NO                            : ONE LINE PER DEPTH STEP
 DLM               .         SPACE                         : DELIMITING CHARACTER(SPACE TAB OR COMMA)
~Well Information
#_______________________________________________________________________________
#
#PARAMETER_NAME    .UNIT     VALUE                         : DESCRIPTION
#_______________________________________________________________________________
STRT               .m        2359.5                        : First reference value
STOP               .m        2938.199942                   : Last reference value
STEP               .m        0.09999999                    : Step increment
NULL               .         -9999                         : Missing value
COMP               .                                       : Company
WELL               .         303                           : Well name
FLD                .                                       : Field
LOC                .                                       : Location
CNTY               .                                       : County
STAT               .                                       : State
CTRY               .                                       : Country
SRVC               .                                       : Service Company
DATE               .                                       : Date
API                .                                       : API number
EREF               .m        138.34                        : 
Pad                .         3                             : 
X                  .m        219750                        : 
Y                  .m        249950                        : 
group              .         Pad3                          : 
Интер-р            .         Ярышев                        : 
Куст               .         3                             : 
Статус             .         Проверено                     : 
Тип                .         Нагнетательные                : 
~Parameter Information Block
#_______________________________________________________________________________
#
#PARAMETER_NAME    .UNIT     VALUE                         : DESCRIPTION
#_______________________________________________________________________________
SET                .         LAS3                          : 
REAL_CREATION_DATE .         Ср апр 11 2012-13_17_09       : 
TLFamily_DEPTH     .         Measured Depth                : 
TLFamily_GR        .         Gamma Ray                     : 
TLFamily_TNPH      .         Neutron Porosity              : 
group              .         INI                           : 
~Curve Information
#_______________________________________________________________________________
#
#LOGNAME           .UNIT     LOG_ID                        : DESCRIPTION
#_______________________________________________________________________________
DEPTH              .m                                      : Measured Depth 
GR                 .gAPI                                   :  
TNPH               .v/v                                    : Neutron Porosity 
~Ascii
# ...
2430.399993 -20        -9999     
2430.499993 -20        -9999     
2430.599993 -20        -9999     
2430.699993 -20        -9999     
2430.799993 -20        -9999     
2430.899993 -20        -9999     
2430.999993 -20        -9999     
2431.099993 -20        -9999     
2431.199993 -20        -9999     
2431.299993 -20        -9999     
2431.399993 -20        -9999     
2431.499993 -20        -9999     
2431.599993 -20        -9999     
2431.699993 -20        -9999     
2431.799993 -20        -9999     
2431.899993 -20        -9999     
2431.999993 -20        -9999     
2432.099993 -20        -9999     
2432.199993 -20        -9999     
2432.299993 -20        -9999     
2432.399993 -20        -9999     
2432.499993 -20        -9999     
2432.599993 -20        -9999     
2432.699993 -20        -9999     
2432.799993 -20        -9999     
2432.899993 -20        -9999     
2432.999993 -20        -9999     
2433.099993 -20        -9999     
2433.199993 -20        -9999     
2433.299993 -20        -9999     
2433.399993 -20        -9999     
2433.499993 -20        -9999     
2433.599993 -20        -9999     
2433.699993 -20        -9999     
2433.799993 -20        -9999     
2433.899993 -20        -9999     
2433.999993 -20        -9999     
2434.099993 -20        -9999     
2434.199993 -20        -9999     
2434.299993 -20        -9999     
2434.399993 -20        -9999     
2434.499993 -20        -9999     
2434.599992 -20        -9999     
2434.699992 -20        -9999     
2434.799992 -20        -9999     
2434.899992 -20        -9999     
2434.999992 -20        -9999     
2435.099992 -20        -9999     
2435.199992 -20        -9999     
2435.299992 -20        -9999     
2435.399992 -20        -9999     
2435.499992 -20        -9999     
2435.599992 -20        -9999     
2435.699992 -20        -9999     
2435.799992 -20        -9999     
2435.899992 -20        -9999     
2435.999992 -20        -9999     
2436.099992 -20        -9999     
2436.199992 -20        -9999     
2436.299992 -20        -9999     
2436.399992 -20        -9999     
2436.499992 -20        -9999     
2436.599992 -20        -9999     
2436.699992 -20        -9999     
2436.799992 -20        -9999     
2436.899992 -20        -9999     
2436.999992 -20        -9999     
2437.099992 -20        -9999     
2437.199992 -20        -9999     
2437.299992 -20        -9999     
2437.399992 -20        -9999     
2437.499992 -20        -9999     
2437.599992 -20        -9999     
2437.699992 -20        -9999     
2437.799992 -20        -9999     
2437.899992 -20        -9999     
2437.999992 -20        -9999     
2438.099992 -20        -9999     
2438.199992 -20        -9999     
2438.299992 -20        -9999     
2438.399992 -20        -9999     
2438.499992 -20        -9999     
2438.599992 -20        -9999     
2438.699992 -20        -9999     
2438.799992 -20        -9999     
2438.899992 -20        -9999     
2438.999992 -20        -9999     
2439.099992 -20        -9999     
2439.199992 -20        -9999     
2439.299992 -20        -9999     
2439.399992 -20        -9999     
2439.499992 -20        -9999     
2439.599992 -20        -9999     
2439.699992 -20        -9999     
2439.799992 -20        -9999     
2439.899992 -20        -9999     
2439.999992 -20        -9999     
2440.099992 -20        -9999     
2440.199992 -20        -9999     
2440.299992 -20        -9999     
2440.399992 -20        -9999     
2440.499992 -20        -9999     
2440.599992 -20        -9999     
2440.699992 -20        -9999     
2440.799992 -20        -9999     
2440.899992 -20        -9999     
2440.999992 -20        -9999     
2441.099992 -20        -9999     
2441.199992 -20        -9999     
2441.299992 -20        -9999     
2441.399992 -20        -9999     
2441.499992 -20        -9999     
2441.599992 -20        -9999     
2441.699992 -20        -9999     
2441.799992 -20        -9999     
2441.899992 -20        -9999     
2441.999992 -20        -9999     
2442.099992 -20        -9999     
2442.199992 -20        -9999     
2442.299992 -20        -9999     
2442.399992 -20        -9999     
2442.499992 -20        -9999     
2442.599992 -20        -9999     
2442.699992 -20        -9999     
2442.799992 -20        -9999     
2442.899992 -20        -9999     
2442.999992 -20        -9999     
2443.099992 -20        -9999     
2443.199992 -20        -9999     
2443.299992 -20        -9999     
2443.399992 -20        -9999     
2443.499992 -20        -9999     
2443.599992 -20        -9999     
2443.699992 -20        -9999     
2443.799992 -20        -9999     
2443.899992 -20        -9999     
2443.999992 -20        -9999     
2444.099992 -20        -9999     
2444.199992 -20        -9999     
2444.299992 -20        -9999     
2444.399992 -20        -9999     
2444.499991 -20        -9999     
2444.599991 -20        -9999     
2444.699991 -20        -9999     
2444.799991 -20        -9999     
2444.899991 -20        -9999     
2444.999991 -20        -9999     
2445.099991 -20        -9999     
2445.199991 -20        -9999     
2445.299991 -20        -9999     
2445.399991 -20        -9999     
2445.499991 -20        -9999     
2445.599991 -20        -9999     
2445.699991 -20        -9999     
2445.799991 -20        -9999     
2445.899991 -20        -9999     
2445.999991 -20        -9999     
2446.099991 -20        -9999     
2446.199991 -20        -9999     
2446.299991 -20        -9999     
2446.399991 -20        -9999     
2446.499991 -20        -9999     
2446.599991 -20        -9999     
2446.699991 -20        -9999     
2446.799991 -20        -9999     
2446.899991 -20        -9999     
2446.999991 -20        -9999     
2447.099991 -20        -9999     
2447.199991 -20        -9999     
2447.299991 -20        -9999     
2447.399991 -20        -9999     
2447.499991 -20        -9999     
2447.599991 -20        -9999     
2447.699991 -20        -9999     
2447.799991 -20        -9999     
2447.899991 -20        -9999     
2447.999991 -20        -9999     
2448.099991 -20        -9999     
2448.199991 -20        -9999     
2448.299991 -20        -9999     
2448.399991 -20        -9999     
2448.499991 -20        -9999     
2448.599991 -20        -9999     
2448.699991 -20        -9999     
2448.799991 -20        -9999     
2448.899991 -20        -9999     
2448.999991 -20        -9999     
2449.099991 -20        -9999     
2449.199991 -20        -9999     
2449.299991 -20        -9999     
2449.399991 -20        -9999     
2449.499991 -20        -9999     
2449.599991 -20        -9999     
2449.699991 -20        -9999     
2449.799991 -20        -9999     
2449.899991 -20        -9999     
2449.999991 -20        -9999     
2450.099991 -20        -9999     
2450.199991 -20        -9999     
2450.299991 -20        -9999     
2450.399991 -20        -9999     
2450.499991 -20        -9999     
2450.599991 -20        -9999     
2450.699991 -20        -9999     
2450.799991 -20        -9999     
2450.899991 -20        -9999     
2450.999991 -20        -9999     
2451.099991 -20        -9999     
2451.199991 -20        -9999     
2451.299991 -20        -9999     
2451.399991 -20        -9999     
2451.499991 -20        -9999     
2451.599991 -20        -9999     
2451.699991 -20        -9999     
2451.799991 -20        -9999     
2451.899991 -20        -9999     
2451.999991 -20        -9999     
2452.099991 -20        -9999     
2452.199991 -20        -9999     
2452.299991 -20        -9999     
2452.399991 -20        -9999     
2452.499991 -20        -9999     
2452.599991 -20        -9999     
2452.699991 -20        -9999     
2452.799991 -20        -9999     
2452.899991 -20        -9999     
2452.999991 -20        -9999     
2453.099991 -20        -9999     
2453.199991 -20        -9999     
2453.299991 -20        -9999     
2453.399991 -20        -9999     
2453.499991 -20        -9999     
2453.599991 -20        -9999     
2453.699991 -20        -9999     
2453.799991 -20        -9999     
2453.899991 -20        -9999     
