~Version
 VERS              .         2.0                           : CWLS LOG ASCII STANDARD - VERSION 2.0
 WRAP              .         NO                            : ONE LINE PER DEPTH STEP
 DLM               .         SPACE                         : DELIMITING CHARACTER(SPACE TAB OR COMMA)
~Well Information
#_______________________________________________________________________________
#
#PARAMETER_NAME    .UNIT     VALUE                         : DESCRIPTION
#_______________________________________________________________________________
STRT               .m        2774.31                       : First reference value
STOP               .m        2936.209903                   : Last reference value
STEP               .m        0.09999994                    : Step increment
NULL               .         -9999                         : Missing value
COMP               .                                       : Company
WELL               .         303                           : Well name
FLD                .                                       : Field
LOC                .                                       : Location
CNTY               .                                       : County
STAT               .                                       : State
CTRY               .                                       : Country
SRVC               .                                       : Service Company
DATE               .                                       : Date
API                .                                       : API number
EREF               .m        138.34                        : 
Pad                .         3                             : 
X                  .m        219750                        : 
Y                  .m        249950                        : 
group              .         Pad3                          : 
Интер-р            .         Ярышев                        : 
Куст               .         3                             : 
Статус             .         Проверено                     : 
Тип                .         Нагнетательные                : 
~Parameter Information Block
#_______________________________________________________________________________
#
#PARAMETER_NAME    .UNIT     VALUE                         : DESCRIPTION
#_______________________________________________________________________________
SET                .         LAS1                          : 
REAL_CREATION_DATE .         Ср апр 11 2012-13_17_09       : 
TLFamily_DEPTH     .         Measured Depth                : 
TLFamily_KS        .         Potential Resistivity         : 
TLFamily_KS1       .         Extra Shallow Resistivity     : 
TLFamily_KS2       .         Shallow Resistivity           : 
TLFamily_KS3       .         Medium Resistivity            : 
TLFamily_KS4       .         Deep Resistivity              : 
TLFamily_KS5       .         Extra Deep Resistivity        : 
TLFamily_LLD       .         Lateral Log Resistivity       : 
TLFamily_OKS3      .         Medium Resistivity Inverted   : 
TLFamily_RM        .         Mud Resistivity               : 
group              .         INI                           : 
~Curve Information
#_______________________________________________________________________________
#
#LOGNAME           .UNIT     LOG_ID                        : DESCRIPTION
#_______________________________________________________________________________
DEPTH              .m                                      : Measured Depth 
KS                 .ohm.m                                  : Potential Resistivity 
KS1                .ohm.m                                  : Extra Shallow Resistivity 
KS2                .ohm.m                                  : Shallow Resistivity 
KS3                .ohm.m                                  : Medium Resistivity 
KS4                .ohm.m                                  : Deep Resistivity 
KS5                .ohm.m                                  : Extra Deep Resistivity 
LLD                .ohm.m                                  : Lateral Log Resistivity 
OKS3               .ohm.m                                  : Medium Resistivity Inverted 
RM                 .ohm.m                                  : Mud Resistivity 
~Ascii
# ...
2832.709965 9.0098     2.5246     9.4852     17.3778    18.9779    10.4998    9.8328     20.0222    0.067     
2832.809965 9.0277     2.5035     9.4204     17.2915    18.9899    10.5548    10.324     20.3278    0.067     
2832.909965 9.0477     2.527      9.5321     17.3068    19.0659    10.62      11.8698    20.5691    0.066     
2833.009965 9.0817     2.5597     9.6094     17.3907    19.2242    10.7013    13.1282    20.7406    0.066     
2833.109965 9.1339     2.5932     9.7187     17.5003    19.3595    10.786     13.7829    20.8065    0.065     
2833.209965 9.1534     2.6006     9.7339     17.5875    19.4658    10.8703    13.4502    20.85      0.064     
2833.309965 9.1696     2.6306     9.7671     17.6515    19.5205    10.9424    13.1917    20.8731    0.064     
2833.409965 9.18       2.6576     9.8498     17.631     19.5374    10.983     13.2779    20.855     0.064     
2833.509964 9.1867     2.6824     9.9077     17.6161    19.5313    10.99      13.3028    20.8413    0.064     
2833.609964 9.19       2.6788     9.8847     17.5863    19.5189    10.9601    12.9891    20.84      0.063     
2833.709964 9.1983     2.6769     9.8791     17.5074    19.406     10.9136    12.6131    20.84      0.064     
2833.809964 9.1908     2.6797     9.8961     17.3663    19.2355    10.8521    12.4253    20.84      0.065     
2833.909964 9.2        2.6575     9.8388     17.1934    19.0435    10.7693    12.1468    20.9097    0.065     
2834.009964 9.2        2.6422     9.7787     17.0033    18.8266    10.6819    11.7117    21.0301    0.065     
2834.109964 9.1963     2.6211     9.7079     16.7896    18.6104    10.6042    11.338     21.133     0.065     
2834.209964 9.19       2.6019     9.6927     16.6109    18.4364    10.5338    11.2637    21.2516    0.065     
2834.309964 9.1964     2.59       9.6447     16.4514    18.2947    10.4694    11.2726    21.4003    0.064     
2834.409964 9.2148     2.5672     9.5792     16.3238    18.2068    10.4264    11.2001    21.5932    0.064     
2834.509964 9.2448     2.5316     9.4639     16.2143    18.1043    10.4022    11.1652    21.8041    0.063     
2834.609964 9.268      2.5051     9.3659     16.1132    18.0301    10.4029    11.263     22.0612    0.062     
2834.709964 9.3089     2.5077     9.3567     16.0139    17.9371    10.42      11.4671    22.3361    0.062     
2834.809964 9.3642     2.4936     9.2884     15.9527    17.8841    10.4467    11.4841    22.66      0.061     
2834.909964 9.4248     2.4727     9.1738     15.8848    17.8358    10.5039    11.3061    22.9925    0.061     
2835.009964 9.5083     2.4415     9.0461     15.8066    17.7688    10.5979    11.33      23.3005    0.061     
2835.109964 9.6122     2.4161     8.9307     15.7639    17.7279    10.7185    11.5762    23.6112    0.061     
2835.209963 9.7205     2.3828     8.8043     15.7692    17.7798    10.8649    11.81      23.9511    0.062     
2835.309963 9.838      2.3619     8.7334     15.8184    17.8991    11.0581    12.3391    24.3018    0.063     
2835.409963 9.9604     2.3721     8.7775     15.8937    18.0723    11.2956    13.1978    24.6416    0.064     
2835.509963 10.0877    2.3793     8.8068     16.0059    18.2948    11.591     13.808     24.9958    0.065     
2835.609963 10.2371    2.38       8.8362     16.1637    18.5667    11.9413    14.1499    25.3375    0.066     
2835.709963 10.3912    2.38       8.8404     16.3059    18.8621    12.3247    14.4642    25.6823    0.066     
2835.809963 10.551     2.3795     8.8856     16.5286    19.2688    12.7261    15.0782    26.0011    0.066     
2835.909963 10.6932    2.3709     8.9128     16.8779    19.8774    13.1325    16.4567    26.246     0.065     
2836.009963 10.8161    2.3936     9.1798     17.4095    20.6702    13.5212    20.8479    26.2892    0.065     
2836.109963 10.9067    2.5072     9.6601     18.1466    21.6009    13.8887    32.9321    26.0662    0.064     
2836.209963 10.9552    2.6567     10.2428    19.0132    22.6292    14.2212    52.5359    25.5809    0.064     
2836.309963 10.9893    2.8504     10.9542    19.8128    23.4307    14.496     61.3579    24.9021    0.064     
2836.409963 11.0194    2.9996     11.4205    20.4467    24.0321    14.7084    42.0933    24.1273    0.064     
2836.509963 11.0072    3.0724     11.7085    20.8739    24.3568    14.8399    25.9462    23.4025    0.064     
2836.609963 10.9774    3.0799     11.788     20.9969    24.3925    14.8823    18.9831    22.8526    0.064     
2836.709963 10.9132    3.0737     11.8235    20.9396    24.2267    14.8477    16.2674    22.5105    0.064     
2836.809962 10.8392    3.0267     11.7208    20.8049    23.9995    14.7375    14.7324    22.2981    0.064     
2836.909962 10.7693    2.9831     11.6559    20.6716    23.7272    14.5806    14.2365    22.1552    0.064     
2837.009962 10.7038    2.9459     11.6486    20.5391    23.5448    14.4013    14.2297    22.0916    0.064     
2837.109962 10.6471    2.9126     11.685     20.4932    23.4615    14.2104    14.1593    22.067     0.065     
2837.209962 10.5913    2.886      11.6387    20.481     23.4049    14.0204    13.8493    22.0302    0.064     
2837.309962 10.5567    2.8729     11.6614    20.4512    23.2939    13.8512    13.9766    22.0036    0.064     
2837.409962 10.5277    2.8351     11.5493    20.4079    23.1568    13.6911    14.0546    21.9539    0.064     
2837.509962 10.52      2.8091     11.3822    20.3562    22.9802    13.55      13.5462    21.926     0.063     
2837.609962 10.527     2.7745     11.1783    20.2456    22.7307    13.425     12.9999    21.9125    0.063     
2837.709962 10.5444    2.7405     10.9829    20.1148    22.4592    13.3152    12.4482    21.962     0.062     
2837.809962 10.5607    2.7054     10.7107    19.9797    22.1788    13.2148    12.8432    22.04      0.062     
2837.909962 10.5832    2.6473     10.476     19.8814    21.9327    13.1378    14.1388    22.1242    0.062     
2838.009962 10.6227    2.6263     10.3447    19.8294    21.7164    13.0593    15.4446    22.1792    0.061     
2838.109962 10.6494    2.6145     10.2763    19.9076    21.6555    12.9891    16.4471    22.181     0.061     
2838.209962 10.6853    2.625      10.2843    20.0706    21.6588    12.9442    16.6679    22.1169    0.061     
2838.309962 10.7335    2.6646     10.3763    20.2396    21.6683    12.9282    15.0517    22.047     0.062     
2838.409962 10.7808    2.691      10.4286    20.3912    21.7055    12.9514    14.3084    22.0379    0.063     
2838.509961 10.8177    2.6519     10.2869    20.4957    21.7636    13.0055    15.5357    22.014     0.064     
2838.609961 10.8514    2.6472     10.2492    20.5215    21.779     13.0752    16.8315    21.9736    0.065     
2838.709961 10.8737    2.6627     10.2975    20.4764    21.8675    13.1506    17.5321    21.9424    0.066     
2838.809961 10.9036    2.6746     10.3551    20.5214    22.0741    13.2179    18.1213    21.8434    0.066     
2838.909961 10.9283    2.7043     10.4739    20.6029    22.3       13.2831    18.3537    21.7036    0.067     
2839.009961 10.9506    2.74       10.6306    20.6877    22.5829    13.3683    18.0117    21.5904    0.066     
2839.109961 10.9577    2.7576     10.7196    20.7991    22.8948    13.467     17.6262    21.4812    0.065     
2839.209961 10.95      2.7965     10.8393    20.8894    23.1979    13.5681    17.5536    21.3379    0.065     
2839.309961 10.9397    2.8111     10.918     20.9917    23.5179    13.6625    17.3345    21.2258    0.064     
2839.409961 10.9113    2.8227     10.9964    21.0984    23.8505    13.7402    16.866     21.1578    0.064     
2839.509961 10.8861    2.834      11.0706    21.1525    24.1192    13.8032    16.1919    21.1087    0.063     
2839.609961 10.8574    2.8451     11.1687    21.2021    24.4193    13.8566    15.2524    21.1166    0.063     
2839.709961 10.8332    2.8371     11.1237    21.2069    24.6374    13.895     14.426     21.1823    0.063     
2839.809961 10.8017    2.8442     11.2118    21.1676    24.8364    13.9363    13.7635    21.3157    0.064     
2839.909961 10.7887    2.8041     11.0958    21.0529    24.9705    13.9766    13.7847    21.4606    0.064     
