~Version
 VERS              .         2.0                           : CWLS LOG ASCII STANDARD - VERSION 2.0
 WRAP              .         NO                            : ONE LINE PER DEPTH STEP
 DLM               .         SPACE                         : DELIMITING CHARACTER(SPACE TAB OR COMMA)
~Well Information
#_______________________________________________________________________________
#
#PARAMETER_NAME    .UNIT     VALUE                         : DESCRIPTION
#_______________________________________________________________________________
STRT               .m        2774.31                       : First reference value
STOP               .m        2936.209903                   : Last reference value
STEP               .m        0.09999994                    : Step increment
NULL               .         -9999                         : Missing value
COMP               .                                       : Company
WELL               .         303                           : Well name
FLD                .                                       : Field
LOC                .                                       : Location
CNTY               .                                       : County
STAT               .                                       : State
CTRY               .                                       : Country
SRVC               .                                       : Service Company
DATE               .                                       : Date
API                .                                       : API number
EREF               .m        138.34                        : 
Pad                .         3                             : 
X                  .m        219750                        : 
Y                  .m        249950                        : 
group              .         Pad3                          : 
Интер-р            .         Ярышев                        : 
Куст               .         3                             : 
Статус             .         Проверено                     : 
Тип                .         Нагнетательные                : 
~Parameter Information Block
#_______________________________________________________________________________
#
#PARAMETER_NAME    .UNIT     VALUE                         : DESCRIPTION
#_______________________________________________________________________________
SET                .         LAS1                          : 
REAL_CREATION_DATE .         Ср апр 11 2012-13_17_09       : 
TLFamily_DEPTH     .         Measured Depth                : 
TLFamily_KS        .         Potential Resistivity         : 
TLFamily_KS1       .         Extra Shallow Resistivity     : 
TLFamily_KS2       .         Shallow Resistivity           : 
TLFamily_KS3       .         Medium Resistivity            : 
TLFamily_KS4       .         Deep Resistivity              : 
TLFamily_KS5       .         Extra Deep Resistivity        : 
TLFamily_LLD       .         Lateral Log Resistivity       : 
TLFamily_OKS3      .         Medium Resistivity Inverted   : 
TLFamily_RM        .         Mud Resistivity               : 
group              .         INI                           : 
~Curve Information
#_______________________________________________________________________________
#
#LOGNAME           .UNIT     LOG_ID                        : DESCRIPTION
#_______________________________________________________________________________
DEPTH              .m                                      : Measured Depth 
KS                 .ohm.m                                  : Potential Resistivity 
KS1                .ohm.m                                  : Extra Shallow Resistivity 
KS2                .ohm.m                                  : Shallow Resistivity 
KS3                .ohm.m                                  : Medium Resistivity 
KS4                .ohm.m                                  : Deep Resistivity 
KS5                .ohm.m                                  : Extra Deep Resistivity 
LLD                .ohm.m                                  : Lateral Log Resistivity 
OKS3               .ohm.m                                  : Medium Resistivity Inverted 
RM                 .ohm.m                                  : Mud Resistivity 
~Ascii
# ...
2876.509939 5.1813     2.0851     6.4117     8.7515     5.1341     3.899      5.6762     9.4208     0.063     
2876.609939 5.18       2.0573     6.3011     8.7996     5.2303     3.8755     5.8093     9.4962     0.063     
2876.709939 5.18       2.0505     6.2629     8.8257     5.3035     3.8539     5.8746     9.5579     0.063     
2876.809939 5.18       2.0676     6.2834     8.8591     5.3884     3.8406     5.8558     9.6295     0.063     
2876.909938 5.18       2.0441     6.2356     8.8773     5.4944     3.8407     5.9037     9.6961     0.062     
2877.009938 5.1856     2.0491     6.2245     8.8497     5.598      3.845      5.8651     9.7539     0.061     
2877.109938 5.19       2.05       6.2079     8.7697     5.709      3.8537     5.8602     9.8304     0.061     
2877.209938 5.1978     2.0398     6.1311     8.7021     5.829      3.866      5.7693     9.9032     0.06      
2877.309938 5.2087     2.0247     6.071      8.6037     5.9583     3.8836     5.8322     9.9781     0.059     
2877.409938 5.21       2.0343     6.1044     8.4954     6.0992     3.9071     6.0026     10.0602    0.06      
2877.509938 5.2215     2.0238     6.0671     8.4004     6.2631     3.9346     5.9349     10.1289    0.061     
2877.609938 5.2444     2.0028     6.01       8.3381     6.4333     3.9609     5.9307     10.211     0.061     
2877.709938 5.2638     2.0001     5.9875     8.2983     6.6101     3.9928     5.9278     10.2819    0.063     
2877.809938 5.2754     2          5.9602     8.2454     6.7952     4.0262     5.9956     10.359     0.064     
2877.909938 5.294      2.0034     5.9601     8.243      6.9884     4.0639     5.9992     10.4471    0.065     
2878.009938 5.3083     2.0046     5.955      8.2583     7.1897     4.1049     6.0282     10.5375    0.064     
2878.109938 5.3287     2.0068     5.974      8.2641     7.3986     4.1471     6.0721     10.6294    0.064     
2878.209938 5.351      2.0022     5.9622     8.2639     7.5939     4.1949     6.0811     10.7229    0.063     
2878.309938 5.3835     1.9918     5.958      8.2542     7.7561     4.2432     6.0743     10.8323    0.062     
2878.409938 5.4162     1.9808     5.9269     8.2364     7.9099     4.2927     6.1411     10.9487    0.062     
2878.509937 5.4495     1.971      5.9125     8.2305     8.0776     4.3484     6.3942     11.0656    0.062     
2878.609937 5.4835     1.9737     5.9522     8.2388     8.2561     4.406      6.6914     11.1748    0.062     
2878.709937 5.5122     1.9913     5.9966     8.2816     8.4432     4.4613     7.0087     11.2429    0.062     
2878.809937 5.5437     2.0034     6.0315     8.3414     8.6383     4.5161     7.346      11.2642    0.063     
2878.909937 5.5692     2.0314     6.1151     8.4055     8.8008     4.5779     7.2998     11.2442    0.063     
2879.009937 5.5938     2.0627     6.1756     8.4524     8.9207     4.6424     6.9425     11.2006    0.062     
2879.109937 5.6255     2.0955     6.2151     8.4932     8.9847     4.711      6.4827     11.1727    0.061     
2879.209937 5.644      2.0717     6.1996     8.5227     9.0375     4.7799     6.3366     11.1874    0.061     
2879.309937 5.6605     2.0609     6.1605     8.5296     9.0493     4.8529     6.355      11.2465    0.061     
2879.409937 5.6831     2.0528     6.1686     8.5213     9.05       4.9285     6.3928     11.327     0.06      
2879.509937 5.6979     2.0223     6.137      8.5394     9.065      5.0033     6.513      11.4258    0.06      
2879.609937 5.7195     1.996      6.0981     8.5621     9.0974     5.0849     6.7609     11.5209    0.059     
2879.709937 5.7552     1.9903     6.1336     8.5852     9.1397     5.1699     7.0126     11.5569    0.059     
2879.809937 5.791      1.99       6.1511     8.6325     9.2038     5.2624     7.1035     11.6059    0.06      
2879.909937 5.8265     1.99       6.1732     8.7046     9.2954     5.3595     7.3029     11.6104    0.06      
2880.009937 5.8614     1.9933     6.21       8.7655     9.394      5.4576     7.5966     11.563     0.062     
2880.109937 5.8873     2.0142     6.2464     8.8296     9.4791     5.5624     7.5635     11.4962    0.063     
2880.209936 5.9194     2.0351     6.2559     8.914      9.5609     5.6764     7.3353     11.444     0.064     
2880.309936 5.9426     2.0475     6.2668     8.9986     9.6343     5.7978     7.2339     11.3878    0.064     
2880.409936 5.974      2.0499     6.2786     9.0678     9.6999     5.9172     7.2471     11.3207    0.064     
2880.509936 5.9966     2.0598     6.3445     9.1445     9.7734     6.0387     7.2697     11.2717    0.063     
2880.609936 6.0196     2.0673     6.3625     9.2356     9.8593     6.1554     7.4189     11.2214    0.062     
2880.709936 6.0365     2.0578     6.3842     9.3439     9.9598     6.2684     7.6682     11.1492    0.062     
2880.809936 6.0567     2.0637     6.4563     9.4577     10.0462    6.4313     7.7904     11.0614    0.062     
2880.909936 6.0801     2.0902     6.5498     9.5656     10.118     6.6215     7.6796     10.9493    0.062     
2881.009936 6.1017     2.1068     6.6131     9.6607     10.196     6.7483     7.5121     10.8237    0.062     
2881.109936 6.1132     2.1008     6.6199     9.7453     10.258     6.8813     7.4554     10.7098    0.062     
2881.209936 6.1292     2.1        6.6236     9.8079     10.3274    7.0171     7.5007     10.6159    0.062     
2881.309936 6.1341     2.1        6.6444     9.8795     10.4192    7.1489     7.6548     10.541     0.062     
2881.409936 6.13       2.1042     6.6673     9.9519     10.5436    7.2803     7.854      10.4741    0.062     
2881.509936 6.13       2.12       6.7377     10.0207    10.648     7.4196     7.7365     10.4113    0.062     
2881.609936 6.13       2.1355     6.7991     10.0914    10.7695    7.5832     7.4903     10.3458    0.061     
2881.709936 6.13       2.1321     6.7915     10.1785    10.8894    7.7552     7.468      10.2977    0.06      
2881.809935 6.1262     2.1122     6.7857     10.2913    11.0307    7.9132     7.7775     10.2432    0.06      
2881.909935 6.1087     2.1134     6.8306     10.4185    11.198     8.0762     8.1899     10.1911    0.06      
2882.009935 6.0781     2.1387     6.9345     10.5611    11.3449    8.2379     8.3936     10.1239    0.06      
2882.109935 6.0524     2.1836     7.0775     10.708     11.4704    8.3973     8.0261     10.0122    0.061     
2882.209935 6.0302     2.2078     7.1506     10.8177    11.5625    8.5624     7.4172     9.8636     0.061     
2882.309935 6.0079     2.1942     7.091      10.9041    11.6072    8.7378     7.0306     9.7173     0.063     
2882.409935 5.9835     2.1724     7.0082     10.93      11.6191    8.9224     6.7357     9.594      0.064     
2882.509935 5.9515     2.1691     6.9803     10.9062    11.6458    9.0858     6.5235     9.5471     0.064     
2882.609935 5.8994     2.1551     6.964      10.9701    11.7766    9.2156     6.5598     9.5617     0.064     
2882.709935 5.8412     2.1414     6.9665     11.1015    11.946     9.3386     6.7849     9.604      0.063     
2882.809935 5.7917     2.1786     7.1893     11.1991    12.0908    9.4608     6.1973     9.6518     0.062     
2882.909935 5.7554     2.2213     7.2993     11.2821    12.257     9.5762     5.9449     9.6827     0.062     
2883.009935 5.7235     2.1433     7.0604     11.3664    12.3389    9.6885     6.1475     9.7058     0.062     
2883.109935 5.71       2.1179     7.0036     11.2976    12.2375    9.7867     6.0277     9.689      0.062     
2883.209935 5.71       2.1437     7.0723     11.1396    12.1451    9.8518     5.8461     9.6163     0.062     
2883.309935 5.7172     2.1108     6.9457     11.0473    12.0705    9.8672     6.0035     9.5123     0.062     
2883.409935 5.7284     2.0682     6.7455     10.9559    11.9511    9.8478     6.2905     9.4006     0.062     
2883.509934 5.7498     2.0604     6.6585     10.7928    11.852     9.8344     6.6405     9.2562     0.061     
2883.609934 5.7514     2.0751     6.6239     10.6621    11.8049    9.8023     6.8838     9.106      0.061     
2883.709934 5.7633     2.0797     6.5882     10.5909    11.7911    9.7574     6.9667     8.9576     0.06      
