~Version
 VERS              .         2.0                           : CWLS LOG ASCII STANDARD - VERSION 2.0
 WRAP              .         NO                            : ONE LINE PER DEPTH STEP
 DLM               .         SPACE                         : DELIMITING CHARACTER(SPACE TAB OR COMMA)
~Well Information
#_______________________________________________________________________________
#
#PARAMETER_NAME    .UNIT     VALUE                         : DESCRIPTION
#_______________________________________________________________________________
STRT               .m        2774.31                       : First reference value
STOP               .m        2936.209903                   : Last reference value
STEP               .m        0.09999994                    : Step increment
NULL               .         -9999                         : Missing value
COMP               .                                       : Company
WELL               .         303                           : Well name
FLD                .                                       : Field
LOC                .                                       : Location
CNTY               .                                       : County
STAT               .                                       : State
CTRY               .                                       : Country
SRVC               .                                       : Service Company
DATE               .                                       : Date
API                .                                       : API number
EREF               .m        138.34                        : 
Pad                .         3                             : 
X                  .m        219750                        : 
Y                  .m        249950                        : 
group              .         Pad3                          : 
Интер-р            .         Ярышев                        : 
Куст               .         3                             : 
Статус             .         Проверено                     : 
Тип                .         Нагнетательные                : 
~Parameter Information Block
#_______________________________________________________________________________
#
#PARAMETER_NAME    .UNIT     VALUE                         : DESCRIPTION
#_______________________________________________________________________________
SET                .         LAS1                          : 
REAL_CREATION_DATE .         Ср апр 11 2012-13_17_09       : 
TLFamily_DEPTH     .         Measured Depth                : 
TLFamily_KS        .         Potential Resistivity         : 
TLFamily_KS1       .         Extra Shallow Resistivity     : 
TLFamily_KS2       .         Shallow Resistivity           : 
TLFamily_KS3       .         Medium Resistivity            : 
TLFamily_KS4       .         Deep Resistivity              : 
TLFamily_KS5       .         Extra Deep Resistivity        : 
TLFamily_LLD       .         Lateral Log Resistivity       : 
TLFamily_OKS3      .         Medium Resistivity Inverted   : 
TLFamily_RM        .         Mud Resistivity               : 
group              .         INI                           : 
~Curve Information
#_______________________________________________________________________________
#
#LOGNAME           .UNIT     LOG_ID                        : DESCRIPTION
#_______________________________________________________________________________
DEPTH              .m                                      : Measured Depth 
KS                 .ohm.m                                  : Potential Resistivity 
KS1                .ohm.m                                  : Extra Shallow Resistivity 
KS2                .ohm.m                                  : Shallow Resistivity 
KS3                .ohm.m                                  : Medium Resistivity 
KS4                .ohm.m                                  : Deep Resistivity 
KS5                .ohm.m                                  : Extra Deep Resistivity 
LLD                .ohm.m                                  : Lateral Log Resistivity 
OKS3               .ohm.m                                  : Medium Resistivity Inverted 
RM                 .ohm.m                                  : Mud Resistivity 
~Ascii
# ...
2883.809934 5.77       2.1083     6.6016     10.5487    11.7801    9.7207     6.9974     8.7938     0.06      
2883.909934 5.7771     2.1281     6.6127     10.497     11.7718    9.7032     6.9476     8.6302     0.06      
2884.009934 5.771      2.1622     6.6591     10.4327    11.7727    9.6918     6.7865     8.4752     0.061     
2884.109934 5.7696     2.1786     6.659      10.38      11.7703    9.6907     6.6864     8.3346     0.063     
2884.209934 5.7472     2.18       6.6584     10.3348    11.77      9.6962     6.5852     8.2051     0.063     
2884.309934 5.7226     2.1982     6.6866     10.2894    11.7625    9.7076     6.5167     8.091      0.064     
2884.409934 5.693      2.209      6.7195     10.2328    11.7782    9.7192     6.5054     7.9925     0.065     
2884.509934 5.6657     2.2078     6.7443     10.1778    11.786     9.7388     6.5364     7.8827     0.063     
2884.609934 5.6374     2.2008     6.7729     10.1267    11.8117    9.7688     6.458      7.7925     0.062     
2884.709934 5.6061     2.1914     6.7886     10.0902    11.8461    9.7942     6.5218     7.7145     0.062     
2884.809934 5.5707     2.1867     6.7981     10.0634    11.889     9.824      6.5011     7.6271     0.062     
2884.909934 5.5352     2.204      6.8989     10.0525    11.9356    9.8589     6.4557     7.5341     0.062     
2885.009934 5.4973     2.2008     6.91       10.0738    12.0108    9.8854     6.5662     7.4441     0.062     
2885.109934 5.4517     2.209      6.9166     10.128     12.0732    9.9058     6.653      7.342      0.063     
2885.209933 5.3959     2.2129     6.9473     10.1954    12.1492    9.9077     6.8538     7.2242     0.063     
2885.309933 5.3301     2.24       7.0024     10.2725    12.201     9.8972     6.9512     7.0882     0.062     
2885.409933 5.2633     2.2878     7.1197     10.3282    12.2159    9.8745     6.5811     6.9248     0.061     
2885.509933 5.2048     2.3202     7.2039     10.3572    12.1968    9.8435     6.0146     6.758      0.06      
2885.609933 5.1269     2.3083     7.1312     10.3433    12.1175    9.8106     5.5808     6.5979     0.059     
2885.709933 5.0532     2.2844     7.0265     10.2712    11.98      9.7736     5.2876     6.4486     0.059     
2885.809933 4.9744     2.2433     6.8825     10.1679    11.8294    9.7323     5.0695     6.3338     0.06      
2885.909933 4.8976     2.2133     6.7835     10.051     11.6915    9.6889     4.9716     6.2367     0.062     
2886.009933 4.8235     2.1677     6.6793     9.9401     11.5953    9.6469     4.9519     6.1692     0.063     
2886.109933 4.7459     2.1259     6.586      9.8292     11.5162    9.62       4.9467     6.1214     0.064     
2886.209933 4.6771     2.0902     6.5107     9.7314     11.483     9.6036     4.9745     6.0814     0.064     
2886.309933 4.6109     2.0642     6.4181     9.6597     11.4701    9.5963     5.0129     6.0371     0.064     
2886.409933 4.5497     2.0597     6.399      9.5831     11.4522    9.5903     4.9606     5.9904     0.063     
2886.509933 4.4968     2.0496     6.3508     9.5045     11.4154    9.5853     4.8211     5.9411     0.062     
2886.609933 4.4384     2.0362     6.27       9.4239     11.3591    9.5728     4.6603     5.885      0.062     
2886.709933 4.3846     2.0145     6.1661     9.3208     11.2764    9.553      4.5496     5.8391     0.062     
2886.809932 4.3344     1.9964     6.0677     9.2129     11.1742    9.5287     4.467      5.8049     0.062     
2886.909932 4.2871     1.9777     5.9676     9.0942     11.058     9.4977     4.414      5.7716     0.063     
2887.009932 4.2408     1.9626     5.8843     8.9763     10.9571    9.4427     4.3773     5.738      0.063     
2887.109932 4.1987     1.9408     5.8008     8.8783     10.8749    9.3745     4.3468     5.7119     0.063     
2887.209932 4.1658     1.9219     5.745      8.7788     10.7902    9.3079     4.3387     5.6775     0.062     
2887.309932 4.1328     1.9234     5.699      8.6741     10.6885    9.238      4.3131     5.642      0.062     
2887.409932 4.0993     1.9251     5.6482     8.5703     10.5774    9.1522     4.2145     5.6118     0.061     
2887.509932 4.0738     1.9102     5.5714     8.4525     10.4714    9.0621     4.1555     5.5816     0.06      
2887.609932 4.0504     1.8946     5.4862     8.326      10.3341    8.9693     4.1477     5.5473     0.059     
2887.709932 4.0184     1.883      5.4322     8.1743     10.1761    8.8734     4.1496     5.5137     0.059     
2887.809932 4.0065     1.8802     5.3813     8.0161     10.0311    8.7827     4.1073     5.4812     0.06      
2887.909932 3.9891     1.871      5.3144     7.8626     9.902      8.6975     4.0902     5.458      0.062     
2888.009932 3.973      1.8668     5.2609     7.721      9.7578     8.608      4.1141     5.4355     0.063     
2888.109932 3.9531     1.8606     5.2364     7.5756     9.6121     8.5151     4.1366     5.4127     0.064     
2888.209932 3.9403     1.8663     5.2242     7.4568     9.4781     8.429      4.1531     5.3951     0.064     
2888.309932 3.9192     1.8697     5.213      7.3486     9.3551     8.3443     4.177      5.3672     0.063     
2888.409932 3.9079     1.87       5.2102     7.2559     9.2302     8.255      4.163      5.3509     0.062     
2888.509931 3.8914     1.8783     5.1952     7.1554     9.0919     8.1702     4.15       5.3283     0.062     
2888.609931 3.8742     1.8728     5.1697     7.0567     8.9372     8.0875     4.1159     5.3116     0.062     
2888.709931 3.8625     1.8792     5.1738     6.95       8.7675     7.9977     4.0818     5.302      0.061     
2888.809931 3.8507     1.8852     5.1831     6.8568     8.5911     7.9047     4.0961     5.2862     0.062     
2888.909931 3.8389     1.8828     5.159      6.7642     8.4359     7.8071     4.1129     5.2688     0.063     
2889.009931 3.8272     1.8718     5.1506     6.682      8.2986     7.71       4.1443     5.2466     0.063     
2889.109931 3.8159     1.872      5.1425     6.6119     8.1762     7.6238     4.1373     5.232      0.062     
2889.209931 3.7997     1.8882     5.1582     6.5611     8.0642     7.5423     4.09       5.2189     0.062     
2889.309931 3.7839     1.8974     5.1678     6.5068     7.9605     7.4507     4.0786     5.2018     0.061     
2889.409931 3.7655     1.9088     5.1945     6.4511     7.853      7.3674     3.9682     5.1955     0.06      
2889.509931 3.7431     1.91       5.1952     6.395      7.7327     7.2953     3.872      5.1845     0.06      
2889.609931 3.7195     1.897      5.1485     6.3367     7.6065     7.228      3.8836     5.173      0.06      
2889.709931 3.698      1.8906     5.1384     6.2674     7.4676     7.1569     3.8754     5.1536     0.061     
2889.809931 3.6823     1.89       5.1218     6.1961     7.3284     7.0701     3.8488     5.1398     0.063     
2889.909931 3.6644     1.8882     5.1126     6.1294     7.1766     6.9756     3.8387     5.0982     0.064     
2890.009931 3.6385     1.8808     5.0966     6.0642     7.0313     6.8884     3.8365     5.0557     0.064     
2890.109931 3.6213     1.885      5.0905     6.0038     6.8773     6.8002     3.7502     4.9585     0.063     
2890.20993 3.6003     1.8896     5.077      5.9296     6.7285     6.7178     3.6716     4.9141     0.063     
2890.30993 3.578      1.8743     5.0249     5.8708     6.5846     6.6331     3.6638     4.8997     0.063     
2890.40993 3.5558     1.8703     4.9837     5.804      6.4432     6.552      3.6848     4.8908     0.062     
2890.50993 3.5366     1.8691     4.9692     5.7314     6.3071     6.4891     3.64       4.89       0.062     
2890.60993 3.5252     1.859      4.9538     5.6673     6.174      6.4397     3.5615     4.8943     0.062     
2890.70993 3.52       1.8448     4.9262     5.6015     6.0514     6.3929     3.4764     4.9155     0.061     
2890.80993 3.5114     1.8227     4.8598     5.5395     5.9407     6.3431     3.4627     4.9354     0.062     
2890.90993 3.51       1.8051     4.8009     5.4805     5.8618     6.3        3.5265     4.9397     0.062     
2891.00993 3.51       1.7926     4.7461     5.4245     5.775      6.2625     3.5993     4.9478     0.062     
