~Version
 VERS              .         2.0                           : CWLS LOG ASCII STANDARD - VERSION 2.0
 WRAP              .         NO                            : ONE LINE PER DEPTH STEP
 DLM               .         SPACE                         : DELIMITING CHARACTER(SPACE TAB OR COMMA)
~Well Information
#_______________________________________________________________________________
#
#PARAMETER_NAME    .UNIT     VALUE                         : DESCRIPTION
#_______________________________________________________________________________
STRT               .m        2774.31                       : First reference value
STOP               .m        2936.209903                   : Last reference value
STEP               .m        0.09999994                    : Step increment
NULL               .         -9999                         : Missing value
COMP               .                                       : Company
WELL               .         303                           : Well name
FLD                .                                       : Field
LOC                .                                       : Location
CNTY               .                                       : County
STAT               .                                       : State
CTRY               .                                       : Country
SRVC               .                                       : Service Company
DATE               .                                       : Date
API                .                                       : API number
EREF               .m        138.34                        : 
Pad                .         3                             : 
X                  .m        219750                        : 
Y                  .m        249950                        : 
group              .         Pad3                          : 
Интер-р            .         Ярышев                        : 
Куст               .         3                             : 
Статус             .         Проверено                     : 
Тип                .         Нагнетательные                : 
~Parameter Information Block
#_______________________________________________________________________________
#
#PARAMETER_NAME    .UNIT     VALUE                         : DESCRIPTION
#_______________________________________________________________________________
SET                .         LAS1                          : 
REAL_CREATION_DATE .         Ср апр 11 2012-13_17_09       : 
TLFamily_DEPTH     .         Measured Depth                : 
TLFamily_KS        .         Potential Resistivity         : 
TLFamily_KS1       .         Extra Shallow Resistivity     : 
TLFamily_KS2       .         Shallow Resistivity           : 
TLFamily_KS3       .         Medium Resistivity            : 
TLFamily_KS4       .         Deep Resistivity              : 
TLFamily_KS5       .         Extra Deep Resistivity        : 
TLFamily_LLD       .         Lateral Log Resistivity       : 
TLFamily_OKS3      .         Medium Resistivity Inverted   : 
TLFamily_RM        .         Mud Resistivity               : 
group              .         INI                           : 
~Curve Information
#_______________________________________________________________________________
#
#LOGNAME           .UNIT     LOG_ID                        : DESCRIPTION
#_______________________________________________________________________________
DEPTH              .m                                      : Measured Depth 
KS                 .ohm.m                                  : Potential Resistivity 
KS1                .ohm.m                                  : Extra Shallow Resistivity 
KS2                .ohm.m                                  : Shallow Resistivity 
KS3                .ohm.m                                  : Medium Resistivity 
KS4                .ohm.m                                  : Deep Resistivity 
KS5                .ohm.m                                  : Extra Deep Resistivity 
LLD                .ohm.m                                  : Lateral Log Resistivity 
OKS3               .ohm.m                                  : Medium Resistivity Inverted 
RM                 .ohm.m                                  : Mud Resistivity 
~Ascii
# ...
2803.509982 5.4716     2.3406     7.8238     11.0285    9.8628     6.7579     6.4354     7.8695     0.064     
2803.609982 5.4072     2.2876     7.6935     11.1354    9.936      6.8148     5.8681     7.9348     0.064     
2803.709982 5.3493     2.2361     7.5124     11.2193    9.9371     6.8542     5.5974     7.9807     0.063     
2803.809982 5.3092     2.2072     7.4247     11.1525    9.869      6.8858     5.5961     7.9953     0.063     
2803.909982 5.2685     2.2005     7.3697     11.0269    9.7917     6.9087     5.7688     8.0138     0.062     
2804.009982 5.2329     2.1875     7.2487     10.9192    9.743      6.8992     5.7755     8.0117     0.062     
2804.109982 5.1987     2.1806     7.1691     10.8284    9.698      6.8834     5.6583     8.0014     0.062     
2804.209982 5.1623     2.18       7.0769     10.7538    9.6437     6.8742     5.6096     8.009      0.061     
2804.309982 5.1197     2.1706     6.9731     10.6608    9.5741     6.87       5.493      8.0113     0.061     
2804.409982 5.0854     2.1592     6.8808     10.5572    9.5151     6.8727     5.4275     8.0213     0.062     
2804.509982 5.0521     2.1508     6.8155     10.4573    9.4585     6.8845     5.3905     8.0393     0.062     
2804.609982 5.0192     2.1456     6.7608     10.2049    9.403      6.9016     5.3704     8.0685     0.063     
2804.709982 4.9945     2.1298     6.699      10.0497    9.3397     6.9194     5.357      8.1004     0.063     
2804.809982 4.9647     2.1146     6.6487     9.9092     9.2849     6.9519     5.3273     8.1696     0.063     
2804.909982 4.9411     2.1033     6.5691     9.7558     9.2599     6.9976     5.2796     8.2479     0.063     
2805.009982 4.9175     2.1078     6.5676     9.6122     9.2334     7.0475     5.2223     8.3407     0.063     
2805.109982 4.8855     2.0928     6.5094     9.4663     9.2003     7.1053     5.2081     8.4595     0.064     
2805.209981 4.8621     2.0894     6.4645     9.3256     9.1869     7.1768     5.1555     8.578      0.065     
2805.309981 4.839      2.0789     6.4295     9.1864     9.1761     7.2597     5.1195     8.6588     0.066     
2805.409981 4.8165     2.0708     6.4054     9.0502     9.1542     7.3484     5.0819     8.683      0.066     
2805.509981 4.7942     2.07       6.4003     8.9122     9.1128     7.437      5.0344     8.6632     0.066     
2805.609981 4.79       2.0579     6.3469     8.763      9.0571     7.5137     4.9517     8.6369     0.066     
2805.709981 4.79       2.0364     6.2801     8.6094     8.9844     7.5922     4.837      8.6304     0.066     
2805.809981 4.8101     2.007      6.143      8.4582     8.8665     7.6626     4.7611     8.651      0.066     
2805.909981 4.8241     1.9584     6.0088     8.3051     8.7304     7.7177     4.7028     8.7043     0.065     
2806.009981 4.8642     1.9501     5.9637     8.1491     8.5899     7.7528     4.6075     8.7967     0.064     
2806.109981 4.8836     1.9292     5.8734     8.0846     8.4815     7.7673     4.678      8.847      0.063     
2806.209981 4.9002     1.9215     5.8882     8.0602     8.4391     7.7671     4.8752     8.8273     0.064     
2806.309981 4.923      2.0083     6.0966     8.0508     8.4069     7.7583     5.4832     8.7849     0.064     
2806.409981 4.9535     2.0559     6.1415     8.0631     8.373      7.751      6.5199     8.7434     0.063     
2806.509981 5.0039     2.0807     6.1488     8.0516     8.3576     7.746      6.3945     8.7086     0.064     
2806.609981 5.0197     2.0893     6.1312     7.9758     8.2069     7.7424     5.7599     8.7093     0.064     
2806.709981 5.0411     2.0821     6.0685     7.887      8.1082     7.755      5.2385     8.8053     0.064     
2806.809981 5.0642     2.0626     5.9897     7.7935     8.0164     7.7944     4.9782     8.9533     0.064     
2806.90998 5.102      2.0311     5.9369     7.6949     7.9391     7.8517     4.9016     9.1482     0.064     
2807.00998 5.1661     1.9874     5.8712     7.6243     7.9053     7.9193     4.8558     9.3673     0.064     
2807.10998 5.2447     1.9378     5.8159     7.5928     7.9248     8.0481     4.8158     9.6051     0.064     
2807.20998 5.3251     1.9022     5.7869     7.6293     8.0632     8.2396     4.9196     9.8563     0.064     
2807.30998 5.3783     1.8767     5.812      7.8126     8.366      8.4471     5.1905     10.0946    0.064     
2807.40998 5.3878     1.9342     6.0906     8.1539     8.7476     8.6169     5.7726     10.2109    0.064     
2807.50998 5.36       2.1389     6.7426     8.5964     9.0857     8.7371     7.4873     10.0995    0.065     
2807.60998 5.3574     2.3794     7.365      9.0101     9.3116     8.8101     11.7894    9.7842     0.065     
2807.70998 5.35       2.5558     7.7445     9.3721     9.4134     8.8178     16.9661    9.3796     0.065     
2807.80998 5.3376     2.5385     7.599      9.5803     9.3295     8.7601     13.4444    8.9334     0.064     
2807.90998 5.2888     2.5185     7.4752     9.5408     9.0481     8.6384     8.3369     8.5372     0.064     
2808.00998 5.2087     2.5033     7.405      9.2836     8.6395     8.4518     6.257      8.3013     0.064     
2808.10998 5.1248     2.449      7.2617     8.9958     8.2362     8.1904     5.4901     8.1953     0.064     
2808.20998 5.0534     2.3466     7.0709     8.7433     7.8559     7.8633     4.9042     8.1642     0.063     
2808.30998 5.0066     2.2468     6.9298     8.5073     7.493      7.5256     4.528      8.1927     0.063     
2808.40998 4.9611     2.1538     6.8016     8.2973     7.1791     7.233      4.4504     8.2714     0.063     
2808.509979 4.9267     2.0924     6.7299     8.1646     6.9397     6.9758     4.5225     8.3057     0.064     
2808.609979 4.9158     2.0517     6.7039     8.045      6.7664     6.7522     4.6858     8.3034     0.064     
2808.709979 4.9049     2.0378     6.649      7.9748     6.6513     6.5684     4.8196     8.3132     0.064     
2808.809979 4.9        2.0269     6.5524     7.9416     6.5841     6.426      4.8826     8.3408     0.064     
2808.909979 4.8931     2.0252     6.4778     7.933      6.5283     6.3149     4.8984     8.3907     0.064     
2809.009979 4.89       2.0348     6.4186     7.946      6.4918     6.2324     4.9313     8.4383     0.063     
2809.109979 4.8997     2.0396     6.3397     7.9744     6.4657     6.1779     5.0137     8.4818     0.063     
2809.209979 4.9113     2.0251     6.2412     8.01       6.4352     6.1322     5.0899     8.5157     0.063     
2809.309979 4.9257     2.0203     6.2001     8.0538     6.4063     6.0972     5.1124     8.5289     0.063     
2809.409979 4.9441     2.0314     6.1983     8.1094     6.3792     6.0632     5.2006     8.5286     0.063     
2809.509979 4.9552     2.0483     6.2042     8.1834     6.3493     6.0256     5.3345     8.5184     0.063     
2809.609979 4.9721     2.05       6.1846     8.2517     6.3172     5.9816     5.3478     8.5033     0.063     
2809.709979 4.9935     2.0453     6.1463     8.3198     6.2852     5.9401     5.2689     8.4912     0.063     
2809.809979 5.0075     2.0405     6.1164     8.3641     6.2529     5.9105     5.2155     8.49       0.062     
2809.909979 5.0271     2.04       6.0928     8.3648     6.232      5.8886     5.2052     8.5277     0.062     
2810.009979 5.0492     2.04       6.1057     8.3168     6.2338     5.8662     5.2057     8.5905     0.062     
2810.109979 5.0722     2.0246     6.0866     8.2496     6.2614     5.843      5.1767     8.6645     0.062     
2810.209978 5.0952     2.0117     6.0862     8.1973     6.3057     5.8318     5.1133     8.7317     0.063     
2810.309978 5.1262     2.0381     6.1545     8.1257     6.363      5.8437     5.2361     8.8104     0.063     
2810.409978 5.1554     2.0421     6.1998     8.1198     6.4868     5.8653     5.4937     8.9076     0.063     
2810.509978 5.1471     2.0149     6.1459     8.2274     6.6851     5.8783     5.5428     8.9858     0.063     
2810.609978 5.1253     2.0597     6.2486     8.3719     6.8325     5.8715     5.5116     8.9598     0.064     
2810.709978 5.0955     2.2252     6.7351     8.499      6.9341     5.8442     6.1529     8.8356     0.065     
