~Version
 VERS              .         2.0                           : CWLS LOG ASCII STANDARD - VERSION 2.0
 WRAP              .         NO                            : ONE LINE PER DEPTH STEP
 DLM               .         SPACE                         : DELIMITING CHARACTER(SPACE TAB OR COMMA)
~Well Information
#_______________________________________________________________________________
#
#PARAMETER_NAME    .UNIT     VALUE                         : DESCRIPTION
#_______________________________________________________________________________
STRT               .m        2359.5                        : First reference value
STOP               .m        2938.199942                   : Last reference value
STEP               .m        0.09999999                    : Step increment
NULL               .         -9999                         : Missing value
COMP               .                                       : Company
WELL               .         303                           : Well name
FLD                .                                       : Field
LOC                .                                       : Location
CNTY               .                                       : County
STAT               .                                       : State
CTRY               .                                       : Country
SRVC               .                                       : Service Company
DATE               .                                       : Date
API                .                                       : API number
EREF               .m        138.34                        : 
Pad                .         3                             : 
X                  .m        219750                        : 
Y                  .m        249950                        : 
group              .         Pad3                          : 
Интер-р            .         Ярышев                        : 
Куст               .         3                             : 
Статус             .         Проверено                     : 
Тип                .         Нагнетательные                : 
~Parameter Information Block
#_______________________________________________________________________________
#
#PARAMETER_NAME    .UNIT     VALUE                         : DESCRIPTION
#_______________________________________________________________________________
SET                .         LAS3                          : 
REAL_CREATION_DATE .         Ср апр 11 2012-13_17_09       : 
TLFamily_DEPTH     .         Measured Depth                : 
TLFamily_GR        .         Gamma Ray                     : 
TLFamily_TNPH      .         Neutron Porosity              : 
group              .         INI                           : 
~Curve Information
#_______________________________________________________________________________
#
#LOGNAME           .UNIT     LOG_ID                        : DESCRIPTION
#_______________________________________________________________________________
DEPTH              .m                                      : Measured Depth 
GR                 .gAPI                                   :  
TNPH               .v/v                                    : Neutron Porosity 
~Ascii
# ...
2903.799946 116.76     0.271     
2903.899946 113.93     0.272     
2903.999946 109.58     0.272     
2904.099946 100.54     0.272     
2904.199946 98.09      0.269     
2904.299946 88.12      0.273     
2904.399946 85.22      0.268     
2904.499945 80.2       0.259     
2904.599945 75.7       0.249     
2904.699945 74.6       0.23      
2904.799945 72.27      0.232     
2904.899945 71.67      0.222     
2904.999945 70.45999   0.214     
2905.099945 68.78      0.21      
2905.199945 69.20999   0.215     
2905.299945 70.71      0.215     
2905.399945 71.73      0.216     
2905.499945 74.23      0.225     
2905.599945 78.03001   0.234     
2905.699945 78.03001   0.239     
2905.799945 78.64999   0.238     
2905.899945 77.91      0.237     
2905.999945 77.25      0.235     
2906.099945 75.69      0.236     
2906.199945 76.34      0.237     
2906.299945 74.67      0.237     
2906.399945 75.74001   0.234     
2906.499945 76.55      0.229     
2906.599945 79.7       0.225     
2906.699945 80.12      0.224     
2906.799945 81.87      0.23      
2906.899945 82.33      0.228     
2906.999945 83.43001   0.234     
2907.099945 85.42      0.242     
2907.199945 86.06      0.249     
2907.299945 87.67      0.253     
2907.399945 89.12      0.254     
2907.499945 90.93001   0.251     
2907.599945 93.87      0.251     
2907.699945 94.24      0.255     
2907.799945 97.57      0.263     
2907.899945 97.99      0.264     
2907.999945 101        0.271     
2908.099945 105.58     0.279     
2908.199945 106.11     0.289     
2908.299945 109.14     0.305     
2908.399945 109.62     0.302     
2908.499945 111.08     0.301     
2908.599945 112.41     0.31      
2908.699945 112.79     0.311     
2908.799945 113.18     0.311     
2908.899945 113.87     0.309     
2908.999945 113.66     0.306     
2909.099945 113.85     0.298     
2909.199945 114.66     0.289     
2909.299945 115.99     0.283     
2909.399945 115.93     0.282     
2909.499945 116.31     0.28      
2909.599945 117.28     0.275     
2909.699945 116.95     0.268     
2909.799945 116.61     0.262     
2909.899945 116.07     0.261     
2909.999945 115.66     0.266     
2910.099945 114.6      0.278     
2910.199945 114.08     0.292     
2910.299945 112.6      0.3       
2910.399945 113.22     0.298     
2910.499945 113.32     0.294     
2910.599945 112.87     0.292     
2910.699945 112.39     0.292     
2910.799945 110.45     0.296     
2910.899945 109.25     0.295     
2910.999945 106.82     0.297     
2911.099945 102.65     0.304     
2911.199945 102.65     0.329     
2911.299945 101.71     0.325     
2911.399945 96.68999   0.342     
2911.499945 94.62      0.364     
2911.599945 89.6       0.388     
2911.699945 80.89      0.439     
2911.799945 76.45      0.413     
2911.899945 63.94      0.434     
2911.999945 58.02      0.464     
2912.099945 46.24      0.495     
2912.199945 27.71      0.516     
2912.299945 23.32      0.5       
2912.399945 13.56      0.482     
2912.499945 13.61      0.471     
2912.599945 13.32      0.462     
2912.699945 14.92      0.445     
2912.799945 14.7       0.45      
2912.899945 16.31      0.442     
2912.999945 16.67      0.435     
2913.099945 19         0.426     
2913.199945 23.74      0.408     
2913.299945 26.53      0.415     
2913.399945 34.17      0.414     
2913.499945 38.29      0.417     
2913.599945 46.34      0.421     
2913.699945 59.2       0.407     
2913.799945 62.71      0.423     
2913.899945 72.58      0.4       
2913.999945 74.97      0.382     
2914.099945 79.93      0.329     
2914.199945 88.39      0.349     
2914.299945 91.42      0.325     
2914.399945 101.41     0.305     
2914.499944 103.61     0.29      
2914.599944 105.41     0.285     
2914.699944 102.93     0.278     
2914.799944 102.09     0.285     
2914.899944 97.04001   0.298     
2914.999944 95.61      0.313     
2915.099944 91.81      0.322     
2915.199944 87.14      0.32      
2915.299944 -9999      0.31      
2915.399944 -9999      0.297     
2915.499944 -9999      0.279     
2915.599944 -9999      0.235     
2915.699944 -9999      0.251     
2915.799944 -9999      0.231     
2915.899944 -9999      0.211     
2915.999944 -9999      0.197     
2916.099944 -9999      0.19      
2916.199944 -9999      0.192     
2916.299944 -9999      0.193     
2916.399944 -9999      0.192     
2916.499944 -9999      0.189     
2916.599944 -9999      0.189     
2916.699944 -9999      0.191     
2916.799944 -9999      0.191     
2916.899944 -9999      0.19      
2916.999944 -9999      0.19      
2917.099944 -9999      0.189     
2917.199944 -9999      0.187     
2917.299944 -9999      0.187     
2917.399944 -9999      0.189     
2917.499944 -9999      0.197     
2917.599944 -9999      0.195     
2917.699944 -9999      0.198     
2917.799944 -9999      0.201     
2917.899944 -9999      0.203     
2917.999944 -9999      0.203     
2918.099944 -9999      0.203     
2918.199944 -9999      0.203     
2918.299944 -9999      0.205     
2918.399944 -9999      0.213     
2918.499944 -9999      0.237     
2918.599944 -9999      0.234     
2918.699944 -9999      0.249     
2918.799944 -9999      0.26      
2918.899944 -9999      0.267     
2918.999944 -9999      0.266     
2919.099944 -9999      0.267     
2919.199944 -9999      0.256     
2919.299944 -9999      0.248     
2919.399944 -9999      0.241     
2919.499944 -9999      0.24      
2919.599944 -9999      0.24      
2919.699944 -9999      0.242     
2919.799944 -9999      0.243     
2919.899944 -9999      0.241     
2919.999944 -9999      0.243     
2920.099944 -9999      0.245     
2920.199944 -9999      0.248     
2920.299944 -9999      0.249     
2920.399944 -9999      0.252     
2920.499944 -9999      0.25      
2920.599944 -9999      0.253     
2920.699944 -9999      0.253     
2920.799944 -9999      0.246     
2920.899944 -9999      0.219     
2920.999944 -9999      0.228     
2921.099944 -9999      0.217     
2921.199944 -9999      0.201     
2921.299944 -9999      0.198     
2921.399944 -9999      0.197     
2921.499944 -9999      0.196     
2921.599944 -9999      0.201     
2921.699944 -9999      0.206     
2921.799944 -9999      0.208     
2921.899944 -9999      0.207     
2921.999944 -9999      0.205     
2922.099944 -9999      0.204     
2922.199944 -9999      0.201     
2922.299944 -9999      0.199     
2922.399944 -9999      0.2       
2922.499944 -9999      0.2       
2922.599944 -9999      0.204     
2922.699944 -9999      0.208     
2922.799944 -9999      0.211     
2922.899944 -9999      0.214     
2922.999944 -9999      0.211     
2923.099944 -9999      0.215     
2923.199944 -9999      0.221     
2923.299944 -9999      0.225     
2923.399944 -9999      0.227     
2923.499944 -9999      0.229     
2923.599944 -9999      0.229     
2923.699944 -9999      0.229     
2923.799944 -9999      0.23      
2923.899944 -9999      0.24      
2923.999944 -9999      0.236     
2924.099944 -9999      0.241     
2924.199944 -9999      0.248     
2924.299944 -9999      0.258     
2924.399944 -9999      0.277     
2924.499943 -9999      0.281     
2924.599943 -9999      0.29      
2924.699943 -9999      0.285     
2924.799943 -9999      0.263     
2924.899943 -9999      0.22      
2924.999943 -9999      0.225     
2925.099943 -9999      0.219     
2925.199943 -9999      0.22      
2925.299943 -9999      0.227     
2925.399943 -9999      0.252     
2925.499943 -9999      0.242     
2925.599943 -9999      0.258     
2925.699943 -9999      0.28      
2925.799943 -9999      0.305     
2925.899943 -9999      0.34      
2925.999943 -9999      0.33      
2926.099943 -9999      0.329     
2926.199943 -9999      0.325     
2926.299943 -9999      0.315     
2926.399943 -9999      0.288     
2926.499943 -9999      0.292     
2926.599943 -9999      0.282     
2926.699943 -9999      0.282     
2926.799943 -9999      0.29      
2926.899943 -9999      0.3       
2926.999943 -9999      0.296     
2927.099943 -9999      0.288     
2927.199943 -9999      0.282     
2927.299943 -9999      0.277     
