~Version
 VERS              .         2.0                           : CWLS LOG ASCII STANDARD - VERSION 2.0
 WRAP              .         NO                            : ONE LINE PER DEPTH STEP
 DLM               .         SPACE                         : DELIMITING CHARACTER(SPACE TAB OR COMMA)
~Well Information
#_______________________________________________________________________________
#
#PARAMETER_NAME    .UNIT     VALUE                         : DESCRIPTION
#_______________________________________________________________________________
STRT               .m        2359.5                        : First reference value
STOP               .m        2938.199942                   : Last reference value
STEP               .m        0.09999999                    : Step increment
NULL               .         -9999                         : Missing value
COMP               .                                       : Company
WELL               .         303                           : Well name
FLD                .                                       : Field
LOC                .                                       : Location
CNTY               .                                       : County
STAT               .                                       : State
CTRY               .                                       : Country
SRVC               .                                       : Service Company
DATE               .                                       : Date
API                .                                       : API number
EREF               .m        138.34                        : 
Pad                .         3                             : 
X                  .m        219750                        : 
Y                  .m        249950                        : 
group              .         Pad3                          : 
Интер-р            .         Ярышев                        : 
Куст               .         3                             : 
Статус             .         Проверено                     : 
Тип                .         Нагнетательные                : 
~Parameter Information Block
#_______________________________________________________________________________
#
#PARAMETER_NAME    .UNIT     VALUE                         : DESCRIPTION
#_______________________________________________________________________________
SET                .         LAS3                          : 
REAL_CREATION_DATE .         Ср апр 11 2012-13_17_09       : 
TLFamily_DEPTH     .         Measured Depth                : 
TLFamily_GR        .         Gamma Ray                     : 
TLFamily_TNPH      .         Neutron Porosity              : 
group              .         INI                           : 
~Curve Information
#_______________________________________________________________________________
#
#LOGNAME           .UNIT     LOG_ID                        : DESCRIPTION
#_______________________________________________________________________________
DEPTH              .m                                      : Measured Depth 
GR                 .gAPI                                   :  
TNPH               .v/v                                    : Neutron Porosity 
~Ascii
# ...
2761.89996 64.85      -9999     
2761.99996 64.77      -9999     
2762.09996 63.28      0.326     
2762.19996 62.31      0.322     
2762.29996 61.65      0.324     
2762.39996 60.93      0.326     
2762.49996 60.48      0.331     
2762.59996 59.64      0.336     
2762.69996 59.55      0.339     
2762.79996 59.66      0.338     
2762.89996 60.64      0.334     
2762.99996 61.32      0.328     
2763.09996 61.67      0.321     
2763.19996 61.8       0.316     
2763.29996 61.15      0.319     
2763.39996 61.29      0.318     
2763.49996 61.43      0.316     
2763.59996 61.91      0.314     
2763.69996 62.26      0.312     
2763.79996 62.04      0.313     
2763.89996 61.89999   0.314     
2763.99996 62.18      0.315     
2764.09996 62.88      0.316     
2764.19996 63.03001   0.315     
2764.29996 63.32      0.315     
2764.39996 62.84      0.317     
2764.499959 62.39      0.323     
2764.599959 62.72      0.325     
2764.699959 62.2       0.312     
2764.799959 62.44      0.308     
2764.899959 63.14999   0.299     
2764.999959 63.02      0.297     
2765.099959 61.58      0.299     
2765.199959 61.73      0.297     
2765.299959 62.25      0.296     
2765.399959 61.7       0.292     
2765.499959 61.42      0.289     
2765.599959 61.2       0.286     
2765.699959 60.71      0.278     
2765.799959 62.41      0.28      
2765.899959 63.07999   0.277     
2765.999959 64.43      0.276     
2766.099959 65.23      0.281     
2766.199959 65.17999   0.295     
2766.299959 64.83      0.296     
2766.399959 64.46999   0.297     
2766.499959 64.11      0.293     
2766.599959 64.1       0.287     
2766.699959 65.31      0.285     
2766.799959 66.14      0.288     
2766.899959 67.28      0.292     
2766.999959 67.62      0.293     
2767.099959 68.73      0.294     
2767.199959 68.44      0.302     
2767.299959 70.25      0.301     
2767.399959 70.11      0.306     
2767.499959 70.08      0.305     
2767.599959 68.45      0.299     
2767.699959 67.63      0.292     
2767.799959 67.32001   0.289     
2767.899959 67.77      0.287     
2767.999959 69.38      0.282     
2768.099959 71.82999   0.279     
2768.199959 71.75      0.284     
2768.299959 71.31      0.284     
2768.399959 70.71999   0.297     
2768.499959 69.38      0.312     
2768.599959 67.3       0.324     
2768.699959 67.02      0.338     
2768.799959 64.62      0.336     
2768.899959 63.97      0.344     
2768.999959 62.67      0.35      
2769.099959 61.48      0.35      
2769.199959 62.15      0.342     
2769.299959 62.57      0.336     
2769.399959 63.82      0.331     
2769.499959 64.18999   0.334     
2769.599959 64.53      0.345     
2769.699959 64.43      0.359     
2769.799959 64.06999   0.36      
2769.899959 63.77      0.355     
2769.999959 62.8       0.346     
2770.099959 63.89      0.338     
2770.199959 63.4       0.332     
2770.299959 63.68      0.329     
2770.399959 63.49      0.323     
2770.499959 62.95      0.312     
2770.599959 62.28      0.299     
2770.699959 62.79      0.289     
2770.799959 63.05      0.287     
2770.899959 63.55      0.293     
2770.999959 64.03      0.303     
2771.099959 63.14999   0.311     
2771.199959 63.04      0.313     
2771.299959 60.64      0.315     
2771.399959 59.3       0.318     
2771.499959 57.43      0.326     
2771.599959 54.63      0.333     
2771.699959 52.81      0.329     
2771.799959 50.86      0.329     
2771.899959 50.84      0.323     
2771.999959 52.4       0.321     
2772.099959 56.27      0.323     
2772.199959 60.22      0.334     
2772.299959 71.99001   0.336     
2772.399959 77.8       0.342     
2772.499959 89.12      0.343     
2772.599959 104.05     0.334     
2772.699959 106.39     0.29      
2772.799959 111.1      0.306     
2772.899959 111.88     0.291     
2772.999959 112.8      0.282     
2773.099959 112.28     0.277     
2773.199959 112.13     0.262     
2773.299959 111.48     0.27      
2773.399959 111.12     0.264     
2773.499959 111.48     0.257     
2773.599959 110.9      0.252     
2773.699959 109.85     0.253     
2773.799959 108.95     0.259     
2773.899959 107.99     0.269     
2773.999959 106.51     0.277     
2774.099959 106.37     0.28      
2774.199959 103.75     0.279     
2774.299959 103.16     0.281     
2774.399959 101.24     0.278     
2774.499959 98.78999   0.275     
2774.599958 97.25      0.269     
2774.699958 95.17      0.251     
2774.799958 94.64      0.25      
2774.899958 94.57      0.237     
2774.999958 94.96001   0.229     
2775.099958 94.99      0.229     
2775.199958 94.75999   0.233     
2775.299958 94.66      0.236     
2775.399958 95.53001   0.238     
2775.499958 96.75999   0.236     
2775.599958 97.52      0.23      
2775.699958 97.47      0.222     
2775.799958 97.62      0.226     
2775.899958 97.64      0.228     
2775.999958 96.93      0.23      
2776.099958 96.89      0.229     
2776.199958 95.03999   0.222     
2776.299958 93.87      0.222     
2776.399958 92.76      0.221     
2776.499958 92.71      0.223     
2776.599958 93.3       0.225     
2776.699958 96.8       0.23      
2776.799958 97.31      0.228     
2776.899958 99.75      0.234     
2776.999958 99.59      0.239     
2777.099958 98.83      0.238     
2777.199958 92.56      0.226     
2777.299958 91.04      0.227     
2777.399958 87.35      0.222     
2777.499958 84.41      0.218     
2777.599958 84.28001   0.215     
2777.699958 86.61      0.211     
2777.799958 86.95      0.21      
2777.899958 89.35001   0.21      
2777.999958 92.91      0.211     
2778.099958 94.14      0.211     
2778.199958 95.34      0.207     
2778.299958 94.25999   0.207     
2778.399958 91.22      0.203     
2778.499958 82.91      0.197     
2778.599958 80.60001   0.189     
2778.699958 69.79      0.165     
2778.799958 67.06001   0.174     
2778.899958 61.44      0.165     
2778.999958 56.8       0.156     
2779.099958 55.42      0.145     
2779.199958 55.01      0.128     
2779.299958 55.27      0.131     
2779.399958 55.8       0.126     
2779.499958 57.27      0.126     
2779.599958 58.89      0.132     
2779.699958 62.68      0.152     
2779.799958 63.78      0.145     
2779.899958 66.66      0.163     
2779.999958 73.14999   0.172     
2780.099958 75.43      0.188     
2780.199958 84.85      0.212     
2780.299958 87.43      0.203     
2780.399958 94.32      0.209     
2780.499958 103.9      0.216     
2780.599958 106.4      0.226     
2780.699958 111.4      0.243     
2780.799958 112.08     0.244     
2780.899958 112.88     0.258     
2780.999958 114.37     0.262     
2781.099958 115.08     0.263     
2781.199958 116.23     0.263     
2781.299958 116.77     0.259     
2781.399958 116.02     0.251     
2781.499958 112.53     0.238     
2781.599958 112.63     0.233     
2781.699958 110.45     0.225     
2781.799958 111.55     0.219     
2781.899958 111.69     0.219     
2781.999958 111.57     0.228     
2782.099958 112.13     0.232     
2782.199958 113.83     0.238     
2782.299958 113.6      0.238     
2782.399958 113.28     0.231     
2782.499958 111.6      0.214     
2782.599958 109.85     0.218     
2782.699958 105.56     0.213     
2782.799958 104.14     0.208     
2782.899958 102.12     0.203     
2782.999958 101.63     0.199     
2783.099958 101.94     0.198     
2783.199958 101.82     0.198     
2783.299958 101.53     0.198     
2783.399958 100.63     0.198     
2783.499958 98.33      0.186     
2783.599958 96.65      0.194     
2783.699958 91.35001   0.187     
2783.799958 88.09      0.179     
2783.899958 83.11      0.171     
2783.999958 75.19      0.158     
2784.099958 73.88      0.158     
2784.199958 70.45999   0.154     
2784.299958 70.56      0.156     
2784.399958 71.68      0.17      
2784.499958 76.61      0.214     
2784.599957 80         0.205     
2784.699957 90.17999   0.22      
2784.799957 94.94      0.233     
2784.899957 102.88     0.245     
2784.999957 112.1      0.258     
2785.099957 114.52     0.257     
2785.199957 120.48     0.256     
2785.299957 120.24     0.251     
2785.399957 121.38     0.241     
2785.499957 120.46     0.217     
