~Version
 VERS              .         2.0                           : CWLS LOG ASCII STANDARD - VERSION 2.0
 WRAP              .         NO                            : ONE LINE PER DEPTH STEP
 DLM               .         SPACE                         : DELIMITING CHARACTER(SPACE TAB OR COMMA)
~Well Information
#_______________________________________________________________________________
#
#PARAMETER_NAME    .UNIT     VALUE                         : DESCRIPTION
#_______________________________________________________________________________
STRT               .m        2774.31                       : First reference value
STOP               .m        2936.209903                   : Last reference value
STEP               .m        0.09999994                    : Step increment
NULL               .         -9999                         : Missing value
COMP               .                                       : Company
WELL               .         303                           : Well name
FLD                .                                       : Field
LOC                .                                       : Location
CNTY               .                                       : County
STAT               .                                       : State
CTRY               .                                       : Country
SRVC               .                                       : Service Company
DATE               .                                       : Date
API                .                                       : API number
EREF               .m        138.34                        : 
Pad                .         3                             : 
X                  .m        219750                        : 
Y                  .m        249950                        : 
group              .         Pad3                          : 
Интер-р            .         Ярышев                        : 
Куст               .         3                             : 
Статус             .         Проверено                     : 
Тип                .         Нагнетательные                : 
~Parameter Information Block
#_______________________________________________________________________________
#
#PARAMETER_NAME    .UNIT     VALUE                         : DESCRIPTION
#_______________________________________________________________________________
SET                .         LAS1                          : 
REAL_CREATION_DATE .         Ср апр 11 2012-13_17_09       : 
TLFamily_DEPTH     .         Measured Depth                : 
TLFamily_KS        .         Potential Resistivity         : 
TLFamily_KS1       .         Extra Shallow Resistivity     : 
TLFamily_KS2       .         Shallow Resistivity           : 
TLFamily_KS3       .         Medium Resistivity            : 
TLFamily_KS4       .         Deep Resistivity              : 
TLFamily_KS5       .         Extra Deep Resistivity        : 
TLFamily_LLD       .         Lateral Log Resistivity       : 
TLFamily_OKS3      .         Medium Resistivity Inverted   : 
TLFamily_RM        .         Mud Resistivity               : 
group              .         INI                           : 
~Curve Information
#_______________________________________________________________________________
#
#LOGNAME           .UNIT     LOG_ID                        : DESCRIPTION
#_______________________________________________________________________________
DEPTH              .m                                      : Measured Depth 
KS                 .ohm.m                                  : Potential Resistivity 
KS1                .ohm.m                                  : Extra Shallow Resistivity 
KS2                .ohm.m                                  : Shallow Resistivity 
KS3                .ohm.m                                  : Medium Resistivity 
KS4                .ohm.m                                  : Deep Resistivity 
KS5                .ohm.m                                  : Extra Deep Resistivity 
LLD                .ohm.m                                  : Lateral Log Resistivity 
OKS3               .ohm.m                                  : Medium Resistivity Inverted 
RM                 .ohm.m                                  : Mud Resistivity 
~Ascii
# ...
2810.809978 5.081      2.3363     7.1037     8.6332     7.0059     5.7711     7.9924     8.6714     0.066     
2810.909978 5.07       2.3292     7.0007     8.7196     7.0025     5.6618     8.6349     8.5036     0.067     
2811.009978 5.0658     2.2963     6.8487     8.6421     6.8653     5.5769     6.7204     8.3634     0.067     
2811.109978 5.0259     2.2544     6.6967     8.4458     6.7079     5.4693     5.4105     8.2898     0.067     
2811.209978 4.9725     2.2167     6.5732     8.261      6.5763     5.3272     4.9276     8.2961     0.066     
2811.309978 4.9381     2.1667     6.5125     8.1155     6.4821     5.1759     4.817      8.317      0.066     
2811.409978 4.9085     2.1304     6.4809     8.0075     6.4324     5.0397     4.8706     8.344      0.067     
2811.509978 4.8835     2.0903     6.4119     7.9313     6.4028     4.9194     4.9872     8.3831     0.066     
2811.609978 4.862      2.0716     6.4159     7.8698     6.4024     4.8237     5.0155     8.4284     0.065     
2811.709978 4.8503     2.0626     6.4377     7.8181     6.4182     4.7516     5.0198     8.4922     0.064     
2811.809978 4.84       2.0521     6.4042     7.7742     6.4454     4.688      4.9968     8.5735     0.064     
2811.909977 4.84       2.0414     6.3207     7.7226     6.4448     4.6362     4.9464     8.6828     0.064     
2812.009977 4.84       2.0218     6.2118     7.6589     6.4084     4.5959     4.9612     8.8029     0.064     
2812.109977 4.8441     2.0096     6.1177     7.6012     6.3489     4.5611     4.9961     8.9458     0.064     
2812.209977 4.8556     2.0008     6.057      7.5565     6.2888     4.5389     5.0278     9.1064     0.064     
2812.309977 4.867      1.9963     5.9966     7.5249     6.2323     4.5266     5.0742     9.2579     0.064     
2812.409977 4.8784     1.9906     5.9486     7.5112     6.1877     4.5208     5.0886     9.3849     0.065     
2812.509977 4.8895     1.99       5.9317     7.51       6.1564     4.5279     5.1383     9.5248     0.065     
2812.609977 4.9103     1.9975     5.9205     7.5166     6.1375     4.548      5.2017     9.7091     0.065     
2812.709977 4.9236     1.9913     5.8978     7.5271     6.1352     4.5827     5.2508     9.8824     0.065     
2812.809977 4.9541     1.9898     5.8628     7.538      6.1395     4.6374     5.1922     10.0443    0.064     
2812.909977 4.9792     1.981      5.8292     7.5579     6.1524     4.715      5.0996     10.2265    0.064     
2813.009977 5.0134     1.9782     5.8106     7.5677     6.1966     4.8115     5.0584     10.4345    0.063     
2813.109977 5.048      1.9653     5.7694     7.5583     6.2705     4.9222     5.0518     10.6693    0.063     
2813.209977 5.0976     1.9474     5.759      7.5586     6.4057     5.0483     5.038      10.9163    0.062     
2813.309977 5.1461     1.9459     5.794      7.5956     6.5833     5.1839     5.0572     11.2045    0.062     
2813.409977 5.1911     1.9564     5.855      7.6825     6.7912     5.3165     5.1805     11.4787    0.061     
2813.509976 5.2436     1.9598     5.908      7.8062     7.0167     5.4423     5.354      11.6955    0.061     
2813.609976 5.3058     1.9967     6.0205     7.9353     7.2279     5.5601     5.6962     11.8343    0.061     
2813.709976 5.3704     2.0311     6.1332     8.0544     7.3977     5.6689     6.1567     11.8846    0.061     
2813.809976 5.4565     2.0541     6.2065     8.1247     7.5232     5.7629     6.3081     11.8478    0.062     
2813.909976 5.5392     2.0652     6.2122     8.1661     7.5959     5.8406     6.3003     11.7981    0.062     
2814.009976 5.6242     2.0729     6.2215     8.1603     7.6179     5.9195     6.0155     11.7607    0.063     
2814.109976 5.7243     2.0732     6.1968     8.0996     7.5999     5.9962     5.8733     11.718     0.063     
2814.209976 5.8478     2.0491     6.1347     8.0252     7.5982     6.0526     5.8105     11.6721    0.063     
2814.309976 5.9271     2.0109     6.0384     8.0333     7.6885     6.1078     6.0251     11.7095    0.063     
2814.409976 5.9969     1.9566     6.0104     8.1164     7.8116     6.1836     6.5255     11.6925    0.064     
2814.509976 6.0846     2.0783     6.3927     8.2069     7.9179     6.2675     8.0023     11.5616    0.065     
2814.609976 6.1759     2.2346     6.798      8.3091     8.1022     6.3472     9.22       11.4583    0.066     
2814.709976 6.2307     2.2075     6.7872     8.5956     8.3582     6.4326     8.0417     11.3906    0.066     
2814.809976 6.2743     2.1927     6.7628     8.8209     8.5149     6.5245     7.6492     11.1981    0.065     
2814.909976 6.29       2.3054     7.2979     8.9652     8.6467     6.5864     9.396      10.9619    0.066     
2815.009976 6.2732     2.4227     7.5736     9.1796     8.8189     6.5951     10.4369    10.7593    0.067     
2815.109976 6.2404     2.4801     7.7983     9.4934     8.9887     6.5842     9.1165     10.5619    0.065     
2815.209975 6.214      2.4985     7.9527     9.712      9.0028     6.5716     8.1222     10.2693    0.065     
2815.309975 6.1643     2.5623     8.2024     9.8628     8.9396     6.5413     7.6142     10.0501    0.064     
2815.409975 6.0991     2.5929     8.3031     9.9264     8.8387     6.4819     6.9993     9.8984     0.064     
2815.509975 6.0285     2.5527     8.2407     9.9993     8.7212     6.4096     6.4365     9.793      0.064     
2815.609975 5.9637     2.4889     8.1653     10.0277    8.562      6.3395     6.2041     9.6869     0.064     
2815.709975 5.8997     2.4622     8.1634     10.0471    8.3838     6.2687     6.3161     9.5932     0.064     
2815.809975 5.8284     2.4491     8.1996     10.1221    8.2682     6.1818     6.4664     9.529      0.064     
2815.909975 5.7589     2.4227     8.0848     10.2294    8.165      6.1043     6.3539     9.4646     0.065     
2816.009975 5.7009     2.4375     8.1516     10.3065    8.0492     6.0418     6.4651     9.3982     0.065     
2816.109975 5.6451     2.4336     8.1687     10.3655    7.9254     5.9852     6.3267     9.325      0.065     
2816.209975 5.5987     2.4038     8.0154     10.3968    7.795      5.9219     5.9405     9.2683     0.065     
2816.309975 5.5574     2.3776     7.8617     10.3375    7.6317     5.8509     5.7503     9.2193     0.065     
2816.409975 5.5239     2.3334     7.6723     10.2497    7.4764     5.7725     5.5002     9.24       0.065     
2816.509975 5.5036     2.284      7.4696     10.158     7.331      5.688      5.2501     9.2952     0.064     
2816.609975 5.4782     2.2335     7.2633     10.0765    7.2189     5.6031     5.1692     9.3951     0.064     
2816.709975 5.4537     2.1945     7.1186     10.0382    7.1515     5.5314     5.2407     9.5063     0.064     
2816.809974 5.432      2.1811     7.0827     10.036     7.1135     5.475      5.496      9.5869     0.064     
2816.909974 5.4201     2.1946     7.1184     10.0396    7.1045     5.4342     5.8333     9.6458     0.063     
2817.009974 5.4313     2.1915     7.0575     10.0174    7.0994     5.4017     5.8706     9.6811     0.062     
2817.109974 5.44       2.1722     6.956      10.0283    7.1251     5.3746     5.7469     9.7054     0.062     
2817.209974 5.44       2.1453     6.8534     10.0633    7.1591     5.3585     5.7894     9.7008     0.061     
2817.309974 5.44       2.1765     6.9034     10.0319    7.1936     5.3394     6.1159     9.7085     0.061     
2817.409974 5.4473     2.221      6.9878     9.9808     7.2556     5.3154     6.1313     9.7395     0.062     
2817.509974 5.45       2.1989     6.8841     9.9658     7.3464     5.2993     5.7658     9.7709     0.062     
2817.609974 5.4593     2.1816     6.8026     9.9115     7.4131     5.2826     5.774      9.7869     0.063     
2817.709974 5.47       2.1951     6.8263     9.8071     7.4653     5.2694     6.0033     9.8077     0.064     
2817.809974 5.4708     2.1997     6.8647     9.7371     7.5561     5.2509     5.9557     9.8292     0.065     
2817.909974 5.4818     2.182      6.8031     9.6751     7.6499     5.2267     5.8745     9.8462     0.066     
2818.009974 5.49       2.1814     6.8287     9.6079     7.7296     5.1968     5.964      9.8778     0.066     
