~Version
 VERS              .         2.0                           : CWLS LOG ASCII STANDARD - VERSION 2.0
 WRAP              .         NO                            : ONE LINE PER DEPTH STEP
 DLM               .         SPACE                         : DELIMITING CHARACTER(SPACE TAB OR COMMA)
~Well Information
#_______________________________________________________________________________
#
#PARAMETER_NAME    .UNIT     VALUE                         : DESCRIPTION
#_______________________________________________________________________________
STRT               .m        2359.5                        : First reference value
STOP               .m        2938.199942                   : Last reference value
STEP               .m        0.09999999                    : Step increment
NULL               .         -9999                         : Missing value
COMP               .                                       : Company
WELL               .         303                           : Well name
FLD                .                                       : Field
LOC                .                                       : Location
CNTY               .                                       : County
STAT               .                                       : State
CTRY               .                                       : Country
SRVC               .                                       : Service Company
DATE               .                                       : Date
API                .                                       : API number
EREF               .m        138.34                        : 
Pad                .         3                             : 
X                  .m        219750                        : 
Y                  .m        249950                        : 
group              .         Pad3                          : 
Интер-р            .         Ярышев                        : 
Куст               .         3                             : 
Статус             .         Проверено                     : 
Тип                .         Нагнетательные                : 
~Parameter Information Block
#_______________________________________________________________________________
#
#PARAMETER_NAME    .UNIT     VALUE                         : DESCRIPTION
#_______________________________________________________________________________
SET                .         LAS3                          : 
REAL_CREATION_DATE .         Ср апр 11 2012-13_17_09       : 
TLFamily_DEPTH     .         Measured Depth                : 
TLFamily_GR        .         Gamma Ray                     : 
TLFamily_TNPH      .         Neutron Porosity              : 
group              .         INI                           : 
~Curve Information
#_______________________________________________________________________________
#
#LOGNAME           .UNIT     LOG_ID                        : DESCRIPTION
#_______________________________________________________________________________
DEPTH              .m                                      : Measured Depth 
GR                 .gAPI                                   :  
TNPH               .v/v                                    : Neutron Porosity 
~Ascii
# ...
2856.39995 152.64     0.309     
2856.49995 154.66     0.31      
2856.59995 154.99     0.312     
2856.69995 157.18     0.322     
2856.79995 157.88     0.32      
2856.89995 158.62     0.326     
2856.99995 160.01     0.334     
2857.09995 161.43     0.338     
2857.19995 163.01     0.331     
2857.29995 161.94     0.329     
2857.39995 159.66     0.319     
2857.49995 156.98     0.313     
2857.59995 154.79     0.312     
2857.69995 151.74     0.318     
2857.79995 149.58     0.314     
2857.89995 148.02     0.315     
2857.99995 145.49     0.313     
2858.09995 145.48     0.31      
2858.19995 142.42     0.303     
2858.29995 142.9      0.303     
2858.39995 143.22     0.299     
2858.49995 146.53     0.295     
2858.59995 146.8      0.294     
2858.69995 152.08     0.299     
2858.79995 152.33     0.296     
2858.89995 155.07     0.3       
2858.99995 155.51     0.305     
2859.09995 155.92     0.31      
2859.19995 150.35     0.314     
2859.29995 149.87     0.314     
2859.39995 146.64     0.317     
2859.49995 140.31     0.321     
2859.59995 139.73     0.323     
2859.69995 135.77     0.323     
2859.79995 134.32     0.322     
2859.89995 133.84     0.323     
2859.99995 134.87     0.326     
2860.09995 135.55     0.326     
2860.19995 137.49     0.314     
2860.29995 137.31     0.315     
2860.39995 138.16     0.307     
2860.49995 141.33     0.305     
2860.59995 140.94     0.308     
2860.69995 143.16     0.322     
2860.79995 143.87     0.322     
2860.89995 143.96     0.331     
2860.99995 143.56     0.339     
2861.09995 142.37     0.342     
2861.19995 144.63     0.334     
2861.29995 145.63     0.334     
2861.39995 146.77     0.327     
2861.49995 143.02     0.311     
2861.59995 143.01     0.293     
2861.69995 143.23     0.291     
2861.79995 143.24     0.285     
2861.89995 144.43     0.282     
2861.99995 144.72     0.282     
2862.09995 143.65     0.285     
2862.19995 142.19     0.286     
2862.29995 141.79     0.291     
2862.39995 142.02     0.297     
2862.49995 142.6      0.304     
2862.59995 143.03     0.311     
2862.69995 142.5      0.314     
2862.79995 142.56     0.321     
2862.89995 142.33     0.33      
2862.99995 143.29     0.336     
2863.09995 144.51     0.324     
2863.19995 146.52     0.325     
2863.29995 146.22     0.313     
2863.39995 145.05     0.303     
2863.49995 141.8      0.291     
2863.59995 141.84     0.271     
2863.69995 137.69     0.27      
2863.79995 137.63     0.262     
2863.89995 134.49     0.254     
2863.99995 128.1      0.243     
2864.09995 124.65     0.219     
2864.19995 113.16     0.231     
2864.29995 106.81     0.227     
2864.39995 96.48      0.224     
2864.49995 85.06      0.219     
2864.599949 84.43      0.211     
2864.699949 87.49      0.206     
2864.799949 92.12      0.203     
2864.899949 102.18     0.205     
2864.999949 119.96     0.214     
2865.099949 124.44     0.249     
2865.199949 136.33     0.237     
2865.299949 138.98     0.257     
2865.399949 143.37     0.277     
2865.499949 147.1      0.295     
2865.599949 148.68     0.311     
2865.699949 149.76     0.315     
2865.799949 149.93     0.313     
2865.899949 149.63     0.304     
2865.999949 148.74     0.294     
2866.099949 148.14     0.297     
2866.199949 149.22     0.3       
2866.299949 149.94     0.315     
2866.399949 153.27     0.326     
2866.499949 158.22     0.326     
2866.599949 158.81     0.317     
2866.699949 160.7      0.316     
2866.799949 159.48     0.313     
2866.899949 158.92     0.311     
2866.999949 158.71     0.308     
2867.099949 159.04     0.305     
2867.199949 157.89     0.305     
2867.299949 157.6      0.308     
2867.399949 155.24     0.315     
2867.499949 151.35     0.323     
2867.599949 150.12     0.332     
2867.699949 145.48     0.333     
2867.799949 143.83     0.33      
2867.899949 140.66     0.323     
2867.999949 137.55     0.313     
2868.099949 136.55     0.304     
2868.199949 136.01     0.304     
2868.299949 135.85     0.302     
2868.399949 138.55     0.298     
2868.499949 141.95     0.288     
2868.599949 143.36     0.276     
2868.699949 141.75     0.275     
2868.799949 141.57     0.277     
2868.899949 141.04     0.283     
2868.999949 141.29     0.286     
2869.099949 141.7      0.278     
2869.199949 141.14     0.279     
2869.299949 141.45     0.276     
2869.399949 140.6      0.275     
2869.499949 139.24     0.276     
2869.599949 137.67     0.28      
2869.699949 135.3      0.28      
2869.799949 134.87     0.283     
2869.899949 134.24     0.284     
2869.999949 134.45     0.285     
2870.099949 133.88     0.294     
2870.199949 134.55     0.29      
2870.299949 134.82     0.296     
2870.399949 136.84     0.301     
2870.499949 140.71     0.304     
2870.599949 141.58     0.307     
2870.699949 143.14     0.308     
2870.799949 142.91     0.311     
2870.899949 142.68     0.316     
2870.999949 142.8      0.323     
2871.099949 143.07     0.332     
2871.199949 144.59     0.332     
2871.299949 145.82     0.331     
2871.399949 146.75     0.326     
2871.499949 147.8      0.315     
2871.599949 146.77     0.292     
2871.699949 145.62     0.29      
2871.799949 143.96     0.287     
2871.899949 142.2      0.29      
2871.999949 138.99     0.292     
2872.099949 138.46     0.287     
2872.199949 136.37     0.284     
2872.299949 135.71     0.278     
2872.399949 135.86     0.272     
2872.499949 136.42     0.271     
2872.599949 137.49     0.277     
2872.699949 139.25     0.279     
2872.799949 140.61     0.288     
2872.899949 142.63     0.295     
2872.999949 145.23     0.302     
2873.099949 146.28     0.31      
2873.199949 143.84     0.315     
2873.299949 143.09     0.315     
2873.399949 139.13     0.311     
2873.499949 133.25     0.302     
2873.599949 130.18     0.278     
2873.699949 123.68     0.285     
2873.799949 121.55     0.272     
2873.899949 117.09     0.258     
2873.999949 109.71     0.242     
2874.099949 106.88     0.216     
2874.199949 103.12     0.219     
2874.299949 102.03     0.213     
2874.399949 101.88     0.211     
2874.499948 100.92     0.21      
2874.599948 102.46     0.2       
2874.699948 106.75     0.203     
2874.799948 110.87     0.194     
2874.899948 120.22     0.187     
2874.999948 139.17     0.186     
2875.099948 146.15     0.191     
2875.199948 169.05     0.191     
2875.299948 174.53     0.194     
2875.399948 184.51     0.195     
2875.499948 187.37     0.195     
2875.599948 180.39     0.189     
2875.699948 151.41     0.195     
2875.799948 136.65     0.193     
2875.899948 108.17     0.189     
2875.999948 71.72      0.184     
2876.099948 65.31999   0.176     
2876.199948 51.29      0.177     
2876.299948 48.85      0.173     
2876.399948 45.78      0.17      
2876.499948 43.67      0.167     
2876.599948 43.66      0.166     
2876.699948 43.45      0.165     
2876.799948 43.59      0.164     
2876.899948 43.53      0.162     
2876.999948 43.34      0.16      
2877.099948 44.25      0.16      
2877.199948 44.26      0.16      
2877.299948 45.66      0.163     
2877.399948 46.37      0.166     
2877.499948 46.39      0.165     
2877.599948 45.66      0.16      
2877.699948 44.35      0.161     
2877.799948 42.73      0.159     
2877.899948 42.11      0.157     
2877.999948 42.52      0.155     
2878.099948 42.85      0.15      
2878.199948 44.32      0.15      
2878.299948 44.61      0.148     
2878.399948 45.29      0.148     
2878.499948 46.23      0.148     
2878.599948 46.58      0.149     
2878.699948 49.33      0.15      
2878.799948 49.94      0.149     
2878.899948 51.36      0.146     
2878.999948 52.6       0.145     
2879.099948 52.37      0.147     
2879.199948 52.73      0.148     
2879.299948 52.44      0.154     
2879.399948 52.3       0.158     
2879.499948 50.64      0.159     
2879.599948 50.51      0.157     
2879.699948 48.5       0.156     
2879.799948 48.03      0.154     
2879.899948 47.86      0.153     
2879.999948 47.81      0.155     
2880.099948 48         0.162     
