~Version
 VERS              .         2.0                           : CWLS LOG ASCII STANDARD - VERSION 2.0
 WRAP              .         NO                            : ONE LINE PER DEPTH STEP
 DLM               .         SPACE                         : DELIMITING CHARACTER(SPACE TAB OR COMMA)
~Well Information
#_______________________________________________________________________________
#
#PARAMETER_NAME    .UNIT     VALUE                         : DESCRIPTION
#_______________________________________________________________________________
STRT               .m        2774.31                       : First reference value
STOP               .m        2936.209903                   : Last reference value
STEP               .m        0.09999994                    : Step increment
NULL               .         -9999                         : Missing value
COMP               .                                       : Company
WELL               .         303                           : Well name
FLD                .                                       : Field
LOC                .                                       : Location
CNTY               .                                       : County
STAT               .                                       : State
CTRY               .                                       : Country
SRVC               .                                       : Service Company
DATE               .                                       : Date
API                .                                       : API number
EREF               .m        138.34                        : 
Pad                .         3                             : 
X                  .m        219750                        : 
Y                  .m        249950                        : 
group              .         Pad3                          : 
Интер-р            .         Ярышев                        : 
Куст               .         3                             : 
Статус             .         Проверено                     : 
Тип                .         Нагнетательные                : 
~Parameter Information Block
#_______________________________________________________________________________
#
#PARAMETER_NAME    .UNIT     VALUE                         : DESCRIPTION
#_______________________________________________________________________________
SET                .         LAS1                          : 
REAL_CREATION_DATE .         Ср апр 11 2012-13_17_09       : 
TLFamily_DEPTH     .         Measured Depth                : 
TLFamily_KS        .         Potential Resistivity         : 
TLFamily_KS1       .         Extra Shallow Resistivity     : 
TLFamily_KS2       .         Shallow Resistivity           : 
TLFamily_KS3       .         Medium Resistivity            : 
TLFamily_KS4       .         Deep Resistivity              : 
TLFamily_KS5       .         Extra Deep Resistivity        : 
TLFamily_LLD       .         Lateral Log Resistivity       : 
TLFamily_OKS3      .         Medium Resistivity Inverted   : 
TLFamily_RM        .         Mud Resistivity               : 
group              .         INI                           : 
~Curve Information
#_______________________________________________________________________________
#
#LOGNAME           .UNIT     LOG_ID                        : DESCRIPTION
#_______________________________________________________________________________
DEPTH              .m                                      : Measured Depth 
KS                 .ohm.m                                  : Potential Resistivity 
KS1                .ohm.m                                  : Extra Shallow Resistivity 
KS2                .ohm.m                                  : Shallow Resistivity 
KS3                .ohm.m                                  : Medium Resistivity 
KS4                .ohm.m                                  : Deep Resistivity 
KS5                .ohm.m                                  : Extra Deep Resistivity 
LLD                .ohm.m                                  : Lateral Log Resistivity 
OKS3               .ohm.m                                  : Medium Resistivity Inverted 
RM                 .ohm.m                                  : Mud Resistivity 
~Ascii
# ...
2905.709921 5.31       2.0154     6.1155     8.502      7.7132     2.3608     5.6418     10.0032    0.063     
2905.809921 5.315      2.0471     6.1566     8.3655     7.5398     2.3618     5.9294     10.1509    0.063     
2905.909921 5.3262     2.0467     6.1071     8.1957     7.3956     2.3757     6.4366     10.3275    0.063     
2906.009921 5.3373     2.027      6.007      7.992      7.2417     2.4087     6.9466     10.6218    0.061     
2906.109921 5.3565     1.9891     5.8769     7.8148     7.0933     2.4541     6.8666     11.0423    0.06      
2906.209921 5.3695     1.9389     5.7348     7.6749     6.9652     2.5079     6.4022     11.5395    0.06      
2906.309921 5.3932     1.8991     5.6496     7.5591     6.8818     2.5672     6.0003     12.0892    0.06      
2906.409921 5.431      1.8991     5.6793     7.486      6.8254     2.6367     5.6818     12.7065    0.06      
2906.509921 5.4793     1.8691     5.6063     7.4569     6.8318     2.7242     5.4359     13.3035    0.062     
2906.609921 5.5373     1.8286     5.5502     7.4301     6.9171     2.8285     5.3282     13.8266    0.063     
2906.709921 5.6338     1.8114     5.5203     7.3719     6.9743     2.9435     5.4689     14.3042    0.064     
2906.80992 5.7488     1.7966     5.4324     7.3324     7.0553     3.0828     5.6564     14.7606    0.065     
2906.90992 5.8737     1.7737     5.3264     7.2958     7.1822     3.2432     5.768      15.1738    0.065     
2907.00992 6.0187     1.7716     5.293      7.2496     7.3095     3.4179     6.0602     15.5493    0.064     
2907.10992 6.1705     1.7898     5.3        7.238      7.4554     3.6106     6.3688     15.8917    0.063     
2907.20992 6.3218     1.8067     5.3265     7.2662     7.6029     3.8008     6.5662     16.1717    0.063     
2907.30992 6.4899     1.8453     5.4228     7.3223     7.7482     3.9796     7.0045     16.4076    0.063     
2907.40992 6.6831     1.8816     5.5179     7.4075     7.8846     4.1716     7.5282     16.6071    0.063     
2907.50992 6.8732     1.9015     5.589      7.5024     8.0238     4.38       7.9591     16.7706    0.064     
2907.60992 7.0477     1.9396     5.7328     7.5881     8.1462     4.5979     8.5186     16.9229    0.064     
2907.70992 7.1998     1.9676     5.8488     7.6937     8.2857     4.8245     8.961      17.0776    0.063     
2907.80992 7.3415     1.9829     5.9634     7.8178     8.4385     5.0502     9.0585     17.2267    0.062     
2907.90992 7.469      2.0122     6.0964     7.9366     8.5895     5.2699     9.3206     17.3333    0.061     
2908.00992 7.5969     2.0514     6.2921     8.0577     8.7441     5.5056     9.5163     17.4581    0.06      
2908.10992 7.7118     2.0742     6.4511     8.2011     8.9062     5.7532     9.6784     17.567     0.061     
2908.20992 7.8264     2.1057     6.633      8.3571     9.0719     5.9925     9.9593     17.6278    0.062     
2908.30992 7.9422     2.1336     6.8156     8.5087     9.2304     6.2246     10.5107    17.6556    0.064     
2908.40992 8.0568     2.1743     7.0173     8.6682     9.4064     6.4677     10.854     17.7051    0.066     
2908.509919 8.1741     2.2137     7.1332     8.8711     9.5705     6.7376     11.0756    17.7471    0.066     
2908.609919 8.2838     2.2098     7.214      9.0943     9.7297     7.0424     11.5304    17.7649    0.065     
2908.709919 8.3857     2.2412     7.3622     9.3318     9.8823     7.3614     11.8765    17.8118    0.064     
2908.809919 8.4791     2.2645     7.4965     9.5769     10.0408    7.6848     11.9478    17.8917    0.062     
2908.909919 8.5671     2.2848     7.6106     9.8711     10.2143    8.0169     11.5349    17.9695    0.062     
2909.009919 8.6535     2.3075     7.7336     10.1719    10.3702    8.365      11.9249    18.0835    0.063     
2909.109919 8.7279     2.3386     7.8978     10.4691    10.5185    8.6994     12.3924    18.2791    0.063     
2909.209919 8.7993     2.3582     8.0282     10.7729    10.6636    8.9996     12.3609    18.4885    0.064     
2909.309919 8.8809     2.36       8.1117     11.0791    10.8345    9.298      12.5981    18.7018    0.064     
2909.409919 8.9486     2.3562     8.1772     11.3879    11.0236    9.5902     12.6333    18.9151    0.063     
2909.509919 9.0174     2.3611     8.2816     11.7042    11.2434    9.9069     12.1734    19.1587    0.062     
2909.609919 9.0757     2.3761     8.3528     12.0324    11.4796    10.2554    11.9998    19.3702    0.061     
2909.709919 9.1218     2.3884     8.458      12.3392    11.7234    10.6202    12.2732    19.7519    0.061     
2909.809919 9.1586     2.4105     8.5613     12.6386    11.9711    10.986     12.7142    20.4137    0.062     
2909.909919 9.181      2.4363     8.6393     12.9336    12.2385    11.3978    12.8846    21.379     0.064     
2910.009919 9.2029     2.4657     8.7451     13.2393    12.5334    11.9283    12.8789    22.341     0.066     
2910.109919 9.21       2.4887     8.8662     13.5556    12.8628    12.5481    12.7756    23.2057    0.066     
2910.209918 9.2188     2.5049     8.9645     13.8776    13.2263    13.2578    12.6423    24.1008    0.065     
2910.309918 9.2302     2.5164     9.0228     14.1962    13.6467    14.0636    12.513     25.0946    0.064     
2910.409918 9.2421     2.5198     9.0427     14.4687    14.0888    14.9743    12.4566    26.2971    0.063     
2910.509918 9.2582     2.5202     9.0727     14.7187    14.5917    16.0083    12.3883    27.7666    0.063     
2910.609918 9.2819     2.5271     9.0886     14.9393    15.1494    17.2162    12.1271    29.6833    0.064     
2910.709918 9.3056     2.5171     9.0851     15.1427    15.7781    18.6802    11.7636    31.8361    0.065     
2910.809918 9.3371     2.4945     9.0573     15.3475    16.5164    21.3449    11.3598    34.0297    0.065     
2910.909918 9.3906     2.4672     9.0279     15.5552    17.3718    24.7358    10.8239    36.23      0.064     
2911.009918 9.4715     2.4442     8.9967     15.7532    18.3504    26.9554    10.3878    38.5708    0.063     
2911.109918 9.5922     2.4036     8.943      15.9338    19.4531    29.1265    10.2558    33.1509    0.062     
2911.209918 9.7671     2.3297     8.7945     16.0515    20.525     31.2567    10.1098    34.4443    0.061     
2911.309918 9.9599     2.243      8.6012     16.1518    21.5474    33.3451    9.8339     35.3014    0.061     
2911.409918 10.1883    2.1343     8.2662     16.2489    22.3578    34.7644    9.4044     34.3216    0.061     
2911.509918 10.4419    2.1338     8.3252     16.3549    23.064     35.0737    9.2681     36.4987    0.06      
2911.609918 10.6874    2.1573     8.3773     16.7064    23.5895    34.802     10.1412    38.4428    0.061     
2911.709918 11.075     2.2523     8.4682     16.617     22.6422    34.4358    14.0959    35.8261    0.061     
2911.809917 11.5262    2.4554     9.1509     15.6239    20.8042    33.8299    24.1456    31.0335    0.062     
2911.909917 11.984     1.9987     7.9726     14.3738    19.142     32.6791    41.3662    26.2933    0.061     
2912.009917 12.3413    1.4697     5.6532     13.3892    17.7969    31.0611    52.2199    23.1116    0.06      
2912.109917 12.6463    1.3585     5.1849     12.308     16.3194    29.1015    43.0044    20.6939    0.06      
2912.209917 12.7944    1.6313     6.3825     11.6481    15.962     26.6848    29.6799    18.8369    0.061     
2912.309917 12.7915    1.9166     7.392      12.014     16.6076    24.2137    24.0524    18.3607    0.063     
2912.409917 12.7706    1.9505     7.5344     12.6374    17.0357    22.8739    23.838     18.1893    0.063     
2912.509917 12.9202    1.8577     7.2678     12.5989    16.1496    22.7992    27.3138    17.7847    0.062     
2912.609917 13.2383    1.6258     6.7002     11.5555    14.3733    23.2749    31.8507    16.3812    0.061     
2912.709917 13.5696    1.3917     5.9094     10.343     12.8486    23.6817    39.605     13.695     0.061     
2912.809917 13.7554    1.074      4.7747     9.8357     12.5291    23.9933    48.3665    10.9339    0.06      
2912.909917 13.7153    0.9918     4.6665     10.4528    13.7066    24.4888    51.5109    9.4043     0.06      
