~Version
 VERS              .         2.0                           : CWLS LOG ASCII STANDARD - VERSION 2.0
 WRAP              .         NO                            : ONE LINE PER DEPTH STEP
 DLM               .         SPACE                         : DELIMITING CHARACTER(SPACE TAB OR COMMA)
~Well Information
#_______________________________________________________________________________
#
#PARAMETER_NAME    .UNIT     VALUE                         : DESCRIPTION
#_______________________________________________________________________________
STRT               .m        2774.31                       : First reference value
STOP               .m        2936.209903                   : Last reference value
STEP               .m        0.09999994                    : Step increment
NULL               .         -9999                         : Missing value
COMP               .                                       : Company
WELL               .         303                           : Well name
FLD                .                                       : Field
LOC                .                                       : Location
CNTY               .                                       : County
STAT               .                                       : State
CTRY               .                                       : Country
SRVC               .                                       : Service Company
DATE               .                                       : Date
API                .                                       : API number
EREF               .m        138.34                        : 
Pad                .         3                             : 
X                  .m        219750                        : 
Y                  .m        249950                        : 
group              .         Pad3                          : 
Интер-р            .         Ярышев                        : 
Куст               .         3                             : 
Статус             .         Проверено                     : 
Тип                .         Нагнетательные                : 
~Parameter Information Block
#_______________________________________________________________________________
#
#PARAMETER_NAME    .UNIT     VALUE                         : DESCRIPTION
#_______________________________________________________________________________
SET                .         LAS1                          : 
REAL_CREATION_DATE .         Ср апр 11 2012-13_17_09       : 
TLFamily_DEPTH     .         Measured Depth                : 
TLFamily_KS        .         Potential Resistivity         : 
TLFamily_KS1       .         Extra Shallow Resistivity     : 
TLFamily_KS2       .         Shallow Resistivity           : 
TLFamily_KS3       .         Medium Resistivity            : 
TLFamily_KS4       .         Deep Resistivity              : 
TLFamily_KS5       .         Extra Deep Resistivity        : 
TLFamily_LLD       .         Lateral Log Resistivity       : 
TLFamily_OKS3      .         Medium Resistivity Inverted   : 
TLFamily_RM        .         Mud Resistivity               : 
group              .         INI                           : 
~Curve Information
#_______________________________________________________________________________
#
#LOGNAME           .UNIT     LOG_ID                        : DESCRIPTION
#_______________________________________________________________________________
DEPTH              .m                                      : Measured Depth 
KS                 .ohm.m                                  : Potential Resistivity 
KS1                .ohm.m                                  : Extra Shallow Resistivity 
KS2                .ohm.m                                  : Shallow Resistivity 
KS3                .ohm.m                                  : Medium Resistivity 
KS4                .ohm.m                                  : Deep Resistivity 
KS5                .ohm.m                                  : Extra Deep Resistivity 
LLD                .ohm.m                                  : Lateral Log Resistivity 
OKS3               .ohm.m                                  : Medium Resistivity Inverted 
RM                 .ohm.m                                  : Mud Resistivity 
~Ascii
# ...
2869.209943 3.6031     1.7975     5.1266     7.0152     6.6551     2.8254     3.6478     5.6065     0.065     
2869.309943 3.5908     1.8315     5.1733     6.9208     6.5878     2.7552     3.5537     5.6188     0.065     
2869.409943 3.5801     1.8167     5.0682     6.8279     6.5038     2.7024     3.4766     5.62       0.064     
2869.509943 3.5692     1.8105     4.9906     6.6969     6.3775     2.6528     3.3984     5.6255     0.063     
2869.609943 3.5565     1.81       4.9364     6.5084     6.2152     2.603      3.3708     5.6544     0.063     
2869.709943 3.5369     1.7996     4.8689     6.3282     6.0575     2.5571     3.3735     5.7025     0.063     
2869.809943 3.53       1.7787     4.7948     6.1343     5.9156     2.519      3.3786     5.751      0.063     
2869.909943 3.53       1.7589     4.7426     5.9398     5.7676     2.4863     3.4227     5.8011     0.063     
2870.009943 3.5387     1.7424     4.6851     5.7578     5.6393     2.4565     3.4484     5.8473     0.063     
2870.109943 3.5503     1.7199     4.6296     5.5983     5.527      2.4327     3.4771     5.9499     0.063     
2870.209942 3.5723     1.7029     4.6026     5.4656     5.4362     2.4147     3.6544     6.0195     0.063     
2870.309942 3.5942     1.6731     4.5349     5.359      5.3766     2.4047     3.7619     6.0728     0.063     
2870.409942 3.6156     1.6731     4.5122     5.2848     5.3374     2.4        3.7791     6.1321     0.062     
2870.509942 3.6372     1.6973     4.555      5.2366     5.3158     2.4024     3.8368     6.1795     0.061     
2870.609942 3.6593     1.7        4.5517     5.2222     5.3169     2.4077     3.9037     6.2247     0.061     
2870.709942 3.6817     1.7        4.5467     5.2366     5.3197     2.4163     3.8977     6.2836     0.06      
2870.809942 3.7045     1.7083     4.5809     5.228      5.32       2.4429     3.8679     6.3658     0.06      
2870.909942 3.7361     1.7294     4.6256     5.2249     5.3313     2.4818     3.9402     6.4625     0.061     
2871.009942 3.7504     1.7392     4.6421     5.2405     5.3532     2.5114     4.0493     6.572      0.062     
2871.109942 3.7717     1.7478     4.6748     5.2693     5.3723     2.5404     4.1396     6.6831     0.064     
2871.209942 3.783      1.7592     4.7244     5.2944     5.3841     2.5751     4.1622     6.7954     0.065     
2871.309942 3.7979     1.7796     4.7878     5.3245     5.395      2.6095     4.1315     6.9217     0.065     
2871.409942 3.8248     1.7892     4.8258     5.3565     5.4057     2.6433     4.1765     7.0498     0.065     
2871.509942 3.8518     1.7936     4.8547     5.3974     5.4028     2.6795     4.2527     7.1992     0.065     
2871.609942 3.8668     1.8038     4.8818     5.4213     5.4002     2.7215     4.3408     7.3632     0.064     
2871.709942 3.8783     1.8201     4.9286     5.4439     5.4        2.7647     4.4418     7.5261     0.063     
2871.809942 3.88       1.8353     4.9858     5.4794     5.3883     2.8087     4.3721     7.6756     0.063     
2871.909941 3.9015     1.8546     5.0729     5.5241     5.3661     2.8605     4.2835     7.8229     0.062     
2872.009941 3.91       1.8865     5.1396     5.5623     5.3429     2.9227     4.2865     7.9968     0.062     
2872.109941 3.91       1.8824     5.1657     5.5969     5.3096     2.9881     4.2711     8.1761     0.063     
2872.209941 3.91       1.8947     5.2099     5.6191     5.2536     3.0674     4.1992     8.3632     0.063     
2872.309941 3.91       1.9086     5.2623     5.631      5.189      3.1604     4.143      8.5515     0.063     
2872.409941 3.9028     1.91       5.2726     5.6417     5.132      3.2553     4.1587     8.7191     0.063     
2872.509941 3.9        1.9042     5.2628     5.6493     5.0779     3.3544     4.2094     8.8242     0.062     
2872.609941 3.8801     1.8939     5.2602     5.6542     5.0132     3.4527     4.0641     8.9304     0.062     
2872.709941 3.8915     1.8975     5.2911     5.6595     4.9452     3.5578     3.7502     9.0668     0.061     
2872.809941 3.903      1.908      5.3147     5.6469     4.866      3.6824     3.5179     9.2481     0.06      
2872.909941 3.9236     1.8505     5.2751     5.6249     4.7811     3.8266     3.4895     9.4973     0.059     
2873.009941 3.9581     1.808      5.1507     5.565      4.6903     3.9736     3.5849     9.8103     0.059     
2873.109941 3.9919     1.767      5.0651     5.4861     4.5995     4.1074     3.7965     10.1786    0.06      
2873.209941 4.0414     1.7224     4.9598     5.4123     4.534      4.2304     4.0142     10.5776    0.062     
2873.309941 4.1149     1.7042     4.8708     5.3628     4.4877     4.3464     4.148      10.9631    0.063     
2873.409941 4.2025     1.6928     4.8146     5.324      4.4357     4.4465     4.2565     11.2638    0.064     
2873.50994 4.3257     1.6818     4.7568     5.302      4.3995     4.5325     4.3649     11.4945    0.064     
2873.60994 4.4596     1.6709     4.6997     5.2815     4.3483     4.6007     4.5355     11.7068    0.064     
2873.70994 4.5909     1.6551     4.6123     5.256      4.3078     4.6557     5.2519     11.8439    0.063     
2873.80994 4.7187     1.6313     4.5791     5.2593     4.2914     4.6964     6.591      11.8403    0.062     
2873.90994 4.8427     1.7092     4.76       5.316      4.3012     4.7245     7.0639     11.7385    0.062     
2874.00994 4.9944     1.8123     4.9981     5.3998     4.3092     4.7446     6.057      11.6636    0.062     
2874.10994 5.1497     1.863      5.1147     5.4894     4.3373     4.7657     5.5405     11.6243    0.062     
2874.20994 5.2989     1.8138     4.9873     5.5984     4.3591     4.7928     6.365      11.5694    0.062     
2874.30994 5.401      1.8277     5.076      5.6866     4.3729     4.8196     7.8213     11.5138    0.063     
2874.40994 5.4671     1.8986     5.3074     5.7565     4.3985     4.827      9.6577     11.4513    0.063     
2874.50994 5.507      1.9777     5.6091     5.8789     4.4657     4.8136     11.5677    11.2826    0.063     
2874.60994 5.5632     2.0954     6.038      6.3698     4.584      4.7876     11.402     10.9497    0.063     
2874.70994 5.602      2.2454     6.5398     6.6363     4.6867     4.7511     9.2426     10.5384    0.062     
2874.80994 5.6175     2.3016     6.6731     6.8509     4.7658     4.7047     8.1355     10.0807    0.06      
2874.90994 5.62       2.3132     6.788      6.9765     4.8118     4.6516     7.0894     9.6275     0.06      
2875.00994 5.5982     2.3352     6.9336     6.9915     4.7914     4.5914     6.0563     9.2648     0.06      
2875.10994 5.5547     2.2832     6.8362     7.0074     4.7207     4.5231     5.4155     9.1051     0.06      
2875.209939 5.5191     2.2327     6.7849     7.0189     4.6752     4.449      5.141      9.0564     0.06      
2875.309939 5.4717     2.1769     6.7561     7.0534     4.6414     4.3722     5.3855     9.0557     0.06      
2875.409939 5.4081     2.1243     6.7593     7.1984     4.6263     4.3071     5.862      9.1442     0.061     
2875.509939 5.3422     2.0896     6.8194     7.3937     4.6718     4.2522     6.1102     9.2684     0.063     
2875.609939 5.2992     2.1134     7.1093     7.6052     4.7375     4.2037     6.13       9.3317     0.064     
2875.709939 5.273      2.1456     7.1726     7.8524     4.8032     4.1666     6.2167     9.3577     0.064     
2875.809939 5.2598     2.1346     7.1146     8.1182     4.8816     4.1375     6.2727     9.3589     0.064     
2875.909939 5.2284     2.138      7.0489     8.3117     4.9675     4.1099     6.2355     9.3396     0.063     
2876.009939 5.22       2.14       6.9658     8.453      5.0094     4.0803     5.9671     9.2833     0.062     
2876.109939 5.2154     2.1565     6.9113     8.5954     5.0312     4.0504     5.6588     9.2527     0.062     
2876.209939 5.2039     2.1401     6.7434     8.713      5.0632     4.0091     5.6413     9.2555     0.062     
2876.309939 5.1931     2.1128     6.5625     8.7598     5.0961     3.9656     5.7078     9.2952     0.062     
2876.409939 5.19       2.11       6.492      8.7334     5.1154     3.9288     5.6666     9.3435     0.063     
