~Version
 VERS              .         2.0                           : CWLS LOG ASCII STANDARD - VERSION 2.0
 WRAP              .         NO                            : ONE LINE PER DEPTH STEP
 DLM               .         SPACE                         : DELIMITING CHARACTER(SPACE TAB OR COMMA)
~Well Information
#_______________________________________________________________________________
#
#PARAMETER_NAME    .UNIT     VALUE                         : DESCRIPTION
#_______________________________________________________________________________
STRT               .m        2359.5                        : First reference value
STOP               .m        2938.199942                   : Last reference value
STEP               .m        0.09999999                    : Step increment
NULL               .         -9999                         : Missing value
COMP               .                                       : Company
WELL               .         303                           : Well name
FLD                .                                       : Field
LOC                .                                       : Location
CNTY               .                                       : County
STAT               .                                       : State
CTRY               .                                       : Country
SRVC               .                                       : Service Company
DATE               .                                       : Date
API                .                                       : API number
EREF               .m        138.34                        : 
Pad                .         3                             : 
X                  .m        219750                        : 
Y                  .m        249950                        : 
group              .         Pad3                          : 
Интер-р            .         Ярышев                        : 
Куст               .         3                             : 
Статус             .         Проверено                     : 
Тип                .         Нагнетательные                : 
~Parameter Information Block
#_______________________________________________________________________________
#
#PARAMETER_NAME    .UNIT     VALUE                         : DESCRIPTION
#_______________________________________________________________________________
SET                .         LAS3                          : 
REAL_CREATION_DATE .         Ср апр 11 2012-13_17_09       : 
TLFamily_DEPTH     .         Measured Depth                : 
TLFamily_GR        .         Gamma Ray                     : 
TLFamily_TNPH      .         Neutron Porosity              : 
group              .         INI                           : 
~Curve Information
#_______________________________________________________________________________
#
#LOGNAME           .UNIT     LOG_ID                        : DESCRIPTION
#_______________________________________________________________________________
DEPTH              .m                                      : Measured Depth 
GR                 .gAPI                                   :  
TNPH               .v/v                                    : Neutron Porosity 
~Ascii
# ...
2785.599957 119.19     0.221     
2785.699957 113.71     0.212     
2785.799957 111.3      0.205     
2785.899957 105.62     0.197     
2785.999957 95.22      0.181     
2786.099957 91.84      0.186     
2786.199957 82.88      0.18      
2786.299957 81.09      0.174     
2786.399957 78.03001   0.171     
2786.499957 75.34      0.178     
2786.599957 75.71      0.177     
2786.699957 75.57      0.184     
2786.799957 74.29      0.188     
2786.899957 73.55      0.19      
2786.999957 72.18001   0.191     
2787.099957 69.74      0.189     
2787.199957 65.34      0.186     
2787.299957 63.05      0.183     
2787.399957 60.7       0.179     
2787.499957 59.42      0.171     
2787.599957 60.49      0.171     
2787.699957 63.61      0.169     
2787.799957 65.8       0.169     
2787.899957 69.89      0.171     
2787.999957 76.44      0.183     
2788.099957 78.38      0.181     
2788.199957 85.39      0.195     
2788.299957 87.34      0.211     
2788.399957 91.2       0.226     
2788.499957 95.01      0.237     
2788.599957 96.75      0.235     
2788.699957 100.51     0.232     
2788.799957 101.67     0.225     
2788.899957 104        0.216     
2788.999957 106.78     0.203     
2789.099957 107.63     0.204     
2789.199957 108.04     0.203     
2789.299957 108.45     0.203     
2789.399957 107.71     0.205     
2789.499957 105.79     0.208     
2789.599957 104.31     0.21      
2789.699957 101.03     0.211     
2789.799957 100.16     0.21      
2789.899957 98.63      0.208     
2789.999957 96.70999   0.201     
2790.099957 96.18      0.203     
2790.199957 94.68001   0.2       
2790.299957 93.96      0.197     
2790.399957 92.38      0.197     
2790.499957 88.6       0.204     
2790.599957 87.51      0.203     
2790.699957 83.07999   0.205     
2790.799957 81.94      0.206     
2790.899957 79.57      0.206     
2790.999957 76.99001   0.2       
2791.099957 75.17999   0.205     
2791.199957 73.07      0.2       
2791.299957 71.73      0.195     
2791.399957 71.18      0.192     
2791.499957 72.24      0.201     
2791.599957 74.27      0.196     
2791.699957 78.18      0.202     
2791.799957 80.29      0.206     
2791.899957 82.43      0.206     
2791.999957 84.67      0.209     
2792.099957 85.10001   0.207     
2792.199957 86.05      0.208     
2792.299957 86.68999   0.212     
2792.399957 87.83      0.218     
2792.499957 88.88      0.233     
2792.599957 88.59      0.232     
2792.699957 88.42      0.237     
2792.799957 87.89      0.24      
2792.899957 90.03999   0.241     
2792.999957 95.9       0.245     
2793.099957 98.66      0.245     
2793.199957 104.46     0.251     
2793.299957 105.3      0.257     
2793.399957 106.02     0.259     
2793.499957 103.14     0.248     
2793.599957 100.26     0.249     
2793.699957 90.77      0.242     
2793.799957 87.9       0.237     
2793.899957 82.74001   0.232     
2793.999957 76.12      0.225     
2794.099957 76.04      0.225     
2794.199957 75.71      0.224     
2794.299957 77.93      0.225     
2794.399957 82.53      0.227     
2794.499956 91.32      0.231     
2794.599956 95.57      0.229     
2794.699956 105.65     0.233     
2794.799956 107.03     0.237     
2794.899956 108.65     0.239     
2794.999956 105.4      0.233     
2795.099956 102.24     0.232     
2795.199956 93.48      0.224     
2795.299956 90.84      0.215     
2795.399956 86.53      0.209     
2795.499956 81.4       0.204     
2795.599956 80.49      0.207     
2795.699956 75.86      0.206     
2795.799956 74.24      0.203     
2795.899956 70.93001   0.199     
2795.999956 66.28999   0.188     
2796.099956 65.15      0.192     
2796.199956 63.16      0.187     
2796.299956 62.93999   0.181     
2796.399956 62.05      0.173     
2796.499956 59.47      0.155     
2796.599956 58.72      0.158     
2796.699956 55.56      0.15      
2796.799956 54.47      0.144     
2796.899956 52.29      0.141     
2796.999956 50.91      0.14      
2797.099956 49.89      0.141     
2797.199956 50.61      0.143     
2797.299956 50.64      0.147     
2797.399956 51.92      0.154     
2797.499956 54.77      0.179     
2797.599956 56.6       0.172     
2797.699956 61.79      0.185     
2797.799956 64.23      0.196     
2797.899956 68.72      0.205     
2797.999956 74.13      0.218     
2798.099956 75.54      0.216     
2798.199956 78.21      0.218     
2798.299956 77.66      0.218     
2798.399956 77.89      0.217     
2798.499956 78.75      0.219     
2798.599956 79.6       0.218     
2798.699956 82.89      0.221     
2798.799956 84.11      0.226     
2798.899956 86.85001   0.23      
2798.999956 90.74001   0.236     
2799.099956 91.14      0.233     
2799.199956 91.66      0.234     
2799.299956 91.16      0.234     
2799.399956 89.18      0.232     
2799.499956 83.88      0.224     
2799.599956 82.5       0.226     
2799.699956 76.70999   0.223     
2799.799956 75.50999   0.221     
2799.899956 73.59      0.218     
2799.999956 72.69      0.212     
2800.099956 72.44      0.211     
2800.199956 74.34      0.209     
2800.299956 75.37      0.208     
2800.399956 77.88      0.208     
2800.499956 81.89      0.212     
2800.599956 88.00999   0.211     
2800.699956 89.52      0.209     
2800.799956 90.9       0.204     
2800.899956 91.58      0.198     
2800.999956 90.85      0.193     
2801.099956 91.47      0.193     
2801.199956 91.32      0.195     
2801.299956 91.66      0.2       
2801.399956 91.3       0.206     
2801.499956 90.83      0.206     
2801.599956 89.12      0.203     
2801.699956 89.49001   0.199     
2801.799956 89.16      0.197     
2801.899956 88.7       0.2       
2801.999956 89.89      0.2       
2802.099956 93.64      0.205     
2802.199956 95.45      0.212     
2802.299956 99.03      0.222     
2802.399956 103.11     0.234     
2802.499956 103.17     0.235     
2802.599956 98.95      0.234     
2802.699956 97.3       0.231     
2802.799956 92.81      0.227     
2802.899956 91.4       0.228     
2802.999956 91.23      0.227     
2803.099956 97.23      0.23      
2803.199956 98.78999   0.237     
2803.299956 104.12     0.245     
2803.399956 112.29     0.259     
2803.499956 115.78     0.257     
2803.599956 121.88     0.261     
2803.699956 123.05     0.261     
2803.799956 124.14     0.259     
2803.899956 124.36     0.253     
2803.999956 125.05     0.253     
2804.099956 122.94     0.253     
2804.199956 122.84     0.256     
2804.299956 122.11     0.263     
2804.399956 123.94     0.277     
2804.499955 125.29     0.273     
2804.599955 130.43     0.269     
2804.699955 132.38     0.26      
2804.799955 134.94     0.253     
2804.899955 136.92     0.256     
2804.999955 136.65     0.256     
2805.099955 134.68     0.266     
2805.199955 134.1      0.278     
2805.299955 133.02     0.291     
2805.399955 133.98     0.301     
2805.499955 134.62     0.295     
2805.599955 137.64     0.29      
2805.699955 137.83     0.287     
2805.799955 139.07     0.287     
2805.899955 140.03     0.286     
2805.999955 138.54     0.287     
2806.099955 134.9      0.282     
2806.199955 133.42     0.273     
2806.299955 130        0.264     
2806.399955 123.55     0.248     
2806.499955 121.9      0.248     
2806.599955 118.16     0.243     
2806.699955 118.31     0.245     
2806.799955 119.99     0.251     
2806.899955 121.45     0.259     
2806.999955 121.8      0.265     
2807.099955 114.99     0.266     
2807.199955 112.66     0.26      
2807.299955 106.86     0.245     
2807.399955 100.87     0.217     
2807.499955 99.22      0.222     
2807.599955 94.46999   0.216     
2807.699955 94.84      0.214     
2807.799955 95.69      0.218     
2807.899955 102.92     0.242     
2807.999955 107.2      0.231     
2808.099955 118.34     0.242     
2808.199955 120.72     0.251     
2808.299955 125.09     0.261     
2808.399955 129.9      0.276     
2808.499955 131.12     0.277     
2808.599955 135.71     0.28      
2808.699955 136.91     0.277     
2808.799955 139.78     0.274     
2808.899955 146.61     0.274     
2808.999955 148.57     0.274     
2809.099955 158.81     0.274     
