~Version
 VERS              .         2.0                           : CWLS LOG ASCII STANDARD - VERSION 2.0
 WRAP              .         NO                            : ONE LINE PER DEPTH STEP
 DLM               .         SPACE                         : DELIMITING CHARACTER(SPACE TAB OR COMMA)
~Well Information
#_______________________________________________________________________________
#
#PARAMETER_NAME    .UNIT     VALUE                         : DESCRIPTION
#_______________________________________________________________________________
STRT               .m        2359.5                        : First reference value
STOP               .m        2938.199942                   : Last reference value
STEP               .m        0.09999999                    : Step increment
NULL               .         -9999                         : Missing value
COMP               .                                       : Company
WELL               .         303                           : Well name
FLD                .                                       : Field
LOC                .                                       : Location
CNTY               .                                       : County
STAT               .                                       : State
CTRY               .                                       : Country
SRVC               .                                       : Service Company
DATE               .                                       : Date
API                .                                       : API number
EREF               .m        138.34                        : 
Pad                .         3                             : 
X                  .m        219750                        : 
Y                  .m        249950                        : 
group              .         Pad3                          : 
Интер-р            .         Ярышев                        : 
Куст               .         3                             : 
Статус             .         Проверено                     : 
Тип                .         Нагнетательные                : 
~Parameter Information Block
#_______________________________________________________________________________
#
#PARAMETER_NAME    .UNIT     VALUE                         : DESCRIPTION
#_______________________________________________________________________________
SET                .         LAS3                          : 
REAL_CREATION_DATE .         Ср апр 11 2012-13_17_09       : 
TLFamily_DEPTH     .         Measured Depth                : 
TLFamily_GR        .         Gamma Ray                     : 
TLFamily_TNPH      .         Neutron Porosity              : 
group              .         INI                           : 
~Curve Information
#_______________________________________________________________________________
#
#LOGNAME           .UNIT     LOG_ID                        : DESCRIPTION
#_______________________________________________________________________________
DEPTH              .m                                      : Measured Depth 
GR                 .gAPI                                   :  
TNPH               .v/v                                    : Neutron Porosity 
~Ascii
# ...
2714.499964 -20        -9999     
2714.599964 -20        -9999     
2714.699964 -20        -9999     
2714.799964 -20        -9999     
2714.899964 -20        -9999     
2714.999964 -20        -9999     
2715.099964 -20        -9999     
2715.199964 -20        -9999     
2715.299964 -20        -9999     
2715.399964 -20        -9999     
2715.499964 -20        -9999     
2715.599964 -20        -9999     
2715.699964 -20        -9999     
2715.799964 -20        -9999     
2715.899964 -20        -9999     
2715.999964 -20        -9999     
2716.099964 -20        -9999     
2716.199964 -20        -9999     
2716.299964 -20        -9999     
2716.399964 -20        -9999     
2716.499964 -20        -9999     
2716.599964 -20        -9999     
2716.699964 -20        -9999     
2716.799964 -20        -9999     
2716.899964 -20        -9999     
2716.999964 -20        -9999     
2717.099964 -20        -9999     
2717.199964 -20        -9999     
2717.299964 -20        -9999     
2717.399964 -20        -9999     
2717.499964 -20        -9999     
2717.599964 -20        -9999     
2717.699964 -20        -9999     
2717.799964 -20        -9999     
2717.899964 -20        -9999     
2717.999964 -20        -9999     
2718.099964 -20        -9999     
2718.199964 -20        -9999     
2718.299964 -20        -9999     
2718.399964 -20        -9999     
2718.499964 -20        -9999     
2718.599964 -20        -9999     
2718.699964 -20        -9999     
2718.799964 -20        -9999     
2718.899964 -20        -9999     
2718.999964 -20        -9999     
2719.099964 -20        -9999     
2719.199964 -20        -9999     
2719.299964 -20        -9999     
2719.399964 -20        -9999     
2719.499964 -20        -9999     
2719.599964 -20        -9999     
2719.699964 -20        -9999     
2719.799964 -20        -9999     
2719.899964 -20        -9999     
2719.999964 -20        -9999     
2720.099964 -20        -9999     
2720.199964 -20        -9999     
2720.299964 -20        -9999     
2720.399964 -20        -9999     
2720.499964 -20        -9999     
2720.599964 -20        -9999     
2720.699964 -20        -9999     
2720.799964 -20        -9999     
2720.899964 -20        -9999     
2720.999964 -20        -9999     
2721.099964 -20        -9999     
2721.199964 -20        -9999     
2721.299964 -20        -9999     
2721.399964 -20        -9999     
2721.499964 -20        -9999     
2721.599964 -20        -9999     
2721.699964 -20        -9999     
2721.799964 -20        -9999     
2721.899964 -20        -9999     
2721.999964 -20        -9999     
2722.099964 -20        -9999     
2722.199964 -20        -9999     
2722.299964 -20        -9999     
2722.399964 -20        -9999     
2722.499964 -20        -9999     
2722.599964 -20        -9999     
2722.699964 -20        -9999     
2722.799964 -20        -9999     
2722.899964 -20        -9999     
2722.999964 -20        -9999     
2723.099964 -20        -9999     
2723.199964 -20        -9999     
2723.299964 -20        -9999     
2723.399964 -20        -9999     
2723.499964 -20        -9999     
2723.599964 -20        -9999     
2723.699964 -20        -9999     
2723.799964 -20        -9999     
2723.899964 -20        -9999     
2723.999964 -20        -9999     
2724.099964 -20        -9999     
2724.199964 -20        -9999     
2724.299964 -20        -9999     
2724.399964 -20        -9999     
2724.499963 -20        -9999     
2724.599963 -20        -9999     
2724.699963 -20        -9999     
2724.799963 -20        -9999     
2724.899963 -20        -9999     
2724.999963 -20        -9999     
2725.099963 -20        -9999     
2725.199963 -20        -9999     
2725.299963 -20        -9999     
2725.399963 -20        -9999     
2725.499963 -20        -9999     
2725.599963 -20        -9999     
2725.699963 -20        -9999     
2725.799963 -20        -9999     
2725.899963 -20        -9999     
2725.999963 -20        -9999     
2726.099963 -20        -9999     
2726.199963 -20        -9999     
2726.299963 -20        -9999     
2726.399963 -20        -9999     
2726.499963 -20        -9999     
2726.599963 -20        -9999     
2726.699963 -20        -9999     
2726.799963 -20        -9999     
2726.899963 -20        -9999     
2726.999963 -20        -9999     
2727.099963 -20        -9999     
2727.199963 -20        -9999     
2727.299963 -20        -9999     
2727.399963 -20        -9999     
2727.499963 -20        -9999     
2727.599963 -20        -9999     
2727.699963 -20        -9999     
2727.799963 -20        -9999     
2727.899963 -20        -9999     
2727.999963 -20        -9999     
2728.099963 -20        -9999     
2728.199963 -20        -9999     
2728.299963 -20        -9999     
2728.399963 -20        -9999     
2728.499963 -20        -9999     
2728.599963 -20        -9999     
2728.699963 -20        -9999     
2728.799963 -20        -9999     
2728.899963 -20        -9999     
2728.999963 -20        -9999     
2729.099963 -20        -9999     
2729.199963 -20        -9999     
2729.299963 -20        -9999     
2729.399963 -20        -9999     
2729.499963 -20        -9999     
2729.599963 -20        -9999     
2729.699963 -20        -9999     
2729.799963 -20        -9999     
2729.899963 -20        -9999     
2729.999963 -20        -9999     
2730.099963 -20        -9999     
2730.199963 -20        -9999     
2730.299963 -20        -9999     
2730.399963 -20        -9999     
2730.499963 -20        -9999     
2730.599963 -20        -9999     
2730.699963 -20        -9999     
2730.799963 -20        -9999     
2730.899963 -20        -9999     
2730.999963 -20        -9999     
2731.099963 -20        -9999     
2731.199963 -20        -9999     
2731.299963 -20        -9999     
2731.399963 -20        -9999     
2731.499963 -20        -9999     
2731.599963 -20        -9999     
2731.699963 -20        -9999     
2731.799963 -20        -9999     
2731.899963 -20        -9999     
2731.999963 -20        -9999     
2732.099963 -20        -9999     
2732.199963 -20        -9999     
2732.299963 -20        -9999     
2732.399963 -20        -9999     
2732.499963 -20        -9999     
2732.599963 -20        -9999     
2732.699963 -20        -9999     
2732.799963 -20        -9999     
2732.899963 -20        -9999     
2732.999963 -20        -9999     
2733.099963 -20        -9999     
2733.199963 -20        -9999     
2733.299963 -20        -9999     
2733.399963 -20        -9999     
2733.499963 -20        -9999     
2733.599963 -20        -9999     
2733.699963 -20        -9999     
2733.799963 -20        -9999     
2733.899963 -20        -9999     
2733.999963 -20        -9999     
2734.099963 -20        -9999     
2734.199963 -20        -9999     
2734.299963 -20        -9999     
2734.399963 -20        -9999     
2734.499963 -20        -9999     
2734.599962 -20        -9999     
2734.699962 -20        -9999     
2734.799962 -20        -9999     
2734.899962 -20        -9999     
2734.999962 -20        -9999     
2735.099962 -20        -9999     
2735.199962 -20        -9999     
2735.299962 -20        -9999     
2735.399962 -20        -9999     
2735.499962 -20        -9999     
2735.599962 -20        -9999     
2735.699962 -20        -9999     
2735.799962 -20        -9999     
2735.899962 -20        -9999     
2735.999962 -20        -9999     
2736.099962 -20        -9999     
2736.199962 -20        -9999     
2736.299962 -20        -9999     
2736.399962 -20        -9999     
2736.499962 -20        -9999     
2736.599962 -20        -9999     
2736.699962 -20        -9999     
2736.799962 -20        -9999     
2736.899962 -20        -9999     
2736.999962 -20        -9999     
2737.099962 -20        -9999     
2737.199962 -20        -9999     
2737.299962 -20        -9999     
2737.399962 -20        -9999     
2737.499962 -20        -9999     
2737.599962 -20        -9999     
2737.699962 -20        -9999     
2737.799962 -20        -9999     
2737.899962 -20        -9999     
2737.999962 -20        -9999     
