~Version
 VERS              .         2.0                           : CWLS LOG ASCII STANDARD - VERSION 2.0
 WRAP              .         NO                            : ONE LINE PER DEPTH STEP
 DLM               .         SPACE                         : DELIMITING CHARACTER(SPACE TAB OR COMMA)
~Well Information
#_______________________________________________________________________________
#
#PARAMETER_NAME    .UNIT     VALUE                         : DESCRIPTION
#_______________________________________________________________________________
STRT               .m        2359.5                        : First reference value
STOP               .m        2938.199942                   : Last reference value
STEP               .m        0.09999999                    : Step increment
NULL               .         -9999                         : Missing value
COMP               .                                       : Company
WELL               .         303                           : Well name
FLD                .                                       : Field
LOC                .                                       : Location
CNTY               .                                       : County
STAT               .                                       : State
CTRY               .                                       : Country
SRVC               .                                       : Service Company
DATE               .                                       : Date
API                .                                       : API number
EREF               .m        138.34                        : 
Pad                .         3                             : 
X                  .m        219750                        : 
Y                  .m        249950                        : 
group              .         Pad3                          : 
Интер-р            .         Ярышев                        : 
Куст               .         3                             : 
Статус             .         Проверено                     : 
Тип                .         Нагнетательные                : 
~Parameter Information Block
#_______________________________________________________________________________
#
#PARAMETER_NAME    .UNIT     VALUE                         : DESCRIPTION
#_______________________________________________________________________________
SET                .         LAS3                          : 
REAL_CREATION_DATE .         Ср апр 11 2012-13_17_09       : 
TLFamily_DEPTH     .         Measured Depth                : 
TLFamily_GR        .         Gamma Ray                     : 
TLFamily_TNPH      .         Neutron Porosity              : 
group              .         INI                           : 
~Curve Information
#_______________________________________________________________________________
#
#LOGNAME           .UNIT     LOG_ID                        : DESCRIPTION
#_______________________________________________________________________________
DEPTH              .m                                      : Measured Depth 
GR                 .gAPI                                   :  
TNPH               .v/v                                    : Neutron Porosity 
~Ascii
# ...
2643.399972 -20        -9999     
2643.499972 -20        -9999     
2643.599972 -20        -9999     
2643.699972 -20        -9999     
2643.799972 -20        -9999     
2643.899972 -20        -9999     
2643.999972 -20        -9999     
2644.099972 -20        -9999     
2644.199972 -20        -9999     
2644.299972 -20        -9999     
2644.399972 -20        -9999     
2644.499971 -20        -9999     
2644.599971 -20        -9999     
2644.699971 -20        -9999     
2644.799971 -20        -9999     
2644.899971 -20        -9999     
2644.999971 -20        -9999     
2645.099971 -20        -9999     
2645.199971 -20        -9999     
2645.299971 -20        -9999     
2645.399971 -20        -9999     
2645.499971 -20        -9999     
2645.599971 -20        -9999     
2645.699971 -20        -9999     
2645.799971 -20        -9999     
2645.899971 -20        -9999     
2645.999971 -20        -9999     
2646.099971 -20        -9999     
2646.199971 -20        -9999     
2646.299971 -20        -9999     
2646.399971 -20        -9999     
2646.499971 -20        -9999     
2646.599971 -20        -9999     
2646.699971 -20        -9999     
2646.799971 -20        -9999     
2646.899971 -20        -9999     
2646.999971 -20        -9999     
2647.099971 -20        -9999     
2647.199971 -20        -9999     
2647.299971 -20        -9999     
2647.399971 -20        -9999     
2647.499971 -20        -9999     
2647.599971 -20        -9999     
2647.699971 -20        -9999     
2647.799971 -20        -9999     
2647.899971 -20        -9999     
2647.999971 -20        -9999     
2648.099971 -20        -9999     
2648.199971 -20        -9999     
2648.299971 -20        -9999     
2648.399971 -20        -9999     
2648.499971 -20        -9999     
2648.599971 -20        -9999     
2648.699971 -20        -9999     
2648.799971 -20        -9999     
2648.899971 -20        -9999     
2648.999971 -20        -9999     
2649.099971 -20        -9999     
2649.199971 -20        -9999     
2649.299971 -20        -9999     
2649.399971 -20        -9999     
2649.499971 -20        -9999     
2649.599971 -20        -9999     
2649.699971 -20        -9999     
2649.799971 -20        -9999     
2649.899971 -20        -9999     
2649.999971 -20        -9999     
2650.099971 -20        -9999     
2650.199971 -20        -9999     
2650.299971 -20        -9999     
2650.399971 -20        -9999     
2650.499971 -20        -9999     
2650.599971 -20        -9999     
2650.699971 -20        -9999     
2650.799971 -20        -9999     
2650.899971 -20        -9999     
2650.999971 -20        -9999     
2651.099971 -20        -9999     
2651.199971 -20        -9999     
2651.299971 -20        -9999     
2651.399971 -20        -9999     
2651.499971 -20        -9999     
2651.599971 -20        -9999     
2651.699971 -20        -9999     
2651.799971 -20        -9999     
2651.899971 -20        -9999     
2651.999971 -20        -9999     
2652.099971 -20        -9999     
2652.199971 -20        -9999     
2652.299971 -20        -9999     
2652.399971 -20        -9999     
2652.499971 -20        -9999     
2652.599971 -20        -9999     
2652.699971 -20        -9999     
2652.799971 -20        -9999     
2652.899971 -20        -9999     
2652.999971 -20        -9999     
2653.099971 -20        -9999     
2653.199971 -20        -9999     
2653.299971 -20        -9999     
2653.399971 -20        -9999     
2653.499971 -20        -9999     
2653.599971 -20        -9999     
2653.699971 -20        -9999     
2653.799971 -20        -9999     
2653.899971 -20        -9999     
2653.999971 -20        -9999     
2654.099971 -20        -9999     
2654.199971 -20        -9999     
2654.299971 -20        -9999     
2654.399971 -20        -9999     
2654.499971 -20        -9999     
2654.59997 -20        -9999     
2654.69997 -20        -9999     
2654.79997 -20        -9999     
2654.89997 -20        -9999     
2654.99997 -20        -9999     
2655.09997 -20        -9999     
2655.19997 -20        -9999     
2655.29997 -20        -9999     
2655.39997 -20        -9999     
2655.49997 -20        -9999     
2655.59997 -20        -9999     
2655.69997 -20        -9999     
2655.79997 -20        -9999     
2655.89997 -20        -9999     
2655.99997 -20        -9999     
2656.09997 -20        -9999     
2656.19997 -20        -9999     
2656.29997 -20        -9999     
2656.39997 -20        -9999     
2656.49997 -20        -9999     
2656.59997 -20        -9999     
2656.69997 -20        -9999     
2656.79997 -20        -9999     
2656.89997 -20        -9999     
2656.99997 -20        -9999     
2657.09997 -20        -9999     
2657.19997 -20        -9999     
2657.29997 -20        -9999     
2657.39997 -20        -9999     
2657.49997 -20        -9999     
2657.59997 -20        -9999     
2657.69997 -20        -9999     
2657.79997 -20        -9999     
2657.89997 -20        -9999     
2657.99997 -20        -9999     
2658.09997 -20        -9999     
2658.19997 -20        -9999     
2658.29997 -20        -9999     
2658.39997 -20        -9999     
2658.49997 -20        -9999     
2658.59997 -20        -9999     
2658.69997 -20        -9999     
2658.79997 -20        -9999     
2658.89997 -20        -9999     
2658.99997 -20        -9999     
2659.09997 -20        -9999     
2659.19997 -20        -9999     
2659.29997 -20        -9999     
2659.39997 -20        -9999     
2659.49997 -20        -9999     
2659.59997 -20        -9999     
2659.69997 -20        -9999     
2659.79997 -20        -9999     
2659.89997 -20        -9999     
2659.99997 -20        -9999     
2660.09997 -20        -9999     
2660.19997 -20        -9999     
2660.29997 -20        -9999     
2660.39997 -20        -9999     
2660.49997 -20        -9999     
2660.59997 -20        -9999     
2660.69997 -20        -9999     
2660.79997 -20        -9999     
2660.89997 -20        -9999     
2660.99997 -20        -9999     
2661.09997 -20        -9999     
2661.19997 -20        -9999     
2661.29997 -20        -9999     
2661.39997 -20        -9999     
2661.49997 -20        -9999     
2661.59997 -20        -9999     
2661.69997 -20        -9999     
2661.79997 -20        -9999     
2661.89997 -20        -9999     
2661.99997 -20        -9999     
2662.09997 -20        -9999     
2662.19997 -20        -9999     
2662.29997 -20        -9999     
2662.39997 -20        -9999     
2662.49997 -20        -9999     
2662.59997 -20        -9999     
2662.69997 -20        -9999     
2662.79997 -20        -9999     
2662.89997 -20        -9999     
2662.99997 -20        -9999     
2663.09997 -20        -9999     
2663.19997 -20        -9999     
2663.29997 -20        -9999     
2663.39997 -20        -9999     
2663.49997 -20        -9999     
2663.59997 -20        -9999     
2663.69997 -20        -9999     
2663.79997 -20        -9999     
2663.89997 -20        -9999     
2663.99997 -20        -9999     
2664.09997 -20        -9999     
2664.19997 -20        -9999     
2664.29997 -20        -9999     
2664.39997 -20        -9999     
2664.49997 -20        -9999     
2664.599969 -20        -9999     
2664.699969 -20        -9999     
2664.799969 -20        -9999     
2664.899969 -20        -9999     
2664.999969 -20        -9999     
2665.099969 -20        -9999     
2665.199969 -20        -9999     
2665.299969 -20        -9999     
2665.399969 -20        -9999     
2665.499969 -20        -9999     
2665.599969 -20        -9999     
2665.699969 -20        -9999     
2665.799969 -20        -9999     
2665.899969 -20        -9999     
2665.999969 -20        -9999     
2666.099969 -20        -9999     
2666.199969 -20        -9999     
2666.299969 -20        -9999     
2666.399969 -20        -9999     
2666.499969 -20        -9999     
2666.599969 -20        -9999     
2666.699969 -20        -9999     
2666.799969 -20        -9999     
2666.899969 -20        -9999     
2666.999969 -20        -9999     
2667.099969 -20        -9999     
2667.199969 -20        -9999     
