~Version
 VERS              .         2.0                           : CWLS LOG ASCII STANDARD - VERSION 2.0
 WRAP              .         NO                            : ONE LINE PER DEPTH STEP
 DLM               .         SPACE                         : DELIMITING CHARACTER(SPACE TAB OR COMMA)
~Well Information
#_______________________________________________________________________________
#
#PARAMETER_NAME    .UNIT     VALUE                         : DESCRIPTION
#_______________________________________________________________________________
STRT               .m        2774.31                       : First reference value
STOP               .m        2936.209903                   : Last reference value
STEP               .m        0.09999994                    : Step increment
NULL               .         -9999                         : Missing value
COMP               .                                       : Company
WELL               .         303                           : Well name
FLD                .                                       : Field
LOC                .                                       : Location
CNTY               .                                       : County
STAT               .                                       : State
CTRY               .                                       : Country
SRVC               .                                       : Service Company
DATE               .                                       : Date
API                .                                       : API number
EREF               .m        138.34                        : 
Pad                .         3                             : 
X                  .m        219750                        : 
Y                  .m        249950                        : 
group              .         Pad3                          : 
Интер-р            .         Ярышев                        : 
Куст               .         3                             : 
Статус             .         Проверено                     : 
Тип                .         Нагнетательные                : 
~Parameter Information Block
#_______________________________________________________________________________
#
#PARAMETER_NAME    .UNIT     VALUE                         : DESCRIPTION
#_______________________________________________________________________________
SET                .         LAS1                          : 
REAL_CREATION_DATE .         Ср апр 11 2012-13_17_09       : 
TLFamily_DEPTH     .         Measured Depth                : 
TLFamily_KS        .         Potential Resistivity         : 
TLFamily_KS1       .         Extra Shallow Resistivity     : 
TLFamily_KS2       .         Shallow Resistivity           : 
TLFamily_KS3       .         Medium Resistivity            : 
TLFamily_KS4       .         Deep Resistivity              : 
TLFamily_KS5       .         Extra Deep Resistivity        : 
TLFamily_LLD       .         Lateral Log Resistivity       : 
TLFamily_OKS3      .         Medium Resistivity Inverted   : 
TLFamily_RM        .         Mud Resistivity               : 
group              .         INI                           : 
~Curve Information
#_______________________________________________________________________________
#
#LOGNAME           .UNIT     LOG_ID                        : DESCRIPTION
#_______________________________________________________________________________
DEPTH              .m                                      : Measured Depth 
KS                 .ohm.m                                  : Potential Resistivity 
KS1                .ohm.m                                  : Extra Shallow Resistivity 
KS2                .ohm.m                                  : Shallow Resistivity 
KS3                .ohm.m                                  : Medium Resistivity 
KS4                .ohm.m                                  : Deep Resistivity 
KS5                .ohm.m                                  : Extra Deep Resistivity 
LLD                .ohm.m                                  : Lateral Log Resistivity 
OKS3               .ohm.m                                  : Medium Resistivity Inverted 
RM                 .ohm.m                                  : Mud Resistivity 
~Ascii
# ...
2891.10993 3.5133     1.7991     4.7743     5.3855     5.7077     6.2275     3.6577     4.9296     0.061     
2891.20993 3.5244     1.7963     4.7542     5.3666     5.656      6.2002     3.6955     4.9088     0.061     
2891.30993 3.5355     1.7845     4.7232     5.355      5.6062     6.1881     3.7729     4.8692     0.06      
2891.40993 3.553      1.7933     4.7157     5.3309     5.5511     6.1807     3.8368     4.8243     0.059     
2891.50993 3.5678     1.7994     4.7045     5.3132     5.5023     6.1666     3.8639     4.7798     0.059     
2891.60993 3.5794     1.8058     4.7081     5.3007     5.4466     6.1467     3.8866     4.7268     0.06      
2891.70993 3.5788     1.8308     4.7459     5.282      5.3983     6.124      3.8689     4.672      0.061     
2891.809929 3.5668     1.8393     4.7592     5.2835     5.3507     6.0964     3.861      4.6208     0.062     
2891.909929 3.555      1.8691     4.8137     5.2944     5.303      6.0614     3.799      4.5508     0.063     
2892.009929 3.5434     1.8911     4.864      5.2931     5.2501     6.0236     3.6781     4.4876     0.064     
2892.109929 3.5238     1.8948     4.8789     5.2824     5.1935     5.98       3.6028     4.4246     0.063     
2892.209929 3.5108     1.8845     4.8742     5.2624     5.1284     5.9254     3.5505     4.3738     0.062     
2892.309929 3.4893     1.8803     4.8844     5.2204     5.052      5.8592     3.5078     4.3291     0.062     
2892.409929 3.4652     1.88       4.8896     5.176      4.971      5.7914     3.4587     4.2969     0.062     
2892.509929 3.4343     1.8793     4.9059     5.1341     4.8791     5.7203     3.3791     4.2776     0.062     
2892.609929 3.3921     1.8605     4.8861     5.0904     4.7922     5.6473     3.2734     4.2706     0.063     
2892.709929 3.3801     1.8457     4.8442     5.0327     4.6992     5.5757     3.1951     4.2643     0.063     
2892.809929 3.38       1.7721     4.7771     4.9654     4.6132     5.5011     3.1796     4.2673     0.062     
2892.909929 3.38       1.7515     4.7082     4.8957     4.5227     5.4263     3.1952     4.278      0.061     
2893.009929 3.38       1.7473     4.6579     4.8447     4.4503     5.3538     3.2317     4.3088     0.061     
2893.109929 3.3848     1.7292     4.604      4.7951     4.3858     5.2969     3.2272     4.3362     0.061     
2893.209929 3.3959     1.7207     4.5582     4.764      4.3299     5.2613     3.2026     4.3837     0.06      
2893.309929 3.3926     1.7157     4.5054     4.7313     4.2803     5.2268     3.1862     4.4693     0.059     
2893.409929 3.39       1.7052     4.3526     4.7001     4.2355     5.1952     3.2083     4.5489     0.059     
2893.509928 3.39       1.7335     4.4107     4.6907     4.1983     5.1699     3.3149     4.6337     0.06      
2893.609928 3.3925     1.7567     4.3883     4.6815     4.1716     5.1478     3.2656     4.713      0.062     
2893.709928 3.4        1.7227     4.2986     4.6679     4.1303     5.1291     3.1589     4.8267     0.064     
2893.809928 3.4        1.7064     4.2801     4.6426     4.1046     5.1082     3.2268     4.9092     0.064     
2893.909928 3.3924     1.7265     4.3113     4.6355     4.0812     5.0804     3.3365     4.9861     0.064     
2894.009928 3.3813     1.7557     4.3515     4.6006     4.0387     5.0594     3.3905     5.0677     0.063     
2894.109928 3.3703     1.7825     4.3776     4.5744     3.9979     5.0306     3.3105     5.1554     0.063     
2894.209928 3.3683     1.7506     4.2993     4.5452     3.9726     4.987      3.164      5.2395     0.062     
2894.309928 3.348      1.7494     4.2919     4.5209     3.9304     4.9444     3.1832     5.3238     0.062     
2894.409928 3.3318     1.7664     4.3058     4.4782     3.8841     4.9049     3.1658     5.4375     0.062     
2894.509928 3.3136     1.7482     4.2618     4.428      3.8289     4.8647     3.0134     5.5646     0.062     
2894.609928 3.3017     1.7242     4.2304     4.2101     3.7717     4.8262     2.9428     5.7019     0.063     
2894.709928 3.2697     1.6938     4.1664     4.1093     3.7127     4.7816     2.908      5.8569     0.063     
2894.809928 3.26       1.6736     4.1264     4.0262     3.6454     4.7404     2.9513     6.0404     0.062     
2894.909928 3.2631     1.6694     4.1028     3.9394     3.5934     4.7099     2.9262     6.2675     0.062     
2895.009928 3.2742     1.635      4.0374     3.8678     3.5375     4.6971     2.7974     6.5347     0.062     
2895.109928 3.2852     1.5857     3.9181     3.8027     3.4914     4.7079     2.7167     6.8647     0.06      
2895.209927 3.3027     1.5659     3.8122     3.7316     3.4547     4.7344     2.7399     7.2831     0.059     
2895.309927 3.3406     1.5554     3.7622     3.6627     3.4312     4.7828     2.6922     7.7761     0.06      
2895.409927 3.3865     1.5015     3.6066     3.6255     3.4151     4.8571     2.5898     8.3707     0.062     
2895.509927 3.4574     1.445      3.4625     3.601      3.4174     4.9386     2.6033     9.0988     0.063     
2895.609927 3.5466     1.3981     3.4006     3.5842     3.4536     5.0346     2.756      9.7892     0.064     
2895.709927 3.6578     1.3814     3.4147     3.6052     3.5202     5.1471     3.0719     10.4593    0.064     
2895.809927 3.7941     1.38       3.4183     3.6615     3.5974     5.2747     3.5159     10.9976    0.063     
2895.909927 3.9491     1.3929     3.4569     3.7285     3.6907     5.4151     4.0052     11.3663    0.062     
2896.009927 4.1245     1.4317     3.5213     3.7952     3.7898     5.5614     4.4837     11.6162    0.061     
2896.109927 4.3013     1.4907     3.6029     3.8704     3.8854     5.7138     4.8468     11.7957    0.061     
2896.209927 4.4769     1.5656     3.7102     3.9491     3.9584     5.8684     5.0859     11.9568    0.062     
2896.309927 4.6318     1.6246     3.8078     4.0355     4.0345     6.0141     5.2439     12.1232    0.062     
2896.409927 4.7816     1.6693     3.895      4.1203     4.1056     6.1463     5.306      12.3064    0.063     
2896.509927 4.9231     1.7128     4.0404     4.2122     4.1912     6.2884     5.6426     12.448     0.063     
2896.609927 5.0398     1.779      4.2486     4.3222     4.4443     6.4457     5.979      12.5811    0.062     
2896.709927 5.157      1.8282     4.4642     4.4499     4.5772     6.6186     6.0123     12.7604    0.061     
2896.809927 5.2498     1.8902     4.745      4.5661     4.6948     6.8115     6.0123     12.977     0.06      
2896.909926 5.3386     1.9174     4.9697     4.6825     4.8155     7.0204     6.0123     13.1561    0.06      
2897.009926 5.4119     1.9503     5.1817     4.8006     4.9307     7.2609     6.1902     13.311     0.06      
2897.109926 5.4779     1.9798     5.3885     4.9156     5.0553     7.5345     6.2565     13.4998    0.061     
2897.209926 5.5563     1.9893     5.5501     5.0431     5.2092     7.864      6.1235     13.7651    0.063     
2897.309926 5.611      1.9942     5.6662     5.2128     5.4224     8.2551     6.1712     14.1588    0.064     
2897.409926 5.6372     1.9995     5.7785     5.4384     5.672      8.6634     6.2962     14.6449    0.065     
2897.509926 5.6926     2.063      6.1221     5.6682     5.9288     9.0681     6.2923     15.1448    0.064     
2897.609926 5.7638     2.1821     6.5194     5.9132     6.1923     9.4993     6.2314     15.6027    0.063     
2897.709926 5.8349     2.0699     6.2998     6.2042     6.5076     9.9991     6.2359     16.0297    0.063     
2897.809926 5.9047     1.9786     6.1254     6.5227     6.8211     10.5957    6.3689     16.4317    0.063     
2897.909926 5.9938     1.9924     6.2343     6.8158     7.1102     11.273     5.7453     16.7143    0.063     
2898.009926 6.1279     2.0629     6.522      7.187      7.4119     12.0118    5.155      17.0002    0.063     
2898.109926 6.2524     2.0779     6.7167     7.5649     7.7472     12.8247    5.8639     17.4631    0.063     
2898.209926 6.3947     1.9961     6.5782     7.9312     8.0787     13.6733    6.5315     18.0576    0.063     
2898.309926 6.5547     1.9298     6.3363     8.1872     8.3593     14.5454    6.6565     18.6453    0.063     
