~Version
 VERS              .         2.0                           : CWLS LOG ASCII STANDARD - VERSION 2.0
 WRAP              .         NO                            : ONE LINE PER DEPTH STEP
 DLM               .         SPACE                         : DELIMITING CHARACTER(SPACE TAB OR COMMA)
~Well Information
#_______________________________________________________________________________
#
#PARAMETER_NAME    .UNIT     VALUE                         : DESCRIPTION
#_______________________________________________________________________________
STRT               .m        2774.31                       : First reference value
STOP               .m        2936.209903                   : Last reference value
STEP               .m        0.09999994                    : Step increment
NULL               .         -9999                         : Missing value
COMP               .                                       : Company
WELL               .         303                           : Well name
FLD                .                                       : Field
LOC                .                                       : Location
CNTY               .                                       : County
STAT               .                                       : State
CTRY               .                                       : Country
SRVC               .                                       : Service Company
DATE               .                                       : Date
API                .                                       : API number
EREF               .m        138.34                        : 
Pad                .         3                             : 
X                  .m        219750                        : 
Y                  .m        249950                        : 
group              .         Pad3                          : 
Интер-р            .         Ярышев                        : 
Куст               .         3                             : 
Статус             .         Проверено                     : 
Тип                .         Нагнетательные                : 
~Parameter Information Block
#_______________________________________________________________________________
#
#PARAMETER_NAME    .UNIT     VALUE                         : DESCRIPTION
#_______________________________________________________________________________
SET                .         LAS1                          : 
REAL_CREATION_DATE .         Ср апр 11 2012-13_17_09       : 
TLFamily_DEPTH     .         Measured Depth                : 
TLFamily_KS        .         Potential Resistivity         : 
TLFamily_KS1       .         Extra Shallow Resistivity     : 
TLFamily_KS2       .         Shallow Resistivity           : 
TLFamily_KS3       .         Medium Resistivity            : 
TLFamily_KS4       .         Deep Resistivity              : 
TLFamily_KS5       .         Extra Deep Resistivity        : 
TLFamily_LLD       .         Lateral Log Resistivity       : 
TLFamily_OKS3      .         Medium Resistivity Inverted   : 
TLFamily_RM        .         Mud Resistivity               : 
group              .         INI                           : 
~Curve Information
#_______________________________________________________________________________
#
#LOGNAME           .UNIT     LOG_ID                        : DESCRIPTION
#_______________________________________________________________________________
DEPTH              .m                                      : Measured Depth 
KS                 .ohm.m                                  : Potential Resistivity 
KS1                .ohm.m                                  : Extra Shallow Resistivity 
KS2                .ohm.m                                  : Shallow Resistivity 
KS3                .ohm.m                                  : Medium Resistivity 
KS4                .ohm.m                                  : Deep Resistivity 
KS5                .ohm.m                                  : Extra Deep Resistivity 
LLD                .ohm.m                                  : Lateral Log Resistivity 
OKS3               .ohm.m                                  : Medium Resistivity Inverted 
RM                 .ohm.m                                  : Mud Resistivity 
~Ascii
# ...
2796.209987 5.6433     1.7635     5.4245     7.2717     8.6087     9.3574     5.4281     10.4095    0.061     
2796.309987 5.7777     1.7653     5.4198     7.3639     8.8366     9.7018     5.6417     10.6056    0.061     
2796.409987 5.9158     1.7726     5.4715     7.5398     9.1638     10.0757    5.9346     10.769     0.061     
2796.509987 6.0641     1.807      5.491      7.8089     9.5599     10.5021    6.6972     11.0104    0.061     
2796.609987 6.2202     1.8799     5.7325     8.1467     9.9816     10.9656    7.7129     11.2671    0.062     
2796.709987 6.3619     1.9114     5.9296     8.5534     10.4602    11.4203    8.2261     11.3926    0.062     
2796.809986 6.4577     1.9677     6.1855     9.0868     10.9643    11.8131    8.2995     11.4603    0.064     
2796.909986 6.5192     2.083      6.5972     9.6618     11.4584    12.1769    9.4746     11.3952    0.066     
2797.009986 6.5575     2.2195     7.1287     10.316     11.9504    12.4909    13.3361    11.1142    0.066     
2797.109986 6.5349     2.4023     7.7655     11.0851    12.4581    12.6559    20.0309    10.664     0.067     
2797.209986 6.4084     2.6415     8.5109     11.9062    12.9869    12.6555    29.9144    10.1772    0.067     
2797.309986 6.2156     2.9113     9.2892     12.5905    13.2944    12.5179    35.5163    9.67       0.067     
2797.409986 5.9976     3.1959     10.0257    12.9993    13.3443    12.2461    30.1007    9.1917     0.066     
2797.509986 5.7842     3.2266     10.1397    13.0934    13.0926    11.8195    15.4708    8.7693     0.065     
2797.609986 5.5741     3.0807     9.8642     12.7779    12.5233    11.2747    8.3221     8.4215     0.064     
2797.709986 5.3839     2.9075     9.5568     12.1275    11.6918    10.6457    6.1995     8.1272     0.064     
2797.809986 5.223      2.7101     9.2016     11.4476    10.8563    9.9316     5.4406     7.8812     0.064     
2797.909986 5.0906     2.5135     8.7817     10.8072    10.0723    9.2078     4.9754     7.698      0.064     
2798.009986 4.9855     2.359      8.3925     10.2492    9.3793     8.5965     4.657      7.5949     0.063     
2798.109986 4.8927     2.2386     7.9911     9.7965     8.7972     8.0859     4.4943     7.5792     0.063     
2798.209986 4.8305     2.1357     7.5561     9.4204     8.2944     7.6903     4.3919     7.648      0.063     
2798.309986 4.7772     2.0723     7.1948     9.1146     7.9024     7.3835     4.3178     7.7814     0.063     
2798.409986 4.7511     1.9715     6.7515     8.9055     7.6088     7.141      4.248      8.0113     0.063     
2798.509985 4.73       1.9229     6.4289     8.7365     7.3852     6.9404     4.1946     8.2968     0.063     
2798.609985 4.7353     1.9002     6.213      8.6312     7.2181     6.7681     4.2739     8.6635     0.063     
2798.709985 4.7524     1.8611     5.9776     8.5931     7.1548     6.634      4.3352     9.0456     0.063     
2798.809985 4.7811     1.8274     5.81       8.5793     7.1035     6.5374     4.4624     9.3592     0.063     
2798.909985 4.8291     1.8114     5.6726     8.5618     7.0833     6.4759     4.9445     9.6066     0.062     
2799.009985 4.9029     1.8163     5.6241     8.6126     7.0892     6.4323     5.5897     9.7648     0.063     
2799.109985 4.9817     1.8267     5.5725     8.7001     7.0936     6.3873     6.0036     9.7556     0.063     
2799.209985 5.0434     1.854      5.5651     8.8051     7.1339     6.3362     6.4934     9.6415     0.063     
2799.309985 5.0634     1.9245     5.6316     8.9652     7.1987     6.2829     7.2968     9.553      0.062     
2799.409985 5.07       2.0133     5.7706     9.0583     7.2567     6.2346     7.4942     9.5217     0.062     
2799.509985 5.07       2.1314     5.9956     9.0782     7.2781     6.1881     6.8504     9.5267     0.061     
2799.609985 5.0485     2.163      6.0693     8.999      7.2571     6.1419     6.0431     9.5724     0.062     
2799.709985 5.0085     2.1385     6.0333     8.8375     7.187      6.0943     5.5597     9.6344     0.061     
2799.809985 4.9914     2.1086     5.9885     8.5932     7.054      6.0389     5.4164     9.7367     0.061     
2799.909985 4.9806     2.0793     6.0522     8.3345     6.9251     5.9762     5.4101     9.8333     0.061     
2800.009985 4.9904     2.0475     6.0417     8.0935     6.8275     5.9125     5.2952     9.9186     0.061     
2800.109985 5.0049     2.0065     5.9615     7.8419     6.7466     5.857      5.1187     10.0992    0.061     
2800.209984 5.0394     1.9541     5.8611     7.5965     6.6829     5.8245     5.0409     10.2818    0.061     
2800.309984 5.083      1.9111     5.6966     7.3933     6.6763     5.8119     5.047      10.5187    0.061     
2800.409984 5.1284     1.8383     5.5409     7.2643     6.7317     5.81       5.0726     10.7604    0.062     
2800.509984 5.1698     1.8162     5.5025     7.2064     6.8253     5.8153     5.2886     10.9975    0.062     
2800.609984 5.214      1.8471     5.6002     7.2054     6.9895     5.8379     5.7385     11.2289    0.063     
2800.709984 5.2768     1.8881     5.7131     7.2577     7.1784     5.8811     6.0791     11.4321    0.063     
2800.809984 5.3519     1.8839     5.6733     7.3569     7.3648     5.9396     6.0342     11.471     0.064     
2800.909984 5.438      1.8548     5.6275     7.446      7.5351     5.999      6.0907     11.4231    0.065     
2801.009984 5.5247     1.8774     5.6945     7.5331     7.7168     6.0406     6.598      11.3615    0.066     
2801.109984 5.6061     1.8901     5.7272     7.6802     7.9605     6.0639     7.2009     11.2914    0.066     
2801.209984 5.6806     1.9102     5.7962     7.8922     8.2225     6.0735     7.6262     11.0973    0.065     
2801.309984 5.7624     1.9607     5.9324     8.0549     8.4154     6.0948     7.8693     10.8401    0.065     
2801.409984 5.8342     2.0175     6.1221     8.19       8.5911     6.1371     8.1974     10.5985    0.066     
2801.509984 5.9212     2.0518     6.1586     8.2983     8.6617     6.1792     8.0521     10.3392    0.066     
2801.609984 5.9657     2.0514     6.1954     8.3821     8.7381     6.222      7.5431     10.1254    0.064     
2801.709984 6          2.0065     6.174      8.4717     8.8331     6.268      7.5615     9.9716     0.062     
2801.809983 6.0028     2.0619     6.3099     8.5674     8.9298     6.2977     7.8592     9.8387     0.062     
2801.909983 6.0064     2.1707     6.7115     8.7076     9.0725     6.3141     7.9283     9.7534     0.063     
2802.009983 5.9816     2.1843     6.8712     8.9787     9.2404     6.3336     7.8708     9.667      0.063     
2802.109983 5.9542     2.1942     7.0422     9.1715     9.2957     6.3551     7.8875     9.4899     0.063     
2802.209983 5.9572     2.2438     7.3172     9.249      9.2643     6.3809     7.8512     9.3256     0.063     
2802.309983 5.96       2.2329     7.2495     9.3197     9.2346     6.3989     7.5322     9.1691     0.064     
2802.409983 5.9704     2.1991     7.1975     9.3657     9.1504     6.3894     7.0386     8.9622     0.064     
2802.509983 5.98       2.1669     7.1392     9.3499     9.0318     6.3728     6.8222     8.7782     0.064     
2802.609983 5.9663     2.1247     7.0664     9.3637     8.9792     6.3612     7.0421     8.6324     0.064     
2802.709983 5.96       2.129      7.0426     9.4036     8.9481     6.3526     7.3231     8.4529     0.064     
2802.809983 5.944      2.1627     7.0952     9.4765     8.9315     6.3536     7.4825     8.2818     0.064     
2802.909983 5.898      2.1565     7.1451     9.651      8.9863     6.3756     7.6064     8.1638     0.064     
2803.009983 5.8647     2.1842     7.137      9.8606     9.0971     6.4265     7.632      8.0451     0.064     
2803.109983 5.8054     2.2283     7.2643     10.0649    9.2119     6.4951     7.6791     7.903      0.064     
2803.209983 5.7144     2.2462     7.4167     10.2868    9.3623     6.5651     7.4953     7.8299     0.064     
2803.309983 5.6239     2.258      7.4735     10.6089    9.5905     6.6278     7.2823     7.8383     0.064     
2803.409983 5.5447     2.3493     7.746      10.8748    9.7574     6.6916     6.9952     7.8419     0.064     
