~Version
 VERS              .         2.0                           : CWLS LOG ASCII STANDARD - VERSION 2.0
 WRAP              .         NO                            : ONE LINE PER DEPTH STEP
 DLM               .         SPACE                         : DELIMITING CHARACTER(SPACE TAB OR COMMA)
~Well Information
#_______________________________________________________________________________
#
#PARAMETER_NAME    .UNIT     VALUE                         : DESCRIPTION
#_______________________________________________________________________________
STRT               .m        2774.31                       : First reference value
STOP               .m        2936.209903                   : Last reference value
STEP               .m        0.09999994                    : Step increment
NULL               .         -9999                         : Missing value
COMP               .                                       : Company
WELL               .         303                           : Well name
FLD                .                                       : Field
LOC                .                                       : Location
CNTY               .                                       : County
STAT               .                                       : State
CTRY               .                                       : Country
SRVC               .                                       : Service Company
DATE               .                                       : Date
API                .                                       : API number
EREF               .m        138.34                        : 
Pad                .         3                             : 
X                  .m        219750                        : 
Y                  .m        249950                        : 
group              .         Pad3                          : 
Интер-р            .         Ярышев                        : 
Куст               .         3                             : 
Статус             .         Проверено                     : 
Тип                .         Нагнетательные                : 
~Parameter Information Block
#_______________________________________________________________________________
#
#PARAMETER_NAME    .UNIT     VALUE                         : DESCRIPTION
#_______________________________________________________________________________
SET                .         LAS1                          : 
REAL_CREATION_DATE .         Ср апр 11 2012-13_17_09       : 
TLFamily_DEPTH     .         Measured Depth                : 
TLFamily_KS        .         Potential Resistivity         : 
TLFamily_KS1       .         Extra Shallow Resistivity     : 
TLFamily_KS2       .         Shallow Resistivity           : 
TLFamily_KS3       .         Medium Resistivity            : 
TLFamily_KS4       .         Deep Resistivity              : 
TLFamily_KS5       .         Extra Deep Resistivity        : 
TLFamily_LLD       .         Lateral Log Resistivity       : 
TLFamily_OKS3      .         Medium Resistivity Inverted   : 
TLFamily_RM        .         Mud Resistivity               : 
group              .         INI                           : 
~Curve Information
#_______________________________________________________________________________
#
#LOGNAME           .UNIT     LOG_ID                        : DESCRIPTION
#_______________________________________________________________________________
DEPTH              .m                                      : Measured Depth 
KS                 .ohm.m                                  : Potential Resistivity 
KS1                .ohm.m                                  : Extra Shallow Resistivity 
KS2                .ohm.m                                  : Shallow Resistivity 
KS3                .ohm.m                                  : Medium Resistivity 
KS4                .ohm.m                                  : Deep Resistivity 
KS5                .ohm.m                                  : Extra Deep Resistivity 
LLD                .ohm.m                                  : Lateral Log Resistivity 
OKS3               .ohm.m                                  : Medium Resistivity Inverted 
RM                 .ohm.m                                  : Mud Resistivity 
~Ascii
# ...
2818.109974 5.49       2.1982     6.8627     9.5597     7.8172     5.1642     6.0471     9.9103     0.066     
2818.209974 5.496      2.2027     6.8894     9.5159     7.9003     5.1311     6.131      9.9423     0.066     
2818.309974 5.5074     2.2172     6.9444     9.4658     7.9591     5.0974     6.1839     9.9693     0.067     
2818.409974 5.5186     2.2235     6.9422     9.395      8.0051     5.0629     6.0532     9.9792     0.066     
2818.509973 5.5297     2.2137     6.9129     9.328      8.0463     5.0268     5.9788     10.0171    0.065     
2818.609973 5.53       2.1947     6.8588     9.2563     8.0836     4.99       6.0169     10.0736    0.064     
2818.709973 5.5288     2.199      6.8927     9.1953     8.1263     4.9577     6.1101     10.1316    0.064     
2818.809973 5.5178     2.2193     6.9457     9.1647     8.1809     4.9275     6.2924     10.1866    0.064     
2818.909973 5.5068     2.2493     7.0306     9.1692     8.233      4.8917     6.4316     10.2291    0.064     
2819.009973 5.4867     2.2643     7.0687     9.205      8.279      4.8499     6.3538     10.2483    0.063     
2819.109973 5.4581     2.2631     7.0946     9.2769     8.3249     4.8063     6.3165     10.2387    0.064     
2819.209973 5.4275     2.3032     7.2332     9.3084     8.3516     4.7573     6.5625     10.2116    0.064     
2819.309973 5.4018     2.3278     7.3029     9.2957     8.3036     4.699      6.4752     10.1869    0.064     
2819.409973 5.3795     2.3165     7.258      9.2508     8.1953     4.6354     6.0462     10.1646    0.064     
2819.509973 5.3685     2.2778     7.1011     9.1413     8.0233     4.5661     5.6191     10.1784    0.064     
2819.609973 5.3554     2.2325     6.9615     9.0029     7.8306     4.4946     5.3684     10.2484    0.064     
2819.709973 5.3366     2.1912     6.849      8.8635     7.6686     4.4188     5.2837     10.3736    0.064     
2819.809973 5.3253     2.1676     6.7608     8.7724     7.528      4.3457     5.2875     10.5146    0.065     
2819.909973 5.32       2.1515     6.7376     8.6829     7.3991     4.2765     5.3632     10.6644    0.064     
2820.009973 5.327      2.1415     6.6991     8.5884     7.2833     4.2152     5.4006     10.8184    0.064     
2820.109973 5.3468     2.1053     6.5505     8.4994     7.1612     4.1804     5.2315     11.1644    0.063     
2820.209972 5.3699     2.0632     6.4098     8.3965     7.0525     4.1591     5.1793     11.3924    0.063     
2820.309972 5.4141     2.0358     6.3197     8.2935     6.9583     4.1444     5.2524     11.6108    0.063     
2820.409972 5.4531     2.0214     6.2486     8.239      6.9084     4.1422     5.4181     11.8418    0.063     
2820.509972 5.5123     2.0032     6.1862     8.2129     6.8798     4.1529     5.6862     12.0715    0.063     
2820.609972 5.577      2.0115     6.1842     8.2015     6.8642     4.1798     5.963      12.3247    0.062     
2820.709972 5.6409     2.0092     6.1535     8.2145     6.8822     4.2251     6.0629     12.5681    0.062     
2820.809972 5.706      1.9959     6.0978     8.2676     6.9382     4.2793     6.0898     12.7915    0.062     
2820.909972 5.7719     2.0134     6.1491     8.3384     7.0121     4.338      6.3273     13.0156    0.061     
2821.009972 5.8312     2.0501     6.2132     8.4465     7.135      4.404      6.6543     13.2504    0.062     
2821.109972 5.8894     2.0935     6.3829     8.5978     7.2969     4.4751     6.9597     13.4433    0.063     
2821.209972 5.9389     2.1236     6.4819     8.7453     7.4658     4.5569     7.0512     13.6478    0.063     
2821.309972 6.0051     2.1474     6.5675     8.8607     7.6065     4.6518     7.0462     13.8877    0.063     
2821.409972 6.0663     2.168      6.6358     8.9346     7.7154     4.7584     7.0272     14.1573    0.065     
2821.509972 6.1323     2.1673     6.6626     8.9711     7.8153     4.8784     6.8666     14.4406    0.066     
2821.609972 6.1976     2.1567     6.6659     8.9995     7.9141     5.0161     6.7406     14.7517    0.067     
2821.709972 6.2625     2.1457     6.6696     9.0183     8.0381     5.1575     6.7965     15.0837    0.067     
2821.809971 6.3189     2.1461     6.7293     9.0763     8.1991     5.296      7.0845     15.4303    0.067     
2821.909971 6.374      2.1624     6.8197     9.2024     8.4218     5.4364     7.5481     15.7479    0.067     
2822.009971 6.4201     2.1904     6.9891     9.387      8.6892     5.5735     7.9451     16.0127    0.067     
2822.109971 6.4658     2.2389     7.2181     9.5904     8.9374     5.701      8.319      16.2184    0.066     
2822.209971 6.5092     2.2945     7.4467     9.8069     9.16       5.8134     8.49       16.3703    0.065     
2822.309971 6.5436     2.3219     7.5634     9.9965     9.3166     5.9138     8.5003     16.4374    0.065     
2822.409971 6.5827     2.3557     7.6775     10.1029    9.3572     5.9962     8.4662     16.4695    0.064     
2822.509971 6.6335     2.382      7.7578     10.1193    9.3162     6.0557     8.2027     16.5135    0.064     
2822.609971 6.7132     2.369      7.7366     10.116     9.2338     6.0837     7.6664     16.5631    0.064     
2822.709971 6.7475     2.3276     7.6104     10.0966    9.1276     6.0846     7.3684     16.6774    0.064     
2822.809971 6.7803     2.3203     7.5728     10.0599    9.0097     6.0766     7.5624     16.8405    0.065     
2822.909971 6.804      2.3117     7.597      10.0416    8.9192     6.0668     7.664      16.9811    0.066     
2823.009971 6.8417     2.3193     7.611      10.0845    8.8721     6.06       7.6462     17.1614    0.066     
2823.109971 6.8928     2.3345     7.6657     10.1256    8.8213     6.0628     7.7602     17.3939    0.065     
2823.209971 6.9567     2.3021     7.696      10.139     8.7679     6.0783     7.6001     17.6759    0.065     
2823.309971 7.0329     2.2523     7.6245     10.1346    8.694      6.1089     7.1707     18.0047    0.065     
2823.409971 7.1093     2.2062     7.395      10.1056    8.6059     6.1534     6.9265     18.3925    0.064     
2823.50997 7.1849     2.1776     7.3273     10.0629    8.5431     6.2157     6.9849     18.7931    0.064     
2823.60997 7.271      2.1476     7.2495     10.0701    8.5217     6.2783     7.3525     19.076     0.063     
2823.70997 7.3701     2.1989     7.3605     10.1264    8.5261     6.3358     7.9548     19.305     0.063     
2823.80997 7.4993     2.2273     7.4986     10.2112    8.5557     6.3974     8.7948     19.5299    0.063     
2823.90997 7.6288     2.2105     7.4291     10.3172    8.6036     6.4672     8.9617     19.6767    0.063     
2824.00997 7.7723     2.195      7.3825     10.4741    8.6594     6.5507     8.5441     19.7856    0.062     
2824.10997 7.9176     2.2057     7.4024     10.5879    8.6936     6.6465     8.6103     19.9025    0.062     
2824.20997 8.0673     2.2007     7.3714     10.6641    8.7354     6.7473     9.1847     20.0298    0.062     
2824.30997 8.2204     2.2        7.3941     10.7681    8.8166     6.8499     9.4778     20.145     0.062     
2824.40997 8.3554     2.2067     7.4102     10.9246    8.9388     6.9576     9.8074     20.2006    0.062     
2824.50997 8.485      2.2407     7.5588     11.1116    9.0947     7.068      10.1067    20.2553    0.061     
2824.60997 8.6022     2.2841     7.7503     11.6167    9.3152     7.1745     10.8945    20.3198    0.061     
2824.70997 8.7134     2.3115     7.9765     11.9795    9.5913     7.2756     12.0181    20.2198    0.062     
2824.80997 8.8292     2.398      8.291      12.3289    9.9024     7.372      12.8336    19.9878    0.062     
2824.90997 8.9169     2.4662     8.5682     12.6798    10.2142    7.4697     14.2839    19.6648    0.063     
2825.00997 8.9861     2.527      8.8063     13.0622    10.529     7.5563     15.825     19.3255    0.063     
2825.10997 9.0481     2.5774     9.0375     13.413     10.8539    7.6258     16.254     18.9425    0.064     
2825.209969 9.0874     2.6397     9.3295     13.7223    11.1262    7.6734     15.9029    18.6213    0.066     
2825.309969 9.1094     2.6882     9.4917     14.0035    11.3811    7.7066     14.8581    18.3664    0.067     
