~Version
 VERS              .         2.0                           : CWLS LOG ASCII STANDARD - VERSION 2.0
 WRAP              .         NO                            : ONE LINE PER DEPTH STEP
 DLM               .         SPACE                         : DELIMITING CHARACTER(SPACE TAB OR COMMA)
~Well Information
#_______________________________________________________________________________
#
#PARAMETER_NAME    .UNIT     VALUE                         : DESCRIPTION
#_______________________________________________________________________________
STRT               .m        2774.31                       : First reference value
STOP               .m        2936.209903                   : Last reference value
STEP               .m        0.09999994                    : Step increment
NULL               .         -9999                         : Missing value
COMP               .                                       : Company
WELL               .         303                           : Well name
FLD                .                                       : Field
LOC                .                                       : Location
CNTY               .                                       : County
STAT               .                                       : State
CTRY               .                                       : Country
SRVC               .                                       : Service Company
DATE               .                                       : Date
API                .                                       : API number
EREF               .m        138.34                        : 
Pad                .         3                             : 
X                  .m        219750                        : 
Y                  .m        249950                        : 
group              .         Pad3                          : 
Интер-р            .         Ярышев                        : 
Куст               .         3                             : 
Статус             .         Проверено                     : 
Тип                .         Нагнетательные                : 
~Parameter Information Block
#_______________________________________________________________________________
#
#PARAMETER_NAME    .UNIT     VALUE                         : DESCRIPTION
#_______________________________________________________________________________
SET                .         LAS1                          : 
REAL_CREATION_DATE .         Ср апр 11 2012-13_17_09       : 
TLFamily_DEPTH     .         Measured Depth                : 
TLFamily_KS        .         Potential Resistivity         : 
TLFamily_KS1       .         Extra Shallow Resistivity     : 
TLFamily_KS2       .         Shallow Resistivity           : 
TLFamily_KS3       .         Medium Resistivity            : 
TLFamily_KS4       .         Deep Resistivity              : 
TLFamily_KS5       .         Extra Deep Resistivity        : 
TLFamily_LLD       .         Lateral Log Resistivity       : 
TLFamily_OKS3      .         Medium Resistivity Inverted   : 
TLFamily_RM        .         Mud Resistivity               : 
group              .         INI                           : 
~Curve Information
#_______________________________________________________________________________
#
#LOGNAME           .UNIT     LOG_ID                        : DESCRIPTION
#_______________________________________________________________________________
DEPTH              .m                                      : Measured Depth 
KS                 .ohm.m                                  : Potential Resistivity 
KS1                .ohm.m                                  : Extra Shallow Resistivity 
KS2                .ohm.m                                  : Shallow Resistivity 
KS3                .ohm.m                                  : Medium Resistivity 
KS4                .ohm.m                                  : Deep Resistivity 
KS5                .ohm.m                                  : Extra Deep Resistivity 
LLD                .ohm.m                                  : Lateral Log Resistivity 
OKS3               .ohm.m                                  : Medium Resistivity Inverted 
RM                 .ohm.m                                  : Mud Resistivity 
~Ascii
# ...
2781.609996 6.23       2.3608     8.3773     16.7532    13.9435    4.0387     6.5945     12.2194    0.063     
2781.709996 6.1972     2.3238     8.1474     16.2511    13.754     4.1888     6.5485     12.3471    0.064     
2781.809995 6.1649     2.29       7.9385     15.7339    13.6089    4.3115     6.4156     12.5201    0.065     
2781.909995 6.1385     2.2987     7.8503     15.2063    13.4376    4.4131     6.3594     12.7135    0.065     
2782.009995 6.1236     2.2955     7.7954     14.6854    13.3116    4.5025     6.3695     12.9367    0.066     
2782.109995 6.1283     2.275      7.6678     14.1397    13.1507    4.5766     6.3937     13.2669    0.066     
2782.209995 6.1493     2.2382     7.516      13.5271    12.981     4.6414     6.1517     13.6661    0.066     
2782.309995 6.183      2.1841     7.2894     12.8779    12.7938    4.6986     5.8937     14.0092    0.066     
2782.409995 6.2207     2.1187     7.0236     12.2786    12.6049    4.752      5.8128     13.8491    0.066     
2782.509995 6.2672     2.085      6.9045     11.7754    12.4592    4.7971     6.3453     13.45      0.066     
2782.609995 6.3817     2.0982     6.8904     11.4025    12.3988    4.8401     7.4203     13.1891    0.066     
2782.709995 6.4471     2.1039     6.8706     11.1495    12.4325    4.8809     7.932      13.1997    0.065     
2782.809995 6.5289     2.1372     6.8898     10.9525    12.4948    4.9296     8.0682     13.4251    0.064     
2782.909995 6.5965     2.1703     6.9455     10.7674    12.5626    4.9868     7.9547     13.6694    0.064     
2783.009995 6.6717     2.1794     6.9505     10.6212    12.6601    5.0489     7.8709     13.7362    0.064     
2783.109995 6.7415     2.1715     6.8951     10.5055    12.7587    5.1229     7.769      13.7581    0.064     
2783.209995 6.8397     2.1788     6.8906     10.3896    12.8177    5.2137     7.7037     13.76      0.064     
2783.309995 6.9501     2.1684     6.9248     10.2719    12.8651    5.3211     7.6394     13.7773    0.064     
2783.409995 7.0653     2.1464     6.9604     10.2051    12.9283    5.4458     7.6621     13.8282    0.064     
2783.509994 7.1757     2.1274     6.9906     10.1801    12.9726    5.5991     7.7983     13.8887    0.064     
2783.609994 7.267      2.1045     7.0304     10.1888    12.9912    5.7896     8.0264     13.9745    0.064     
2783.709994 7.336      2.1307     7.0479     10.2797    13.0974    6.0142     8.4014     14.0753    0.064     
2783.809994 7.3908     2.2011     7.0779     10.4663    13.2677    6.2526     9.0112     14.0806    0.064     
2783.909994 7.422      2.2944     7.4714     10.7386    13.4862    6.4841     10.2354    13.9486    0.065     
2784.009994 7.4421     2.3819     7.9009     11.0684    13.7305    6.7124     12.4215    13.7543    0.065     
2784.109994 7.4537     2.4108     8.35       11.4991    14.015     6.9484     15.0456    13.464     0.066     
2784.209994 7.4654     2.443      8.8595     11.9336    14.2804    7.1791     16.6183    13.0814    0.066     
2784.309994 7.4774     2.4843     9.3087     12.3728    14.4868    7.3704     18.0446    12.6832    0.065     
2784.409994 7.471      2.5461     9.5383     12.7916    14.5998    7.4985     18.2701    12.3483    0.065     
2784.509994 7.4202     2.6303     9.5863     13.1498    14.627     7.5877     15.8252    12.0708    0.064     
2784.609994 7.3037     2.7308     9.6179     13.6774    14.5279    7.6714     12.158     11.9146    0.064     
2784.709994 7.0789     2.8299     9.6579     13.876     14.3371    7.7253     9.5804     11.9363    0.063     
2784.809994 6.7532     2.8372     9.6782     13.9094    14.066     7.7343     8.2929     12.1942    0.063     
2784.909994 6.4813     2.7876     9.6633     13.8508    13.7591    7.71       7.3318     12.5961    0.063     
2785.009994 6.3482     2.6109     9.5844     13.7075    13.4629    7.6688     6.6743     13.0329    0.063     
2785.109994 6.3611     2.417      9.5014     13.4199    13.155     7.6247     6.319      13.4718    0.063     
2785.209993 6.4825     2.2332     9.376      13.0886    12.8201    7.5843     6.2171     13.8834    0.063     
2785.309993 6.6113     2.0901     9.1898     12.7201    12.4507    7.5467     6.1098     14.2499    0.063     
2785.409993 6.7161     2.0448     8.935      12.3581    12.1194    7.5088     5.9062     14.5948    0.063     
2785.509993 6.7505     2.209      8.4037     12.061     11.8106    7.493      5.789      14.913     0.063     
2785.609993 6.76       2.2485     7.6673     11.8556    11.543     7.5146     5.7422     15.2364    0.063     
2785.709993 6.7629     2.2321     7.1255     11.7874    11.349     7.5569     5.7585     15.5443    0.063     
2785.809993 6.7777     2.23       7.3121     11.8639    11.2671    7.5906     5.9415     15.7701    0.063     
2785.909993 6.7947     2.23       7.3881     11.9748    11.3518    7.6096     6.4984     15.7097    0.063     
2786.009993 6.8174     2.2265     7.2054     12.0442    11.4868    7.6258     7.7452     15.4571    0.064     
2786.109993 6.8652     2.2206     7.3916     12.1094    11.5808    7.646      10.6711    15.1468    0.064     
2786.209993 6.9555     2.2148     7.4437     12.1849    11.6511    7.6753     13.2258    14.789     0.064     
2786.309993 7.0398     2.2168     7.4227     12.2968    11.6706    7.7133     10.1273    14.4047    0.065     
2786.409993 7.1049     2.2046     7.42       12.4341    11.5637    7.7448     8.1223     14.1829    0.066     
2786.509993 7.1414     2.1824     7.42       12.4947    11.375     7.7581     7.6217     14.0972    0.066     
2786.609993 7.186      2.2129     7.4165     12.2512    11.239     7.7243     7.5837     14.0597    0.067     
2786.709993 7.2446     2.2518     7.3978     11.9058    11.2206    7.6616     8.033      14.0902    0.067     
2786.809993 7.3546     2.247      7.3345     11.4781    11.189     7.629      8.4636     14.17      0.067     
2786.909992 7.4905     2.178      7.148      10.9658    11.0788    7.6439     7.8819     14.2353    0.066     
2787.009992 7.6154     2.0772     6.9913     11.1178    10.9321    7.7013     7.2148     14.1989    0.066     
2787.109992 7.7298     2.0307     7.0782     12.2385    10.8479    7.7959     7.1832     14.0403    0.066     
2787.209992 7.8328     2.0996     7.415      13.3451    11.0921    7.909      8.6359     13.7217    0.066     
2787.309992 7.896      2.1843     7.6571     13.7558    11.7028    8.0232     12.6961    13.2235    0.065     
2787.409992 7.9097     2.38       8.1769     13.7685    12.3444    8.132      18.5851    12.6568    0.064     
2787.509992 7.8564     2.6361     8.8523     13.7606    12.8486    8.2515     29.3411    12.099     0.064     
2787.609992 7.7679     2.866      9.4458     13.76      13.1254    8.3867     37.522     11.6505    0.064     
2787.709992 7.6574     2.9932     9.8797     13.76      13.2107    8.5104     29.0714    11.333     0.063     
2787.809992 7.5315     2.9887     9.9283     13.7565    13.1913    8.5991     19.2971    11.1504    0.063     
2787.909992 7.3866     2.9063     9.8625     13.7506    13.1303    8.6421     11.9384    11.1207    0.064     
2788.009992 7.2236     2.7974     9.6046     13.7291    13.0677    8.6249     8.6554     11.1949    0.064     
2788.109992 7.0967     2.7116     9.5185     13.6737    13.0132    8.5618     7.4796     11.2663    0.064     
2788.209992 6.985      2.6341     9.4944     13.6669    12.9396    8.4697     7.3407     11.2954    0.064     
2788.309992 6.8852     2.5553     9.3588     13.6517    12.8568    8.364      7.7117     11.3483    0.064     
2788.409992 6.7922     2.4727     9.1931     13.6279    12.7184    8.2586     7.858      11.4599    0.065     
2788.509991 6.7162     2.4464     9.1406     13.5395    12.6196    8.1521     7.6815     11.6068    0.064     
2788.609991 6.6494     2.4387     9.0401     13.4634    12.5136    8.0492     7.4779     11.7437    0.064     
2788.709991 6.584      2.4045     8.8044     13.4014    12.2966    7.9545     7.3106     11.8916    0.064     
2788.809991 6.5394     2.3683     8.5631     13.3364    12.0101    7.8674     7.2096     12.0623    0.064     
