~Version
 VERS              .         2.0                           : CWLS LOG ASCII STANDARD - VERSION 2.0
 WRAP              .         NO                            : ONE LINE PER DEPTH STEP
 DLM               .         SPACE                         : DELIMITING CHARACTER(SPACE TAB OR COMMA)
~Well Information
#_______________________________________________________________________________
#
#PARAMETER_NAME    .UNIT     VALUE                         : DESCRIPTION
#_______________________________________________________________________________
STRT               .m        2359.5                        : First reference value
STOP               .m        2938.199942                   : Last reference value
STEP               .m        0.09999999                    : Step increment
NULL               .         -9999                         : Missing value
COMP               .                                       : Company
WELL               .         303                           : Well name
FLD                .                                       : Field
LOC                .                                       : Location
CNTY               .                                       : County
STAT               .                                       : State
CTRY               .                                       : Country
SRVC               .                                       : Service Company
DATE               .                                       : Date
API                .                                       : API number
EREF               .m        138.34                        : 
Pad                .         3                             : 
X                  .m        219750                        : 
Y                  .m        249950                        : 
group              .         Pad3                          : 
Интер-р            .         Ярышев                        : 
Куст               .         3                             : 
Статус             .         Проверено                     : 
Тип                .         Нагнетательные                : 
~Parameter Information Block
#_______________________________________________________________________________
#
#PARAMETER_NAME    .UNIT     VALUE                         : DESCRIPTION
#_______________________________________________________________________________
SET                .         LAS3                          : 
REAL_CREATION_DATE .         Ср апр 11 2012-13_17_09       : 
TLFamily_DEPTH     .         Measured Depth                : 
TLFamily_GR        .         Gamma Ray                     : 
TLFamily_TNPH      .         Neutron Porosity              : 
group              .         INI                           : 
~Curve Information
#_______________________________________________________________________________
#
#LOGNAME           .UNIT     LOG_ID                        : DESCRIPTION
#_______________________________________________________________________________
DEPTH              .m                                      : Measured Depth 
GR                 .gAPI                                   :  
TNPH               .v/v                                    : Neutron Porosity 
~Ascii
# ...
2572.599979 -20        -9999     
2572.699979 -20        -9999     
2572.799979 -20        -9999     
2572.899979 -20        -9999     
2572.999979 -20        -9999     
2573.099979 -20        -9999     
2573.199979 -20        -9999     
2573.299979 -20        -9999     
2573.399979 -20        -9999     
2573.499979 -20        -9999     
2573.599979 -20        -9999     
2573.699979 -20        -9999     
2573.799979 -20        -9999     
2573.899979 -20        -9999     
2573.999979 -20        -9999     
2574.099979 -20        -9999     
2574.199979 -20        -9999     
2574.299979 -20        -9999     
2574.399979 -20        -9999     
2574.499978 -20        -9999     
2574.599978 -20        -9999     
2574.699978 -20        -9999     
2574.799978 -20        -9999     
2574.899978 -20        -9999     
2574.999978 -20        -9999     
2575.099978 -20        -9999     
2575.199978 -20        -9999     
2575.299978 -20        -9999     
2575.399978 -20        -9999     
2575.499978 -20        -9999     
2575.599978 -20        -9999     
2575.699978 -20        -9999     
2575.799978 -20        -9999     
2575.899978 -20        -9999     
2575.999978 -20        -9999     
2576.099978 -20        -9999     
2576.199978 -20        -9999     
2576.299978 -20        -9999     
2576.399978 -20        -9999     
2576.499978 -20        -9999     
2576.599978 -20        -9999     
2576.699978 -20        -9999     
2576.799978 -20        -9999     
2576.899978 -20        -9999     
2576.999978 -20        -9999     
2577.099978 -20        -9999     
2577.199978 -20        -9999     
2577.299978 -20        -9999     
2577.399978 -20        -9999     
2577.499978 -20        -9999     
2577.599978 -20        -9999     
2577.699978 -20        -9999     
2577.799978 -20        -9999     
2577.899978 -20        -9999     
2577.999978 -20        -9999     
2578.099978 -20        -9999     
2578.199978 -20        -9999     
2578.299978 -20        -9999     
2578.399978 -20        -9999     
2578.499978 -20        -9999     
2578.599978 -20        -9999     
2578.699978 -20        -9999     
2578.799978 -20        -9999     
2578.899978 -20        -9999     
2578.999978 -20        -9999     
2579.099978 -20        -9999     
2579.199978 -20        -9999     
2579.299978 -20        -9999     
2579.399978 -20        -9999     
2579.499978 -20        -9999     
2579.599978 -20        -9999     
2579.699978 -20        -9999     
2579.799978 -20        -9999     
2579.899978 -20        -9999     
2579.999978 -20        -9999     
2580.099978 -20        -9999     
2580.199978 -20        -9999     
2580.299978 -20        -9999     
2580.399978 -20        -9999     
2580.499978 -20        -9999     
2580.599978 -20        -9999     
2580.699978 -20        -9999     
2580.799978 -20        -9999     
2580.899978 -20        -9999     
2580.999978 -20        -9999     
2581.099978 -20        -9999     
2581.199978 -20        -9999     
2581.299978 -20        -9999     
2581.399978 -20        -9999     
2581.499978 -20        -9999     
2581.599978 -20        -9999     
2581.699978 -20        -9999     
2581.799978 -20        -9999     
2581.899978 -20        -9999     
2581.999978 -20        -9999     
2582.099978 -20        -9999     
2582.199978 -20        -9999     
2582.299978 -20        -9999     
2582.399978 -20        -9999     
2582.499978 -20        -9999     
2582.599978 -20        -9999     
2582.699978 -20        -9999     
2582.799978 -20        -9999     
2582.899978 -20        -9999     
2582.999978 -20        -9999     
2583.099978 -20        -9999     
2583.199978 -20        -9999     
2583.299978 -20        -9999     
2583.399978 -20        -9999     
2583.499978 -20        -9999     
2583.599978 -20        -9999     
2583.699978 -20        -9999     
2583.799978 -20        -9999     
2583.899978 -20        -9999     
2583.999978 -20        -9999     
2584.099978 -20        -9999     
2584.199978 -20        -9999     
2584.299978 -20        -9999     
2584.399978 -20        -9999     
2584.499978 -20        -9999     
2584.599977 -20        -9999     
2584.699977 -20        -9999     
2584.799977 -20        -9999     
2584.899977 -20        -9999     
2584.999977 -20        -9999     
2585.099977 -20        -9999     
2585.199977 -20        -9999     
2585.299977 -20        -9999     
2585.399977 -20        -9999     
2585.499977 -20        -9999     
2585.599977 -20        -9999     
2585.699977 -20        -9999     
2585.799977 -20        -9999     
2585.899977 -20        -9999     
2585.999977 -20        -9999     
2586.099977 -20        -9999     
2586.199977 -20        -9999     
2586.299977 -20        -9999     
2586.399977 -20        -9999     
2586.499977 -20        -9999     
2586.599977 -20        -9999     
2586.699977 -20        -9999     
2586.799977 -20        -9999     
2586.899977 -20        -9999     
2586.999977 -20        -9999     
2587.099977 -20        -9999     
2587.199977 -20        -9999     
2587.299977 -20        -9999     
2587.399977 -20        -9999     
2587.499977 -20        -9999     
2587.599977 -20        -9999     
2587.699977 -20        -9999     
2587.799977 -20        -9999     
2587.899977 -20        -9999     
2587.999977 -20        -9999     
2588.099977 -20        -9999     
2588.199977 -20        -9999     
2588.299977 -20        -9999     
2588.399977 -20        -9999     
2588.499977 -20        -9999     
2588.599977 -20        -9999     
2588.699977 -20        -9999     
2588.799977 -20        -9999     
2588.899977 -20        -9999     
2588.999977 -20        -9999     
2589.099977 -20        -9999     
2589.199977 -20        -9999     
2589.299977 -20        -9999     
2589.399977 -20        -9999     
2589.499977 -20        -9999     
2589.599977 -20        -9999     
2589.699977 -20        -9999     
2589.799977 -20        -9999     
2589.899977 -20        -9999     
2589.999977 -20        -9999     
2590.099977 -20        -9999     
2590.199977 -20        -9999     
2590.299977 -20        -9999     
2590.399977 -20        -9999     
2590.499977 -20        -9999     
2590.599977 -20        -9999     
2590.699977 -20        -9999     
2590.799977 -20        -9999     
2590.899977 -20        -9999     
2590.999977 -20        -9999     
2591.099977 -20        -9999     
2591.199977 -20        -9999     
2591.299977 -20        -9999     
2591.399977 -20        -9999     
2591.499977 -20        -9999     
2591.599977 -20        -9999     
2591.699977 -20        -9999     
2591.799977 -20        -9999     
2591.899977 -20        -9999     
2591.999977 -20        -9999     
2592.099977 -20        -9999     
2592.199977 -20        -9999     
2592.299977 -20        -9999     
2592.399977 -20        -9999     
2592.499977 -20        -9999     
2592.599977 -20        -9999     
2592.699977 -20        -9999     
2592.799977 -20        -9999     
2592.899977 -20        -9999     
2592.999977 -20        -9999     
2593.099977 -20        -9999     
2593.199977 -20        -9999     
2593.299977 -20        -9999     
2593.399977 -20        -9999     
2593.499977 -20        -9999     
2593.599977 -20        -9999     
2593.699977 -20        -9999     
2593.799977 -20        -9999     
2593.899977 -20        -9999     
2593.999977 -20        -9999     
2594.099977 -20        -9999     
2594.199977 -20        -9999     
2594.299977 -20        -9999     
2594.399977 -20        -9999     
2594.499977 -20        -9999     
2594.599976 -20        -9999     
2594.699976 -20        -9999     
2594.799976 -20        -9999     
2594.899976 -20        -9999     
2594.999976 -20        -9999     
2595.099976 -20        -9999     
2595.199976 -20        -9999     
2595.299976 -20        -9999     
2595.399976 -20        -9999     
2595.499976 -20        -9999     
2595.599976 -20        -9999     
2595.699976 -20        -9999     
2595.799976 -20        -9999     
2595.899976 -20        -9999     
2595.999976 -20        -9999     
2596.099976 -20        -9999     
