~Version
 VERS              .         2.0                           : CWLS LOG ASCII STANDARD - VERSION 2.0
 WRAP              .         NO                            : ONE LINE PER DEPTH STEP
 DLM               .         SPACE                         : DELIMITING CHARACTER(SPACE TAB OR COMMA)
~Well Information
#_______________________________________________________________________________
#
#PARAMETER_NAME    .UNIT     VALUE                         : DESCRIPTION
#_______________________________________________________________________________
STRT               .m        2359.5                        : First reference value
STOP               .m        2938.199942                   : Last reference value
STEP               .m        0.09999999                    : Step increment
NULL               .         -9999                         : Missing value
COMP               .                                       : Company
WELL               .         303                           : Well name
FLD                .                                       : Field
LOC                .                                       : Location
CNTY               .                                       : County
STAT               .                                       : State
CTRY               .                                       : Country
SRVC               .                                       : Service Company
DATE               .                                       : Date
API                .                                       : API number
EREF               .m        138.34                        : 
Pad                .         3                             : 
X                  .m        219750                        : 
Y                  .m        249950                        : 
group              .         Pad3                          : 
Интер-р            .         Ярышев                        : 
Куст               .         3                             : 
Статус             .         Проверено                     : 
Тип                .         Нагнетательные                : 
~Parameter Information Block
#_______________________________________________________________________________
#
#PARAMETER_NAME    .UNIT     VALUE                         : DESCRIPTION
#_______________________________________________________________________________
SET                .         LAS3                          : 
REAL_CREATION_DATE .         Ср апр 11 2012-13_17_09       : 
TLFamily_DEPTH     .         Measured Depth                : 
TLFamily_GR        .         Gamma Ray                     : 
TLFamily_TNPH      .         Neutron Porosity              : 
group              .         INI                           : 
~Curve Information
#_______________________________________________________________________________
#
#LOGNAME           .UNIT     LOG_ID                        : DESCRIPTION
#_______________________________________________________________________________
DEPTH              .m                                      : Measured Depth 
GR                 .gAPI                                   :  
TNPH               .v/v                                    : Neutron Porosity 
~Ascii
# ...
2477.899988 -20        -9999     
2477.999988 -20        -9999     
2478.099988 -20        -9999     
2478.199988 -20        -9999     
2478.299988 -20        -9999     
2478.399988 -20        -9999     
2478.499988 -20        -9999     
2478.599988 -20        -9999     
2478.699988 -20        -9999     
2478.799988 -20        -9999     
2478.899988 -20        -9999     
2478.999988 -20        -9999     
2479.099988 -20        -9999     
2479.199988 -20        -9999     
2479.299988 -20        -9999     
2479.399988 -20        -9999     
2479.499988 -20        -9999     
2479.599988 -20        -9999     
2479.699988 -20        -9999     
2479.799988 -20        -9999     
2479.899988 -20        -9999     
2479.999988 -20        -9999     
2480.099988 -20        -9999     
2480.199988 -20        -9999     
2480.299988 -20        -9999     
2480.399988 -20        -9999     
2480.499988 -20        -9999     
2480.599988 -20        -9999     
2480.699988 -20        -9999     
2480.799988 -20        -9999     
2480.899988 -20        -9999     
2480.999988 -20        -9999     
2481.099988 -20        -9999     
2481.199988 -20        -9999     
2481.299988 -20        -9999     
2481.399988 -20        -9999     
2481.499988 -20        -9999     
2481.599988 -20        -9999     
2481.699988 -20        -9999     
2481.799988 -20        -9999     
2481.899988 -20        -9999     
2481.999988 -20        -9999     
2482.099988 -20        -9999     
2482.199988 -20        -9999     
2482.299988 -20        -9999     
2482.399988 -20        -9999     
2482.499988 -20        -9999     
2482.599988 -20        -9999     
2482.699988 -20        -9999     
2482.799988 -20        -9999     
2482.899988 -20        -9999     
2482.999988 -20        -9999     
2483.099988 -20        -9999     
2483.199988 -20        -9999     
2483.299988 -20        -9999     
2483.399988 -20        -9999     
2483.499988 -20        -9999     
2483.599988 -20        -9999     
2483.699988 -20        -9999     
2483.799988 -20        -9999     
2483.899988 -20        -9999     
2483.999988 -20        -9999     
2484.099988 -20        -9999     
2484.199988 -20        -9999     
2484.299988 -20        -9999     
2484.399988 -20        -9999     
2484.499987 -20        -9999     
2484.599987 -20        -9999     
2484.699987 -20        -9999     
2484.799987 -20        -9999     
2484.899987 -20        -9999     
2484.999987 -20        -9999     
2485.099987 -20        -9999     
2485.199987 -20        -9999     
2485.299987 -20        -9999     
2485.399987 -20        -9999     
2485.499987 -20        -9999     
2485.599987 -20        -9999     
2485.699987 -20        -9999     
2485.799987 -20        -9999     
2485.899987 -20        -9999     
2485.999987 -20        -9999     
2486.099987 -20        -9999     
2486.199987 -20        -9999     
2486.299987 -20        -9999     
2486.399987 -20        -9999     
2486.499987 -20        -9999     
2486.599987 -20        -9999     
2486.699987 -20        -9999     
2486.799987 -20        -9999     
2486.899987 -20        -9999     
2486.999987 -20        -9999     
2487.099987 -20        -9999     
2487.199987 -20        -9999     
2487.299987 -20        -9999     
2487.399987 -20        -9999     
2487.499987 -20        -9999     
2487.599987 -20        -9999     
2487.699987 -20        -9999     
2487.799987 -20        -9999     
2487.899987 -20        -9999     
2487.999987 -20        -9999     
2488.099987 -20        -9999     
2488.199987 -20        -9999     
2488.299987 -20        -9999     
2488.399987 -20        -9999     
2488.499987 -20        -9999     
2488.599987 -20        -9999     
2488.699987 -20        -9999     
2488.799987 -20        -9999     
2488.899987 -20        -9999     
2488.999987 -20        -9999     
2489.099987 -20        -9999     
2489.199987 -20        -9999     
2489.299987 -20        -9999     
2489.399987 -20        -9999     
2489.499987 -20        -9999     
2489.599987 -20        -9999     
2489.699987 -20        -9999     
2489.799987 -20        -9999     
2489.899987 -20        -9999     
2489.999987 -20        -9999     
2490.099987 -20        -9999     
2490.199987 -20        -9999     
2490.299987 -20        -9999     
2490.399987 -20        -9999     
2490.499987 -20        -9999     
2490.599987 -20        -9999     
2490.699987 -20        -9999     
2490.799987 -20        -9999     
2490.899987 -20        -9999     
2490.999987 -20        -9999     
2491.099987 -20        -9999     
2491.199987 -20        -9999     
2491.299987 -20        -9999     
2491.399987 -20        -9999     
2491.499987 -20        -9999     
2491.599987 -20        -9999     
2491.699987 -20        -9999     
2491.799987 -20        -9999     
2491.899987 -20        -9999     
2491.999987 -20        -9999     
2492.099987 -20        -9999     
2492.199987 -20        -9999     
2492.299987 -20        -9999     
2492.399987 -20        -9999     
2492.499987 -20        -9999     
2492.599987 -20        -9999     
2492.699987 -20        -9999     
2492.799987 -20        -9999     
2492.899987 -20        -9999     
2492.999987 -20        -9999     
2493.099987 -20        -9999     
2493.199987 -20        -9999     
2493.299987 -20        -9999     
2493.399987 -20        -9999     
2493.499987 -20        -9999     
2493.599987 -20        -9999     
2493.699987 -20        -9999     
2493.799987 -20        -9999     
2493.899987 -20        -9999     
2493.999987 -20        -9999     
2494.099987 -20        -9999     
2494.199987 -20        -9999     
2494.299987 -20        -9999     
2494.399987 -20        -9999     
2494.499986 -20        -9999     
2494.599986 -20        -9999     
2494.699986 -20        -9999     
2494.799986 -20        -9999     
2494.899986 -20        -9999     
2494.999986 -20        -9999     
2495.099986 -20        -9999     
2495.199986 -20        -9999     
2495.299986 -20        -9999     
2495.399986 -20        -9999     
2495.499986 -20        -9999     
2495.599986 -20        -9999     
2495.699986 -20        -9999     
2495.799986 -20        -9999     
2495.899986 -20        -9999     
2495.999986 -20        -9999     
2496.099986 -20        -9999     
2496.199986 -20        -9999     
2496.299986 -20        -9999     
2496.399986 -20        -9999     
2496.499986 -20        -9999     
2496.599986 -20        -9999     
2496.699986 -20        -9999     
2496.799986 -20        -9999     
2496.899986 -20        -9999     
2496.999986 -20        -9999     
2497.099986 -20        -9999     
2497.199986 -20        -9999     
2497.299986 -20        -9999     
2497.399986 -20        -9999     
2497.499986 -20        -9999     
2497.599986 -20        -9999     
2497.699986 -20        -9999     
2497.799986 -20        -9999     
2497.899986 -20        -9999     
2497.999986 -20        -9999     
2498.099986 -20        -9999     
2498.199986 -20        -9999     
2498.299986 -20        -9999     
2498.399986 -20        -9999     
2498.499986 -20        -9999     
2498.599986 -20        -9999     
2498.699986 -20        -9999     
2498.799986 -20        -9999     
2498.899986 -20        -9999     
2498.999986 -20        -9999     
2499.099986 -20        -9999     
2499.199986 -20        -9999     
2499.299986 -20        -9999     
2499.399986 -20        -9999     
2499.499986 -20        -9999     
2499.599986 -20        -9999     
2499.699986 -20        -9999     
2499.799986 -20        -9999     
2499.899986 -20        -9999     
2499.999986 -20        -9999     
2500.099986 -20        -9999     
2500.199986 -20        -9999     
2500.299986 -20        -9999     
2500.399986 -20        -9999     
2500.499986 -20        -9999     
2500.599986 -20        -9999     
2500.699986 -20        -9999     
2500.799986 -20        -9999     
2500.899986 -20        -9999     
2500.999986 -20        -9999     
2501.099986 -20        -9999     
2501.199986 -20        -9999     
2501.299986 -20        -9999     
2501.399986 -20        -9999     
