~Version
 VERS              .         2.0                           : CWLS LOG ASCII STANDARD - VERSION 2.0
 WRAP              .         NO                            : ONE LINE PER DEPTH STEP
 DLM               .         SPACE                         : DELIMITING CHARACTER(SPACE TAB OR COMMA)
~Well Information
#_______________________________________________________________________________
#
#PARAMETER_NAME    .UNIT     VALUE                         : DESCRIPTION
#_______________________________________________________________________________
STRT               .m        2774.31                       : First reference value
STOP               .m        2936.209903                   : Last reference value
STEP               .m        0.09999994                    : Step increment
NULL               .         -9999                         : Missing value
COMP               .                                       : Company
WELL               .         303                           : Well name
FLD                .                                       : Field
LOC                .                                       : Location
CNTY               .                                       : County
STAT               .                                       : State
CTRY               .                                       : Country
SRVC               .                                       : Service Company
DATE               .                                       : Date
API                .                                       : API number
EREF               .m        138.34                        : 
Pad                .         3                             : 
X                  .m        219750                        : 
Y                  .m        249950                        : 
group              .         Pad3                          : 
Интер-р            .         Ярышев                        : 
Куст               .         3                             : 
Статус             .         Проверено                     : 
Тип                .         Нагнетательные                : 
~Parameter Information Block
#_______________________________________________________________________________
#
#PARAMETER_NAME    .UNIT     VALUE                         : DESCRIPTION
#_______________________________________________________________________________
SET                .         LAS1                          : 
REAL_CREATION_DATE .         Ср апр 11 2012-13_17_09       : 
TLFamily_DEPTH     .         Measured Depth                : 
TLFamily_KS        .         Potential Resistivity         : 
TLFamily_KS1       .         Extra Shallow Resistivity     : 
TLFamily_KS2       .         Shallow Resistivity           : 
TLFamily_KS3       .         Medium Resistivity            : 
TLFamily_KS4       .         Deep Resistivity              : 
TLFamily_KS5       .         Extra Deep Resistivity        : 
TLFamily_LLD       .         Lateral Log Resistivity       : 
TLFamily_OKS3      .         Medium Resistivity Inverted   : 
TLFamily_RM        .         Mud Resistivity               : 
group              .         INI                           : 
~Curve Information
#_______________________________________________________________________________
#
#LOGNAME           .UNIT     LOG_ID                        : DESCRIPTION
#_______________________________________________________________________________
DEPTH              .m                                      : Measured Depth 
KS                 .ohm.m                                  : Potential Resistivity 
KS1                .ohm.m                                  : Extra Shallow Resistivity 
KS2                .ohm.m                                  : Shallow Resistivity 
KS3                .ohm.m                                  : Medium Resistivity 
KS4                .ohm.m                                  : Deep Resistivity 
KS5                .ohm.m                                  : Extra Deep Resistivity 
LLD                .ohm.m                                  : Lateral Log Resistivity 
OKS3               .ohm.m                                  : Medium Resistivity Inverted 
RM                 .ohm.m                                  : Mud Resistivity 
~Ascii
# ...
2854.609952 9.362      3.1824     13.3108    27.805     32.7703    20.9901    10.5892    10.764     0.062     
2854.709952 9.1984     3.1108     12.8679    27.4972    32.6506    20.5694    9.9546     10.447     0.061     
2854.809952 9.0168     3.03       12.3903    27.0389    32.3299    20.1438    10.4584    10.1551    0.061     
2854.909952 8.805      3.0071     12.2429    26.4953    31.9228    19.6961    10.5873    9.8919     0.062     
2855.009952 8.5952     3.0095     12.1257    26.0764    31.6288    19.2111    10.3       9.6433     0.063     
2855.109952 8.3909     2.988      11.94      25.7578    31.3849    18.7187    9.8484     9.3966     0.063     
2855.209951 8.2177     2.9369     11.7406    25.3676    31.0492    18.2915    9.4675     9.1563     0.065     
2855.309951 8.0432     2.9087     11.5406    24.9155    30.701     17.9268    9.3553     8.9294     0.066     
2855.409951 7.8608     2.8802     11.3852    24.4422    30.4059    17.5653    9.3833     8.7018     0.066     
2855.509951 7.6672     2.8612     11.2573    24.0629    30.1845    17.1963    9.4619     8.471      0.066     
2855.609951 7.4866     2.8617     11.1235    23.6824    30.0062    16.828     9.688      8.2411     0.066     
2855.709951 7.3165     2.8872     11.1474    23.3152    29.8143    16.4727    9.3004     7.9996     0.066     
2855.809951 7.1548     2.8847     11.0633    22.8803    29.5326    16.1333    8.4763     7.7793     0.066     
2855.909951 7.0139     2.8618     10.9237    22.3335    29.136     15.7992    7.4279     7.5836     0.066     
2856.009951 6.85       2.7991     10.5723    21.65      28.5851    15.4447    6.9232     7.4207     0.066     
2856.109951 6.6797     2.7203     10.2294    20.9824    28.0291    15.0596    7.2077     7.2627     0.066     
2856.209951 6.4926     2.6755     10.0736    20.3498    27.4039    14.6264    7.7387     7.0871     0.066     
2856.309951 6.3205     2.6871     10.0693    19.7422    26.8048    14.1642    7.5389     6.9363     0.066     
2856.409951 6.1586     2.6851     9.9214     19.269     26.3281    13.7117    6.8871     6.7973     0.065     
2856.509951 5.9974     2.6344     9.6993     18.8448    25.8082    13.2916    6.587      6.6399     0.064     
2856.609951 5.8336     2.6064     9.5606     18.3239    25.1058    12.8909    6.2962     6.4833     0.064     
2856.709951 5.6777     2.5758     9.3663     17.7503    24.3228    12.475     5.8878     6.3602     0.064     
2856.809951 5.5216     2.5194     9.0707     17.1715    23.5024    12.0248    5.6312     6.2718     0.064     
2856.90995 5.3835     2.4778     8.8274     16.4802    22.5787    11.5661    5.3696     6.2101     0.063     
2857.00995 5.2451     2.4259     8.5886     15.7338    21.6384    11.1322    5.0825     6.1774     0.064     
2857.10995 5.1181     2.3856     8.32       14.9789    20.6853    10.7104    4.8862     6.1551     0.064     
2857.20995 5.0152     2.3194     8.0378     14.2195    19.7007    10.2961    4.7039     6.1372     0.064     
2857.30995 4.9305     2.2408     7.6832     13.5476    18.8141    9.9133     4.5323     6.1465     0.064     
2857.40995 4.8399     2.1559     7.3112     12.9503    18.0067    9.6011     4.478      6.1788     0.063     
2857.50995 4.7626     2.11       7.1052     12.4112    17.2709    9.3579     4.3301     6.2623     0.063     
2857.60995 4.6878     2.1164     7.0538     11.9951    16.6443    9.1466     3.9978     6.4053     0.063     
2857.70995 4.6245     2.0851     6.8275     11.681     16.1526    8.9788     4.0564     6.5787     0.062     
2857.80995 4.5794     2.0068     6.5566     11.393     15.701     8.8556     4.3732     6.7337     0.061     
2857.90995 4.5379     1.9626     6.4022     11.0979    15.2357    8.7729     4.7222     6.8368     0.06      
2858.00995 4.5144     1.9485     6.301      10.8372    14.8163    8.7032     4.9261     6.894      0.06      
2858.10995 4.5171     1.9444     6.2377     10.6012    14.4416    8.6226     4.9137     6.904      0.06      
2858.20995 4.5284     1.9494     6.158      10.3538    14.0826    8.5488     4.8365     6.8721     0.061     
2858.30995 4.5492     1.9564     6.0543     10.0703    13.6811    8.5063     4.7163     6.8184     0.061     
2858.40995 4.5808     1.9673     5.9738     9.7641     13.2451    8.4834     4.4441     6.8013     0.062     
2858.509949 4.6022     1.9439     5.8432     9.4652     12.8411    8.4703     4.2167     6.8664     0.062     
2858.609949 4.6219     1.8948     5.6279     9.1909     12.5018    8.4544     4.2959     6.9442     0.062     
2858.709949 4.6329     1.8829     5.5123     8.9266     12.2034    8.4428     4.6464     7.0135     0.063     
2858.809949 4.6521     1.9017     5.5417     8.7129     11.9635    8.4456     4.9049     7.0758     0.064     
2858.909949 4.6866     1.921      5.6239     8.5583     11.7465    8.4658     4.8861     7.1307     0.065     
2859.009949 4.7283     1.922      5.6407     8.4163     11.5362    8.5082     4.7637     7.1847     0.065     
2859.109949 4.7832     1.9062     5.5969     8.269      11.3426    8.5729     4.8286     7.2387     0.065     
2859.209949 4.8107     1.9004     5.6023     8.1416     11.1976    8.6421     5.1803     7.2796     0.064     
2859.309949 4.8411     1.9233     5.6931     8.0494     11.0982    8.711      5.6793     7.2811     0.064     
2859.409949 4.852      1.9664     5.8186     7.9984     11.0262    8.773      6.0099     7.2502     0.064     
2859.509949 4.8656     2.0101     5.9321     7.9817     10.9468    8.8225     6.0807     7.1927     0.064     
2859.609949 4.8765     2.05       6.0089     7.971      10.8566    8.8566     6.0263     7.1111     0.063     
2859.709949 4.8564     2.0784     6.0676     7.97       10.7454    8.8618     6.2445     6.9836     0.063     
2859.809949 4.8163     2.1325     6.2437     7.97       10.5924    8.8326     6.307      6.8244     0.063     
2859.909949 4.763      2.2134     6.4711     7.9554     10.3959    8.7672     5.7651     6.6667     0.063     
2860.009949 4.7139     2.2668     6.6066     7.9223     10.1315    8.6683     5.024      6.5366     0.063     
2860.109949 4.6568     2.2592     6.5689     7.8407     9.7535     8.5495     4.4929     6.3696     0.063     
2860.209948 4.5995     2.2102     6.4257     7.6975     9.312      8.4181     4.2268     6.3131     0.063     
2860.309948 4.5355     2.1605     6.3054     7.498      8.8629     8.2696     4.1331     6.2919     0.064     
2860.409948 4.481      2.0902     6.1872     7.3122     8.4569     8.1013     4.1493     6.307      0.064     
2860.509948 4.4361     2.0403     6.106      7.1427     8.0906     7.9273     4.0915     6.3842     0.064     
2860.609948 4.3982     1.983      5.9892     7.0058     7.7789     7.7651     4.0312     6.5015     0.063     
2860.709948 4.3674     1.9271     5.8524     6.8985     7.4992     7.6307     4.0738     6.6293     0.062     
2860.809948 4.3451     1.9021     5.7885     6.7923     7.2563     7.5329     4.0788     6.7671     0.061     
2860.909948 4.3311     1.8887     5.747      6.7142     7.0304     7.4625     4.0352     6.916      0.061     
2861.009948 4.3405     1.8674     5.6298     6.6572     6.8419     7.4144     3.9608     7.0852     0.06      
2861.109948 4.352      1.8203     5.4739     6.6178     6.6711     7.3777     4.006      7.2567     0.06      
2861.209948 4.36       1.775      5.3086     6.6016     6.5416     7.3507     4.3095     7.4076     0.06      
2861.309948 4.36       1.7863     5.2404     6.611      6.443      7.3374     4.7684     7.5422     0.061     
2861.409948 4.3704     1.8351     5.3033     6.6317     6.3492     7.3389     4.8827     7.6881     0.062     
2861.509948 4.3981     1.88       5.3811     6.6584     6.2617     7.3442     4.5363     7.8486     0.063     
2861.609948 4.4304     1.8707     5.2986     6.6903     6.1657     7.3537     4.3722     8.006      0.064     
2861.709948 4.4557     1.8411     5.1493     6.6953     6.0494     7.3536     4.7122     8.153      0.064     
2861.809947 4.4508     1.8369     5.1267     6.6746     5.9438     7.3385     4.867      8.2949     0.065     
