~Version
 VERS              .         2.0                           : CWLS LOG ASCII STANDARD - VERSION 2.0
 WRAP              .         NO                            : ONE LINE PER DEPTH STEP
 DLM               .         SPACE                         : DELIMITING CHARACTER(SPACE TAB OR COMMA)
~Well Information
#_______________________________________________________________________________
#
#PARAMETER_NAME    .UNIT     VALUE                         : DESCRIPTION
#_______________________________________________________________________________
STRT               .m        2359.5                        : First reference value
STOP               .m        2938.199942                   : Last reference value
STEP               .m        0.09999999                    : Step increment
NULL               .         -9999                         : Missing value
COMP               .                                       : Company
WELL               .         303                           : Well name
FLD                .                                       : Field
LOC                .                                       : Location
CNTY               .                                       : County
STAT               .                                       : State
CTRY               .                                       : Country
SRVC               .                                       : Service Company
DATE               .                                       : Date
API                .                                       : API number
EREF               .m        138.34                        : 
Pad                .         3                             : 
X                  .m        219750                        : 
Y                  .m        249950                        : 
group              .         Pad3                          : 
Интер-р            .         Ярышев                        : 
Куст               .         3                             : 
Статус             .         Проверено                     : 
Тип                .         Нагнетательные                : 
~Parameter Information Block
#_______________________________________________________________________________
#
#PARAMETER_NAME    .UNIT     VALUE                         : DESCRIPTION
#_______________________________________________________________________________
SET                .         LAS3                          : 
REAL_CREATION_DATE .         Ср апр 11 2012-13_17_09       : 
TLFamily_DEPTH     .         Measured Depth                : 
TLFamily_GR        .         Gamma Ray                     : 
TLFamily_TNPH      .         Neutron Porosity              : 
group              .         INI                           : 
~Curve Information
#_______________________________________________________________________________
#
#LOGNAME           .UNIT     LOG_ID                        : DESCRIPTION
#_______________________________________________________________________________
DEPTH              .m                                      : Measured Depth 
GR                 .gAPI                                   :  
TNPH               .v/v                                    : Neutron Porosity 
~Ascii
# ...
2690.899967 -20        -9999     
2690.999967 -20        -9999     
2691.099967 -20        -9999     
2691.199967 -20        -9999     
2691.299967 -20        -9999     
2691.399967 -20        -9999     
2691.499967 -20        -9999     
2691.599967 -20        -9999     
2691.699967 -20        -9999     
2691.799967 -20        -9999     
2691.899967 -20        -9999     
2691.999967 -20        -9999     
2692.099967 -20        -9999     
2692.199967 -20        -9999     
2692.299967 -20        -9999     
2692.399967 -20        -9999     
2692.499967 -20        -9999     
2692.599967 -20        -9999     
2692.699967 -20        -9999     
2692.799967 -20        -9999     
2692.899967 -20        -9999     
2692.999967 -20        -9999     
2693.099967 -20        -9999     
2693.199967 -20        -9999     
2693.299967 -20        -9999     
2693.399967 -20        -9999     
2693.499967 -20        -9999     
2693.599967 -20        -9999     
2693.699967 -20        -9999     
2693.799967 -20        -9999     
2693.899967 -20        -9999     
2693.999967 -20        -9999     
2694.099967 -20        -9999     
2694.199967 -20        -9999     
2694.299967 -20        -9999     
2694.399967 -20        -9999     
2694.499967 -20        -9999     
2694.599966 -20        -9999     
2694.699966 -20        -9999     
2694.799966 -20        -9999     
2694.899966 -20        -9999     
2694.999966 -20        -9999     
2695.099966 -20        -9999     
2695.199966 -20        -9999     
2695.299966 -20        -9999     
2695.399966 -20        -9999     
2695.499966 -20        -9999     
2695.599966 -20        -9999     
2695.699966 -20        -9999     
2695.799966 -20        -9999     
2695.899966 -20        -9999     
2695.999966 -20        -9999     
2696.099966 -20        -9999     
2696.199966 -20        -9999     
2696.299966 -20        -9999     
2696.399966 -20        -9999     
2696.499966 -20        -9999     
2696.599966 -20        -9999     
2696.699966 -20        -9999     
2696.799966 -20        -9999     
2696.899966 -20        -9999     
2696.999966 -20        -9999     
2697.099966 -20        -9999     
2697.199966 -20        -9999     
2697.299966 -20        -9999     
2697.399966 -20        -9999     
2697.499966 -20        -9999     
2697.599966 -20        -9999     
2697.699966 -20        -9999     
2697.799966 -20        -9999     
2697.899966 -20        -9999     
2697.999966 -20        -9999     
2698.099966 -20        -9999     
2698.199966 -20        -9999     
2698.299966 -20        -9999     
2698.399966 -20        -9999     
2698.499966 -20        -9999     
2698.599966 -20        -9999     
2698.699966 -20        -9999     
2698.799966 -20        -9999     
2698.899966 -20        -9999     
2698.999966 -20        -9999     
2699.099966 -20        -9999     
2699.199966 -20        -9999     
2699.299966 -20        -9999     
2699.399966 -20        -9999     
2699.499966 -20        -9999     
2699.599966 -20        -9999     
2699.699966 -20        -9999     
2699.799966 -20        -9999     
2699.899966 -20        -9999     
2699.999966 -20        -9999     
2700.099966 -20        -9999     
2700.199966 -20        -9999     
2700.299966 -20        -9999     
2700.399966 -20        -9999     
2700.499966 -20        -9999     
2700.599966 -20        -9999     
2700.699966 -20        -9999     
2700.799966 -20        -9999     
2700.899966 -20        -9999     
2700.999966 -20        -9999     
2701.099966 -20        -9999     
2701.199966 -20        -9999     
2701.299966 -20        -9999     
2701.399966 -20        -9999     
2701.499966 -20        -9999     
2701.599966 -20        -9999     
2701.699966 -20        -9999     
2701.799966 -20        -9999     
2701.899966 -20        -9999     
2701.999966 -20        -9999     
2702.099966 -20        -9999     
2702.199966 -20        -9999     
2702.299966 -20        -9999     
2702.399966 -20        -9999     
2702.499966 -20        -9999     
2702.599966 -20        -9999     
2702.699966 -20        -9999     
2702.799966 -20        -9999     
2702.899966 -20        -9999     
2702.999966 -20        -9999     
2703.099966 -20        -9999     
2703.199966 -20        -9999     
2703.299966 -20        -9999     
2703.399966 -20        -9999     
2703.499966 -20        -9999     
2703.599966 -20        -9999     
2703.699966 -20        -9999     
2703.799966 -20        -9999     
2703.899966 -20        -9999     
2703.999966 -20        -9999     
2704.099966 -20        -9999     
2704.199966 -20        -9999     
2704.299966 -20        -9999     
2704.399966 -20        -9999     
2704.499966 -20        -9999     
2704.599965 -20        -9999     
2704.699965 -20        -9999     
2704.799965 -20        -9999     
2704.899965 -20        -9999     
2704.999965 -20        -9999     
2705.099965 -20        -9999     
2705.199965 -20        -9999     
2705.299965 -20        -9999     
2705.399965 -20        -9999     
2705.499965 -20        -9999     
2705.599965 -20        -9999     
2705.699965 -20        -9999     
2705.799965 -20        -9999     
2705.899965 -20        -9999     
2705.999965 -20        -9999     
2706.099965 -20        -9999     
2706.199965 -20        -9999     
2706.299965 -20        -9999     
2706.399965 -20        -9999     
2706.499965 -20        -9999     
2706.599965 -20        -9999     
2706.699965 -20        -9999     
2706.799965 -20        -9999     
2706.899965 -20        -9999     
2706.999965 -20        -9999     
2707.099965 -20        -9999     
2707.199965 -20        -9999     
2707.299965 -20        -9999     
2707.399965 -20        -9999     
2707.499965 -20        -9999     
2707.599965 -20        -9999     
2707.699965 -20        -9999     
2707.799965 -20        -9999     
2707.899965 -20        -9999     
2707.999965 -20        -9999     
2708.099965 -20        -9999     
2708.199965 -20        -9999     
2708.299965 -20        -9999     
2708.399965 -20        -9999     
2708.499965 -20        -9999     
2708.599965 -20        -9999     
2708.699965 -20        -9999     
2708.799965 -20        -9999     
2708.899965 -20        -9999     
2708.999965 -20        -9999     
2709.099965 -20        -9999     
2709.199965 -20        -9999     
2709.299965 -20        -9999     
2709.399965 -20        -9999     
2709.499965 -20        -9999     
2709.599965 -20        -9999     
2709.699965 -20        -9999     
2709.799965 -20        -9999     
2709.899965 -20        -9999     
2709.999965 -20        -9999     
2710.099965 -20        -9999     
2710.199965 -20        -9999     
2710.299965 -20        -9999     
2710.399965 -20        -9999     
2710.499965 -20        -9999     
2710.599965 -20        -9999     
2710.699965 -20        -9999     
2710.799965 -20        -9999     
2710.899965 -20        -9999     
2710.999965 -20        -9999     
2711.099965 -20        -9999     
2711.199965 -20        -9999     
2711.299965 -20        -9999     
2711.399965 -20        -9999     
2711.499965 -20        -9999     
2711.599965 -20        -9999     
2711.699965 -20        -9999     
2711.799965 -20        -9999     
2711.899965 -20        -9999     
2711.999965 -20        -9999     
2712.099965 -20        -9999     
2712.199965 -20        -9999     
2712.299965 -20        -9999     
2712.399965 -20        -9999     
2712.499965 -20        -9999     
2712.599965 -20        -9999     
2712.699965 -20        -9999     
2712.799965 -20        -9999     
2712.899965 -20        -9999     
2712.999965 -20        -9999     
2713.099965 -20        -9999     
2713.199965 -20        -9999     
2713.299965 -20        -9999     
2713.399965 -20        -9999     
2713.499965 -20        -9999     
2713.599965 -20        -9999     
2713.699965 -20        -9999     
2713.799965 -20        -9999     
2713.899965 -20        -9999     
2713.999965 -20        -9999     
2714.099965 -20        -9999     
2714.199965 -20        -9999     
2714.299965 -20        -9999     
2714.399965 -20        -9999     
