~Version
 VERS              .         2.0                           : CWLS LOG ASCII STANDARD - VERSION 2.0
 WRAP              .         NO                            : ONE LINE PER DEPTH STEP
 DLM               .         SPACE                         : DELIMITING CHARACTER(SPACE TAB OR COMMA)
~Well Information
#_______________________________________________________________________________
#
#PARAMETER_NAME    .UNIT     VALUE                         : DESCRIPTION
#_______________________________________________________________________________
STRT               .m        2774.31                       : First reference value
STOP               .m        2936.209903                   : Last reference value
STEP               .m        0.09999994                    : Step increment
NULL               .         -9999                         : Missing value
COMP               .                                       : Company
WELL               .         303                           : Well name
FLD                .                                       : Field
LOC                .                                       : Location
CNTY               .                                       : County
STAT               .                                       : State
CTRY               .                                       : Country
SRVC               .                                       : Service Company
DATE               .                                       : Date
API                .                                       : API number
EREF               .m        138.34                        : 
Pad                .         3                             : 
X                  .m        219750                        : 
Y                  .m        249950                        : 
group              .         Pad3                          : 
Интер-р            .         Ярышев                        : 
Куст               .         3                             : 
Статус             .         Проверено                     : 
Тип                .         Нагнетательные                : 
~Parameter Information Block
#_______________________________________________________________________________
#
#PARAMETER_NAME    .UNIT     VALUE                         : DESCRIPTION
#_______________________________________________________________________________
SET                .         LAS1                          : 
REAL_CREATION_DATE .         Ср апр 11 2012-13_17_09       : 
TLFamily_DEPTH     .         Measured Depth                : 
TLFamily_KS        .         Potential Resistivity         : 
TLFamily_KS1       .         Extra Shallow Resistivity     : 
TLFamily_KS2       .         Shallow Resistivity           : 
TLFamily_KS3       .         Medium Resistivity            : 
TLFamily_KS4       .         Deep Resistivity              : 
TLFamily_KS5       .         Extra Deep Resistivity        : 
TLFamily_LLD       .         Lateral Log Resistivity       : 
TLFamily_OKS3      .         Medium Resistivity Inverted   : 
TLFamily_RM        .         Mud Resistivity               : 
group              .         INI                           : 
~Curve Information
#_______________________________________________________________________________
#
#LOGNAME           .UNIT     LOG_ID                        : DESCRIPTION
#_______________________________________________________________________________
DEPTH              .m                                      : Measured Depth 
KS                 .ohm.m                                  : Potential Resistivity 
KS1                .ohm.m                                  : Extra Shallow Resistivity 
KS2                .ohm.m                                  : Shallow Resistivity 
KS3                .ohm.m                                  : Medium Resistivity 
KS4                .ohm.m                                  : Deep Resistivity 
KS5                .ohm.m                                  : Extra Deep Resistivity 
LLD                .ohm.m                                  : Lateral Log Resistivity 
OKS3               .ohm.m                                  : Medium Resistivity Inverted 
RM                 .ohm.m                                  : Mud Resistivity 
~Ascii
# ...
2847.309956 9.3289     2.6259     9.5467     18.6388    24.7417    19.9502    14.2095    18.043     0.065     
2847.409956 9.3395     2.653      9.6376     18.6111    24.822     19.9877    14.6114    17.9404    0.064     
2847.509956 9.33       2.6856     9.7708     18.5652    24.866     20.0063    14.7057    17.8747    0.064     
2847.609956 9.326      2.7274     9.9486     18.4808    24.8657    20         14.1331    17.8483    0.063     
2847.709956 9.304      2.7583     10.0817    18.3995    24.8503    19.9735    13.1502    17.8889    0.063     
2847.809956 9.269      2.7673     10.1407    18.3228    24.8224    19.9355    13.0989    17.968     0.062     
2847.909956 9.2056     2.7662     10.23      18.2674    24.7657    19.8618    13.6898    18.0446    0.062     
2848.009956 9.128      2.7937     10.3909    18.2346    24.7146    19.73      14.0017    18.0883    0.061     
2848.109956 9.0477     2.8383     10.5841    18.17      24.4866    19.5441    13.1662    18.1181    0.061     
2848.209956 9.0091     2.8784     10.7456    18.0162    24.0987    19.323     11.0541    18.1784    0.061     
2848.309956 8.9648     2.8252     10.5856    17.8086    23.5905    19.0817    9.6461     18.3064    0.061     
2848.409956 8.9197     2.7378     10.2457    17.5347    22.9801    18.8335    9.4289     18.5341    0.062     
2848.509955 8.8742     2.6814     10.0336    17.2       22.2864    18.5906    9.433      18.8498    0.062     
2848.609955 8.8525     2.6434     9.893      16.8318    21.6802    18.3444    9.035      19.3319    0.063     
2848.709955 8.8494     2.5806     9.6724     16.5523    21.1521    18.082     8.5613     19.9582    0.064     
2848.809955 8.8719     2.4928     9.328      16.2793    20.6569    17.8273    8.533      20.6587    0.065     
2848.909955 8.9095     2.4232     9.034      15.9885    20.1342    17.6359    8.98       21.3816    0.066     
2849.009955 8.956      2.3819     8.8988     15.7317    19.8167    17.5323    9.6344     22.0892    0.066     
2849.109955 9.0347     2.3377     8.7527     15.6064    19.6399    17.4897    10.3937    22.8445    0.066     
2849.209955 9.101      2.3132     8.6177     15.6203    19.5927    17.4592    11.5117    23.5284    0.066     
2849.309955 9.1748     2.3323     8.6753     15.6988    19.5519    17.4607    12.7906    24.0155    0.065     
2849.409955 9.2724     2.3927     8.7949     15.7661    19.5187    17.5024    12.6864    24.4219    0.064     
2849.509955 9.3812     2.431      8.8748     15.8098    19.4107    17.5746    11.2926    24.8437    0.064     
2849.609955 9.516      2.4052     8.7314     15.7511    19.2091    17.6718    10.377     25.2831    0.064     
2849.709955 9.6664     2.3578     8.5059     15.5828    18.8719    17.8096    10.2041    25.8148    0.064     
2849.809955 9.8158     2.3186     8.33       15.3281    18.5755    17.9617    10.6061    26.4918    0.063     
2849.909955 9.9567     2.2793     8.1843     15.1405    18.4279    18.0897    12.0071    27.2354    0.064     
2850.009955 10.1071    2.2549     8.1932     15.0709    18.4091    18.2151    14.4968    27.8044    0.064     
2850.109955 10.2803    2.2743     8.3506     15.1166    18.4853    18.3458    16.7363    28.2011    0.065     
2850.209954 10.4542    2.326      8.5339     15.268     18.6652    18.5165    17.5947    28.4209    0.065     
2850.309954 10.6326    2.3626     8.658      15.4636    18.8735    18.7331    18.1761    28.4446    0.065     
2850.409954 10.795     2.4028     8.8288     15.6577    19.1212    18.9518    18.8145    28.2966    0.065     
2850.509954 10.934     2.4571     9.0139     15.8421    19.3619    19.1764    19.6034    28.0717    0.065     
2850.609954 11.0709    2.5162     9.2368     15.9905    19.6065    19.4086    19.1002    27.8615    0.065     
2850.709954 11.2117    2.575      9.4579     16.1234    19.8143    19.604     17.2177    27.6159    0.065     
2850.809954 11.3414    2.5918     9.4886     16.2904    20.0731    19.854     16.6902    27.4376    0.064     
2850.909954 11.4457    2.5762     9.5209     16.4656    20.2932    20.1266    17.2987    27.2113    0.064     
2851.009954 11.5431    2.6285     9.7495     16.5649    20.4652    20.3073    17.042     26.9684    0.064     
2851.109954 11.6549    2.6665     9.9708     16.691     20.6482    20.502     15.7067    26.7671    0.064     
2851.209954 11.7623    2.6555     10.0134    16.8683    20.8374    20.7235    15.0573    26.5825    0.064     
2851.309954 11.8794    2.6015     9.9545     16.9824    20.9645    20.9975    15.5324    26.4057    0.064     
2851.409954 11.9831    2.585      9.9596     17.1069    21.0784    21.3071    16.1795    26.2117    0.064     
2851.509954 12.0878    2.5739     9.9761     17.2828    21.2726    21.5909    17.2437    26.0578    0.063     
2851.609954 12.1851    2.5776     10.0711    17.5814    21.5673    21.8696    19.0476    25.8075    0.063     
2851.709954 12.2854    2.5877     10.1708    17.9708    21.9456    22.1804    21.3349    25.4417    0.063     
2851.809954 12.3901    2.6239     10.358     18.3772    22.3481    22.5132    22.8178    25.0158    0.063     
2851.909953 12.5064    2.6854     10.6175    18.7728    22.7365    22.8543    21.4512    24.5763    0.062     
2852.009953 12.6002    2.7139     10.7024    19.2332    23.1462    23.2124    20.9824    24.0897    0.061     
2852.109953 12.6921    2.7105     10.7699    19.7054    23.519     23.5734    22.6528    23.5521    0.061     
2852.209953 12.7669    2.7506     10.9601    20.1362    23.8465    23.9502    23.2804    23.0217    0.062     
2852.309953 12.8247    2.7892     11.0872    20.6475    24.2658    24.3435    23.5314    22.4541    0.063     
2852.409953 12.8397    2.8204     11.211     21.2304    24.7386    24.7396    24.4645    21.7605    0.063     
2852.509953 12.8705    2.8776     11.4887    21.7923    25.2141    25.1707    23.8865    21.1275    0.064     
2852.609953 12.8787    2.9418     11.7833    22.3732    25.7604    25.6257    21.8959    20.6106    0.066     
2852.709953 12.8633    2.9512     11.9147    23.0337    26.3885    26.0934    23.3215    20.0792    0.067     
2852.809953 12.8155    2.9843     12.1554    23.7737    27.118     26.5621    27.595     19.5454    0.067     
2852.909953 12.72      3.0488     12.5055    24.5888    27.9924    26.9755    33.67      18.9308    0.067     
2853.009953 12.5911    3.1361     12.9509    25.5783    29.0556    27.3096    40.9093    18.2073    0.066     
2853.109953 12.4353    3.2575     13.4828    26.6274    30.113     27.557     42.1015    17.4528    0.065     
2853.209953 12.2767    3.395      14.0395    27.5229    30.9418    27.6818    31.609     16.6902    0.064     
2853.309953 12.1114    3.4975     14.5311    28.2326    31.6016    27.6824    22.2731    15.9698    0.064     
2853.409953 11.9047    3.493      14.5626    28.7438    32.0861    27.5339    18.857     15.2782    0.064     
2853.509952 11.698     3.4815     14.5241    28.9651    32.3075    27.2129    17.3323    14.6623    0.064     
2853.609952 11.4719    3.4842     14.5673    28.9814    32.4248    26.7374    15.319     14.1139    0.064     
2853.709952 11.2436    3.4481     14.4983    28.9948    32.4922    26.1736    14.1112    13.6179    0.064     
2853.809952 11.0181    3.4149     14.3977    28.9128    32.4226    25.5711    13.1327    13.1875    0.064     
2853.909952 10.796     3.3784     14.289     28.697     32.1914    24.9808    11.8435    12.8739    0.065     
2854.009952 10.5682    3.3066     13.9447    28.4583    32.021     24.3961    11.3329    12.6117    0.065     
2854.109952 10.3582    3.2079     13.5989    28.2172    31.9068    23.8124    11.8071    12.3639    0.064     
2854.209952 10.141     3.1582     13.4495    28.0147    31.9365    23.1937    12.6398    12.1062    0.064     
2854.309952 9.9185     3.1332     13.3641    27.9635    32.1951    22.565     13.6967    11.8217    0.063     
2854.409952 9.7165     3.1588     13.3876    28.065     32.5306    21.9627    14.0093    11.4794    0.063     
2854.509952 9.5306     3.1821     13.4309    27.9992    32.7274    21.4425    12.5041    11.1098    0.062     
