~Version
 VERS              .         2.0                           : CWLS LOG ASCII STANDARD - VERSION 2.0
 WRAP              .         NO                            : ONE LINE PER DEPTH STEP
 DLM               .         SPACE                         : DELIMITING CHARACTER(SPACE TAB OR COMMA)
~Well Information
#_______________________________________________________________________________
#
#PARAMETER_NAME    .UNIT     VALUE                         : DESCRIPTION
#_______________________________________________________________________________
STRT               .m        2359.5                        : First reference value
STOP               .m        2938.199942                   : Last reference value
STEP               .m        0.09999999                    : Step increment
NULL               .         -9999                         : Missing value
COMP               .                                       : Company
WELL               .         303                           : Well name
FLD                .                                       : Field
LOC                .                                       : Location
CNTY               .                                       : County
STAT               .                                       : State
CTRY               .                                       : Country
SRVC               .                                       : Service Company
DATE               .                                       : Date
API                .                                       : API number
EREF               .m        138.34                        : 
Pad                .         3                             : 
X                  .m        219750                        : 
Y                  .m        249950                        : 
group              .         Pad3                          : 
Интер-р            .         Ярышев                        : 
Куст               .         3                             : 
Статус             .         Проверено                     : 
Тип                .         Нагнетательные                : 
~Parameter Information Block
#_______________________________________________________________________________
#
#PARAMETER_NAME    .UNIT     VALUE                         : DESCRIPTION
#_______________________________________________________________________________
SET                .         LAS3                          : 
REAL_CREATION_DATE .         Ср апр 11 2012-13_17_09       : 
TLFamily_DEPTH     .         Measured Depth                : 
TLFamily_GR        .         Gamma Ray                     : 
TLFamily_TNPH      .         Neutron Porosity              : 
group              .         INI                           : 
~Curve Information
#_______________________________________________________________________________
#
#LOGNAME           .UNIT     LOG_ID                        : DESCRIPTION
#_______________________________________________________________________________
DEPTH              .m                                      : Measured Depth 
GR                 .gAPI                                   :  
TNPH               .v/v                                    : Neutron Porosity 
~Ascii
2359.50000000 -20        -9999     
2359.6     -20        -9999     
2359.7     -20        -9999     
2359.8     -20        -9999     
2359.9     -20        -9999     
2360       -20        -9999     
2360.1     -20        -9999     
2360.2     -20        -9999     
2360.3     -20        -9999     
2360.4     -20        -9999     
2360.5     -20        -9999     
2360.6     -20        -9999     
2360.7     -20        -9999     
2360.8     -20        -9999     
2360.9     -20        -9999     
2361       -20        -9999     
2361.1     -20        -9999     
2361.2     -20        -9999     
2361.3     -20        -9999     
2361.4     -20        -9999     
2361.5     -20        -9999     
2361.6     -20        -9999     
2361.7     -20        -9999     
2361.8     -20        -9999     
2361.9     -20        -9999     
2362       -20        -9999     
2362.1     -20        -9999     
2362.2     -20        -9999     
2362.3     -20        -9999     
2362.4     -20        -9999     
2362.5     -20        -9999     
2362.6     -20        -9999     
2362.7     -20        -9999     
2362.8     -20        -9999     
2362.9     -20        -9999     
2363       -20        -9999     
2363.1     -20        -9999     
2363.2     -20        -9999     
2363.3     -20        -9999     
2363.4     -20        -9999     
2363.5     -20        -9999     
2363.6     -20        -9999     
2363.7     -20        -9999     
2363.8     -20        -9999     
2363.9     -20        -9999     
2364       -20        -9999     
2364.1     -20        -9999     
2364.2     -20        -9999     
2364.3     -20        -9999     
2364.4     -20        -9999     
2364.499999 -20        -9999     
2364.599999 -20        -9999     
2364.699999 -20        -9999     
2364.799999 -20        -9999     
2364.899999 -20        -9999     
2364.999999 -20        -9999     
2365.099999 -20        -9999     
2365.199999 -20        -9999     
2365.299999 -20        -9999     
2365.399999 -20        -9999     
2365.499999 -20        -9999     
2365.599999 -20        -9999     
2365.699999 -20        -9999     
2365.799999 -20        -9999     
2365.899999 -20        -9999     
2365.999999 -20        -9999     
2366.099999 -20        -9999     
2366.199999 -20        -9999     
2366.299999 -20        -9999     
2366.399999 -20        -9999     
2366.499999 -20        -9999     
2366.599999 -20        -9999     
2366.699999 -20        -9999     
2366.799999 -20        -9999     
2366.899999 -20        -9999     
2366.999999 -20        -9999     
2367.099999 -20        -9999     
2367.199999 -20        -9999     
2367.299999 -20        -9999     
2367.399999 -20        -9999     
2367.499999 -20        -9999     
2367.599999 -20        -9999     
2367.699999 -20        -9999     
2367.799999 -20        -9999     
2367.899999 -20        -9999     
2367.999999 -20        -9999     
2368.099999 -20        -9999     
2368.199999 -20        -9999     
2368.299999 -20        -9999     
2368.399999 -20        -9999     
2368.499999 -20        -9999     
2368.599999 -20        -9999     
2368.699999 -20        -9999     
2368.799999 -20        -9999     
2368.899999 -20        -9999     
2368.999999 -20        -9999     
2369.099999 -20        -9999     
2369.199999 -20        -9999     
2369.299999 -20        -9999     
2369.399999 -20        -9999     
2369.499999 -20        -9999     
2369.599999 -20        -9999     
2369.699999 -20        -9999     
2369.799999 -20        -9999     
2369.899999 -20        -9999     
2369.999999 -20        -9999     
2370.099999 -20        -9999     
2370.199999 -20        -9999     
2370.299999 -20        -9999     
2370.399999 -20        -9999     
2370.499999 -20        -9999     
2370.599999 -20        -9999     
2370.699999 -20        -9999     
2370.799999 -20        -9999     
2370.899999 -20        -9999     
2370.999999 -20        -9999     
2371.099999 -20        -9999     
2371.199999 -20        -9999     
2371.299999 -20        -9999     
2371.399999 -20        -9999     
2371.499999 -20        -9999     
2371.599999 -20        -9999     
2371.699999 -20        -9999     
2371.799999 -20        -9999     
2371.899999 -20        -9999     
2371.999999 -20        -9999     
2372.099999 -20        -9999     
2372.199999 -20        -9999     
2372.299999 -20        -9999     
2372.399999 -20        -9999     
2372.499999 -20        -9999     
2372.599999 -20        -9999     
2372.699999 -20        -9999     
2372.799999 -20        -9999     
2372.899999 -20        -9999     
2372.999999 -20        -9999     
2373.099999 -20        -9999     
2373.199999 -20        -9999     
2373.299999 -20        -9999     
2373.399999 -20        -9999     
2373.499999 -20        -9999     
2373.599999 -20        -9999     
2373.699999 -20        -9999     
2373.799999 -20        -9999     
2373.899999 -20        -9999     
2373.999999 -20        -9999     
2374.099999 -20        -9999     
2374.199999 -20        -9999     
2374.299999 -20        -9999     
2374.399999 -20        -9999     
2374.499998 -20        -9999     
2374.599998 -20        -9999     
2374.699998 -20        -9999     
2374.799998 -20        -9999     
2374.899998 -20        -9999     
2374.999998 -20        -9999     
2375.099998 -20        -9999     
2375.199998 -20        -9999     
2375.299998 -20        -9999     
2375.399998 -20        -9999     
2375.499998 -20        -9999     
2375.599998 -20        -9999     
2375.699998 -20        -9999     
2375.799998 -20        -9999     
2375.899998 -20        -9999     
2375.999998 -20        -9999     
2376.099998 -20        -9999     
2376.199998 -20        -9999     
2376.299998 -20        -9999     
2376.399998 -20        -9999     
2376.499998 -20        -9999     
2376.599998 -20        -9999     
2376.699998 -20        -9999     
2376.799998 -20        -9999     
2376.899998 -20        -9999     
2376.999998 -20        -9999     
2377.099998 -20        -9999     
2377.199998 -20        -9999     
2377.299998 -20        -9999     
2377.399998 -20        -9999     
2377.499998 -20        -9999     
2377.599998 -20        -9999     
2377.699998 -20        -9999     
2377.799998 -20        -9999     
2377.899998 -20        -9999     
2377.999998 -20        -9999     
2378.099998 -20        -9999     
2378.199998 -20        -9999     
2378.299998 -20        -9999     
2378.399998 -20        -9999     
2378.499998 -20        -9999     
2378.599998 -20        -9999     
2378.699998 -20        -9999     
2378.799998 -20        -9999     
2378.899998 -20        -9999     
2378.999998 -20        -9999     
2379.099998 -20        -9999     
2379.199998 -20        -9999     
2379.299998 -20        -9999     
2379.399998 -20        -9999     
2379.499998 -20        -9999     
2379.599998 -20        -9999     
2379.699998 -20        -9999     
2379.799998 -20        -9999     
2379.899998 -20        -9999     
2379.999998 -20        -9999     
2380.099998 -20        -9999     
2380.199998 -20        -9999     
2380.299998 -20        -9999     
2380.399998 -20        -9999     
2380.499998 -20        -9999     
2380.599998 -20        -9999     
2380.699998 -20        -9999     
2380.799998 -20        -9999     
2380.899998 -20        -9999     
2380.999998 -20        -9999     
2381.099998 -20        -9999     
2381.199998 -20        -9999     
2381.299998 -20        -9999     
2381.399998 -20        -9999     
2381.499998 -20        -9999     
2381.599998 -20        -9999     
2381.699998 -20        -9999     
2381.799998 -20        -9999     
2381.899998 -20        -9999     
2381.999998 -20        -9999     
2382.099998 -20        -9999     
2382.199998 -20        -9999     
2382.299998 -20        -9999     
2382.399998 -20        -9999     
2382.499998 -20        -9999     
2382.599998 -20        -9999     
2382.699998 -20        -9999     
2382.799998 -20        -9999     
2382.899998 -20        -9999     
2382.999998 -20        -9999     
2383.099998 -20        -9999     
