~Version
 VERS              .         2.0                           : CWLS LOG ASCII STANDARD - VERSION 2.0
 WRAP              .         NO                            : ONE LINE PER DEPTH STEP
 DLM               .         SPACE                         : DELIMITING CHARACTER(SPACE TAB OR COMMA)
~Well Information
#_______________________________________________________________________________
#
#PARAMETER_NAME    .UNIT     VALUE                         : DESCRIPTION
#_______________________________________________________________________________
STRT               .m        2359.5                        : First reference value
STOP               .m        2938.199942                   : Last reference value
STEP               .m        0.09999999                    : Step increment
NULL               .         -9999                         : Missing value
COMP               .                                       : Company
WELL               .         303                           : Well name
FLD                .                                       : Field
LOC                .                                       : Location
CNTY               .                                       : County
STAT               .                                       : State
CTRY               .                                       : Country
SRVC               .                                       : Service Company
DATE               .                                       : Date
API                .                                       : API number
EREF               .m        138.34                        : 
Pad                .         3                             : 
X                  .m        219750                        : 
Y                  .m        249950                        : 
group              .         Pad3                          : 
Интер-р            .         Ярышев                        : 
Куст               .         3                             : 
Статус             .         Проверено                     : 
Тип                .         Нагнетательные                : 
~Parameter Information Block
#_______________________________________________________________________________
#
#PARAMETER_NAME    .UNIT     VALUE                         : DESCRIPTION
#_______________________________________________________________________________
SET                .         LAS3                          : 
REAL_CREATION_DATE .         Ср апр 11 2012-13_17_09       : 
TLFamily_DEPTH     .         Measured Depth                : 
TLFamily_GR        .         Gamma Ray                     : 
TLFamily_TNPH      .         Neutron Porosity              : 
group              .         INI                           : 
~Curve Information
#_______________________________________________________________________________
#
#LOGNAME           .UNIT     LOG_ID                        : DESCRIPTION
#_______________________________________________________________________________
DEPTH              .m                                      : Measured Depth 
GR                 .gAPI                                   :  
TNPH               .v/v                                    : Neutron Porosity 
~Ascii
# ...
2548.699981 -20        -9999     
2548.799981 -20        -9999     
2548.899981 -20        -9999     
2548.999981 -20        -9999     
2549.099981 -20        -9999     
2549.199981 -20        -9999     
2549.299981 -20        -9999     
2549.399981 -20        -9999     
2549.499981 -20        -9999     
2549.599981 -20        -9999     
2549.699981 -20        -9999     
2549.799981 -20        -9999     
2549.899981 -20        -9999     
2549.999981 -20        -9999     
2550.099981 -20        -9999     
2550.199981 -20        -9999     
2550.299981 -20        -9999     
2550.399981 -20        -9999     
2550.499981 -20        -9999     
2550.599981 -20        -9999     
2550.699981 -20        -9999     
2550.799981 -20        -9999     
2550.899981 -20        -9999     
2550.999981 -20        -9999     
2551.099981 -20        -9999     
2551.199981 -20        -9999     
2551.299981 -20        -9999     
2551.399981 -20        -9999     
2551.499981 -20        -9999     
2551.599981 -20        -9999     
2551.699981 -20        -9999     
2551.799981 -20        -9999     
2551.899981 -20        -9999     
2551.999981 -20        -9999     
2552.099981 -20        -9999     
2552.199981 -20        -9999     
2552.299981 -20        -9999     
2552.399981 -20        -9999     
2552.499981 -20        -9999     
2552.599981 -20        -9999     
2552.699981 -20        -9999     
2552.799981 -20        -9999     
2552.899981 -20        -9999     
2552.999981 -20        -9999     
2553.099981 -20        -9999     
2553.199981 -20        -9999     
2553.299981 -20        -9999     
2553.399981 -20        -9999     
2553.499981 -20        -9999     
2553.599981 -20        -9999     
2553.699981 -20        -9999     
2553.799981 -20        -9999     
2553.899981 -20        -9999     
2553.999981 -20        -9999     
2554.099981 -20        -9999     
2554.199981 -20        -9999     
2554.299981 -20        -9999     
2554.399981 -20        -9999     
2554.49998 -20        -9999     
2554.59998 -20        -9999     
2554.69998 -20        -9999     
2554.79998 -20        -9999     
2554.89998 -20        -9999     
2554.99998 -20        -9999     
2555.09998 -20        -9999     
2555.19998 -20        -9999     
2555.29998 -20        -9999     
2555.39998 -20        -9999     
2555.49998 -20        -9999     
2555.59998 -20        -9999     
2555.69998 -20        -9999     
2555.79998 -20        -9999     
2555.89998 -20        -9999     
2555.99998 -20        -9999     
2556.09998 -20        -9999     
2556.19998 -20        -9999     
2556.29998 -20        -9999     
2556.39998 -20        -9999     
2556.49998 -20        -9999     
2556.59998 -20        -9999     
2556.69998 -20        -9999     
2556.79998 -20        -9999     
2556.89998 -20        -9999     
2556.99998 -20        -9999     
2557.09998 -20        -9999     
2557.19998 -20        -9999     
2557.29998 -20        -9999     
2557.39998 -20        -9999     
2557.49998 -20        -9999     
2557.59998 -20        -9999     
2557.69998 -20        -9999     
2557.79998 -20        -9999     
2557.89998 -20        -9999     
2557.99998 -20        -9999     
2558.09998 -20        -9999     
2558.19998 -20        -9999     
2558.29998 -20        -9999     
2558.39998 -20        -9999     
2558.49998 -20        -9999     
2558.59998 -20        -9999     
2558.69998 -20        -9999     
2558.79998 -20        -9999     
2558.89998 -20        -9999     
2558.99998 -20        -9999     
2559.09998 -20        -9999     
2559.19998 -20        -9999     
2559.29998 -20        -9999     
2559.39998 -20        -9999     
2559.49998 -20        -9999     
2559.59998 -20        -9999     
2559.69998 -20        -9999     
2559.79998 -20        -9999     
2559.89998 -20        -9999     
2559.99998 -20        -9999     
2560.09998 -20        -9999     
2560.19998 -20        -9999     
2560.29998 -20        -9999     
2560.39998 -20        -9999     
2560.49998 -20        -9999     
2560.59998 -20        -9999     
2560.69998 -20        -9999     
2560.79998 -20        -9999     
2560.89998 -20        -9999     
2560.99998 -20        -9999     
2561.09998 -20        -9999     
2561.19998 -20        -9999     
2561.29998 -20        -9999     
2561.39998 -20        -9999     
2561.49998 -20        -9999     
2561.59998 -20        -9999     
2561.69998 -20        -9999     
2561.79998 -20        -9999     
2561.89998 -20        -9999     
2561.99998 -20        -9999     
2562.09998 -20        -9999     
2562.19998 -20        -9999     
2562.29998 -20        -9999     
2562.39998 -20        -9999     
2562.49998 -20        -9999     
2562.59998 -20        -9999     
2562.69998 -20        -9999     
2562.79998 -20        -9999     
2562.89998 -20        -9999     
2562.99998 -20        -9999     
2563.09998 -20        -9999     
2563.19998 -20        -9999     
2563.29998 -20        -9999     
2563.39998 -20        -9999     
2563.49998 -20        -9999     
2563.59998 -20        -9999     
2563.69998 -20        -9999     
2563.79998 -20        -9999     
2563.89998 -20        -9999     
2563.99998 -20        -9999     
2564.09998 -20        -9999     
2564.19998 -20        -9999     
2564.29998 -20        -9999     
2564.39998 -20        -9999     
2564.499979 -20        -9999     
2564.599979 -20        -9999     
2564.699979 -20        -9999     
2564.799979 -20        -9999     
2564.899979 -20        -9999     
2564.999979 -20        -9999     
2565.099979 -20        -9999     
2565.199979 -20        -9999     
2565.299979 -20        -9999     
2565.399979 -20        -9999     
2565.499979 -20        -9999     
2565.599979 -20        -9999     
2565.699979 -20        -9999     
2565.799979 -20        -9999     
2565.899979 -20        -9999     
2565.999979 -20        -9999     
2566.099979 -20        -9999     
2566.199979 -20        -9999     
2566.299979 -20        -9999     
2566.399979 -20        -9999     
2566.499979 -20        -9999     
2566.599979 -20        -9999     
2566.699979 -20        -9999     
2566.799979 -20        -9999     
2566.899979 -20        -9999     
2566.999979 -20        -9999     
2567.099979 -20        -9999     
2567.199979 -20        -9999     
2567.299979 -20        -9999     
2567.399979 -20        -9999     
2567.499979 -20        -9999     
2567.599979 -20        -9999     
2567.699979 -20        -9999     
2567.799979 -20        -9999     
2567.899979 -20        -9999     
2567.999979 -20        -9999     
2568.099979 -20        -9999     
2568.199979 -20        -9999     
2568.299979 -20        -9999     
2568.399979 -20        -9999     
2568.499979 -20        -9999     
2568.599979 -20        -9999     
2568.699979 -20        -9999     
2568.799979 -20        -9999     
2568.899979 -20        -9999     
2568.999979 -20        -9999     
2569.099979 -20        -9999     
2569.199979 -20        -9999     
2569.299979 -20        -9999     
2569.399979 -20        -9999     
2569.499979 -20        -9999     
2569.599979 -20        -9999     
2569.699979 -20        -9999     
2569.799979 -20        -9999     
2569.899979 -20        -9999     
2569.999979 -20        -9999     
2570.099979 -20        -9999     
2570.199979 -20        -9999     
2570.299979 -20        -9999     
2570.399979 -20        -9999     
2570.499979 -20        -9999     
2570.599979 -20        -9999     
2570.699979 -20        -9999     
2570.799979 -20        -9999     
2570.899979 -20        -9999     
2570.999979 -20        -9999     
2571.099979 -20        -9999     
2571.199979 -20        -9999     
2571.299979 -20        -9999     
2571.399979 -20        -9999     
2571.499979 -20        -9999     
2571.599979 -20        -9999     
2571.699979 -20        -9999     
2571.799979 -20        -9999     
2571.899979 -20        -9999     
2571.999979 -20        -9999     
2572.099979 -20        -9999     
2572.199979 -20        -9999     
2572.299979 -20        -9999     
2572.399979 -20        -9999     
2572.499979 -20        -9999     
