~Version
 VERS              .         2.0                           : CWLS LOG ASCII STANDARD - VERSION 2.0
 WRAP              .         NO                            : ONE LINE PER DEPTH STEP
 DLM               .         SPACE                         : DELIMITING CHARACTER(SPACE TAB OR COMMA)
~Well Information
#_______________________________________________________________________________
#
#PARAMETER_NAME    .UNIT     VALUE                         : DESCRIPTION
#_______________________________________________________________________________
STRT               .m        2774.31                       : First reference value
STOP               .m        2936.209903                   : Last reference value
STEP               .m        0.09999994                    : Step increment
NULL               .         -9999                         : Missing value
COMP               .                                       : Company
WELL               .         303                           : Well name
FLD                .                                       : Field
LOC                .                                       : Location
CNTY               .                                       : County
STAT               .                                       : State
CTRY               .                                       : Country
SRVC               .                                       : Service Company
DATE               .                                       : Date
API                .                                       : API number
EREF               .m        138.34                        : 
Pad                .         3                             : 
X                  .m        219750                        : 
Y                  .m        249950                        : 
group              .         Pad3                          : 
Интер-р            .         Ярышев                        : 
Куст               .         3                             : 
Статус             .         Проверено                     : 
Тип                .         Нагнетательные                : 
~Parameter Information Block
#_______________________________________________________________________________
#
#PARAMETER_NAME    .UNIT     VALUE                         : DESCRIPTION
#_______________________________________________________________________________
SET                .         LAS1                          : 
REAL_CREATION_DATE .         Ср апр 11 2012-13_17_09       : 
TLFamily_DEPTH     .         Measured Depth                : 
TLFamily_KS        .         Potential Resistivity         : 
TLFamily_KS1       .         Extra Shallow Resistivity     : 
TLFamily_KS2       .         Shallow Resistivity           : 
TLFamily_KS3       .         Medium Resistivity            : 
TLFamily_KS4       .         Deep Resistivity              : 
TLFamily_KS5       .         Extra Deep Resistivity        : 
TLFamily_LLD       .         Lateral Log Resistivity       : 
TLFamily_OKS3      .         Medium Resistivity Inverted   : 
TLFamily_RM        .         Mud Resistivity               : 
group              .         INI                           : 
~Curve Information
#_______________________________________________________________________________
#
#LOGNAME           .UNIT     LOG_ID                        : DESCRIPTION
#_______________________________________________________________________________
DEPTH              .m                                      : Measured Depth 
KS                 .ohm.m                                  : Potential Resistivity 
KS1                .ohm.m                                  : Extra Shallow Resistivity 
KS2                .ohm.m                                  : Shallow Resistivity 
KS3                .ohm.m                                  : Medium Resistivity 
KS4                .ohm.m                                  : Deep Resistivity 
KS5                .ohm.m                                  : Extra Deep Resistivity 
LLD                .ohm.m                                  : Lateral Log Resistivity 
OKS3               .ohm.m                                  : Medium Resistivity Inverted 
RM                 .ohm.m                                  : Mud Resistivity 
~Ascii
2774.31005859 4.9292     -9999      -9999      -9999      -9999      -9999      -9999      -9999      -9999     
2774.41    5.0223     1.8314     4.8869     0          0.0198     0.56       -9999      13.2028    0.065     
2774.51    5.1049     1.8705     5.0959     0.0124     0.02       0.56       -9999      13.249     0.065     
2774.61    5.1848     1.9235     5.3443     1.4553     0.02       0.56       -9999      13.303     0.064     
2774.71    5.2637     1.9305     5.4491     2.4247     0.02       0.56       -9999      13.352     0.064     
2774.81    5.3451     1.9391     5.5453     3.169      0.02       0.56       -9999      13.4249    0.064     
2774.91    5.4392     1.94       5.6114     3.7724     0.0141     0.56       -9999      13.5103    0.064     
2775.01    5.526      1.9375     5.651      4.2731     0.0103     0.56       -9999      13.6608    0.063     
2775.11    5.6138     1.9439     5.7536     4.6935     0.0173     0.56       -9999      13.8541    0.063     
2775.209999 5.7117     1.9715     5.8585     5.1114     0.0198     0.56       -9999      14.0814    0.063     
2775.309999 5.8154     1.9893     5.954      5.5275     0.0114     0.56       -9999      14.3031    0.062     
2775.409999 5.9488     1.9991     5.9814     5.8962     0.0173     0.56       -9999      14.5846    0.062     
2775.509999 6.0581     2          6.0289     6.2705     0.014      0.5588     -9999      14.9983    0.062     
2775.609999 6.1305     1.9644     6.0484     6.6659     0.0193     0.5559     -9999      15.3613    0.063     
2775.709999 6.2208     2.0605     6.1715     7.042      0.0144     0.5566     -9999      15.5479    0.063     
2775.809999 6.3284     2.1892     6.5911     7.4148     0.0104     0.56       -9999      15.674     0.063     
2775.909999 6.4584     2.1753     6.8391     7.7743     0.01       0.56       -9999      15.7722    0.063     
2776.009999 6.5709     2.166      6.8023     8.0417     0.0179     0.5561     -9999      15.7888    0.063     
2776.109999 6.631      2.1804     6.8042     8.1894     0.0115     0.5541     7.5749     15.759     0.063     
2776.209999 6.6488     2.2258     6.8719     8.3834     0.0188     0.56       7.2857     15.759     0.063     
2776.309999 6.6605     2.2969     7.1282     8.6578     0.0122     0.5592     7.6392     15.7879    0.064     
2776.409999 6.6837     2.3897     7.5107     8.9618     0.0191     0.5549     8.6554     15.8379    0.064     
2776.509999 6.7        2.4717     7.8076     9.2445     0.0737     0.55       10.2446    15.8782    0.064     
2776.609999 6.6953     2.4676     7.8306     9.4956     1.5276     0.55       10.503     15.9585    0.065     
2776.709999 6.69       2.4456     7.8409     9.6513     2.4477     0.55       8.9358     16.1405    0.065     
2776.809998 6.69       2.41       7.7822     9.6826     3.1204     0.5535     7.635      16.4734    0.065     
2776.909998 6.706      2.3401     7.6249     9.655      3.6478     0.5553     6.9763     16.9113    0.065     
2777.009998 6.7363     2.2661     7.4946     9.5907     4.0529     0.5505     6.5289     17.3315    0.066     
2777.109998 6.7788     2.2059     7.3591     9.4902     4.3715     0.5547     6.2204     17.5713    0.066     
2777.209998 6.8339     2.1516     7.1865     9.398      4.6786     0.56       6.4394     17.7109    0.067     
2777.309998 6.8825     2.1057     7.1674     9.4096     5.0152     0.56       7.1763     17.8201    0.067     
2777.409998 6.9363     2.1171     7.3445     9.5439     5.3551     0.56       7.9242     17.8535    0.067     
2777.509998 6.9773     2.2076     7.5429     9.7792     5.7007     0.56       8.3299     17.8175    0.067     
2777.609998 6.997      2.2684     7.5833     10.0353    6.0362     0.56       8.5189     17.8325    0.067     
2777.709998 7.0317     2.2742     7.5284     10.1923    6.3179     0.56       8.485      17.9201    0.067     
2777.809998 7.0838     2.2514     7.4954     10.2553    6.5389     0.56       8.0755     18.0158    0.067     
2777.909998 7.1558     2.2123     7.3682     10.2908    6.7208     0.56       7.55       18.2021    0.067     
2778.009998 7.2403     2.1614     7.2355     10.278     6.8861     0.5584     7.0351     18.4572    0.067     
2778.109998 7.3448     2.0998     7.0538     10.2058    7.0252     0.5536     6.7878     18.7586    0.066     
2778.209998 7.506      2.0542     6.9271     10.1185    7.1494     0.55       6.6812     18.9877    0.065     
2778.309998 7.6988     1.9974     6.7474     10.0367    7.2916     0.55       6.7199     19.2213    0.064     
2778.409998 7.9363     1.913      6.4841     9.9899     7.4738     0.55       6.8683     19.4534    0.063     
2778.509997 8.2034     1.8391     6.2878     10.041     7.7015     0.55       6.9494     19.6136    0.063     
2778.609997 8.4756     1.7937     6.2035     10.2108    8.0122     0.55       7.2309     19.7208    0.063     
2778.709997 8.7354     1.8116     6.3345     10.5082    8.4062     0.55       8.2422     19.6877    0.063     
2778.809997 8.9953     1.8797     6.5581     10.9235    8.8592     0.55       10.4107    19.3954    0.064     
2778.909997 9.2642     1.9914     6.9374     11.3957    9.4263     0.55       14.2882    18.7877    0.064     
2779.009997 9.5143     2.111      7.3477     11.892     10.0436    0.55       21.2806    17.9317    0.065     
2779.109997 9.7486     2.2586     7.8262     12.465     10.6785    0.55       31.286     16.9132    0.066     
2779.209997 9.9371     2.4038     8.3138     13.1277    11.3567    0.55       42.2218    15.8364    0.066     
2779.309997 10.0517    2.5577     8.8618     13.8919    12.0979    0.55       48.6352    14.7769    0.065     
2779.409997 10.08      2.7156     9.4378     14.7535    12.9908    0.55       54.8012    13.8036    0.065     
2779.509997 9.9905     2.8878     10.0442    15.7188    14.0534    0.5502     61.7177    12.9869    0.065     
2779.609997 9.8031     3.0912     10.7915    16.695     15.0262    0.5543     67.5339    12.252     0.064     
2779.709997 9.527      3.3243     11.6849    17.5739    15.7773    0.56       71.5911    11.5772    0.063     
2779.809997 9.2417     3.5493     12.6319    18.2928    16.334     0.562      64.5502    11.0072    0.063     
2779.909997 8.9547     3.615      13.2518    18.7879    16.6585    0.5645     45.5409    10.5602    0.062     
2780.009997 8.6716     3.5298     13.3713    19.0012    16.6797    0.5622     24.7872    10.208     0.062     
2780.109997 8.3831     3.3859     13.2082    18.9058    16.5671    0.56       13.8117    9.765      0.062     
2780.209996 8.0869     3.2464     12.9498    18.7421    16.477     0.5635     9.7834     9.6769     0.062     
2780.309996 7.7902     3.1205     12.6095    18.629     16.3684    0.5692     8.4673     9.7012     0.062     
2780.409996 7.5297     3.022      12.431     18.5696    16.248     0.57       7.9365     9.8027     0.062     
2780.509996 7.328      2.9424     12.2107    18.5146    16.1011    0.57       7.5715     10.005     0.062     
2780.609996 7.1396     2.8352     11.7629    18.4992    15.902     0.57       7.301      10.2472    0.062     
2780.709996 6.9859     2.7118     11.2337    18.4155    15.6248    0.5865     6.8577     10.5079    0.063     
2780.809996 6.8514     2.6381     10.7755    18.2999    15.358     1.0454     6.5004     10.7807    0.063     
2780.909996 6.7364     2.5733     10.3429    18.2041    15.1378    1.9177     6.4947     11.0513    0.063     
2781.009996 6.638      2.521      9.9425     18.1454    14.9653    2.4245     6.5803     11.3079    0.063     
2781.109996 6.5566     2.4769     9.5474     18.0846    14.7836    2.8308     6.6375     11.5577    0.063     
2781.209996 6.4704     2.4428     9.2331     17.9835    14.6221    3.1572     6.5312     11.7674    0.063     
2781.309996 6.3871     2.4254     8.9729     17.8109    14.468     3.4142     6.5478     11.9544    0.063     
2781.409996 6.3175     2.4003     8.7308     17.5593    14.3268    3.6403     6.5805     12.0748    0.063     
2781.509996 6.264      2.3827     8.5483     17.2025    14.1448    3.8549     6.5798     12.1442    0.063     
