~Version
 VERS              .         2.0                           : CWLS LOG ASCII STANDARD - VERSION 2.0
 WRAP              .         NO                            : ONE LINE PER DEPTH STEP
 DLM               .         SPACE                         : DELIMITING CHARACTER(SPACE TAB OR COMMA)
~Well Information
#_______________________________________________________________________________
#
#PARAMETER_NAME    .UNIT     VALUE                         : DESCRIPTION
#_______________________________________________________________________________
STRT               .m        2359.5                        : First reference value
STOP               .m        2938.199942                   : Last reference value
STEP               .m        0.09999999                    : Step increment
NULL               .         -9999                         : Missing value
COMP               .                                       : Company
WELL               .         303                           : Well name
FLD                .                                       : Field
LOC                .                                       : Location
CNTY               .                                       : County
STAT               .                                       : State
CTRY               .                                       : Country
SRVC               .                                       : Service Company
DATE               .                                       : Date
API                .                                       : API number
EREF               .m        138.34                        : 
Pad                .         3                             : 
X                  .m        219750                        : 
Y                  .m        249950                        : 
group              .         Pad3                          : 
Интер-р            .         Ярышев                        : 
Куст               .         3                             : 
Статус             .         Проверено                     : 
Тип                .         Нагнетательные                : 
~Parameter Information Block
#_______________________________________________________________________________
#
#PARAMETER_NAME    .UNIT     VALUE                         : DESCRIPTION
#_______________________________________________________________________________
SET                .         LAS3                          : 
REAL_CREATION_DATE .         Ср апр 11 2012-13_17_09       : 
TLFamily_DEPTH     .         Measured Depth                : 
TLFamily_GR        .         Gamma Ray                     : 
TLFamily_TNPH      .         Neutron Porosity              : 
group              .         INI                           : 
~Curve Information
#_______________________________________________________________________________
#
#LOGNAME           .UNIT     LOG_ID                        : DESCRIPTION
#_______________________________________________________________________________
DEPTH              .m                                      : Measured Depth 
GR                 .gAPI                                   :  
TNPH               .v/v                                    : Neutron Porosity 
~Ascii
# ...
2619.799974 -20        -9999     
2619.899974 -20        -9999     
2619.999974 -20        -9999     
2620.099974 -20        -9999     
2620.199974 -20        -9999     
2620.299974 -20        -9999     
2620.399974 -20        -9999     
2620.499974 -20        -9999     
2620.599974 -20        -9999     
2620.699974 -20        -9999     
2620.799974 -20        -9999     
2620.899974 -20        -9999     
2620.999974 -20        -9999     
2621.099974 -20        -9999     
2621.199974 -20        -9999     
2621.299974 -20        -9999     
2621.399974 -20        -9999     
2621.499974 -20        -9999     
2621.599974 -20        -9999     
2621.699974 -20        -9999     
2621.799974 -20        -9999     
2621.899974 -20        -9999     
2621.999974 -20        -9999     
2622.099974 -20        -9999     
2622.199974 -20        -9999     
2622.299974 -20        -9999     
2622.399974 -20        -9999     
2622.499974 -20        -9999     
2622.599974 -20        -9999     
2622.699974 -20        -9999     
2622.799974 -20        -9999     
2622.899974 -20        -9999     
2622.999974 -20        -9999     
2623.099974 -20        -9999     
2623.199974 -20        -9999     
2623.299974 -20        -9999     
2623.399974 -20        -9999     
2623.499974 -20        -9999     
2623.599974 -20        -9999     
2623.699974 -20        -9999     
2623.799974 -20        -9999     
2623.899974 -20        -9999     
2623.999974 -20        -9999     
2624.099974 -20        -9999     
2624.199974 -20        -9999     
2624.299974 -20        -9999     
2624.399974 -20        -9999     
2624.499974 -20        -9999     
2624.599973 -20        -9999     
2624.699973 -20        -9999     
2624.799973 -20        -9999     
2624.899973 -20        -9999     
2624.999973 -20        -9999     
2625.099973 -20        -9999     
2625.199973 -20        -9999     
2625.299973 -20        -9999     
2625.399973 -20        -9999     
2625.499973 -20        -9999     
2625.599973 -20        -9999     
2625.699973 -20        -9999     
2625.799973 -20        -9999     
2625.899973 -20        -9999     
2625.999973 -20        -9999     
2626.099973 -20        -9999     
2626.199973 -20        -9999     
2626.299973 -20        -9999     
2626.399973 -20        -9999     
2626.499973 -20        -9999     
2626.599973 -20        -9999     
2626.699973 -20        -9999     
2626.799973 -20        -9999     
2626.899973 -20        -9999     
2626.999973 -20        -9999     
2627.099973 -20        -9999     
2627.199973 -20        -9999     
2627.299973 -20        -9999     
2627.399973 -20        -9999     
2627.499973 -20        -9999     
2627.599973 -20        -9999     
2627.699973 -20        -9999     
2627.799973 -20        -9999     
2627.899973 -20        -9999     
2627.999973 -20        -9999     
2628.099973 -20        -9999     
2628.199973 -20        -9999     
2628.299973 -20        -9999     
2628.399973 -20        -9999     
2628.499973 -20        -9999     
2628.599973 -20        -9999     
2628.699973 -20        -9999     
2628.799973 -20        -9999     
2628.899973 -20        -9999     
2628.999973 -20        -9999     
2629.099973 -20        -9999     
2629.199973 -20        -9999     
2629.299973 -20        -9999     
2629.399973 -20        -9999     
2629.499973 -20        -9999     
2629.599973 -20        -9999     
2629.699973 -20        -9999     
2629.799973 -20        -9999     
2629.899973 -20        -9999     
2629.999973 -20        -9999     
2630.099973 -20        -9999     
2630.199973 -20        -9999     
2630.299973 -20        -9999     
2630.399973 -20        -9999     
2630.499973 -20        -9999     
2630.599973 -20        -9999     
2630.699973 -20        -9999     
2630.799973 -20        -9999     
2630.899973 -20        -9999     
2630.999973 -20        -9999     
2631.099973 -20        -9999     
2631.199973 -20        -9999     
2631.299973 -20        -9999     
2631.399973 -20        -9999     
2631.499973 -20        -9999     
2631.599973 -20        -9999     
2631.699973 -20        -9999     
2631.799973 -20        -9999     
2631.899973 -20        -9999     
2631.999973 -20        -9999     
2632.099973 -20        -9999     
2632.199973 -20        -9999     
2632.299973 -20        -9999     
2632.399973 -20        -9999     
2632.499973 -20        -9999     
2632.599973 -20        -9999     
2632.699973 -20        -9999     
2632.799973 -20        -9999     
2632.899973 -20        -9999     
2632.999973 -20        -9999     
2633.099973 -20        -9999     
2633.199973 -20        -9999     
2633.299973 -20        -9999     
2633.399973 -20        -9999     
2633.499973 -20        -9999     
2633.599973 -20        -9999     
2633.699973 -20        -9999     
2633.799973 -20        -9999     
2633.899973 -20        -9999     
2633.999973 -20        -9999     
2634.099973 -20        -9999     
2634.199973 -20        -9999     
2634.299973 -20        -9999     
2634.399973 -20        -9999     
2634.499972 -20        -9999     
2634.599972 -20        -9999     
2634.699972 -20        -9999     
2634.799972 -20        -9999     
2634.899972 -20        -9999     
2634.999972 -20        -9999     
2635.099972 -20        -9999     
2635.199972 -20        -9999     
2635.299972 -20        -9999     
2635.399972 -20        -9999     
2635.499972 -20        -9999     
2635.599972 -20        -9999     
2635.699972 -20        -9999     
2635.799972 -20        -9999     
2635.899972 -20        -9999     
2635.999972 -20        -9999     
2636.099972 -20        -9999     
2636.199972 -20        -9999     
2636.299972 -20        -9999     
2636.399972 -20        -9999     
2636.499972 -20        -9999     
2636.599972 -20        -9999     
2636.699972 -20        -9999     
2636.799972 -20        -9999     
2636.899972 -20        -9999     
2636.999972 -20        -9999     
2637.099972 -20        -9999     
2637.199972 -20        -9999     
2637.299972 -20        -9999     
2637.399972 -20        -9999     
2637.499972 -20        -9999     
2637.599972 -20        -9999     
2637.699972 -20        -9999     
2637.799972 -20        -9999     
2637.899972 -20        -9999     
2637.999972 -20        -9999     
2638.099972 -20        -9999     
2638.199972 -20        -9999     
2638.299972 -20        -9999     
2638.399972 -20        -9999     
2638.499972 -20        -9999     
2638.599972 -20        -9999     
2638.699972 -20        -9999     
2638.799972 -20        -9999     
2638.899972 -20        -9999     
2638.999972 -20        -9999     
2639.099972 -20        -9999     
2639.199972 -20        -9999     
2639.299972 -20        -9999     
2639.399972 -20        -9999     
2639.499972 -20        -9999     
2639.599972 -20        -9999     
2639.699972 -20        -9999     
2639.799972 -20        -9999     
2639.899972 -20        -9999     
2639.999972 -20        -9999     
2640.099972 -20        -9999     
2640.199972 -20        -9999     
2640.299972 -20        -9999     
2640.399972 -20        -9999     
2640.499972 -20        -9999     
2640.599972 -20        -9999     
2640.699972 -20        -9999     
2640.799972 -20        -9999     
2640.899972 -20        -9999     
2640.999972 -20        -9999     
2641.099972 -20        -9999     
2641.199972 -20        -9999     
2641.299972 -20        -9999     
2641.399972 -20        -9999     
2641.499972 -20        -9999     
2641.599972 -20        -9999     
2641.699972 -20        -9999     
2641.799972 -20        -9999     
2641.899972 -20        -9999     
2641.999972 -20        -9999     
2642.099972 -20        -9999     
2642.199972 -20        -9999     
2642.299972 -20        -9999     
2642.399972 -20        -9999     
2642.499972 -20        -9999     
2642.599972 -20        -9999     
2642.699972 -20        -9999     
2642.799972 -20        -9999     
2642.899972 -20        -9999     
2642.999972 -20        -9999     
2643.099972 -20        -9999     
2643.199972 -20        -9999     
2643.299972 -20        -9999     
