~Version
 VERS              .         2.0                           : CWLS LOG ASCII STANDARD - VERSION 2.0
 WRAP              .         NO                            : ONE LINE PER DEPTH STEP
 DLM               .         SPACE                         : DELIMITING CHARACTER(SPACE TAB OR COMMA)
~Well Information
#_______________________________________________________________________________
#
#PARAMETER_NAME    .UNIT     VALUE                         : DESCRIPTION
#_______________________________________________________________________________
STRT               .m        2359.5                        : First reference value
STOP               .m        2938.199942                   : Last reference value
STEP               .m        0.09999999                    : Step increment
NULL               .         -9999                         : Missing value
COMP               .                                       : Company
WELL               .         303                           : Well name
FLD                .                                       : Field
LOC                .                                       : Location
CNTY               .                                       : County
STAT               .                                       : State
CTRY               .                                       : Country
SRVC               .                                       : Service Company
DATE               .                                       : Date
API                .                                       : API number
EREF               .m        138.34                        : 
Pad                .         3                             : 
X                  .m        219750                        : 
Y                  .m        249950                        : 
group              .         Pad3                          : 
Интер-р            .         Ярышев                        : 
Куст               .         3                             : 
Статус             .         Проверено                     : 
Тип                .         Нагнетательные                : 
~Parameter Information Block
#_______________________________________________________________________________
#
#PARAMETER_NAME    .UNIT     VALUE                         : DESCRIPTION
#_______________________________________________________________________________
SET                .         LAS3                          : 
REAL_CREATION_DATE .         Ср апр 11 2012-13_17_09       : 
TLFamily_DEPTH     .         Measured Depth                : 
TLFamily_GR        .         Gamma Ray                     : 
TLFamily_TNPH      .         Neutron Porosity              : 
group              .         INI                           : 
~Curve Information
#_______________________________________________________________________________
#
#LOGNAME           .UNIT     LOG_ID                        : DESCRIPTION
#_______________________________________________________________________________
DEPTH              .m                                      : Measured Depth 
GR                 .gAPI                                   :  
TNPH               .v/v                                    : Neutron Porosity 
~Ascii
# ...
2406.799995 -20        -9999     
2406.899995 -20        -9999     
2406.999995 -20        -9999     
2407.099995 -20        -9999     
2407.199995 -20        -9999     
2407.299995 -20        -9999     
2407.399995 -20        -9999     
2407.499995 -20        -9999     
2407.599995 -20        -9999     
2407.699995 -20        -9999     
2407.799995 -20        -9999     
2407.899995 -20        -9999     
2407.999995 -20        -9999     
2408.099995 -20        -9999     
2408.199995 -20        -9999     
2408.299995 -20        -9999     
2408.399995 -20        -9999     
2408.499995 -20        -9999     
2408.599995 -20        -9999     
2408.699995 -20        -9999     
2408.799995 -20        -9999     
2408.899995 -20        -9999     
2408.999995 -20        -9999     
2409.099995 -20        -9999     
2409.199995 -20        -9999     
2409.299995 -20        -9999     
2409.399995 -20        -9999     
2409.499995 -20        -9999     
2409.599995 -20        -9999     
2409.699995 -20        -9999     
2409.799995 -20        -9999     
2409.899995 -20        -9999     
2409.999995 -20        -9999     
2410.099995 -20        -9999     
2410.199995 -20        -9999     
2410.299995 -20        -9999     
2410.399995 -20        -9999     
2410.499995 -20        -9999     
2410.599995 -20        -9999     
2410.699995 -20        -9999     
2410.799995 -20        -9999     
2410.899995 -20        -9999     
2410.999995 -20        -9999     
2411.099995 -20        -9999     
2411.199995 -20        -9999     
2411.299995 -20        -9999     
2411.399995 -20        -9999     
2411.499995 -20        -9999     
2411.599995 -20        -9999     
2411.699995 -20        -9999     
2411.799995 -20        -9999     
2411.899995 -20        -9999     
2411.999995 -20        -9999     
2412.099995 -20        -9999     
2412.199995 -20        -9999     
2412.299995 -20        -9999     
2412.399995 -20        -9999     
2412.499995 -20        -9999     
2412.599995 -20        -9999     
2412.699995 -20        -9999     
2412.799995 -20        -9999     
2412.899995 -20        -9999     
2412.999995 -20        -9999     
2413.099995 -20        -9999     
2413.199995 -20        -9999     
2413.299995 -20        -9999     
2413.399995 -20        -9999     
2413.499995 -20        -9999     
2413.599995 -20        -9999     
2413.699995 -20        -9999     
2413.799995 -20        -9999     
2413.899995 -20        -9999     
2413.999995 -20        -9999     
2414.099995 -20        -9999     
2414.199995 -20        -9999     
2414.299995 -20        -9999     
2414.399995 -20        -9999     
2414.499994 -20        -9999     
2414.599994 -20        -9999     
2414.699994 -20        -9999     
2414.799994 -20        -9999     
2414.899994 -20        -9999     
2414.999994 -20        -9999     
2415.099994 -20        -9999     
2415.199994 -20        -9999     
2415.299994 -20        -9999     
2415.399994 -20        -9999     
2415.499994 -20        -9999     
2415.599994 -20        -9999     
2415.699994 -20        -9999     
2415.799994 -20        -9999     
2415.899994 -20        -9999     
2415.999994 -20        -9999     
2416.099994 -20        -9999     
2416.199994 -20        -9999     
2416.299994 -20        -9999     
2416.399994 -20        -9999     
2416.499994 -20        -9999     
2416.599994 -20        -9999     
2416.699994 -20        -9999     
2416.799994 -20        -9999     
2416.899994 -20        -9999     
2416.999994 -20        -9999     
2417.099994 -20        -9999     
2417.199994 -20        -9999     
2417.299994 -20        -9999     
2417.399994 -20        -9999     
2417.499994 -20        -9999     
2417.599994 -20        -9999     
2417.699994 -20        -9999     
2417.799994 -20        -9999     
2417.899994 -20        -9999     
2417.999994 -20        -9999     
2418.099994 -20        -9999     
2418.199994 -20        -9999     
2418.299994 -20        -9999     
2418.399994 -20        -9999     
2418.499994 -20        -9999     
2418.599994 -20        -9999     
2418.699994 -20        -9999     
2418.799994 -20        -9999     
2418.899994 -20        -9999     
2418.999994 -20        -9999     
2419.099994 -20        -9999     
2419.199994 -20        -9999     
2419.299994 -20        -9999     
2419.399994 -20        -9999     
2419.499994 -20        -9999     
2419.599994 -20        -9999     
2419.699994 -20        -9999     
2419.799994 -20        -9999     
2419.899994 -20        -9999     
2419.999994 -20        -9999     
2420.099994 -20        -9999     
2420.199994 -20        -9999     
2420.299994 -20        -9999     
2420.399994 -20        -9999     
2420.499994 -20        -9999     
2420.599994 -20        -9999     
2420.699994 -20        -9999     
2420.799994 -20        -9999     
2420.899994 -20        -9999     
2420.999994 -20        -9999     
2421.099994 -20        -9999     
2421.199994 -20        -9999     
2421.299994 -20        -9999     
2421.399994 -20        -9999     
2421.499994 -20        -9999     
2421.599994 -20        -9999     
2421.699994 -20        -9999     
2421.799994 -20        -9999     
2421.899994 -20        -9999     
2421.999994 -20        -9999     
2422.099994 -20        -9999     
2422.199994 -20        -9999     
2422.299994 -20        -9999     
2422.399994 -20        -9999     
2422.499994 -20        -9999     
2422.599994 -20        -9999     
2422.699994 -20        -9999     
2422.799994 -20        -9999     
2422.899994 -20        -9999     
2422.999994 -20        -9999     
2423.099994 -20        -9999     
2423.199994 -20        -9999     
2423.299994 -20        -9999     
2423.399994 -20        -9999     
2423.499994 -20        -9999     
2423.599994 -20        -9999     
2423.699994 -20        -9999     
2423.799994 -20        -9999     
2423.899994 -20        -9999     
2423.999994 -20        -9999     
2424.099994 -20        -9999     
2424.199994 -20        -9999     
2424.299994 -20        -9999     
2424.399994 -20        -9999     
2424.499994 -20        -9999     
2424.599993 -20        -9999     
2424.699993 -20        -9999     
2424.799993 -20        -9999     
2424.899993 -20        -9999     
2424.999993 -20        -9999     
2425.099993 -20        -9999     
2425.199993 -20        -9999     
2425.299993 -20        -9999     
2425.399993 -20        -9999     
2425.499993 -20        -9999     
2425.599993 -20        -9999     
2425.699993 -20        -9999     
2425.799993 -20        -9999     
2425.899993 -20        -9999     
2425.999993 -20        -9999     
2426.099993 -20        -9999     
2426.199993 -20        -9999     
2426.299993 -20        -9999     
2426.399993 -20        -9999     
2426.499993 -20        -9999     
2426.599993 -20        -9999     
2426.699993 -20        -9999     
2426.799993 -20        -9999     
2426.899993 -20        -9999     
2426.999993 -20        -9999     
2427.099993 -20        -9999     
2427.199993 -20        -9999     
2427.299993 -20        -9999     
2427.399993 -20        -9999     
2427.499993 -20        -9999     
2427.599993 -20        -9999     
2427.699993 -20        -9999     
2427.799993 -20        -9999     
2427.899993 -20        -9999     
2427.999993 -20        -9999     
2428.099993 -20        -9999     
2428.199993 -20        -9999     
2428.299993 -20        -9999     
2428.399993 -20        -9999     
2428.499993 -20        -9999     
2428.599993 -20        -9999     
2428.699993 -20        -9999     
2428.799993 -20        -9999     
2428.899993 -20        -9999     
2428.999993 -20        -9999     
2429.099993 -20        -9999     
2429.199993 -20        -9999     
2429.299993 -20        -9999     
2429.399993 -20        -9999     
2429.499993 -20        -9999     
2429.599993 -20        -9999     
2429.699993 -20        -9999     
2429.799993 -20        -9999     
2429.899993 -20        -9999     
2429.999993 -20        -9999     
2430.099993 -20        -9999     
2430.199993 -20        -9999     
2430.299993 -20        -9999     
