~Version
 VERS              .         2.0                           : CWLS LOG ASCII STANDARD - VERSION 2.0
 WRAP              .         NO                            : ONE LINE PER DEPTH STEP
 DLM               .         SPACE                         : DELIMITING CHARACTER(SPACE TAB OR COMMA)
~Well Information
#_______________________________________________________________________________
#
#PARAMETER_NAME    .UNIT     VALUE                         : DESCRIPTION
#_______________________________________________________________________________
STRT               .m        2359.5                        : First reference value
STOP               .m        2938.199942                   : Last reference value
STEP               .m        0.09999999                    : Step increment
NULL               .         -9999                         : Missing value
COMP               .                                       : Company
WELL               .         303                           : Well name
FLD                .                                       : Field
LOC                .                                       : Location
CNTY               .                                       : County
STAT               .                                       : State
CTRY               .                                       : Country
SRVC               .                                       : Service Company
DATE               .                                       : Date
API                .                                       : API number
EREF               .m        138.34                        : 
Pad                .         3                             : 
X                  .m        219750                        : 
Y                  .m        249950                        : 
group              .         Pad3                          : 
Интер-р            .         Ярышев                        : 
Куст               .         3                             : 
Статус             .         Проверено                     : 
Тип                .         Нагнетательные                : 
~Parameter Information Block
#_______________________________________________________________________________
#
#PARAMETER_NAME    .UNIT     VALUE                         : DESCRIPTION
#_______________________________________________________________________________
SET                .         LAS3                          : 
REAL_CREATION_DATE .         Ср апр 11 2012-13_17_09       : 
TLFamily_DEPTH     .         Measured Depth                : 
TLFamily_GR        .         Gamma Ray                     : 
TLFamily_TNPH      .         Neutron Porosity              : 
group              .         INI                           : 
~Curve Information
#_______________________________________________________________________________
#
#LOGNAME           .UNIT     LOG_ID                        : DESCRIPTION
#_______________________________________________________________________________
DEPTH              .m                                      : Measured Depth 
GR                 .gAPI                                   :  
TNPH               .v/v                                    : Neutron Porosity 
~Ascii
# ...
2501.499986 -20        -9999     
2501.599986 -20        -9999     
2501.699986 -20        -9999     
2501.799986 -20        -9999     
2501.899986 -20        -9999     
2501.999986 -20        -9999     
2502.099986 -20        -9999     
2502.199986 -20        -9999     
2502.299986 -20        -9999     
2502.399986 -20        -9999     
2502.499986 -20        -9999     
2502.599986 -20        -9999     
2502.699986 -20        -9999     
2502.799986 -20        -9999     
2502.899986 -20        -9999     
2502.999986 -20        -9999     
2503.099986 -20        -9999     
2503.199986 -20        -9999     
2503.299986 -20        -9999     
2503.399986 -20        -9999     
2503.499986 -20        -9999     
2503.599986 -20        -9999     
2503.699986 -20        -9999     
2503.799986 -20        -9999     
2503.899986 -20        -9999     
2503.999986 -20        -9999     
2504.099986 -20        -9999     
2504.199986 -20        -9999     
2504.299986 -20        -9999     
2504.399986 -20        -9999     
2504.499986 -20        -9999     
2504.599985 -20        -9999     
2504.699985 -20        -9999     
2504.799985 -20        -9999     
2504.899985 -20        -9999     
2504.999985 -20        -9999     
2505.099985 -20        -9999     
2505.199985 -20        -9999     
2505.299985 -20        -9999     
2505.399985 -20        -9999     
2505.499985 -20        -9999     
2505.599985 -20        -9999     
2505.699985 -20        -9999     
2505.799985 -20        -9999     
2505.899985 -20        -9999     
2505.999985 -20        -9999     
2506.099985 -20        -9999     
2506.199985 -20        -9999     
2506.299985 -20        -9999     
2506.399985 -20        -9999     
2506.499985 -20        -9999     
2506.599985 -20        -9999     
2506.699985 -20        -9999     
2506.799985 -20        -9999     
2506.899985 -20        -9999     
2506.999985 -20        -9999     
2507.099985 -20        -9999     
2507.199985 -20        -9999     
2507.299985 -20        -9999     
2507.399985 -20        -9999     
2507.499985 -20        -9999     
2507.599985 -20        -9999     
2507.699985 -20        -9999     
2507.799985 -20        -9999     
2507.899985 -20        -9999     
2507.999985 -20        -9999     
2508.099985 -20        -9999     
2508.199985 -20        -9999     
2508.299985 -20        -9999     
2508.399985 -20        -9999     
2508.499985 -20        -9999     
2508.599985 -20        -9999     
2508.699985 -20        -9999     
2508.799985 -20        -9999     
2508.899985 -20        -9999     
2508.999985 -20        -9999     
2509.099985 -20        -9999     
2509.199985 -20        -9999     
2509.299985 -20        -9999     
2509.399985 -20        -9999     
2509.499985 -20        -9999     
2509.599985 -20        -9999     
2509.699985 -20        -9999     
2509.799985 -20        -9999     
2509.899985 -20        -9999     
2509.999985 -20        -9999     
2510.099985 -20        -9999     
2510.199985 -20        -9999     
2510.299985 -20        -9999     
2510.399985 -20        -9999     
2510.499985 -20        -9999     
2510.599985 -20        -9999     
2510.699985 -20        -9999     
2510.799985 -20        -9999     
2510.899985 -20        -9999     
2510.999985 -20        -9999     
2511.099985 -20        -9999     
2511.199985 -20        -9999     
2511.299985 -20        -9999     
2511.399985 -20        -9999     
2511.499985 -20        -9999     
2511.599985 -20        -9999     
2511.699985 -20        -9999     
2511.799985 -20        -9999     
2511.899985 -20        -9999     
2511.999985 -20        -9999     
2512.099985 -20        -9999     
2512.199985 -20        -9999     
2512.299985 -20        -9999     
2512.399985 -20        -9999     
2512.499985 -20        -9999     
2512.599985 -20        -9999     
2512.699985 -20        -9999     
2512.799985 -20        -9999     
2512.899985 -20        -9999     
2512.999985 -20        -9999     
2513.099985 -20        -9999     
2513.199985 -20        -9999     
2513.299985 -20        -9999     
2513.399985 -20        -9999     
2513.499985 -20        -9999     
2513.599985 -20        -9999     
2513.699985 -20        -9999     
2513.799985 -20        -9999     
2513.899985 -20        -9999     
2513.999985 -20        -9999     
2514.099985 -20        -9999     
2514.199985 -20        -9999     
2514.299985 -20        -9999     
2514.399985 -20        -9999     
2514.499985 -20        -9999     
2514.599984 -20        -9999     
2514.699984 -20        -9999     
2514.799984 -20        -9999     
2514.899984 -20        -9999     
2514.999984 -20        -9999     
2515.099984 -20        -9999     
2515.199984 -20        -9999     
2515.299984 -20        -9999     
2515.399984 -20        -9999     
2515.499984 -20        -9999     
2515.599984 -20        -9999     
2515.699984 -20        -9999     
2515.799984 -20        -9999     
2515.899984 -20        -9999     
2515.999984 -20        -9999     
2516.099984 -20        -9999     
2516.199984 -20        -9999     
2516.299984 -20        -9999     
2516.399984 -20        -9999     
2516.499984 -20        -9999     
2516.599984 -20        -9999     
2516.699984 -20        -9999     
2516.799984 -20        -9999     
2516.899984 -20        -9999     
2516.999984 -20        -9999     
2517.099984 -20        -9999     
2517.199984 -20        -9999     
2517.299984 -20        -9999     
2517.399984 -20        -9999     
2517.499984 -20        -9999     
2517.599984 -20        -9999     
2517.699984 -20        -9999     
2517.799984 -20        -9999     
2517.899984 -20        -9999     
2517.999984 -20        -9999     
2518.099984 -20        -9999     
2518.199984 -20        -9999     
2518.299984 -20        -9999     
2518.399984 -20        -9999     
2518.499984 -20        -9999     
2518.599984 -20        -9999     
2518.699984 -20        -9999     
2518.799984 -20        -9999     
2518.899984 -20        -9999     
2518.999984 -20        -9999     
2519.099984 -20        -9999     
2519.199984 -20        -9999     
2519.299984 -20        -9999     
2519.399984 -20        -9999     
2519.499984 -20        -9999     
2519.599984 -20        -9999     
2519.699984 -20        -9999     
2519.799984 -20        -9999     
2519.899984 -20        -9999     
2519.999984 -20        -9999     
2520.099984 -20        -9999     
2520.199984 -20        -9999     
2520.299984 -20        -9999     
2520.399984 -20        -9999     
2520.499984 -20        -9999     
2520.599984 -20        -9999     
2520.699984 -20        -9999     
2520.799984 -20        -9999     
2520.899984 -20        -9999     
2520.999984 -20        -9999     
2521.099984 -20        -9999     
2521.199984 -20        -9999     
2521.299984 -20        -9999     
2521.399984 -20        -9999     
2521.499984 -20        -9999     
2521.599984 -20        -9999     
2521.699984 -20        -9999     
2521.799984 -20        -9999     
2521.899984 -20        -9999     
2521.999984 -20        -9999     
2522.099984 -20        -9999     
2522.199984 -20        -9999     
2522.299984 -20        -9999     
2522.399984 -20        -9999     
2522.499984 -20        -9999     
2522.599984 -20        -9999     
2522.699984 -20        -9999     
2522.799984 -20        -9999     
2522.899984 -20        -9999     
2522.999984 -20        -9999     
2523.099984 -20        -9999     
2523.199984 -20        -9999     
2523.299984 -20        -9999     
2523.399984 -20        -9999     
2523.499984 -20        -9999     
2523.599984 -20        -9999     
2523.699984 -20        -9999     
2523.799984 -20        -9999     
2523.899984 -20        -9999     
2523.999984 -20        -9999     
2524.099984 -20        -9999     
2524.199984 -20        -9999     
2524.299984 -20        -9999     
2524.399984 -20        -9999     
2524.499983 -20        -9999     
2524.599983 -20        -9999     
2524.699983 -20        -9999     
2524.799983 -20        -9999     
2524.899983 -20        -9999     
2524.999983 -20        -9999     
