~Version
 VERS              .         2.0                           : CWLS LOG ASCII STANDARD - VERSION 2.0
 WRAP              .         NO                            : ONE LINE PER DEPTH STEP
 DLM               .         SPACE                         : DELIMITING CHARACTER(SPACE TAB OR COMMA)
~Well Information
#_______________________________________________________________________________
#
#PARAMETER_NAME    .UNIT     VALUE                         : DESCRIPTION
#_______________________________________________________________________________
STRT               .m        2774.31                       : First reference value
STOP               .m        2936.209903                   : Last reference value
STEP               .m        0.09999994                    : Step increment
NULL               .         -9999                         : Missing value
COMP               .                                       : Company
WELL               .         303                           : Well name
FLD                .                                       : Field
LOC                .                                       : Location
CNTY               .                                       : County
STAT               .                                       : State
CTRY               .                                       : Country
SRVC               .                                       : Service Company
DATE               .                                       : Date
API                .                                       : API number
EREF               .m        138.34                        : 
Pad                .         3                             : 
X                  .m        219750                        : 
Y                  .m        249950                        : 
group              .         Pad3                          : 
Интер-р            .         Ярышев                        : 
Куст               .         3                             : 
Статус             .         Проверено                     : 
Тип                .         Нагнетательные                : 
~Parameter Information Block
#_______________________________________________________________________________
#
#PARAMETER_NAME    .UNIT     VALUE                         : DESCRIPTION
#_______________________________________________________________________________
SET                .         LAS1                          : 
REAL_CREATION_DATE .         Ср апр 11 2012-13_17_09       : 
TLFamily_DEPTH     .         Measured Depth                : 
TLFamily_KS        .         Potential Resistivity         : 
TLFamily_KS1       .         Extra Shallow Resistivity     : 
TLFamily_KS2       .         Shallow Resistivity           : 
TLFamily_KS3       .         Medium Resistivity            : 
TLFamily_KS4       .         Deep Resistivity              : 
TLFamily_KS5       .         Extra Deep Resistivity        : 
TLFamily_LLD       .         Lateral Log Resistivity       : 
TLFamily_OKS3      .         Medium Resistivity Inverted   : 
TLFamily_RM        .         Mud Resistivity               : 
group              .         INI                           : 
~Curve Information
#_______________________________________________________________________________
#
#LOGNAME           .UNIT     LOG_ID                        : DESCRIPTION
#_______________________________________________________________________________
DEPTH              .m                                      : Measured Depth 
KS                 .ohm.m                                  : Potential Resistivity 
KS1                .ohm.m                                  : Extra Shallow Resistivity 
KS2                .ohm.m                                  : Shallow Resistivity 
KS3                .ohm.m                                  : Medium Resistivity 
KS4                .ohm.m                                  : Deep Resistivity 
KS5                .ohm.m                                  : Extra Deep Resistivity 
LLD                .ohm.m                                  : Lateral Log Resistivity 
OKS3               .ohm.m                                  : Medium Resistivity Inverted 
RM                 .ohm.m                                  : Mud Resistivity 
~Ascii
# ...
2913.009917 13.4667    1.3381     6.2339     12.4352    16.1604    25.6073    45.3343    9.272      0.062     
2913.109917 13.0372    1.8927     8.5225     15.7483    19.7501    28.1338    36.8005    10.363     0.063     
2913.209917 12.5893    2.371      10.9071    19.642     23.6167    31.7545    31.6108    11.7186    0.061     
2913.309917 12.177     2.6287     12.4389    23.6924    27.6294    34.8175    35.058     12.7025    0.061     
2913.409917 11.5576    2.7284     13.3251    29.1418    33.1624    36.936     36.803     14.1642    0.061     
2913.509916 10.884     3.0118     14.7314    35.4425    39.0913    38.2732    35.8083    15.43      0.062     
2913.609916 10.5231    4.1491     19.2661    39.2186    36.7791    38.8222    42.4302    15.2915    0.066     
2913.709916 10.2862    4.6105     24.1836    36.8828    37.879     38.6746    46.7861    14.7737    0.067     
2913.809916 10.1623    3.6293     19.6834    37.743     38.477     38.1103    41.322     14.2335    0.067     
2913.909916 10.1413    3.113      15.1674    38.5889    39.0382    37.3254    27.2791    13.2428    0.067     
2914.009916 10.1745    2.9764     13.4295    37.6306    37.3927    35.9723    19.4397    11.7639    0.066     
2914.109916 10.0646    2.9547     12.6439    35.3439    34.9026    33.4386    14.6674    10.9176    0.066     
2914.209916 9.8793     2.9833     12.2124    34.1876    33.9921    30.5082    12.2706    10.7093    0.066     
2914.309916 9.6525     2.9868     12.0131    33.2607    33.7972    28.6157    11.7527    10.7468    0.065     
2914.409916 9.4196     2.9807     11.9771    32.4394    34.0265    27.6744    11.5437    10.9478    0.064     
2914.509916 9.174      2.9978     12.1699    32.1768    34.6052    27.1268    11.0677    11.188     0.063     
2914.609916 8.9193     3.0339     12.5117    32.3919    35.6073    26.7363    10.5482    11.369     0.063     
2914.709916 8.6726     3.0898     12.9909    32.8671    36.9823    26.3513    10.8349    11.4558    0.063     
2914.809916 8.4181     3.1646     13.6681    33.4782    38.6512    25.943     12.0009    11.4592    0.063     
2914.909916 8.1574     3.2839     14.3149    33.9897    34.9372    25.506     14.0888    11.3728    0.064     
2915.009916 7.9014     3.423      14.8829    33.9601    35.9466    24.9887    17.3479    11.298     0.064     
2915.109916 7.5926     3.5661     15.1277    33.2589    37.0003    24.344     24.3263    11.2793    0.064     
2915.209915 7.2478     3.6271     14.6833    31.9658    37.3016    23.5779    32.2266    11.2708    0.063     
2915.309915 6.8706     3.578      14.1185    30.1829    36.5757    22.6678    25.0181    11.2555    0.062     
2915.409915 6.4913     3.4728     13.4988    28.2126    35.1321    21.5789    14.9317    11.2468    0.062     
2915.509915 6.1119     3.3239     12.8654    26.2391    38.336     20.2801    10.3996    11.2117    0.06      
2915.609915 5.7577     3.1324     12.3107    24.3684    38.1659    18.8152    8.3657     11.1508    0.06      
2915.709915 5.4535     2.931      11.8197    22.6394    36.8348    17.3289    7.1375     11.1238    0.06      
2915.809915 5.2029     2.718      11.2234    21.1779    35.3028    15.911     6.3821     11.1244    0.06      
2915.909915 5.0259     2.5842     10.6964    19.9387    33.455     14.6118    5.7575     11.1306    0.06      
2916.009915 4.8554     2.4474     10.1709    18.8352    31.4143    13.4663    5.1267     11.1319    0.061     
2916.109915 4.7442     2.2993     9.4311     17.6248    29.467     12.4519    4.7627     11.1392    0.061     
2916.209915 4.6552     2.1712     8.6198     16.3932    27.3542    11.5356    4.5153     11.14      0.063     
2916.309915 4.5745     2.0801     7.8744     15.1745    25.1518    10.71      4.3475     11.1461    0.063     
2916.409915 4.4979     2.0288     7.3439     14.131     22.913     9.9485     4.3165     11.1427    0.063     
2916.509915 4.423      2.0032     6.917      13.2863    21.0339    9.2325     4.3925     11.1425    0.063     
2916.609915 4.3733     1.9722     6.5805     12.5696    19.4878    8.5892     4.5338     11.1403    0.063     
2916.709915 4.3449     1.9477     6.3044     11.937     18.0518    8.0232     4.6226     11.14      0.063     
2916.809915 4.3409     1.9235     6.0209     11.4119    16.6896    7.5228     4.6644     11.1444    0.062     
2916.909914 4.3564     1.8839     5.7998     10.9546    15.3849    7.0837     4.7239     11.142     0.062     
2917.009914 4.37       1.8522     5.6272     10.5531    14.1517    6.6989     4.7242     11.1418    0.062     
2917.109914 4.3848     1.8352     5.4815     10.1408    12.9807    6.3608     4.7109     11.1402    0.062     
2917.209914 4.4035     1.8468     5.3359     9.7025     11.9412    6.0666     4.7206     11.14      0.062     
2917.309914 4.42       1.8275     5.2874     9.2922     11.1185    5.8153     4.747      11.134     0.062     
2917.409914 4.4347     1.8115     5.1552     8.9194     10.4652    5.6074     4.7587     11.1393    0.061     
2917.509914 4.44       1.828      5.1133     8.5434     9.9387     5.4166     4.8103     11.1331    0.061     
2917.609914 4.45       1.83       5.07       8.1655     9.5584     5.251      4.8571     11.1302    0.061     
2917.709914 4.45       1.8259     5.0015     7.8895     9.263      5.1091     4.9282     11.13      0.061     
2917.809914 4.45       1.8205     4.9966     7.6559     9.0795     4.9911     4.9924     11.13      0.061     
2917.909914 4.45       1.82       5.04       7.4903     9.0514     4.9101     5.0717     11.13      0.061     
2918.009914 4.4574     1.82       5.0405     7.3641     9.095      4.8425     5.223      11.13      0.061     
2918.109914 4.47       1.82       5.0768     7.282      9.0229     4.7905     5.3185     11.13      0.061     
2918.209914 4.47       1.8134     5.1293     7.2121     8.9122     4.7556     5.3977     11.1312    0.061     
2918.309914 4.47       1.8037     5.1485     7.1407     8.811      4.7361     5.6422     11.1391    0.061     
2918.409914 4.47       1.8016     5.15       7.1024     8.7168     4.723      6.2378     11.1334    0.061     
2918.509913 4.47       1.8001     5.15       7.0729     8.6585     4.7159     6.8578     11.1393    0.061     
2918.609913 4.47       1.8        5.159      7.078      8.625      4.705      7.4304     11.1459    0.061     
2918.709913 4.47       1.8        5.151      7.1251     8.6064     4.6964     8.0912     11.1493    0.061     
2918.809913 4.4632     1.8048     5.15       7.1284     8.575      4.6988     8.3423     11.1465    0.061     
2918.909913 4.46       1.8085     5.1385     7.0716     8.5447     4.7107     7.8296     11.1436    0.061     
2919.009913 4.46       1.807      5.1307     6.9312     8.495      4.7295     6.4691     11.1403    0.061     
2919.109913 4.46       1.8097     5.13       6.8168     8.4219     4.7645     5.5283     11.14      0.061     
2919.209913 4.46       1.8033     5.13       6.743      8.3649     4.8171     5.3005     11.14      0.061     
2919.309913 4.46       1.8093     5.13       6.6854     8.3862     4.8859     4.9683     11.14      0.061     
2919.409913 4.46       1.81       5.13       6.671      8.4752     4.9697     4.6483     11.1328    0.061     
2919.509913 4.46       1.81       5.13       6.67       8.6669     5.0781     4.5018     11.1302    0.061     
2919.609913 4.46       1.81       5.13       6.67       8.865      5.209      4.5719     11.13      0.061     
2919.709913 4.46       1.81       5.13       6.6788     8.9431     5.3666     5.0568     11.13      0.061     
2919.809913 4.46       1.81       5.13       6.671      8.9476     5.5407     6.0787     11.13      0.061     
2919.909913 4.4678     1.81       5.13       6.679      8.8637     5.7032     7.1852     11.13      0.061     
2920.009913 4.4677     1.81       5.13       6.68       8.7098     5.8246     7.9462     11.1362    0.061     
2920.109913 4.47       1.81       5.13       6.698      8.5604     5.8995     8.3254     -9999      0.061     
2920.209912 4.47       1.81       5.1225     6.7        8.4329     5.9376     8.8013     -9999      0.061     
