~Version
 VERS              .         2.0                           : CWLS LOG ASCII STANDARD - VERSION 2.0
 WRAP              .         NO                            : ONE LINE PER DEPTH STEP
 DLM               .         SPACE                         : DELIMITING CHARACTER(SPACE TAB OR COMMA)
~Well Information
#_______________________________________________________________________________
#
#PARAMETER_NAME    .UNIT     VALUE                         : DESCRIPTION
#_______________________________________________________________________________
STRT               .m        2359.5                        : First reference value
STOP               .m        2938.199942                   : Last reference value
STEP               .m        0.09999999                    : Step increment
NULL               .         -9999                         : Missing value
COMP               .                                       : Company
WELL               .         303                           : Well name
FLD                .                                       : Field
LOC                .                                       : Location
CNTY               .                                       : County
STAT               .                                       : State
CTRY               .                                       : Country
SRVC               .                                       : Service Company
DATE               .                                       : Date
API                .                                       : API number
EREF               .m        138.34                        : 
Pad                .         3                             : 
X                  .m        219750                        : 
Y                  .m        249950                        : 
group              .         Pad3                          : 
Интер-р            .         Ярышев                        : 
Куст               .         3                             : 
Статус             .         Проверено                     : 
Тип                .         Нагнетательные                : 
~Parameter Information Block
#_______________________________________________________________________________
#
#PARAMETER_NAME    .UNIT     VALUE                         : DESCRIPTION
#_______________________________________________________________________________
SET                .         LAS3                          : 
REAL_CREATION_DATE .         Ср апр 11 2012-13_17_09       : 
TLFamily_DEPTH     .         Measured Depth                : 
TLFamily_GR        .         Gamma Ray                     : 
TLFamily_TNPH      .         Neutron Porosity              : 
group              .         INI                           : 
~Curve Information
#_______________________________________________________________________________
#
#LOGNAME           .UNIT     LOG_ID                        : DESCRIPTION
#_______________________________________________________________________________
DEPTH              .m                                      : Measured Depth 
GR                 .gAPI                                   :  
TNPH               .v/v                                    : Neutron Porosity 
~Ascii
# ...
2832.799953 243.32     0.35      
2832.899953 242.58     0.35      
2832.999953 237.54     0.344     
2833.099953 235        0.338     
2833.199953 228.53     0.334     
2833.299953 215.55     0.334     
2833.399953 210.65     0.336     
2833.499953 196.63     0.335     
2833.599953 193.73     0.331     
2833.699953 187.21     0.326     
2833.799953 177.5      0.322     
2833.899953 175.78     0.326     
2833.999953 169.03     0.331     
2834.099953 167.56     0.334     
2834.199953 164.64     0.33      
2834.299953 162.39     0.309     
2834.399953 161.91     0.307     
2834.499952 164.07     0.296     
2834.599952 164.62     0.29      
2834.699952 165.62     0.286     
2834.799952 166.71     0.283     
2834.899952 166.82     0.285     
2834.999952 167.97     0.286     
2835.099952 168.64     0.289     
2835.199952 169.23     0.292     
2835.299952 170.42     0.289     
2835.399952 171.29     0.292     
2835.499952 170.72     0.29      
2835.599952 168.35     0.287     
2835.699952 161.62     0.282     
2835.799952 158.17     0.268     
2835.899952 148.2      0.277     
2835.999952 145.09     0.276     
2836.099952 138.74     0.275     
2836.199952 134.13     0.275     
2836.299952 135.85     0.283     
2836.399952 145.7      0.274     
2836.499952 151.43     0.277     
2836.599952 158        0.281     
2836.699952 158.33     0.285     
2836.799952 155.87     0.286     
2836.899952 150.16     0.285     
2836.999952 148.94     0.28      
2837.099952 147.36     0.274     
2837.199952 145.15     0.272     
2837.299952 143.25     0.272     
2837.399952 139.8      0.275     
2837.499952 137.6      0.279     
2837.599952 134.81     0.279     
2837.699952 132.17     0.275     
2837.799952 130.75     0.271     
2837.899952 127.18     0.272     
2837.999952 126.21     0.276     
2838.099952 122.66     0.283     
2838.199952 116.95     0.286     
2838.299952 117.02     0.277     
2838.399952 115.43     0.275     
2838.499952 115.9      0.265     
2838.599952 116.63     0.256     
2838.699952 117.67     0.25      
2838.799952 117.81     0.244     
2838.899952 117.27     0.245     
2838.999952 117.18     0.248     
2839.099952 120.97     0.253     
2839.199952 122.84     0.263     
2839.299952 127.38     0.288     
2839.399952 129.27     0.285     
2839.499952 131.88     0.295     
2839.599952 134.83     0.301     
2839.699952 134.79     0.302     
2839.799952 133.69     0.291     
2839.899952 132.2      0.293     
2839.999952 129.61     0.289     
2840.099952 126.34     0.289     
2840.199952 126.09     0.289     
2840.299952 126.78     0.282     
2840.399952 128.11     0.281     
2840.499952 131.14     0.277     
2840.599952 138.05     0.277     
2840.699952 138.55     0.283     
2840.799952 140.06     0.298     
2840.899952 139.58     0.299     
2840.999952 137.93     0.303     
2841.099952 135.46     0.304     
2841.199952 134.26     0.299     
2841.299952 130.85     0.287     
2841.399952 129.68     0.28      
2841.499952 127.76     0.272     
2841.599952 126.68     0.269     
2841.699952 127.24     0.279     
2841.799952 128.77     0.279     
2841.899952 130.48     0.291     
2841.999952 132.63     0.301     
2842.099952 135.71     0.306     
2842.199952 136.51     0.308     
2842.299952 139.37     0.308     
2842.399952 141        0.306     
2842.499952 144.74     0.303     
2842.599952 148.76     0.3       
2842.699952 150.32     0.296     
2842.799952 151.64     0.296     
2842.899952 151.92     0.294     
2842.999952 152.36     0.294     
2843.099952 152.19     0.299     
2843.199952 152.53     0.315     
2843.299952 153.29     0.318     
2843.399952 152.75     0.327     
2843.499952 152.25     0.332     
2843.599952 149.03     0.33      
2843.699952 147.13     0.318     
2843.799952 141.11     0.318     
2843.899952 139.09     0.314     
2843.999952 135.56     0.314     
2844.099952 130.89     0.317     
2844.199952 129.65     0.322     
2844.299952 128.44     0.318     
2844.399952 129.19     0.321     
2844.499951 132.35     0.324     
2844.599951 139.01     0.325     
2844.699951 140.57     0.325     
2844.799951 146.58     0.328     
2844.899951 147.63     0.329     
2844.999951 149.98     0.325     
2845.099951 148.33     0.314     
2845.199951 147.33     0.291     
2845.299951 138.43     0.293     
2845.399951 135.3      0.289     
2845.499951 129.06     0.287     
2845.599951 119.71     0.287     
2845.699951 117.65     0.293     
2845.799951 110.99     0.291     
2845.899951 109.85     0.297     
2845.999951 109.24     0.302     
2846.099951 112.85     0.306     
2846.199951 113.35     0.312     
2846.299951 116.42     0.312     
2846.399951 117.23     0.315     
2846.499951 120.08     0.316     
2846.599951 127.7      0.324     
2846.699951 131.52     0.354     
2846.799951 140.98     0.351     
2846.899951 144.21     0.367     
2846.999951 149.79     0.373     
2847.099951 158.87     0.369     
2847.199951 161.52     0.35      
2847.299951 169.12     0.353     
2847.399951 171.66     0.349     
2847.499951 174.68     0.35      
2847.599951 175.94     0.349     
2847.699951 174.87     0.337     
2847.799951 169.27     0.338     
2847.899951 165.25     0.328     
2847.999951 158.45     0.319     
2848.099951 149.09     0.313     
2848.199951 145.92     0.308     
2848.299951 135.61     0.312     
2848.399951 132.91     0.307     
2848.499951 126.57     0.299     
2848.599951 119.11     0.295     
2848.699951 118.97     0.303     
2848.799951 120.81     0.299     
2848.899951 121.58     0.306     
2848.999951 125.26     0.314     
2849.099951 132.39     0.323     
2849.199951 134.91     0.335     
2849.299951 144.26     0.332     
2849.399951 146.02     0.334     
2849.499951 152.34     0.336     
2849.599951 160.5      0.341     
2849.699951 164.11     0.355     
2849.799951 172.6      0.355     
2849.899951 176.53     0.358     
2849.999951 184.74     0.354     
2850.099951 200.45     0.345     
2850.199951 204.9      0.338     
2850.299951 219.79     0.337     
2850.399951 223.38     0.34      
2850.499951 227.85     0.346     
2850.599951 228.13     0.351     
2850.699951 226.17     0.356     
2850.799951 220.94     0.355     
2850.899951 220.13     0.356     
2850.999951 218.2      0.357     
2851.099951 216.3      0.356     
2851.199951 215.66     0.358     
2851.299951 215.89     0.359     
2851.399951 216.91     0.368     
2851.499951 220.35     0.377     
2851.599951 228.97     0.383     
2851.699951 232.69     0.382     
2851.799951 242.57     0.384     
2851.899951 244.55     0.386     
2851.999951 247.17     0.391     
2852.099951 243.4      0.391     
2852.199951 240.89     0.38      
2852.299951 229.2      0.385     
2852.399951 226.78     0.382     
2852.499951 222.62     0.381     
2852.599951 222.59     0.382     
2852.699951 226.53     0.385     
2852.799951 238.81     0.377     
2852.899951 242.4      0.369     
2852.999951 249.8      0.363     
2853.099951 254.87     0.362     
2853.199951 250.42     0.36      
2853.299951 232.81     0.368     
2853.399951 223.47     0.362     
2853.499951 204.42     0.353     
2853.599951 176.94     0.342     
2853.699951 170.36     0.327     
2853.799951 152.78     0.329     
2853.899951 149.08     0.327     
2853.999951 142.61     0.329     
2854.099951 136.4      0.332     
2854.199951 134.67     0.326     
2854.299951 132.83     0.324     
2854.399951 131.06     0.321     
2854.499951 130.83     0.326     
2854.59995 131.33     0.338     
2854.69995 131.37     0.342     
2854.79995 133.28     0.341     
2854.89995 133.17     0.331     
2854.99995 134.23     0.322     
2855.09995 135.06     0.321     
2855.19995 136.7      0.325     
2855.29995 139.26     0.329     
2855.39995 140        0.325     
2855.49995 141.18     0.319     
2855.59995 141.93     0.31      
2855.69995 142.19     0.292     
2855.79995 143.15     0.295     
2855.89995 144.46     0.289     
2855.99995 145.88     0.289     
2856.09995 147.83     0.294     
2856.19995 150.19     0.305     
2856.29995 151.09     0.306     
