~Version
 VERS              .         2.0                           : CWLS LOG ASCII STANDARD - VERSION 2.0
 WRAP              .         NO                            : ONE LINE PER DEPTH STEP
 DLM               .         SPACE                         : DELIMITING CHARACTER(SPACE TAB OR COMMA)
~Well Information
#_______________________________________________________________________________
#
#PARAMETER_NAME    .UNIT     VALUE                         : DESCRIPTION
#_______________________________________________________________________________
STRT               .m        2774.31                       : First reference value
STOP               .m        2936.209903                   : Last reference value
STEP               .m        0.09999994                    : Step increment
NULL               .         -9999                         : Missing value
COMP               .                                       : Company
WELL               .         303                           : Well name
FLD                .                                       : Field
LOC                .                                       : Location
CNTY               .                                       : County
STAT               .                                       : State
CTRY               .                                       : Country
SRVC               .                                       : Service Company
DATE               .                                       : Date
API                .                                       : API number
EREF               .m        138.34                        : 
Pad                .         3                             : 
X                  .m        219750                        : 
Y                  .m        249950                        : 
group              .         Pad3                          : 
Интер-р            .         Ярышев                        : 
Куст               .         3                             : 
Статус             .         Проверено                     : 
Тип                .         Нагнетательные                : 
~Parameter Information Block
#_______________________________________________________________________________
#
#PARAMETER_NAME    .UNIT     VALUE                         : DESCRIPTION
#_______________________________________________________________________________
SET                .         LAS1                          : 
REAL_CREATION_DATE .         Ср апр 11 2012-13_17_09       : 
TLFamily_DEPTH     .         Measured Depth                : 
TLFamily_KS        .         Potential Resistivity         : 
TLFamily_KS1       .         Extra Shallow Resistivity     : 
TLFamily_KS2       .         Shallow Resistivity           : 
TLFamily_KS3       .         Medium Resistivity            : 
TLFamily_KS4       .         Deep Resistivity              : 
TLFamily_KS5       .         Extra Deep Resistivity        : 
TLFamily_LLD       .         Lateral Log Resistivity       : 
TLFamily_OKS3      .         Medium Resistivity Inverted   : 
TLFamily_RM        .         Mud Resistivity               : 
group              .         INI                           : 
~Curve Information
#_______________________________________________________________________________
#
#LOGNAME           .UNIT     LOG_ID                        : DESCRIPTION
#_______________________________________________________________________________
DEPTH              .m                                      : Measured Depth 
KS                 .ohm.m                                  : Potential Resistivity 
KS1                .ohm.m                                  : Extra Shallow Resistivity 
KS2                .ohm.m                                  : Shallow Resistivity 
KS3                .ohm.m                                  : Medium Resistivity 
KS4                .ohm.m                                  : Deep Resistivity 
KS5                .ohm.m                                  : Extra Deep Resistivity 
LLD                .ohm.m                                  : Lateral Log Resistivity 
OKS3               .ohm.m                                  : Medium Resistivity Inverted 
RM                 .ohm.m                                  : Mud Resistivity 
~Ascii
# ...
2840.009961 10.7722    2.7825     10.9982    20.9363    25.0984    14.0211    13.8224    21.627     0.064     
2840.109961 10.78      2.7411     10.8478    20.7717    25.2212    14.0742    14.1017    21.9158    0.064     
2840.20996 10.78      2.6947     10.7122    20.6984    25.4025    14.1334    14.7172    22.0832    0.064     
2840.30996 10.7869    2.6866     10.6631    20.6452    25.6405    14.197     15.2278    22.2513    0.064     
2840.40996 10.7978    2.6806     10.6238    20.6563    25.9445    14.2741    15.8161    22.421     0.064     
2840.50996 10.8086    2.6985     10.664     20.7067    26.2182    14.3697    16.0978    22.5766    0.064     
2840.60996 10.8193    2.7161     10.7129    20.7835    26.4725    14.4815    16.0132    22.7103    0.063     
2840.70996 10.84      2.7198     10.6681    20.857     26.651     14.609     16.0467    22.8192    0.063     
2840.80996 10.853     2.7368     10.7002    20.9068    26.7397    14.7425    15.5455    22.8906    0.063     
2840.90996 10.8823    2.7398     10.6745    20.9439    26.7867    14.8793    15.4847    22.9327    0.062     
2841.00996 10.8974    2.7148     10.5981    20.9391    26.8112    15.0124    16.0637    22.9739    0.062     
2841.10996 10.9207    2.7282     10.6085    20.9067    26.7955    15.1423    16.0809    22.976     0.061     
2841.20996 10.9369    2.7267     10.5627    20.8998    26.8517    15.2803    16.4908    22.9206    0.061     
2841.30996 10.9481    2.7398     10.6036    20.9269    26.8788    15.437     16.9071    22.8341    0.062     
2841.40996 10.95      2.7705     10.7449    20.9356    26.9014    15.6016    16.5151    22.7421    0.062     
2841.50996 10.9601    2.7721     10.76      20.9584    26.9636    15.7697    16.0258    22.6222    0.062     
2841.60996 10.9714    2.7702     10.7411    20.9623    27.015     15.9276    15.7121    22.5519    0.063     
2841.70996 10.9885    2.761      10.7309    20.8921    27.0161    16.0886    15.4544    22.5147    0.064     
2841.809959 10.98      2.76       10.7333    20.8459    27.0057    16.2445    15.3872    22.4957    0.065     
2841.909959 10.98      2.7614     10.7633    20.7868    27.0064    16.3956    15.5147    22.508     0.066     
2842.009959 10.98      2.7692     10.8062    20.793     27.0832    16.5475    15.2896    22.529     0.066     
2842.109959 10.987     2.77       10.8118    20.7949    27.1344    16.6982    15.0096    22.5675    0.066     
2842.209959 10.9985    2.7748     10.8855    20.7531    27.1747    16.8482    14.4056    22.6467    0.065     
2842.309959 11.02      2.7543     10.7906    20.6824    27.166     17.0076    13.8877    22.7805    0.065     
2842.409959 11.0547    2.7183     10.6539    20.5962    27.1027    17.1827    13.8518    22.9856    0.064     
2842.509959 11.1055    2.7015     10.629     20.4403    26.9698    17.3752    13.5552    23.1641    0.064     
2842.609959 11.2064    2.6687     10.5261    20.3184    26.9004    17.5831    13.6604    23.2612    0.063     
2842.709959 11.2651    2.6229     10.3735    20.2917    26.9213    17.8028    15.0209    23.2218    0.063     
2842.809959 11.3331    2.6257     10.3479    20.3081    27.0377    18.0472    17.0457    23.0525    0.063     
2842.909959 11.395     2.6462     10.4181    20.4308    27.2748    18.3124    19.2708    22.7582    0.063     
2843.009959 11.4531    2.6787     10.524     20.6625    27.6412    18.602     21.3104    22.3493    0.064     
2843.109959 11.491     2.736      10.6653    20.9823    28.0278    18.9329    22.8338    21.831     0.064     
2843.209959 11.5186    2.8047     10.8418    21.3553    28.453     19.2889    23.7671    21.2583    0.064     
2843.309959 11.5051    2.8834     11.0706    21.7375    28.8644    19.6647    23.3865    20.6803    0.064     
2843.409959 11.48      2.9337     11.4525    22.1597    29.2733    20.0334    22.3452    20.1129    0.065     
2843.509958 11.4399    2.9937     11.7041    22.5259    29.6559    20.3663    22.4468    19.5661    0.065     
2843.609958 11.372     3.033      11.8825    22.8548    29.9658    20.6638    21.7197    19.032     0.065     
2843.709958 11.2901    3.0595     12.0242    23.127     30.2277    20.9327    20.4184    18.52      0.065     
2843.809958 11.2189    3.091      12.2077    23.3417    30.3884    21.1615    19.1056    18.148     0.064     
2843.909958 11.1329    3.093      12.2861    23.4199    30.3393    21.378     16.7163    17.9273    0.063     
2844.009958 11.0699    3.0382     12.1027    23.3917    30.1901    21.599     14.4308    17.8034    0.063     
2844.109958 10.9895    2.9971     11.9997    23.2619    29.9419    21.8151    13.6365    17.7862    0.063     
2844.209958 10.9066    2.9363     11.8581    23.0825    29.6546    22.028     13.197     17.8785    0.062     
2844.309958 10.8342    2.9093     11.7808    22.8627    29.4351    22.2602    13.3992    18.0195    0.062     
2844.409958 10.7764    2.8891     11.7481    22.7809    29.2969    22.5168    14.0628    18.1386    0.062     
2844.509958 10.712     2.8736     11.7046    22.7353    29.2624    22.8064    14.7689    18.2229    0.062     
2844.609958 10.6521    2.8698     11.6915    23.0021    29.4029    23.1268    16.0321    18.2236    0.061     
2844.709958 10.5794    2.9041     11.8123    23.2922    29.6636    23.446     18.0758    18.0951    0.061     
2844.809958 10.4837    2.9676     12.0278    23.6568    29.9819    23.7551    20.3436    17.8537    0.061     
2844.909958 10.3795    3.0235     12.1909    24.0891    30.3648    24.0498    21.1727    17.5248    0.062     
2845.009958 10.2557    3.0818     12.3064    24.5408    30.7596    24.2779    20.6839    17.1514    0.063     
2845.109958 10.0984    3.1305     12.3913    24.9676    31.1189    24.4299    19.7801    16.747     0.063     
2845.209957 9.919      3.1898     12.5403    25.2785    31.3937    24.4657    19.0861    16.3395    0.063     
2845.309957 9.7431     3.243      12.7       25.3933    31.547     24.3751    17.3593    15.9563    0.064     
2845.409957 9.5811     3.2492     12.7783    25.2832    31.4276    24.1735    14.5833    15.6532    0.064     
2845.509957 9.4212     3.177      12.5446    24.9592    31.1465    23.8712    11.8262    15.4525    0.065     
2845.609957 9.2773     3.0751     12.129     24.4213    30.61      23.4695    10.1856    15.3873    0.065     
2845.709957 9.1229     2.9926     11.8229    23.697     29.8795    23.035     9.0942     15.4374    0.066     
2845.809957 9.0122     2.9169     11.5236    22.8824    28.9786    22.5731    8.4653     15.6012    0.066     
2845.909957 8.9268     2.8216     11.1275    22.0496    28.0129    22.0656    7.9661     15.8408    0.066     
2846.009957 8.8689     2.6845     10.616     21.2033    27.0613    21.5236    7.9696     16.1392    0.066     
2846.109957 8.8286     2.5748     10.2085    20.4185    26.1611    21.0147    8.4298     16.4657    0.065     
2846.209957 8.8129     2.5092     9.9426     19.7018    25.3449    20.5778    9.066      16.7763    0.064     
2846.309957 8.8181     2.4567     9.6946     19.1852    24.6762    20.2193    9.7457     17.0754    0.064     
2846.409957 8.8561     2.4194     9.5002     18.8296    24.237     19.9409    10.2755    17.352     0.064     
2846.509957 8.9091     2.4033     9.3387     18.5588    23.9505    19.7538    10.7121    17.5959    0.064     
2846.609957 8.9631     2.3921     9.1981     18.3981    23.7012    19.6546    11.4932    17.8105    0.064     
2846.709957 9.0187     2.4078     9.1354     18.3403    23.7187    19.6312    12.546     17.981     0.064     
2846.809956 9.0813     2.4386     9.149      18.3563    23.8398    19.6379    13.4075    18.1251    0.064     
2846.909956 9.1359     2.4724     9.218      18.4593    24.0393    19.6686    14.0096    18.2011    0.064     
2847.009956 9.1993     2.5168     9.3202     18.5677    24.2846    19.7195    14.2877    18.2253    0.065     
2847.109956 9.2498     2.5665     9.4083     18.6359    24.4859    19.788     14.1014    18.1934    0.065     
2847.209956 9.2944     2.6077     9.5098     18.6534    24.6534    19.8734    13.9505    18.1331    0.065     
