~Version
 VERS              .         2.0                           : CWLS LOG ASCII STANDARD - VERSION 2.0
 WRAP              .         NO                            : ONE LINE PER DEPTH STEP
 DLM               .         SPACE                         : DELIMITING CHARACTER(SPACE TAB OR COMMA)
~Well Information
#_______________________________________________________________________________
#
#PARAMETER_NAME    .UNIT     VALUE                         : DESCRIPTION
#_______________________________________________________________________________
STRT               .m        2903                          : First reference value
STOP               .m        3130                          : Last reference value
STEP               .m        0.2                           : Step increment
NULL               .         -9999                         : Missing value
COMP               .                                       : Company
WELL               .         304                           : Well name
FLD                .                                       : Field
LOC                .                                       : Location
CNTY               .                                       : County
STAT               .                                       : State
CTRY               .                                       : Country
SRVC               .                                       : Service Company
DATE               .                                       : Date
API                .                                       : API number
EREF               .m        138.34                        : 
Pad                .         3                             : 
X                  .m        219750                        : 
Y                  .m        249950                        : 
group              .         Pad3                          : 
Интер-р            .         Старостина                    : 
Куст               .         3                             : 
Статус             .         Не проверено                  : 
Тип                .         Эксплуатация                  : 
~Parameter Information Block
#_______________________________________________________________________________
#
#PARAMETER_NAME    .UNIT     VALUE                         : DESCRIPTION
#_______________________________________________________________________________
SET                .         LAS5                          : 
REAL_CREATION_DATE .         Ср апр 11 2012-13_17_10       : 
TLFamily_DEPTH     .         Measured Depth                : 
TLFamily_GR        .         Gamma Ray                     : 
TLFamily_TNPH      .         Neutron Porosity              : 
group              .         INI                           : 
~Curve Information
#_______________________________________________________________________________
#
#LOGNAME           .UNIT     LOG_ID                        : DESCRIPTION
#_______________________________________________________________________________
DEPTH              .m                                      : Measured Depth 
GR                 .gAPI                                   :  
TNPH               .v/v                                    : Neutron Porosity 
~Ascii
# ...
3097.4     106.94     0.292     
3097.6     115.23     0.266     
3097.8     108.83     0.251     
3098       96.02      0.227     
3098.2     86.08      0.24      
3098.4     82.07      0.267     
3098.6     79.86      0.29      
3098.8     79.83      0.343     
3099       83.86      0.343     
3099.2     84.95      0.273     
3099.4     88.82      0.262     
3099.6     97.21      0.289     
3099.8     98.55      0.266     
3100       75.48      0.219     
3100.2     46.64      0.184     
3100.4     38.62      0.176     
3100.6     40.97      0.201     
3100.8     49.85      0.221     
3101       72.95      0.236     
3101.2     101.77     0.25      
3101.4     108.54     0.283     
3101.6     96.93      0.361     
3101.8     92.76      0.352     
3102       88.64      0.274     
3102.2     78.56      0.235     
3102.4     81.18      0.222     
3102.6     93.48      0.229     
3102.8     94.3       0.222     
3103       83.12      0.202     
3103.2     65.77      0.177     
3103.4     56.29      0.147     
3103.6     50.59      0.129     
3103.8     47.66      0.134     
3104       45.83      0.135     
3104.2     50.42      0.147     
3104.4     53.28      0.166     
3104.6     52.48      0.172     
3104.8     51.5       0.172     
3105       49.91      0.18      
3105.2     56.92      0.188     
3105.4     72.83      0.2       
3105.6     82.55      0.215     
3105.8     81.47      0.225     
3106       87.7       0.241     
3106.2     96.03      0.288     
3106.4     91.19      0.332     
3106.6     77.06001   0.31      
3106.8     62.67      0.259     
3107       52.14      0.22      
3107.2     58.39      0.191     
3107.4     64.12      0.192     
3107.6     64.52      0.196     
3107.8     64.46      0.202     
3108       67.83      0.204     
3108.2     68.16      0.209     
3108.4     67.76      0.235     
3108.6     74.25999   0.266     
3108.8     83.42      0.271     
3109       98.02      0.273     
3109.2     104.69     0.289     
3109.4     104.1      0.275     
3109.6     102.91     0.241     
3109.8     99.99      0.227     
3110       102.48     0.227     
3110.2     103.34     0.223     
3110.4     93.66      0.217     
3110.6     77.85      0.226     
3110.8     70.76      0.267     
3111       69.18999   0.334     
3111.2     71.07001   0.355     
3111.4     66.55      0.319     
3111.6     64.18999   0.296     
3111.8     66.19      0.278     
3112       66.5       0.26      
3112.2     64.54001   0.275     
3112.4     63.69      0.318     
3112.6     73.84      0.321     
3112.8     79.27      0.288     
3113       77.95      0.244     
3113.2     72.41      0.229     
3113.4     74.52      0.247     
3113.6     76.61      0.25      
3113.8     74.28001   0.254     
3114       78.81      0.27      
3114.2     87.83      0.276     
3114.4     94.75      0.28      
3114.6     97.31      0.301     
3114.8     90.31999   0.339     
3115       67.36      0.411     
3115.2     40.91      0.457     
3115.4     35.79      0.384     
3115.6     58.37      0.311     
3115.8     79.78      0.265     
3116       90.53001   0.22      
3116.2     85.50999   0.2       
3116.4     81.3       0.21      
3116.6     79.12      0.224     
3116.8     78.19      0.22      
3117       79.05      0.229     
3117.2     81.03      0.236     
3117.4     80.82      0.222     
3117.6     73.11      0.216     
3117.8     65.11      0.217     
3118       65.48      0.23      
3118.2     79.49001   0.251     
3118.4     93.02      0.278     
3118.6     107.63     0.29      
3118.8     114.61     0.301     
3119       116.07     0.307     
3119.2     116.3      0.301     
3119.4     112.15     0.284     
3119.6     99.96001   0.281     
3119.8     83.92      0.252     
3120       61.04      0.206     
3120.2     44.99      0.184     
3120.4     37.75      0.183     
3120.6     35.84      0.165     
3120.8     34.93      0.142     
3121       36.57      0.143     
3121.2     44.17      0.167     
3121.4     56.63      0.195     
3121.6     70.68      0.228     
3121.8     77.43      0.258     
3122       87.84      0.275     
3122.2     96.99001   0.268     
3122.4     91.12      0.251     
3122.6     82.97      0.245     
3122.8     84.53      0.247     
3123       83.94      0.243     
3123.2     82.58      0.243     
3123.4     79.86      0.241     
3123.6     77.58      0.232     
3123.8     78.28      0.25      
3124       83.97      0.259     
3124.2     96         0.26      
3124.4     103.72     0.28      
3124.6     106.96     0.271     
3124.8     107.35     0.249     
3125       98.66      0.253     
3125.2     94.91      0.269     
3125.4     95.31999   0.272     
3125.6     89.99      0.262     
3125.8     91.82999   0.269     
3126       94.43      0.317     
3126.2     94.17      0.335     
3126.4     99.3       0.316     
3126.6     99.98      0.299     
3126.8     99.83      0.273     
3127       101.89     0.279     
3127.2     100.29     0.284     
3127.4     88.68      0.288     
3127.6     87.77      0.279     
3127.8     92.9       0.264     
3128       77.63      0.268     
3128.2     74.85      0.302     
3128.4     85.33      0.357     
3128.6     90.12      0.39      
3128.8     86         0.375     
3129       87.92      0.276     
3129.2     87.49      0.258     
3129.4     81.95      0.297     
3129.6     79.59      0.284     
3129.8     86.31      0.26      
3130       86.96      0.284     
