~Version
 VERS              .         2.0                           : CWLS LOG ASCII STANDARD - VERSION 2.0
 WRAP              .         NO                            : ONE LINE PER DEPTH STEP
 DLM               .         SPACE                         : DELIMITING CHARACTER(SPACE TAB OR COMMA)
~Well Information
#_______________________________________________________________________________
#
#PARAMETER_NAME    .UNIT     VALUE                         : DESCRIPTION
#_______________________________________________________________________________
STRT               .m        2903                          : First reference value
STOP               .m        3130                          : Last reference value
STEP               .m        0.2                           : Step increment
NULL               .         -9999                         : Missing value
COMP               .                                       : Company
WELL               .         304                           : Well name
FLD                .                                       : Field
LOC                .                                       : Location
CNTY               .                                       : County
STAT               .                                       : State
CTRY               .                                       : Country
SRVC               .                                       : Service Company
DATE               .                                       : Date
API                .                                       : API number
EREF               .m        138.34                        : 
Pad                .         3                             : 
X                  .m        219750                        : 
Y                  .m        249950                        : 
group              .         Pad3                          : 
Интер-р            .         Старостина                    : 
Куст               .         3                             : 
Статус             .         Не проверено                  : 
Тип                .         Эксплуатация                  : 
~Parameter Information Block
#_______________________________________________________________________________
#
#PARAMETER_NAME    .UNIT     VALUE                         : DESCRIPTION
#_______________________________________________________________________________
SET                .         LAS3                          : 
REAL_CREATION_DATE .         Ср апр 11 2012-13_17_09       : 
TLFamily_DEPTH     .         Measured Depth                : 
TLFamily_KS        .         Potential Resistivity         : 
TLFamily_KS1       .         Extra Shallow Resistivity     : 
TLFamily_KS2       .         Shallow Resistivity           : 
TLFamily_KS3       .         Medium Resistivity            : 
TLFamily_KS4       .         Deep Resistivity              : 
TLFamily_KS5       .         Extra Deep Resistivity        : 
TLFamily_LLD       .         Lateral Log Resistivity       : 
TLFamily_OKS3      .         Medium Resistivity Inverted   : 
TLFamily_RM        .         Mud Resistivity               : 
TLFamily_SP        .         Spontaneous Potential         : 
group              .         INI                           : 
~Curve Information
#_______________________________________________________________________________
#
#LOGNAME           .UNIT     LOG_ID                        : DESCRIPTION
#_______________________________________________________________________________
DEPTH              .m                                      : Measured Depth 
KS                 .ohm.m                                  : Potential Resistivity 
KS1                .ohm.m                                  : Extra Shallow Resistivity 
KS2                .ohm.m                                  : Shallow Resistivity 
KS3                .ohm.m                                  : Medium Resistivity 
KS4                .ohm.m                                  : Deep Resistivity 
KS5                .ohm.m                                  : Extra Deep Resistivity 
LLD                .ohm.m                                  : Lateral Log Resistivity 
OKS3               .ohm.m                                  : Medium Resistivity Inverted 
RM                 .ohm.m                                  : Mud Resistivity 
SP                 .mV                                     : Spontaneous Potential 
~Ascii
# ...
3090.6     30.9451    24.3279    69.7383    41.796     18.4714    31.0723    14.6703    27.0073    0.896      53.8779   
3090.8     27.8719    18.501     57.0705    51.1829    15.2046    27.1357    11.1625    27.5034    0.883      55.5744   
3091       23.8631    15.5656    53.9213    60.3916    13.3374    21.2601    19.5321    26.1924    0.846      56.7617   
3091.2     21.2323    17.7891    61.5442    65.5429    12.4578    16.3865    11.9767    21.5733    0.9        57.8292   
3091.4     19.5876    15.127     46.6577    61.7755    10.6233    13.4194    11.5574    16.9124    0.9        59.1123   
3091.6     17.5275    14.9583    40.9544    51.1733    8.4062     9.4828     11.3392    10.6022    0.898      60.4957   
3091.8     16.6258    12.8023    30.2044    40.615     6.4376     6.9061     8.7332     7.2072     0.869      61.5392   
3092       16.6731    9.6173     21.3097    29.5284    4.6424     4.7264     8.9716     5.4645     0.883      61.9155   
3092.2     16.4738    8.3723     17.8767    23.4493    3.9491     3.386      10.5893    5.1392     0.88       61.548    
3092.4     16.5144    8.0247     15.7829    19.1338    4.1878     2.9045     8.6961     5.6771     0.891      60.5488   
3092.6     16.4671    7.6333     13.9471    17.6888    5.9667     3.0802     10.2354    7.2329     0.88       59.2055   
3092.8     15.9943    8.4161     16.0703    19.6101    12.6703    3.9195     10.5623    10.1996    0.896      57.9213   
3093       15.5721    8.5207     18.334     27.9       24.9624    4.9346     9.6575     15.7689    0.89       57.4128   
3093.2     14.998     9.7691     25.9318    43.035     41.5775    5.8195     21.2828    22.1628    0.873      58.227    
3093.4     14.2483    11.7024    31.6122    55.5574    56.7351    6.1839     23.8146    25.6706    0.896      59.9493   
3093.6     12.4448    15.5117    35.1858    61.0067    59.8913    5.9627     16.8474    24.5657    0.883      61.6881   
3093.8     11.327     15.5319    31.1778    53.8635    49.6736    4.9736     6.8051     19.8339    0.881      63.0118   
3094       10.1281    11.9285    20.6075    36.2962    33.3664    3.8675     5.7439     12.9311    0.854      63.7872   
3094.2     9.1453     8.8682     16.6419    22.2232    22.2875    2.6637     5.6544     9.2107     0.886      63.9738   
3094.4     8.4293     7.3466     14.9695    14.0523    15.0607    1.6942     5.4871     7.4777     0.88       63.7044   
3094.6     7.8417     6.8405     13.8034    9.4857     10.8326    1.2192     5.2864     7.001      0.876      63.1153   
3094.8     7.4939     6.4187     12.1734    6.9885     7.9811     0.9524     4.7184     6.9044     0.851      62.0336   
3095       7.4466     5.4369     9.5798     5.624      5.8163     0.8158     5.5493     6.5919     0.886      60.3899   
3095.2     7.5817     5.1939     8.1981     4.8291     4.0374     0.7052     6.2115     6.0991     0.886      58.8823   
3095.4     7.6593     5.582      7.6689     4.8838     3.2166     0.6401     5.6557     5.5708     0.883      58.5179   
3095.6     7.6661     5.3829     6.8164     5.4148     2.6084     0.6141     5.5157     5.297      0.864      59.3574   
3095.8     7.5614     5.285      6.8327     5.8589     2.1669     0.6141     5.748      5.529      0.863      60.4966   
3096       7.5141     5.2985     7.4762     6.4156     2.0394     0.5881     6.0359     6.0025     0.883      61.0193   
3096.2     7.656      5.1535     7.4207     6.4639     1.8923     0.5881     6.8611     6.3342     0.878      60.7533   
3096.4     7.8687     5.2479     7.2247     6.1292     1.7353     0.6141     6.8568     6.4856     0.888      60.2395   
3096.6     8.1018     5.4301     7.0091     5.9908     1.6634     0.6466     6.6571     6.7852     0.849      59.9701   
3096.8     8.0815     5.5786     7.3586     6.2451     1.817      0.6922     7.0795     7.1138     0.88       59.7232   
3097       7.9836     5.9733     8.1099     6.6602     2.1506     0.8483     7.4115     6.2408     0.88       59.0325   
3097.2     8.0308     5.9463     8.2667     6.8758     2.6247     1.037      7.6592     5.2069     0.883      58.2412   
3097.4     7.9025     6.1994     8.4235     6.8565     3.5142     1.1737     6.6009     4.7269     0.856      58.1125   
3097.6     7.71       6.5537     8.7011     6.8243     5.1198     1.3298     5.8653     4.8332     0.873      58.1677   
3097.8     7.7809     5.6427     7.8159     6.4961     6.3591     1.5836     6.2831     4.9588     0.878      57.0289   
3098       8.22       5.0792     7.2377     6.0166     7.7129     1.8374     7.7086     5.0168     0.881      54.7326   
3098.2     8.7536     5.312      7.1299     6.0584     9.0864     2.3254     9.0085     5.1231     0.859      52.91     
3098.4     9.0339     6.2837     7.6722     6.6731     11.6893    3.4771     7.7148     5.5386     0.878      52.5318   
3098.6     9.2365     6.4423     7.842      7.9925     16.0548    6.4246     7.6743     6.5243     0.886      52.9722   
3098.8     9.0643     6.5942     9.0278     11.5615    28.5726    10.166     7.4967     9.3718     0.881      53.3249   
3099       8.1929     7.2723     12.6046    19.4459    49.988     12.8533    7.8357     15.3662    0.869      53.2006   
3099.2     7.9397     9.3136     20.4049    24.92      58.0437    14.8119    7.0523     19.0415    0.859      52.2125   
3099.4     9.429      7.5962     15.0152    23.2112    44.8188    15.6317    6.8731     16.9768    0.881      49.8786   
3099.6     11.2628    6.9788     10.7753    14.7346    27.5       14.5321    6.8456     12.5671    0.878      45.8522   
3099.8     11.5668    7.657      10.0142    10.9918    19.1744    10.7842    7.1195     10.4154    0.876      39.9348   
3100       11.7593    8.9222     12.2812    9.3956     15.1       7.5894     9.4939     9.3106     0.846      32.7046   
3100.2     12.536     9.7016     15.3745    8.5267     12.0883    6.0863     13.2677    7.8288     0.859      25.9422   
3100.4     13.1507    11.3819    17.7852    7.3843     9.2172     4.9801     10.2278    6.5082     0.864      21.531    
3100.6     12.3874    12.9272    17.8113    6.3577     6.6534     3.8805     9.6806     5.6868     0.873      20.7159   
3100.8     11.0636    12.5763    16.6517    5.4083     4.5279     2.9175     7.7642     5.7158     0.863      23.9667   
3101       9.9626     10.8083    16.3839    4.8065     3.161      2.3449     6.8924     6.8689     0.854      30.6265   
3101.2     9.125      9.9209     16.7138    4.7808     2.3599     2.1237     5.4775     9.0432     0.869      38.3368   
3101.4     8.6894     8.4262     14.7016    5.8203     2.0263     2.3189     5.541      12.6798    0.869      44.0257   
3101.6     8.6556     7.5692     12.8789    7.6353     2.1277     2.7874     5.672      17.65      0.874      45.977    
3101.8     8.453      7.2656     12.5784    9.5662     2.5299     3.4445     6.2276     25.1101    0.848      44.7105   
3102       8.74       8.2305     13.6466    10.4287    2.5234     3.9195     7.1428     27.832     0.871      42.3502   
3102.2     9.6215     7.5929     10.7949    9.2991     1.9446     4.1993     6.8347     25.5289    0.866      41.6332   
3102.4     10.8272    7.5153     9.0278     7.3553     1.3069     3.5552     6.4319     22.4044    0.874      44.1684   
3102.6     11.5161    7.2082     8.3843     5.92       1.078      2.8915     6.8756     23.3546    0.861      48.8386   
3102.8     12.5799    7.3094     8.9167     4.7647     1.0486     2.7158     7.5607     25.6287    0.861      53.0411   
3103       14.7211    6.4929     8.7697     4.2562     1.2481     2.7678     7.9877     29.9998    0.846      55.1866   
3103.2     18.8412    5.7068     8.8808     4.1661     1.817      2.9696     33.1469    33.2015    0.885      55.1997   
3103.4     24.211     6.7527     10.8603    4.7647     3.0531     3.2884     49.9962    31.1336    0.858      53.6643   
3103.6     30.7492    9.57       13.9863    6.229      4.6849     3.5226     49.7684    27.5678    0.896      51.1949   
3103.8     35.5651    13.1195    18.2131    8.4849     5.849      3.6983     71.5693    24.147     0.9        48.2209   
