~Version
 VERS              .         2.0                           : CWLS LOG ASCII STANDARD - VERSION 2.0
 WRAP              .         NO                            : ONE LINE PER DEPTH STEP
 DLM               .         SPACE                         : DELIMITING CHARACTER(SPACE TAB OR COMMA)
~Well Information
#_______________________________________________________________________________
#
#PARAMETER_NAME    .UNIT     VALUE                         : DESCRIPTION
#_______________________________________________________________________________
STRT               .m        2903                          : First reference value
STOP               .m        3130                          : Last reference value
STEP               .m        0.2                           : Step increment
NULL               .         -9999                         : Missing value
COMP               .                                       : Company
WELL               .         304                           : Well name
FLD                .                                       : Field
LOC                .                                       : Location
CNTY               .                                       : County
STAT               .                                       : State
CTRY               .                                       : Country
SRVC               .                                       : Service Company
DATE               .                                       : Date
API                .                                       : API number
EREF               .m        138.34                        : 
Pad                .         3                             : 
X                  .m        219750                        : 
Y                  .m        249950                        : 
group              .         Pad3                          : 
Интер-р            .         Старостина                    : 
Куст               .         3                             : 
Статус             .         Не проверено                  : 
Тип                .         Эксплуатация                  : 
~Parameter Information Block
#_______________________________________________________________________________
#
#PARAMETER_NAME    .UNIT     VALUE                         : DESCRIPTION
#_______________________________________________________________________________
SET                .         LAS3                          : 
REAL_CREATION_DATE .         Ср апр 11 2012-13_17_09       : 
TLFamily_DEPTH     .         Measured Depth                : 
TLFamily_KS        .         Potential Resistivity         : 
TLFamily_KS1       .         Extra Shallow Resistivity     : 
TLFamily_KS2       .         Shallow Resistivity           : 
TLFamily_KS3       .         Medium Resistivity            : 
TLFamily_KS4       .         Deep Resistivity              : 
TLFamily_KS5       .         Extra Deep Resistivity        : 
TLFamily_LLD       .         Lateral Log Resistivity       : 
TLFamily_OKS3      .         Medium Resistivity Inverted   : 
TLFamily_RM        .         Mud Resistivity               : 
TLFamily_SP        .         Spontaneous Potential         : 
group              .         INI                           : 
~Curve Information
#_______________________________________________________________________________
#
#LOGNAME           .UNIT     LOG_ID                        : DESCRIPTION
#_______________________________________________________________________________
DEPTH              .m                                      : Measured Depth 
KS                 .ohm.m                                  : Potential Resistivity 
KS1                .ohm.m                                  : Extra Shallow Resistivity 
KS2                .ohm.m                                  : Shallow Resistivity 
KS3                .ohm.m                                  : Medium Resistivity 
KS4                .ohm.m                                  : Deep Resistivity 
KS5                .ohm.m                                  : Extra Deep Resistivity 
LLD                .ohm.m                                  : Lateral Log Resistivity 
OKS3               .ohm.m                                  : Medium Resistivity Inverted 
RM                 .ohm.m                                  : Mud Resistivity 
SP                 .mV                                     : Spontaneous Potential 
~Ascii
2903.0     5.3831     4.9308     0.058      0          0          0.3278     -9999      9.71       0.923      44.101    
2903.2     5.8019     5.5583     0.0613     0          0          0.3538     -9999      8.1123     0.93       48.2949   
2903.4     6.0214     5.7911     2.7692     0          0          0.3799     -9999      7.2136     0.94       50.4605   
2903.6     6.1565     5.9261     5.7384     0          0          0.3799     -9999      6.7691     0.94       51.6114   
2903.8     6.2342     5.9835     6.7184     0          0          0.3864     -9999      6.4824     0.948      51.9511   
2904       6.2882     6.0239     7.2802     0          0          0.3929     -9999      6.3181     0.947      51.8222   
2904.2     6.3625     6.1015     7.6232     0          0          0.3929     -9999      6.2279     0.953      51.7449   
2904.4     6.4098     5.997      7.6722     0          0          0.3929     -9999      6.2151     0.953      51.8276   
2904.6     6.3659     6.3512     8.1556     1.5594     0          0.3929     -9999      6.0733     0.97       51.9289   
2904.8     6.3557     6.4288     8.1458     3.5836     0          0.4059     -9999      5.8124     0.957      52.0485   
2905       6.3186     6.3276     7.927      4.253      0          0.3994     -9999      5.5612     0.95       52.3935   
2905.2     6.2038     6.1657     7.8976     4.636      0          0.3929     -9999      5.4291     0.952      53.0732   
2905.4     6.1261     5.9733     7.891      4.8548     0          0.4059     -9999      5.3872     0.953      53.7949   
2905.6     6.0923     5.9362     7.9498     4.9964     0          0.4059     -9999      5.3744     0.953      54.1469   
2905.8     6.0282     5.9126     7.9466     5.0994     0          0.4059     -9999      5.3518     0.957      54.0525   
2906       6.045      5.8519     7.7604     5.1477     0          0.4059     -9999      5.2713     0.957      53.6622   
2906.2     6.0315     5.7945     7.5578     5.1348     0          0.4059     -9999      5.1908     0.96       53.2054   
2906.4     5.9674     5.8417     7.5644     5.1605     0          0.4059     -9999      5.1585     0.963      52.9472   
2906.6     5.9505     5.8013     7.5611     5.2281     1.029      0.4059     -9999      5.1199     0.963      52.9652   
2906.8     5.9032     5.7102     7.4729     5.2957     2.5397     0.3994     -9999      5.1392     0.96       53.2482   
2907       5.8222     5.8789     7.646      5.3794     3.2297     0.4059     -9999      5.1843     0.953      53.7478   
2907.2     5.7242     5.8384     7.6101     5.3858     3.681      0.3929     -9999      5.1746     0.95       54.1928   
2907.4     5.7107     5.7203     7.4239     5.2667     3.851      0.3929     -9999      5.0877     0.95       54.3754   
2907.6     5.704      5.5853     7.1822     5.1155     3.9099     0.3929     4.575      5.0039     0.943      54.5445   
2907.8     5.6904     5.5482     7.0842     4.9868     3.9458     0.4059     4.6054     4.9298     0.943      55.0093   
2908       5.6567     5.4875     7.0287     4.9803     4.0276     0.4059     4.6133     4.9621     0.938      55.4113   
2908.2     5.5959     5.5482     7.1593     5.0029     4.1159     0.4059     4.524      5.0233     0.932      55.2194   
2908.4     5.5756     5.5313     7.1691     4.9932     4.1813     0.4059     4.614      5.0587     0.933      54.7026   
2908.6     5.606      5.5077     7.0646     4.9385     4.1944     0.4059     4.6684     4.9814     0.93       54.4541   
2908.8     5.6297     5.5246     6.9274     4.8773     4.1911     0.4059     4.6693     4.9073     0.93       54.6412   
2909       5.6297     5.6224     6.8915     4.8226     4.1976     0.4059     4.6909     4.8719     0.932      55.1323   
2909.2     5.6297     5.5921     6.836      4.8001     4.1911     0.4059     4.6693     4.859      0.937      55.6516   
2909.4     5.633      5.5718     6.8817     4.8065     4.2075     0.4059     4.6566     4.8654     0.948      55.9649   
2909.6     5.6297     5.5347     6.9143     4.8419     4.2434     0.4059     4.6348     4.9009     0.96       56.142    
2909.8     5.5722     5.6528     7.0809     4.8645     4.2729     0.4059     4.6909     4.9298     0.957      56.3282   
2910       5.6026     5.6022     7.0221     4.8387     4.25       0.4059     4.6767     4.8912     0.96       56.4236   
2910.2     5.6567     5.5111     6.8555     4.7422     4.2009     0.4059     4.5436     4.859      0.958      56.1877   
2910.4     5.7107     5.5111     6.8458     4.7422     4.263      0.4059     4.5804     4.8976     0.96       55.5595   
2910.6     5.6499     5.6663     7.1789     4.8806     4.3284     0.4059     5.082      4.8847     0.96       54.8878   
2910.8     5.6094     6.0239     7.3292     4.9353     4.3023     0.8158     5.2976     4.7623     0.95       54.6765   
2911       5.5148     5.97       7.1463     4.7905     4.1126     2.2408     4.8439     4.5916     0.953      55.0217   
2911.2     5.3392     5.7        6.9013     4.6199     3.9524     2.7613     4.5306     4.5401     0.95       55.5183   
2911.4     5.2244     5.3694     6.7935     4.5394     3.9033     3.0802     4.318      4.5723     0.95       55.7096   
2911.6     5.1332     5.2614     6.836      4.5073     3.8903     3.2428     4.3983     4.6496     0.953      55.5547   
2911.8     5.069      5.2142     6.7804     4.4654     3.8445     3.373      4.3967     4.7301     0.953      55.3179   
2912       4.9947     5.1771     6.5354     4.4429     3.7987     3.4511     4.3439     4.8461     0.95       55.1121   
2912.2     4.8934     5.0758     6.3394     4.4429     3.7758     3.5291     4.2624     5.0233     0.947      54.9027   
2912.4     4.8022     5.0252     6.1827     4.4139     3.7627     3.5812     4.2118     5.2745     0.957      54.5797   
2912.6     4.7651     4.9071     6.1043     4.3753     3.7431     3.6332     4.0176     5.5741     0.943      53.9817   
2912.8     4.8022     4.7654     5.8593     4.3463     3.7398     3.6918     4.0051     5.8511     0.943      53.3423   
2913       4.9576     4.5934     5.6208     4.2884     3.7268     3.7504     3.9808     6.1506     0.94       53.2173   
2913.2     5.1535     4.6642     5.5882     4.208      3.7464     3.8089     4.0395     6.5114     0.945      53.6512   
2913.4     5.3899     4.8329     5.6274     4.1854     3.7889     3.8805     4.4049     6.7884     0.943      54.1276   
2913.6     5.7242     5.0421     5.6927     4.1565     3.815      3.9195     4.7275     6.9752     0.94       54.4193   
2913.8     6.0349     5.2884     5.8887     4.15       3.8379     3.9456     4.8902     7.0526     0.937      54.8185   
2914       6.3794     5.5043     6.1533     4.134      3.8379     3.9716     5.1014     6.9688     0.93       55.5314   
2914.2     6.7407     5.7574     6.4276     4.1179     3.8314     3.9846     5.4461     6.8432     0.923      56.2615   
2914.4     6.9501     6.1657     7.0058     4.1726     3.8608     4.0041     5.6473     6.7433     0.926      56.3716   
2914.6     7.065      6.4187     7.4958     4.2981     3.9328     4.0432     5.8737     6.6628     0.928      55.6147   
2914.8     7.1595     6.5098     7.9596     4.4429     4.0014     4.0887     5.9171     6.5919     0.933      54.7376   
2915       7.1967     6.6549     8.4855     4.636      4.1028     4.1278     5.9596     6.5178     0.943      54.5554   
2915.2     7.2102     6.773      8.822      4.8452     4.1355     4.1798     5.9487     6.4212     0.96       54.7892   
2915.4     7.2271     6.7089     8.8612     5.0318     4.1519     4.2449     5.8709     6.3536     0.958      54.8182   
2915.6     7.2102     6.6718     8.9461     5.3054     4.2205     4.3034     5.7442     6.3568     0.958      54.7427   
2915.8     7.1359     6.746      9.2172     5.595      4.3154     4.349      5.8675     6.3858     0.967      54.7738   
2916       7.1156     6.8202     9.2923     5.8557     4.3677     4.3945     5.8933     6.3504     0.965      54.6721   
2916.2     7.1122     6.7122     9.129      6.0166     4.3546     4.4531     5.7857     6.2988     0.957      54.3774   
