~Version
 VERS              .         2.0                           : CWLS LOG ASCII STANDARD - VERSION 2.0
 WRAP              .         NO                            : ONE LINE PER DEPTH STEP
 DLM               .         SPACE                         : DELIMITING CHARACTER(SPACE TAB OR COMMA)
~Well Information
#_______________________________________________________________________________
#
#PARAMETER_NAME    .UNIT     VALUE                         : DESCRIPTION
#_______________________________________________________________________________
STRT               .m        2903                          : First reference value
STOP               .m        3130                          : Last reference value
STEP               .m        0.2                           : Step increment
NULL               .         -9999                         : Missing value
COMP               .                                       : Company
WELL               .         304                           : Well name
FLD                .                                       : Field
LOC                .                                       : Location
CNTY               .                                       : County
STAT               .                                       : State
CTRY               .                                       : Country
SRVC               .                                       : Service Company
DATE               .                                       : Date
API                .                                       : API number
EREF               .m        138.34                        : 
Pad                .         3                             : 
X                  .m        219750                        : 
Y                  .m        249950                        : 
group              .         Pad3                          : 
Интер-р            .         Старостина                    : 
Куст               .         3                             : 
Статус             .         Не проверено                  : 
Тип                .         Эксплуатация                  : 
~Parameter Information Block
#_______________________________________________________________________________
#
#PARAMETER_NAME    .UNIT     VALUE                         : DESCRIPTION
#_______________________________________________________________________________
SET                .         LAS3                          : 
REAL_CREATION_DATE .         Ср апр 11 2012-13_17_09       : 
TLFamily_DEPTH     .         Measured Depth                : 
TLFamily_KS        .         Potential Resistivity         : 
TLFamily_KS1       .         Extra Shallow Resistivity     : 
TLFamily_KS2       .         Shallow Resistivity           : 
TLFamily_KS3       .         Medium Resistivity            : 
TLFamily_KS4       .         Deep Resistivity              : 
TLFamily_KS5       .         Extra Deep Resistivity        : 
TLFamily_LLD       .         Lateral Log Resistivity       : 
TLFamily_OKS3      .         Medium Resistivity Inverted   : 
TLFamily_RM        .         Mud Resistivity               : 
TLFamily_SP        .         Spontaneous Potential         : 
group              .         INI                           : 
~Curve Information
#_______________________________________________________________________________
#
#LOGNAME           .UNIT     LOG_ID                        : DESCRIPTION
#_______________________________________________________________________________
DEPTH              .m                                      : Measured Depth 
KS                 .ohm.m                                  : Potential Resistivity 
KS1                .ohm.m                                  : Extra Shallow Resistivity 
KS2                .ohm.m                                  : Shallow Resistivity 
KS3                .ohm.m                                  : Medium Resistivity 
KS4                .ohm.m                                  : Deep Resistivity 
KS5                .ohm.m                                  : Extra Deep Resistivity 
LLD                .ohm.m                                  : Lateral Log Resistivity 
OKS3               .ohm.m                                  : Medium Resistivity Inverted 
RM                 .ohm.m                                  : Mud Resistivity 
SP                 .mV                                     : Spontaneous Potential 
~Ascii
# ...
3023.6     18.4056    11.7901    23.5604    20.6882    13.1249    8.4483     13.0997    22.7812    0.896      61.9795   
3023.8     18.6893    11.9993    23.5244    21.1483    14.2498    8.8647     12.9562    23.1646    0.923      62.1157   
3024       19.0169    11.9959    22.9789    21.0904    15.5055    9.138      13.2763    23.1678    0.933      61.9097   
3024.2     19.0878    12.3063    23.4166    20.9746    16.5846    9.3071     13.7527    22.9294    0.935      61.6257   
3024.4     19.0776    12.718     24.279     21.0132    17.1536    9.4763     13.8681    22.253     0.93       61.5817   
3024.6     19.1148    12.7011    24.439     20.7171    17.2092    9.7626     12.7615    21.3768    0.923      61.7111   
3024.8     19.0912    12.475     24.1418    20.3116    17.1928    10.0359    13.304     21.0998    0.923      61.7875   
3025       18.8885    12.6674    24.8147    20.1829    17.2844    10.4328    13.2647    21.4509    0.935      61.9025   
3025.2     18.902     12.6741    24.818     20.0896    17.2974    11.1681    11.94      22.0339    0.923      62.3053   
3025.4     19.2803    12.0837    23.8347    19.845     17.4773    12.4044    11.4055    23.0325    0.91       62.93     
3025.6     20.1077    11.2368    22.7666    20.067     18.5858    13.4715    14.0458    24.1631    0.893      63.4475   
3025.8     21.0634    11.4561    23.2696    21.0357    20.0541    14.8574    17.4127    24.2211    0.895      63.6402   
3026       22.0969    12.4548    24.8931    22.854     21.4373    15.9701    18.6516    22.7039    0.906      63.5521   
3026.2     22.7149    13.9157    27.1764    24.5081    22.4445    16.6338    19.3894    20.9033    0.933      63.3315   
3026.4     22.4312    15.2282    29.5674    25.7535    22.7911    16.5557    18.7576    19.4828    0.942      63.1083   
3026.6     21.5126    16.1426    31.2595    26.1526    21.9703    16.1523    14.9885    18.1235    0.938      62.924    
3026.8     20.7662    15.9402    32.3962    25.0874    20.3386    15.6708    11.2764    17.2699    0.926      62.8086   
3027       20.2495    14.0541    29.8712    23.4622    18.8409    15.2543    11.164     17.3923    0.923      62.8589   
3027.2     19.6889    13.0115    28.6691    22.3906    18.2556    15.2804    12.0436    18.349     0.93       63.0521   
3027.4     19.4458    12.6606    29.0382    23.002     18.9913    15.5602    13.5578    19.2123    0.92       63.2671   
3027.6     19.1958    13.1397    29.9039    24.4631    19.714     15.931     16.4521    18.9385    0.906      63.4456   
3027.8     18.6825    14.2228    30.616     25.5958    19.6355    15.9441    15.3891    17.4632    0.893      63.5276   
3028       17.1324    15.1338    30.5572    26.3264    18.4321    15.3454    14.6145    15.1633    0.903      63.3624   
3028.2     15.8626    15.5049    29.6915    25.4253    16.0712    14.1222    9.9977     12.5188    0.923      62.8143   
3028.4     14.7548    12.8732    24.7134    22.0237    13.1772    13.0095    8.2102     10.8567    0.92       62.0376   
3028.6     13.924     11.1491    22.4008    18.4773    10.9405    11.7016    6.9418     10.2415    0.923      61.4055   
3028.8     13.5559    9.4013     19.3923    16.3308    9.9169     11.051     7.8905     10.8921    0.916      61.1281   
3029       13.7214    8.3756     17.8179    15.3042    9.9595     11.2982    8.4534     12.4415    0.92       61.2212   
3029.2     14.3158    8.4971     17.3018    15.3943    10.8031    12.0205    9.3748     14.2228    0.92       61.5474   
3029.4     14.8595    9.2664     17.2985    16.5142    12.1177    12.8859    10.8317    15.9009    0.91       61.8613   
3029.6     15.4776    10.2651    18.04      18.0686    13.4813    13.7708    12.131     16.6998    0.896      61.9829   
3029.8     16.0213    11.0647    18.285     19.1113    14.204     14.3369    11.8192    16.819     0.898      61.8875   
3030       16.1462    11.5911    18.9187    19.5586    14.7337    14.467     12.1913    16.9124    0.921      61.6685   
3030.2     16.0111    12.2861    20.2841    19.3945    15.1359    14.3044    11.8561    16.645     0.93       61.5156   
3030.4     15.3965    12.0465    20.7479    18.857     15.427     13.5366    11.4275    16.281     0.923      61.5029   
3030.6     14.3428    13.025     23.0769    17.7049    14.858     12.3979    9.3285     15.3759    0.926      61.4377   
3030.8     13.8329    12.1174    21.8683    15.4168    13.3538    11.3958    7.9401     14.2485    0.918      61.1269   
3031       13.5492    10.3258    18.7815    12.6942    11.3656    10.4654    7.9988     13.6397    0.93       60.707    
3031.2     13.3871    9.3338     16.7073    11.1817    10.2603    10.0099    7.2914     14.7091    0.911      60.6002   
3031.4     13.4546    8.5477     15.8253    11.053     10.4761    10.3938    8.2743     17.5308    0.901      60.9069   
3031.6     13.5593    8.6422     16.3055    12.3499    11.794     10.8493    11.505     20.4685    0.89       61.1915   
3031.8     14.0355    9.9513     18.0204    13.4441    12.6474    11.7927    9.1962     22.2143    0.906      61.3457   
3032       15.2547    9.6949     15.7567    13.753     12.8077    12.9379    8.7202     24.2179    0.921      61.6924   
3032.2     16.3185    9.1348     14.4926    13.7208    13.3668    13.9725    9.729      28.1122    0.928      62.111    
3032.4     17.308     9.8265     16.1977    14.8697    14.6422    14.7924    14.3729    30.3154    0.926      62.1405   
3032.6     18.7197    10.7341    17.8048    16.054     15.4728    15.84      15.5535    30.9113    0.923      61.662    
3032.8     19.9152    12.1646    20.418     16.556     15.3845    16.6077    15.2533    29.7711    0.933      61.0267   
3033       20.4387    13.214     21.7573    16.7363    15.149     16.9006    13.465     27.7933    0.923      60.666    
3033.2     20.648     13.4974    22.8711    16.2213    14.7795    17.1869    14.3518    26.4082    0.916      60.7189   
3033.4     21.0398    13.2578    24.328     15.7772    14.6978    17.6488    12.2152    25.793     0.89       61.0921   
3033.6     21.7963    12.5931    24.7167    15.6839    15.0411    18.5598    14.3254    25.2873    0.896      61.644    
3033.8     22.4312    12.5155    25.7162    16.6236    16.0483    19.3992    17.4576    25.0425    0.923      62.1337   
3034       23.4545    13.602     27.8656    18.1104    16.9443    20.3166    16.0834    24.8234    0.935      62.2512   
3034.2     24.4676    13.214     26.7746    19.2657    17.3727    21.5789    17.2505    23.2709    0.933      61.9228   
3034.4     25.42      13.963     28.1073    20.405     18.1346    23.0755    18.1969    21.5701    0.925      61.5255   
3034.6     26.2812    14.8335    30.2926    22.6995    19.4197    25.2878    16.9981    20.5458    0.926      61.4313   
3034.8     26.0955    15.3666    32.0075    26.6675    21.434     26.947     20.954     20.4395    0.93       61.4854   
3035       24.8189    17.3302    37.2861    30.9734    23.3993    27.6823    24.5758    19.9112    0.93       61.4233   
3035.2     23.7517    19.2163    43.3814    33.7893    23.0331    27.2008    19.2304    17.9141    0.916      61.2442   
3035.4     22.3535    17.8262    40.2064    33.239     20.0508    24.982     13.8262    15.1762    0.896      61.0314   
3035.6     20.3711    17.0468    38.3739    30.4939    16.7971    22.0279    11.5185    13.7364    0.89       60.9913   
3035.8     18.8142    15.9503    36.6622    28.4697    14.8057    18.5598    9.5858     12.6959    0.906      61.2202   
3036       17.5512    13.8247    32.1545    26.7479    13.4224    16.6077    9.1895     11.5814    0.916      61.4509   
3036.2     15.9875    12.8934    31.1876    26.1301    13.0071    14.6948    10.984     10.1513    0.921      61.4981   
3036.4     14.8967    13.7167    32.1741    26.2298    12.6965    13.517     10.7934    8.9852     0.923      61.4958   
3036.6     14.461     12.1511    26.7974    24.6175    11.9934    12.2742    8.5698     8.0124     0.91       61.4249   
3036.8     13.6302    11.7328    23.7596    21.8757    10.8587    10.9078    8.4179     7.175      0.92       61.0013   
