~Version
 VERS              .         2.0                           : CWLS LOG ASCII STANDARD - VERSION 2.0
 WRAP              .         NO                            : ONE LINE PER DEPTH STEP
 DLM               .         SPACE                         : DELIMITING CHARACTER(SPACE TAB OR COMMA)
~Well Information
#_______________________________________________________________________________
#
#PARAMETER_NAME    .UNIT     VALUE                         : DESCRIPTION
#_______________________________________________________________________________
STRT               .m        2903                          : First reference value
STOP               .m        3130                          : Last reference value
STEP               .m        0.2                           : Step increment
NULL               .         -9999                         : Missing value
COMP               .                                       : Company
WELL               .         304                           : Well name
FLD                .                                       : Field
LOC                .                                       : Location
CNTY               .                                       : County
STAT               .                                       : State
CTRY               .                                       : Country
SRVC               .                                       : Service Company
DATE               .                                       : Date
API                .                                       : API number
EREF               .m        138.34                        : 
Pad                .         3                             : 
X                  .m        219750                        : 
Y                  .m        249950                        : 
group              .         Pad3                          : 
Интер-р            .         Старостина                    : 
Куст               .         3                             : 
Статус             .         Не проверено                  : 
Тип                .         Эксплуатация                  : 
~Parameter Information Block
#_______________________________________________________________________________
#
#PARAMETER_NAME    .UNIT     VALUE                         : DESCRIPTION
#_______________________________________________________________________________
SET                .         LAS3                          : 
REAL_CREATION_DATE .         Ср апр 11 2012-13_17_09       : 
TLFamily_DEPTH     .         Measured Depth                : 
TLFamily_KS        .         Potential Resistivity         : 
TLFamily_KS1       .         Extra Shallow Resistivity     : 
TLFamily_KS2       .         Shallow Resistivity           : 
TLFamily_KS3       .         Medium Resistivity            : 
TLFamily_KS4       .         Deep Resistivity              : 
TLFamily_KS5       .         Extra Deep Resistivity        : 
TLFamily_LLD       .         Lateral Log Resistivity       : 
TLFamily_OKS3      .         Medium Resistivity Inverted   : 
TLFamily_RM        .         Mud Resistivity               : 
TLFamily_SP        .         Spontaneous Potential         : 
group              .         INI                           : 
~Curve Information
#_______________________________________________________________________________
#
#LOGNAME           .UNIT     LOG_ID                        : DESCRIPTION
#_______________________________________________________________________________
DEPTH              .m                                      : Measured Depth 
KS                 .ohm.m                                  : Potential Resistivity 
KS1                .ohm.m                                  : Extra Shallow Resistivity 
KS2                .ohm.m                                  : Shallow Resistivity 
KS3                .ohm.m                                  : Medium Resistivity 
KS4                .ohm.m                                  : Deep Resistivity 
KS5                .ohm.m                                  : Extra Deep Resistivity 
LLD                .ohm.m                                  : Lateral Log Resistivity 
OKS3               .ohm.m                                  : Medium Resistivity Inverted 
RM                 .ohm.m                                  : Mud Resistivity 
SP                 .mV                                     : Spontaneous Potential 
~Ascii
# ...
2996.8     6.4436     6.746      7.5513     4.8001     3.7431     4.336      4.7009     6.1667     0.926      61.3994   
2997       6.2443     6.1825     7.6722     4.6102     3.5273     3.9195     4.7344     5.9091     0.926      61.3772   
2997.2     6.197      5.8316     7.9008     4.4461     3.3278     3.6202     4.5411     5.3679     0.921      61.2731   
2997.4     6.1464     5.7372     7.7114     4.3367     3.2297     3.4901     4.5471     5.2004     0.92       61.0847   
2997.6     6.116      5.6292     7.2737     4.2659     3.1774     3.3925     4.5675     5.1972     0.923      60.8101   
2997.8     6.1565     5.5516     7.1234     4.2852     3.161      3.3534     4.6691     5.2358     0.93       60.5195   
2998       6.2274     5.4909     7.0058     4.3624     3.1905     3.3339     4.7395     5.2809     0.918      60.3041   
2998.2     6.2916     5.5988     7.0058     4.504      3.2722     3.399      4.7489     5.0651     0.91       60.3685   
2998.4     6.4537     5.5988     6.8458     4.7454     3.3899     3.6658     4.7712     4.8203     0.896      60.9964   
2998.6     6.6327     5.5043     6.7314     5.0415     3.6908     4.0432     4.7611     4.8686     0.896      62.0092   
2998.8     6.7272     5.5853     6.9699     5.6594     4.4658     4.6483     4.9112     5.6288     0.905      62.742    
2999       6.6766     6.0307     7.9368     6.4639     5.6757     5.1298     5.2288     6.7111     0.93       62.8633   
2999.2     6.7745     6.6144     9.0964     7.2652     6.6731     5.6503     5.6359     7.365      0.937      62.615    
2999.4     7.3453     6.7932     8.835      7.2266     6.6109     6.1058     5.3506     7.4262     0.932      62.3231   
2999.6     8.0815     6.5166     7.6983     6.554      6.3918     6.4962     5.2534     7.5712     0.925      62.096    
2999.8     8.6455     6.6616     7.5774     6.2258     6.5717     7.0298     5.9458     8.2122     0.93       61.8605   
3000       9.5573     6.9855     8.3451     6.5315     7.6835     7.8561     6.3384     9.3589     0.933      61.5769   
3000.2     9.9525     7.134      10.0436    7.4326     9.2237     8.3572     10.304     10.5475    0.94       61.4104   
3000.4     9.8613     10.1807    14.1921    8.295      10.0216    8.5328     10.5237    10.2415    0.942      61.5831   
3000.6     9.7532     11.2132    14.3129    7.9314     9.0798     8.3181     7.7252     8.7662     0.913      62.048    
3000.8     9.0575     10.9365    13.2873    6.6602     7.1995     7.4202     6.228      7.2233     0.9        62.4863   
3001       8.4665     9.0099     12.3988    5.7816     6.091      6.3856     5.5225     6.3568     0.903      62.6985   
3001.2     7.8451     8.3453     12.5327    5.4051     5.2931     5.6178     5.5309     6.0282     0.915      62.6114   
3001.4     7.4736     7.9606     12.8463    5.3633     4.6718     5.0777     5.0815     5.6675     0.93       62.1051   
3001.6     7.379      7.1272     10.8505    5.2281     4.008      4.7849     4.8379     5.3421     0.93       61.3623   
3001.8     7.271      6.5705     9.7333     5.0897     3.6581     4.5767     4.863      5.3937     0.928      60.928    
3002       7.1595     6.7325     9.6582     5.27       3.56       4.5312     5.2452     5.5129     0.932      60.9903   
3002.2     7.1629     6.4997     9.165      5.7752     3.6385     4.6743     5.1878     5.8672     0.92       61.2357   
3002.4     7.1595     6.9248     9.7921     6.3995     3.7202     4.8045     5.3375     6.2537     0.933      61.4749   
3002.6     7.1089     6.7966     9.2336     7.2395     3.8183     4.889      5.0298     6.7562     0.93       61.6308   
3002.8     7.1089     6.999      9.2858     7.5162     3.8052     4.9736     5.3242     7.1975     0.925      61.4858   
3003       7.2304     6.8978     9.116      7.4197     3.7856     4.9216     5.4039     7.4455     0.916      61.0199   
3003.2     7.352      6.9585     9.0114     7.0721     3.7627     4.8565     5.4695     7.6324     0.901      60.6025   
3003.4     7.4162     7.0294     8.871      6.7149     3.8641     4.7459     5.4041     7.8127     0.898      60.4577   
3003.6     7.3689     7.0901     8.982      6.4639     4.0243     4.6353     5.5034     7.89       0.901      60.2743   
3003.8     7.325      7.1779     9.3446     6.332      4.1911     4.4141     5.8041     7.8385     0.91       59.83     
3004       7.1156     7.3398     9.7235     6.0423     4.1846     4.1798     5.6787     7.5808     0.937      59.4972   
3004.2     7.0109     7.4005     9.423      5.6111     3.9884     3.8805     5.0632     6.9914     0.926      59.678    
3004.4     6.9535     6.6616     8.4398     5.0318     3.7496     3.6137     4.8394     6.447      0.923      60.3007   
3004.6     6.8049     6.4255     8.3222     4.6778     3.766      3.3079     4.8999     5.9445     0.923      60.942    
3004.8     6.886      6.1555     8.0217     4.5105     3.7725     3.2233     4.9464     5.6417     0.923      61.2153   
3005       7.065      5.7405     7.5905     4.4815     3.7496     3.2233     4.7249     5.7287     0.921      61.1814   
3005.2     7.2676     5.8586     7.7898     4.7068     3.9099     3.3014     5.5897     6.0572     0.926      61.1304   
3005.4     7.6087     5.9531     7.7048     5.1541     4.2336     3.5161     5.6228     6.6982     0.92       61.0991   
3005.6     7.889      6.4558     8.3091     5.7141     4.7274     3.7634     5.9909     7.4294     0.92       60.9794   
3005.8     8.0815     7.0463     8.9396     6.3545     5.1819     4.0562     6.4167     8.2186     0.908      60.7665   
3006       8.4462     7.3634     9.178      6.7761     5.4304     4.388      6.3131     9.0464     0.9        60.5334   
3006.2     8.8481     7.2656     9.1323     7.0496     5.7607     4.9867     6.0947     10.1191    0.9        60.375    
3006.4     9.1622     7.2791     9.5635     7.719      6.7352     5.4812     6.7648     11.7135    0.916      60.3379   
3006.6     9.1892     8.1091     11.3502    8.7424     8.1446     5.8        7.1878     13.6268    0.93       60.3791   
3006.8     9.2703     8.9492     12.7973    9.3055     8.8084     5.8455     7.5749     14.2389    0.935      60.5142   
3007       9.5472     9.074      12.5621    8.5654     7.9909     5.6634     7.5237     12.9858    0.937      60.8075   
3007.2     9.8883     8.7873     11.4482    7.2523     6.7123     5.1298     6.3708     11.4977    0.921      61.0799   
3007.4     9.8883     8.4634     11.1477    6.2805     5.8588     4.5182     6.9032     10.9211    0.932      61.0741   
3007.6     9.7363     8.3284     11.3666    5.8911     5.437      4.2514     6.7907     10.992     0.928      60.7577   
3007.8     9.7127     8.5072     12.255     5.7269     5.159      4.2839     6.9602     11.3817    0.926      60.3215   
3008       9.9153     7.9303     11.8369    5.7977     5.0936     4.401      5.9944     12.3384    0.916      60.0485   
3008.2     10.1044    7.5895     11.6997    6.0037     5.2212     4.6418     7.0581     13.5044    0.903      60.0396   
3008.4     10.5401    7.937      12.1963    6.5057     5.4435     4.9281     7.5929     14.2904    0.901      60.233    
3008.6     11.1649    8.2171     12.2485    7.1333     5.594      5.4291     8.223      15.0377    0.9        60.5738   
3008.8     12.0328    8.5848     12.304     7.7415     5.6005     5.9887     8.2374     15.508     0.93       60.9453   
3009       12.8535    8.5916     12.0754    8.5654     5.7084     6.6589     8.5088     16.4163    0.933      61.2517   
3009.2     13.5492    9.5903     13.5714    9.563      5.9765     7.1014     10.222     16.9317    0.945      61.5703   
3009.4     14.4408    9.8028     14.5253    10.2452    6.2839     7.4137     10.4302    17.1443    0.933      61.9736   
3009.6     15.2918    10.3933    15.8743    10.4898    6.4082     7.6024     11.4216    16.8286    0.937      62.2976   
3009.8     15.6768    11.3245    17.5108    10.67      6.4082     7.6739     11.4521    16.3745    0.938      62.327    
3010       15.9639    11.7125    18.5757    10.8535    6.5292     7.6609     11.1556    15.7238    0.94       62.1125   
