~Version
 VERS              .         2.0                           : CWLS LOG ASCII STANDARD - VERSION 2.0
 WRAP              .         NO                            : ONE LINE PER DEPTH STEP
 DLM               .         SPACE                         : DELIMITING CHARACTER(SPACE TAB OR COMMA)
~Well Information
#_______________________________________________________________________________
#
#PARAMETER_NAME    .UNIT     VALUE                         : DESCRIPTION
#_______________________________________________________________________________
STRT               .m        2903                          : First reference value
STOP               .m        3130                          : Last reference value
STEP               .m        0.2                           : Step increment
NULL               .         -9999                         : Missing value
COMP               .                                       : Company
WELL               .         304                           : Well name
FLD                .                                       : Field
LOC                .                                       : Location
CNTY               .                                       : County
STAT               .                                       : State
CTRY               .                                       : Country
SRVC               .                                       : Service Company
DATE               .                                       : Date
API                .                                       : API number
EREF               .m        138.34                        : 
Pad                .         3                             : 
X                  .m        219750                        : 
Y                  .m        249950                        : 
group              .         Pad3                          : 
Интер-р            .         Старостина                    : 
Куст               .         3                             : 
Статус             .         Не проверено                  : 
Тип                .         Эксплуатация                  : 
~Parameter Information Block
#_______________________________________________________________________________
#
#PARAMETER_NAME    .UNIT     VALUE                         : DESCRIPTION
#_______________________________________________________________________________
SET                .         LAS5                          : 
REAL_CREATION_DATE .         Ср апр 11 2012-13_17_10       : 
TLFamily_DEPTH     .         Measured Depth                : 
TLFamily_GR        .         Gamma Ray                     : 
TLFamily_TNPH      .         Neutron Porosity              : 
group              .         INI                           : 
~Curve Information
#_______________________________________________________________________________
#
#LOGNAME           .UNIT     LOG_ID                        : DESCRIPTION
#_______________________________________________________________________________
DEPTH              .m                                      : Measured Depth 
GR                 .gAPI                                   :  
TNPH               .v/v                                    : Neutron Porosity 
~Ascii
# ...
3000.2     182.75     0.288     
3000.4     172.33     0.289     
3000.6     172.1      0.304     
3000.8     209.74     0.318     
3001       226.97     0.313     
3001.2     227.1      0.319     
3001.4     216.79     0.327     
3001.6     197.45     0.306     
3001.8     193.88     0.308     
3002       198.59     0.313     
3002.2     207.83     0.303     
3002.4     221.03     0.288     
3002.6     233.21     0.295     
3002.8     246.43     0.302     
3003       254.44     0.296     
3003.2     253.38     0.29      
3003.4     242.18     0.295     
3003.6     233.5      0.328     
3003.8     222.82     0.34      
3004       211.49     0.31      
3004.2     196.74     0.275     
3004.4     187.43     0.273     
3004.6     177.02     0.298     
3004.8     159.19     0.314     
3005       157.19     0.305     
3005.2     167.92     0.301     
3005.4     175.86     0.302     
3005.6     195.08     0.29      
3005.8     225.04     0.291     
3006       233.63     0.309     
3006.2     236.53     0.326     
3006.4     247.04     0.312     
3006.6     296.09     0.33      
3006.8     323.42     0.379     
3007       319.66     0.404     
3007.2     317.92     0.399     
3007.4     322.86     0.348     
3007.6     329.28     0.319     
3007.8     328.82     0.334     
3008       338.46     0.357     
3008.2     355.43     0.349     
3008.4     366.18     0.334     
3008.6     368.98     0.315     
3008.8     348.06     0.311     
3009       357.98     0.359     
3009.2     400.37     0.4       
3009.4     418.52     0.39      
3009.6     429.3      0.348     
3009.8     422.94     0.299     
3010       397.1      0.293     
3010.2     378.7      0.32      
3010.4     365.57     0.373     
3010.6     340.25     0.381     
3010.8     303.98     0.348     
3011       287.66     0.366     
3011.2     302.93     0.38      
3011.4     318.99     0.376     
3011.6     327.7      0.391     
3011.8     325.84     0.383     
3012       335.63     0.366     
3012.2     356.55     0.359     
3012.4     359        0.37      
3012.6     359.11     0.356     
3012.8     352.87     0.323     
3013       339.17     0.32      
3013.2     327.55     0.35      
3013.4     315.78     0.374     
3013.6     295.99     0.4       
3013.8     289.35     0.424     
3014       289.58     0.416     
3014.2     292.53     0.416     
3014.4     299.08     0.397     
3014.6     304.1      0.404     
3014.8     293.15     0.389     
3015       260.69     0.335     
3015.2     222.1      0.328     
3015.4     209        0.344     
3015.6     231.44     0.343     
3015.8     243.3      0.341     
3016       239.49     0.325     
3016.2     224.63     0.324     
3016.4     216.27     0.355     
3016.6     202.07     0.358     
3016.8     190.41     0.321     
3017       167.74     0.292     
3017.2     156.06     0.285     
3017.4     154.78     0.313     
3017.6     152.18     0.32      
3017.8     146.86     0.304     
3018       143.61     0.308     
3018.2     152.79     0.291     
3018.4     166.85     0.292     
3018.6     170.2      0.301     
3018.8     173.59     0.307     
3019       177.75     0.3       
3019.2     160.43     0.294     
3019.4     139.87     0.278     
3019.6     138.53     0.281     
3019.8     158.17     0.296     
3020       147.73     0.295     
3020.2     134.04     0.297     
3020.4     133.11     0.304     
3020.6     127.63     0.29      
3020.8     119.16     0.294     
3021       116.16     0.314     
3021.2     113.39     0.323     
3021.4     112.68     0.298     
3021.6     113.68     0.271     
3021.8     117.11     0.271     
3022       115.28     0.268     
3022.2     113.51     0.269     
3022.4     114.78     0.272     
3022.6     118.35     0.268     
3022.8     119.39     0.273     
3023       118.07     0.275     
3023.2     114.46     0.273     
3023.4     116.96     0.293     
3023.6     126.95     0.298     
3023.8     133.73     0.271     
3024       129.53     0.257     
3024.2     117.54     0.254     
3024.4     110.87     0.26      
3024.6     112.67     0.263     
3024.8     121.36     0.271     
3025       123.08     0.295     
3025.2     126.35     0.3       
3025.4     132.84     0.291     
3025.6     141.45     0.293     
3025.8     144.16     0.32      
3026       140.59     0.359     
3026.2     140.81     0.363     
3026.4     138.81     0.333     
3026.6     125.41     0.317     
3026.8     110.23     0.313     
3027       105        0.332     
3027.2     116.41     0.334     
3027.4     133.15     0.328     
3027.6     151.72     0.331     
3027.8     151.11     0.289     
3028       133.33     0.263     
3028.2     108.07     0.266     
3028.4     97.32001   0.282     
3028.6     93.86      0.291     
3028.8     95.11      0.285     
3029       97.1       0.299     
3029.2     108.16     0.317     
3029.4     119.57     0.338     
3029.6     142.37     0.375     
3029.8     159.4      0.364     
3030       162.67     0.335     
3030.2     162.02     0.336     
3030.4     156.61     0.317     
3030.6     146.65     0.292     
3030.8     127.3      0.3       
3031       115.5      0.307     
3031.2     107.65     0.313     
3031.4     109.69     0.317     
3031.6     116.71     0.305     
3031.8     120.07     0.318     
3032       127.51     0.352     
3032.2     154.27     0.369     
3032.4     178.8      0.363     
3032.6     209        0.336     
3032.8     220.73     0.327     
3033       205.69     0.337     
3033.2     184.1      0.339     
3033.4     184.3      0.358     
3033.6     208.1      0.383     
3033.8     236.09     0.397     
3034       235.44     0.375     
3034.2     209.9      0.355     
3034.4     183.64     0.353     
3034.6     205.3      0.347     
3034.8     236.63     0.351     
3035       244.34     0.354     
3035.2     204.16     0.353     
3035.4     162.54     0.363     
3035.6     127.84     0.371     
3035.8     120.26     0.358     
3036       125.35     0.343     
3036.2     131.13     0.332     
3036.4     127.8      0.318     
3036.6     125.03     0.312     
3036.8     125.33     0.308     
3037       125.6      0.307     
3037.2     123.65     0.319     
3037.4     121.89     0.309     
3037.6     112.13     0.253     
3037.8     92.8       0.208     
3038       70.8       0.204     
3038.2     79.53      0.232     
3038.4     103.09     0.268     
3038.6     127.86     0.296     
3038.8     143.43     0.297     
3039       149.5      0.279     
3039.2     148.61     0.283     
3039.4     149.67     0.303     
3039.6     145.04     0.319     
3039.8     130.34     0.315     
3040       119.13     0.31      
3040.2     123.31     0.315     
3040.4     126.38     0.307     
3040.6     125.04     0.301     
3040.8     130.55     0.318     
3041       135.54     0.37      
3041.2     135.13     0.408     
3041.4     133.11     0.375     
3041.6     132.89     0.332     
3041.8     132.65     0.295     
3042       124.3      0.291     
3042.2     115.99     0.339     
3042.4     116.85     0.388     
3042.6     123.34     0.368     
3042.8     126.35     0.333     
3043       124.87     0.316     
3043.2     126.12     0.3       
3043.4     128.43     0.281     
3043.6     128.64     0.275     
3043.8     126.28     0.291     
3044       125.03     0.308     
3044.2     130.01     0.308     
3044.4     131.98     0.313     
3044.6     124.71     0.304     
3044.8     125.83     0.279     
3045       131.93     0.277     
3045.2     136.34     0.285     
3045.4     136.06     0.286     
3045.6     121.5      0.293     
3045.8     87.81999   0.281     
3046       77.02      0.285     
3046.2     101.75     0.32      
3046.4     120.76     0.347     
3046.6     133.77     0.339     
3046.8     139.6      0.313     
3047       138.37     0.293     
3047.2     134.54     0.283     
3047.4     136.57     0.293     
3047.6     143.41     0.298     
3047.8     139.09     0.31      
3048       135.37     0.329     
3048.2     140.27     0.333     
3048.4     140.84     0.317     
3048.6     137.41     0.296     
