~Version
 VERS              .         2.0                           : CWLS LOG ASCII STANDARD - VERSION 2.0
 WRAP              .         NO                            : ONE LINE PER DEPTH STEP
 DLM               .         SPACE                         : DELIMITING CHARACTER(SPACE TAB OR COMMA)
~Well Information
#_______________________________________________________________________________
#
#PARAMETER_NAME    .UNIT     VALUE                         : DESCRIPTION
#_______________________________________________________________________________
STRT               .m        2903                          : First reference value
STOP               .m        3130                          : Last reference value
STEP               .m        0.2                           : Step increment
NULL               .         -9999                         : Missing value
COMP               .                                       : Company
WELL               .         304                           : Well name
FLD                .                                       : Field
LOC                .                                       : Location
CNTY               .                                       : County
STAT               .                                       : State
CTRY               .                                       : Country
SRVC               .                                       : Service Company
DATE               .                                       : Date
API                .                                       : API number
EREF               .m        138.34                        : 
Pad                .         3                             : 
X                  .m        219750                        : 
Y                  .m        249950                        : 
group              .         Pad3                          : 
Интер-р            .         Старостина                    : 
Куст               .         3                             : 
Статус             .         Не проверено                  : 
Тип                .         Эксплуатация                  : 
~Parameter Information Block
#_______________________________________________________________________________
#
#PARAMETER_NAME    .UNIT     VALUE                         : DESCRIPTION
#_______________________________________________________________________________
SET                .         LAS5                          : 
REAL_CREATION_DATE .         Ср апр 11 2012-13_17_10       : 
TLFamily_DEPTH     .         Measured Depth                : 
TLFamily_GR        .         Gamma Ray                     : 
TLFamily_TNPH      .         Neutron Porosity              : 
group              .         INI                           : 
~Curve Information
#_______________________________________________________________________________
#
#LOGNAME           .UNIT     LOG_ID                        : DESCRIPTION
#_______________________________________________________________________________
DEPTH              .m                                      : Measured Depth 
GR                 .gAPI                                   :  
TNPH               .v/v                                    : Neutron Porosity 
~Ascii
# ...
2951.6     86.74      0.294     
2951.8     84.99      0.279     
2952       84.74      0.25      
2952.2     89.38      0.253     
2952.4     92.85      0.259     
2952.6     94.41      0.246     
2952.8     91.11      0.215     
2953       90.5       0.22      
2953.2     88.73      0.249     
2953.4     87.71      0.259     
2953.6     88.82      0.267     
2953.8     92.38      0.273     
2954       90.41      0.277     
2954.2     87.36      0.273     
2954.4     88.35      0.269     
2954.6     86.84      0.265     
2954.8     88.72      0.261     
2955       91.07001   0.254     
2955.2     87.22      0.251     
2955.4     85.31      0.262     
2955.6     85.85      0.273     
2955.8     90.42      0.262     
2956       97.2       0.26      
2956.2     99.61      0.273     
2956.4     97.60001   0.25      
2956.6     94.12      0.243     
2956.8     91.56      0.257     
2957       90.14      0.274     
2957.2     85.43999   0.272     
2957.4     83.05      0.255     
2957.6     83.34      0.264     
2957.8     84.25999   0.273     
2958       85.06      0.256     
2958.2     83.45      0.254     
2958.4     86.14      0.274     
2958.6     88.78      0.286     
2958.8     92.47      0.274     
2959       90.71      0.271     
2959.2     90.92      0.286     
2959.4     94.7       0.295     
2959.6     97.51      0.289     
2959.8     97.04001   0.293     
2960       98.48      0.289     
2960.2     94.84      0.254     
2960.4     92.09      0.253     
2960.6     94.68001   0.278     
2960.8     95.47      0.277     
2961       89.72      0.277     
2961.2     95.87      0.294     
2961.4     106.84     0.271     
2961.6     111.35     0.262     
2961.8     106.41     0.285     
2962       101.25     0.283     
2962.2     104.21     0.289     
2962.4     106.22     0.292     
2962.6     105.57     0.276     
2962.8     106.47     0.274     
2963       107.54     0.248     
2963.2     98.98      0.24      
2963.4     92.21      0.255     
2963.6     96.45      0.247     
2963.8     103.45     0.24      
2964       101.3      0.254     
2964.2     92.61      0.259     
2964.4     88.55      0.247     
2964.6     93.62      0.247     
2964.8     100.68     0.254     
2965       100.17     0.255     
2965.2     93.03001   0.257     
2965.4     86.33      0.26      
2965.6     84.06      0.253     
2965.8     85.15      0.24      
2966       90.12      0.216     
2966.2     89.12      0.209     
2966.4     85.10001   0.21      
2966.6     82.12      0.215     
2966.8     81.46      0.21      
2967       76.46      0.21      
2967.2     76.86      0.215     
2967.4     80.63      0.221     
2967.6     82.55      0.232     
2967.8     83.32      0.243     
2968       89.57      0.247     
2968.2     98.38      0.231     
2968.4     98.23      0.213     
2968.6     89.45      0.208     
2968.8     87.95      0.212     
2969       94.88      0.223     
2969.2     99.89999   0.233     
2969.4     99.85      0.232     
2969.6     100.75     0.226     
2969.8     103.53     0.228     
2970       104.04     0.235     
2970.2     102.76     0.236     
2970.4     100.91     0.215     
2970.6     94.81      0.209     
2970.8     89.73      0.237     
2971       88.16      0.25      
2971.2     94.05      0.232     
2971.4     96.53      0.217     
2971.6     95.63      0.241     
2971.8     98.35      0.261     
2972       104.96     0.233     
2972.2     112.94     0.218     
2972.4     113.74     0.221     
2972.6     108.91     0.208     
2972.8     101.82     0.212     
2973       95.02      0.225     
2973.2     84.49001   0.233     
2973.4     81.04      0.239     
2973.6     80.15      0.226     
2973.8     78.18      0.218     
2974       77.29      0.216     
2974.2     72.86      0.194     
2974.4     69.6       0.184     
2974.6     70.49      0.18      
2974.8     68.34      0.175     
2975       63.58      0.174     
2975.2     59         0.173     
2975.4     54.7       0.173     
2975.6     49.81      0.177     
2975.8     45.54      0.187     
2976       45.53      0.185     
2976.2     50.36      0.188     
2976.4     53.24      0.208     
2976.6     60.17      0.214     
2976.8     67.59      0.224     
2977       71.55      0.243     
2977.2     68.61      0.237     
2977.4     65.75      0.22      
2977.6     67.67      0.212     
2977.8     76         0.212     
2978       84.42001   0.214     
2978.2     92.53      0.217     
2978.4     101.49     0.228     
2978.6     116.28     0.24      
2978.8     118.06     0.249     
2979       105.66     0.26      
2979.2     84.27      0.257     
2979.4     72.47      0.25      
2979.6     65.17      0.256     
2979.8     62.37      0.243     
2980       60.88      0.221     
2980.2     59.65      0.221     
2980.4     56.48      0.232     
2980.6     54.28      0.229     
2980.8     52.98      0.222     
2981       53.54      0.219     
2981.2     54.6       0.208     
2981.4     54.79      0.197     
2981.6     54.42      0.207     
2981.8     53.19      0.214     
2982       54.62      0.214     
2982.2     63.35      0.217     
2982.4     71.64      0.214     
2982.6     80.67001   0.21      
2982.8     86.88      0.214     
2983       96.86      0.223     
2983.2     103.79     0.219     
2983.4     93.84      0.206     
2983.6     70.68      0.185     
2983.8     51.23      0.161     
2984       39.94      0.147     
2984.2     40.43      0.151     
2984.4     60.29      0.172     
2984.6     79.59      0.19      
2984.8     87.13      0.197     
2985       91.39      0.185     
2985.2     86.39      0.183     
2985.4     83.42      0.202     
2985.6     84.75      0.23      
2985.8     87.81999   0.248     
2986       91.13      0.237     
2986.2     91.28999   0.221     
2986.4     86.77      0.203     
2986.6     89.81      0.204     
2986.8     84.54001   0.217     
2987       74.93      0.227     
2987.2     69.84      0.209     
2987.4     65.99      0.19      
2987.6     64.46      0.197     
2987.8     63.83      0.203     
2988       72.43      0.206     
2988.2     80.93001   0.228     
2988.4     85.79001   0.234     
2988.6     95.41      0.224     
2988.8     110.6      0.226     
2989       116.08     0.24      
2989.2     112.65     0.251     
2989.4     109.67     0.261     
2989.6     111.45     0.256     
2989.8     117.32     0.241     
2990       120.6      0.252     
2990.2     119.61     0.271     
2990.4     118.88     0.257     
2990.6     119.96     0.25      
2990.8     121.44     0.257     
2991       120.03     0.262     
2991.2     113.53     0.261     
2991.4     111.17     0.254     
2991.6     111.77     0.26      
2991.8     113.29     0.27      
2992       120.04     0.263     
2992.2     125.59     0.273     
2992.4     124.99     0.279     
2992.6     118.07     0.248     
2992.8     112.5      0.248     
2993       106.93     0.259     
2993.2     110.43     0.27      
2993.4     118.98     0.291     
2993.6     125.44     0.279     
2993.8     125.84     0.264     
2994       129.21     0.291     
2994.2     133.79     0.317     
2994.4     141.64     0.302     
2994.6     147.76     0.288     
2994.8     148.2      0.291     
2995       147.36     0.291     
2995.2     145.27     0.29      
2995.4     137.48     0.285     
2995.6     136.4      0.299     
2995.8     142.13     0.333     
2996       145.07     0.299     
2996.2     136.9      0.254     
2996.4     118.74     0.267     
2996.6     111.8      0.285     
2996.8     115.56     0.278     
2997       114.66     0.254     
2997.2     114.55     0.237     
2997.4     122.41     0.235     
2997.6     122.55     0.237     
2997.8     117.34     0.238     
2998       113.14     0.233     
2998.2     112.42     0.233     
2998.4     115.59     0.25      
2998.6     122.06     0.284     
2998.8     130.97     0.311     
2999       160.41     0.321     
2999.2     190.24     0.335     
2999.4     212.34     0.349     
2999.6     199.1      0.338     
2999.8     180.14     0.316     
3000       181.14     0.3       
