~Version
 VERS              .         2.0                           : CWLS LOG ASCII STANDARD - VERSION 2.0
 WRAP              .         NO                            : ONE LINE PER DEPTH STEP
 DLM               .         SPACE                         : DELIMITING CHARACTER(SPACE TAB OR COMMA)
~Well Information
#_______________________________________________________________________________
#
#PARAMETER_NAME    .UNIT     VALUE                         : DESCRIPTION
#_______________________________________________________________________________
STRT               .m        2903                          : First reference value
STOP               .m        3130                          : Last reference value
STEP               .m        0.2                           : Step increment
NULL               .         -9999                         : Missing value
COMP               .                                       : Company
WELL               .         304                           : Well name
FLD                .                                       : Field
LOC                .                                       : Location
CNTY               .                                       : County
STAT               .                                       : State
CTRY               .                                       : Country
SRVC               .                                       : Service Company
DATE               .                                       : Date
API                .                                       : API number
EREF               .m        138.34                        : 
Pad                .         3                             : 
X                  .m        219750                        : 
Y                  .m        249950                        : 
group              .         Pad3                          : 
Интер-р            .         Старостина                    : 
Куст               .         3                             : 
Статус             .         Не проверено                  : 
Тип                .         Эксплуатация                  : 
~Parameter Information Block
#_______________________________________________________________________________
#
#PARAMETER_NAME    .UNIT     VALUE                         : DESCRIPTION
#_______________________________________________________________________________
SET                .         LAS3                          : 
REAL_CREATION_DATE .         Ср апр 11 2012-13_17_09       : 
TLFamily_DEPTH     .         Measured Depth                : 
TLFamily_KS        .         Potential Resistivity         : 
TLFamily_KS1       .         Extra Shallow Resistivity     : 
TLFamily_KS2       .         Shallow Resistivity           : 
TLFamily_KS3       .         Medium Resistivity            : 
TLFamily_KS4       .         Deep Resistivity              : 
TLFamily_KS5       .         Extra Deep Resistivity        : 
TLFamily_LLD       .         Lateral Log Resistivity       : 
TLFamily_OKS3      .         Medium Resistivity Inverted   : 
TLFamily_RM        .         Mud Resistivity               : 
TLFamily_SP        .         Spontaneous Potential         : 
group              .         INI                           : 
~Curve Information
#_______________________________________________________________________________
#
#LOGNAME           .UNIT     LOG_ID                        : DESCRIPTION
#_______________________________________________________________________________
DEPTH              .m                                      : Measured Depth 
KS                 .ohm.m                                  : Potential Resistivity 
KS1                .ohm.m                                  : Extra Shallow Resistivity 
KS2                .ohm.m                                  : Shallow Resistivity 
KS3                .ohm.m                                  : Medium Resistivity 
KS4                .ohm.m                                  : Deep Resistivity 
KS5                .ohm.m                                  : Extra Deep Resistivity 
LLD                .ohm.m                                  : Lateral Log Resistivity 
OKS3               .ohm.m                                  : Medium Resistivity Inverted 
RM                 .ohm.m                                  : Mud Resistivity 
SP                 .mV                                     : Spontaneous Potential 
~Ascii
# ...
3010.2     15.7883    11.8475    19.6602    11.2236    6.8071     7.5048     11.2058    15.727     0.943      61.9281   
3010.4     15.2141    12.6707    22.0774    11.8897    7.1276     7.277      10.4758    16.0298    0.932      61.8906   
3010.6     14.8291    12.4447    22.4791    12.4754    7.1995     7.0948     9.7175     16.1007    0.916      61.8756   
3010.8     14.7109    11.7125    21.6266    12.4947    7.1603     6.8866     9.6192     15.5209    0.905      61.8223   
3011       14.5894    11.2874    20.5225    12.543     7.3107     6.6264     9.3233     15.4307    0.906      61.8275   
3011.2     14.282     11.392     20.3461    12.7844    7.6345     6.4832     9.0185     15.9332    0.933      61.9759   
3011.4     14.1942    10.869     19.6177    13.3186    7.8209     6.3986     9.031      16.5806    0.937      62.1676   
3011.6     14.4104    10.6261    19.1735    13.65      7.6999     6.3726     9.7776     16.6515    0.94       62.2231   
3011.8     14.765     10.6531    18.8501    13.7273    7.4906     6.301      10.0853    16.4518    0.933      62.1118   
3012       15.0892    10.9702    18.7325    13.7981    7.363      6.1969     10.1807    16.1586    0.933      61.8905   
3012.2     15.2715    11.1659    18.5071    13.7949    7.3075     6.1449     10.26      15.9847    0.935      61.6579   
3012.4     15.4168    11.4797    19.0461    13.679     7.3663     6.1579     10.0199    15.9428    0.942      61.5828   
3012.6     15.6498    11.2368    19.1539    13.7498    7.6345     6.1969     10.6474    15.946     0.933      61.6594   
3012.8     15.9571    11.1389    19.5295    13.8914    8.0138     6.262      11.1278    15.8236    0.923      61.6926   
3013       16.1969    11.5742    20.1861    14.181     8.4258     6.4051     11.1039    15.7528    0.906      61.5376   
3013.2     16.3995    11.7868    20.6826    14.5608    9.0569     6.5483     10.7425    15.9654    0.901      61.2164   
3013.4     16.359     12.0263    21.2346    15.095     9.8548     6.6394     11.5741    16.3068    0.92       60.968    
3013.6     16.3151    12.4885    22.3648    15.7322    10.6429    6.7695     10.8762    16.4453    0.937      60.9703   
3013.8     16.3624    12.5392    22.5641    16.1538    11.0484    6.9257     10.2242    16.2939    0.94       61.0241   
3014       16.4029    12.195     22.1721    16.3372    11.4244    6.9842     10.6171    16.2327    0.933      60.9685   
3014.2     16.3995    12.1343    22.2766    16.4885    11.7678    7.0818     11.3291    16.1941    0.933      61.0075   
3014.4     16.4569    12.2794    22.6457    16.7169    12.0588    7.225      11.0305    16.5097    0.935      61.2559   
3014.6     16.2948    12.5324    23.0704    16.9261    12.3041    7.264      11.4086    16.6515    0.942      61.5241   
3014.8     16.0821    12.7551    23.4754    17.0709    12.3826    7.1729     10.6381    16.4421    0.935      61.559    
3015       15.9571    12.6168    23.152     16.8231    11.9444    7.0688     10.9033    15.6723    0.923      61.3457   
3015.2     15.8727    12.3974    22.3844    16.0765    11.0091    6.9777     10.1893    14.7156    0.903      61.1527   
3015.4     15.714     11.9588    21.7148    15.3074    10.2341    6.8476     10.6418    14.0295    0.903      61.1896   
3015.6     15.3222    11.9858    21.8291    15.0017    9.8352     6.6654     10.4018    14.0939    0.915      61.3466   
3015.8     14.7515    12.1309    22.0643    15.0789    9.6815     6.4572     9.5679     14.6383    0.937      61.3248   
3016       13.9376    12.2254    22.4857    15.198     9.5605     6.288      9.4546     15.421     0.94       61.0098   
3016.2     13.2891    11.8677    21.7932    15.0049    9.2924     6.236      8.8427     16.0878    0.935      60.4885   
3016.4     13.4344    11.2368    20.3951    14.2261    8.8869     6.2945     6.6526     18.101     0.93       59.955    
3016.6     13.6572    8.487      15.9004    14.0266    9.07       6.3336     11.2351    21.3801    0.93       59.7922   
3016.8     14.0726    9.5127     18.1837    14.4546    9.6913     6.3791     12.0883    23.8313    0.94       60.1974   
3017       15.3762    10.1807    18.4516    15.2269    9.8254     6.3791     12.1323    23.9698    0.928      60.8809   
3017.2     15.8693    11.6788    18.8468    15.0789    9.3545     6.1383     12.3514    22.952     0.923      61.4051   
3017.4     15.8288    12.4312    18.8958    14.4031    8.6318     5.7154     11.1057    21.0257    0.9        61.5601   
3017.6     15.7646    12.1343    18.4614    13.1577    7.6966     5.2339     9.6625     18.5777    0.901      61.4818   
3017.8     15.7714    11.1997    18.9513    11.9573    7.0589     4.9151     9.9373     16.79      0.92       61.4562   
3018       15.795     10.5519    19.0069    11.1882    6.7842     4.7784     10.5299    16.3873    0.93       61.5557   
3018.2     15.768     10.7239    19.7451    11.1753    6.8627     4.7849     12.1331    16.3422    0.94       61.6201   
3018.4     15.8997    11.2908    20.5487    11.5035    7.1472     4.9736     10.3149    16.542     0.926      61.5595   
3018.6     16.2273    10.9399    19.3629    11.6419    7.4546     5.3706     10.421     17.0606    0.925      61.455    
3018.8     16.6933    10.3764    18.3372    12.1311    8.0726     5.8781     10.9875    18.4134    0.928      61.4032   
3019       17.4397    10.3865    18.7652    13.8946    9.1746     6.8476     11.0454    20.6456    0.926      61.5539   
3019.2     18.6352    10.3494    19.2323    16.0411    11.0942    8.0969     13.396     23.3514    0.921      61.962    
3019.4     19.5099    10.6936    20.5029    18.7154    13.8377    9.7952     17.4129    26.4598    0.903      62.2866   
3019.6     19.2904    13.1296    24.9355    23.2498    17.3138    10.7451    18.1306    28.853     0.905      62.2182   
3019.8     18.8142    15.8221    30.1097    26.1397    19.181     11.2071    13.4524    29.5778    0.92       61.8166   
3020       18.4833    15.1945    29.2277    25.3352    18.0888    11.103     12.597     27.2972    0.937      61.2192   
3020.2     18.3515    13.494     26.1931    22.1009    15.2471    10.14      11.4916    23.8217    0.932      60.5398   
3020.4     17.8821    13.0048    25.6476    19.3237    13.1968    8.7736     11.5067    22.2949    0.932      59.9825   
3020.6     17.4498    12.6606    25.4876    17.8497    12.0294    7.7585     11.1573    21.3285    0.926      59.7081   
3020.8     17.2742    12.0567    24.2953    16.5271    10.9536    7.0428     10.4878    20.7004    0.93       59.7051   
3021       17.4465    11.6147    23.188     15.552     10.5088    6.5353     10.1196    20.9742    0.933      59.8833   
3021.2     17.8416    10.7712    21.3881    14.9952    10.2995    6.2945     11.9261    21.4252    0.926      60.0759   
3021.4     18.463     10.6835    20.921     15.2623    10.3421    6.1969     13.697     21.4767    0.91       60.2437   
3021.6     19.1756    11.392     21.865     16.2342    10.4827    6.1839     13.7051    21.2351    0.896      60.5434   
3021.8     19.5369    12.1714    22.4171    17.4056    10.5252    6.2945     14.1283    21.0193    0.903      60.8756   
3022       19.6281    12.4514    22.8744    18.7605    10.4827    6.4116     14.5865    20.7004    0.923      60.9667   
3022.2     19.6551    12.799     23.9883    19.9094    10.4663    6.5678     14.5031    20.1689    0.937      60.8411   
3022.4     19.3782    12.8732    24.9747    20.5208    10.571     6.7955     13.9678    19.8629    0.93       60.7214   
3022.6     18.7872    13.2342    26.1017    20.8201    10.8228    7.0168     12.8117    19.8758    0.923      60.7631   
3022.8     18.2333    13.2275    26.6374    21.1837    11.0517    7.1859     11.7256    20.1657    0.928      61.0013   
3023       18.0138    12.6235    25.8273    20.8233    11.068     7.4722     11.3104    20.3171    0.933      61.3151   
3023.2     18.1219    11.7159    23.7008    20.051     11.1792    7.7585     11.4847    20.7842    0.918      61.5217   
3023.4     18.2772    11.2874    23.0018    19.9222    11.9313    8.0969     12.6351    21.8536    0.905      61.7      
