~Version
 VERS              .         2.0                           : CWLS LOG ASCII STANDARD - VERSION 2.0
 WRAP              .         NO                            : ONE LINE PER DEPTH STEP
 DLM               .         SPACE                         : DELIMITING CHARACTER(SPACE TAB OR COMMA)
~Well Information
#_______________________________________________________________________________
#
#PARAMETER_NAME    .UNIT     VALUE                         : DESCRIPTION
#_______________________________________________________________________________
STRT               .m        2903                          : First reference value
STOP               .m        3130                          : Last reference value
STEP               .m        0.2                           : Step increment
NULL               .         -9999                         : Missing value
COMP               .                                       : Company
WELL               .         304                           : Well name
FLD                .                                       : Field
LOC                .                                       : Location
CNTY               .                                       : County
STAT               .                                       : State
CTRY               .                                       : Country
SRVC               .                                       : Service Company
DATE               .                                       : Date
API                .                                       : API number
EREF               .m        138.34                        : 
Pad                .         3                             : 
X                  .m        219750                        : 
Y                  .m        249950                        : 
group              .         Pad3                          : 
Интер-р            .         Старостина                    : 
Куст               .         3                             : 
Статус             .         Не проверено                  : 
Тип                .         Эксплуатация                  : 
~Parameter Information Block
#_______________________________________________________________________________
#
#PARAMETER_NAME    .UNIT     VALUE                         : DESCRIPTION
#_______________________________________________________________________________
SET                .         LAS3                          : 
REAL_CREATION_DATE .         Ср апр 11 2012-13_17_09       : 
TLFamily_DEPTH     .         Measured Depth                : 
TLFamily_KS        .         Potential Resistivity         : 
TLFamily_KS1       .         Extra Shallow Resistivity     : 
TLFamily_KS2       .         Shallow Resistivity           : 
TLFamily_KS3       .         Medium Resistivity            : 
TLFamily_KS4       .         Deep Resistivity              : 
TLFamily_KS5       .         Extra Deep Resistivity        : 
TLFamily_LLD       .         Lateral Log Resistivity       : 
TLFamily_OKS3      .         Medium Resistivity Inverted   : 
TLFamily_RM        .         Mud Resistivity               : 
TLFamily_SP        .         Spontaneous Potential         : 
group              .         INI                           : 
~Curve Information
#_______________________________________________________________________________
#
#LOGNAME           .UNIT     LOG_ID                        : DESCRIPTION
#_______________________________________________________________________________
DEPTH              .m                                      : Measured Depth 
KS                 .ohm.m                                  : Potential Resistivity 
KS1                .ohm.m                                  : Extra Shallow Resistivity 
KS2                .ohm.m                                  : Shallow Resistivity 
KS3                .ohm.m                                  : Medium Resistivity 
KS4                .ohm.m                                  : Deep Resistivity 
KS5                .ohm.m                                  : Extra Deep Resistivity 
LLD                .ohm.m                                  : Lateral Log Resistivity 
OKS3               .ohm.m                                  : Medium Resistivity Inverted 
RM                 .ohm.m                                  : Mud Resistivity 
SP                 .mV                                     : Spontaneous Potential 
~Ascii
# ...
3104       37.0612    17.7003    27.6195    12.2298    7.1505     3.7634     82.9733    21.1997    0.861      45.0036   
3104.2     34.7444    22.091     39.5955    16.7169    8.0857     3.6267     26.9014    18.262     0.901      41.6595   
3104.4     30.5973    26.9934    57.7917    21.5571    8.2787     3.4511     15.6811    13.3788    0.895      38.2572   
3104.6     26.6561    24.4966    60.0891    22.0945    7.3173     3.2754     14.7317    8.0221     0.859      35.0457   
3104.8     22.7824    20.684     55.0348    21.0357    5.8654     3.0086     12.2798    5.326      0.876      32.6131   
3105       19.9895    16.0076    47.0235    21.2835    5.2212     2.937      14.5374    4.1568     0.878      31.3458   
3105.2     17.2337    15.488     45.5961    23.1629    4.9236     3.2298     10.2891    3.7187     0.861      31.34     
3105.4     15.079     15.0393    41.5064    26.2877    4.8549     3.9326     7.1739     3.8604     0.869      32.7307   
3105.6     13.2824    13.6964    32.0957    27.6104    5.1819     5.4942     6.4523     4.859      0.873      35.3909   
3105.8     11.9754    10.3123    23.495     25.9531    6.503      8.5263     7.0245     7.059      0.849      38.6683   
3106       11.1683    8.9695     19.5001    23.4268    9.2401     14.7663    6.7531     10.7182    0.869      41.4874   
3106.2     10.7731    8.4262     17.7329    23.5137    15.2602    25.0796    5.4757     17.3666    0.873      42.5568   
3106.4     9.9491     7.8425     16.3578    29.374     32.4999    31.8076    6.8849     28.6082    0.861      41.2834   
3106.6     8.6218     9.5633     23.1455    39.125     43.8829    34.176     9.9181     30.0996    0.888      38.2663   
3106.8     8.8751     10.228     23.8119    40.8049    41.8882    33.6815    7.3373     20.8454    0.871      34.7301   
3107       10.047     8.7366     15.8547    28.8494    28.9486    27.0186    6.9724     11.7811    0.843      32.1417   
3107.2     10.4489    8.6928     12.0035    17.6856    16.4603    16.5167    6.4719     7.9641     0.873      31.6367   
3107.4     10.4827    7.964      9.9064     11.7385    10.6233    10.4979    6.1707     6.1667     0.881      33.0236   
3107.6     10.4759    7.2048     8.9592     7.1526     7.2224     7.7065     6.1528     5.8446     0.871      35.0225   
3107.8     10.5401    6.6549     9.1094     4.7454     5.1263     6.0928     6.1688     6.5823     0.849      36.8752   
3108       10.6414    6.5098     8.9918     3.5772     3.7856     5.4682     6.4727     8.5761     0.883      38.9466   
3108.2     10.7697    6.5469     9.2205     3.3648     3.4553     6.0603     6.6876     13.2468    0.885      41.8076   
3108.4     10.7393    6.584      10.4226    4.5137     4.0374     7.2055     6.796      22.5075    0.88       45.5914   
3108.6     9.9322     7.6907     14.5057    8.3626     5.8817     7.8366     7.1053     35.9781    0.856      49.9173   
3108.8     9.608      10.2786    21.6233    15.7579    7.883      7.8236     10.1563    42.0693    0.893      54.0648   
3109       10.8609    9.7725     17.6937    21.9658    7.1767     7.1599     11.6604    33.092     0.885      57.4274   
3109.2     12.0362    7.7211     10.906     16.5689    4.5868     5.7479     6.1497     19.1607    0.866      59.7595   
3109.4     12.1341    7.0361     9.1192     10.3707    2.7196     3.926      7.3956     11.2722    0.88       60.9657   
3109.6     12.2253    6.5334     9.3609     7.2009     1.7843     2.8134     8.0747     9.0657     0.856      61.0164   
3109.8     12.1915    6.8708     11.0301    5.7977     1.405      2.5011     8.9281     8.4698     0.863      60.0873   
3110       11.8876    7.4343     12.1277    4.9353     1.2644     2.5141     9.2639     8.6921     0.886      58.4143   
3110.2     11.6005    7.5186     11.0922    4.4558     1.2513     2.8264     8.5142     8.8532     0.88       56.0407   
3110.4     11.506     6.8911     9.5406     4.1468     1.3658     3.5942     7.0117     8.8886     0.885      53.0749   
3110.6     11.4654    5.9328     8.7207     4.459      1.8955     5.7089     7.096      8.8274     0.886      50.4129   
3110.8     11.6343    5.4099     8.4953     6.3287     3.815      9.5154     7.2836     8.705      0.853      49.2387   
3111       11.6546    5.3458     9.5341     13.2413    9.0569     16.9201    6.557      8.6438     0.859      49.5366   
3111.2     11.6073    5.8552     13.6074    28.5598    23.0985    21.3317    8.276      8.6341     0.89       50.1657   
3111.4     12.3334    7.9505     21.95      41.5869    35.7013    24.3118    13.4937    8.6341     0.903      50.3207   
3111.6     15.1702    8.6118     20.1436    39.952     36.7934    25.021     17.6971    8.6406     0.893      50.062    
3111.8     20.5028    8.0079     13.8785    28.1865    26.2999    24.2857    13.8994    8.647      0.893      49.8879   
3112       22.8466    8.2339     11.6769    20.2344    18.3046    21.1235    11.9365    8.6373     0.891      50.186    
3112.2     22.8905    9.7522     15.6881    18.96      17.7618    18.2084    15.0198    8.6406     0.885      51.0417   
3112.4     21.3235    12.9002    27.2188    21.5217    20.1358    16.7054    23.9431    8.647      0.873      52.2508   
3112.6     20.1111    16.7398    41.7939    21.2063    19.678     15.2804    34.9474    8.6438     0.863      53.3151   
3112.8     20.0469    16.1493    36.4597    17.116     16.1856    13.4324    17.0933    8.6438     0.869      53.8307   
3113       20.5467    14.4219    27.9636    12.1439    12.4676    9.8993     12.7218    8.6438     0.873      53.8447   
3113.2     21.006     12.971     22.3158    9.8687     9.6259     6.7109     11.7602    8.647      0.869      53.6785   
3113.4     21.2526    11.6855    20.2808    9.4793     7.0786     4.5442     12.3799    8.6438     0.873      53.709    
3113.6     21.3437    10.8724    19.1604    10.6475    5.6267     3.5552     12.496     8.6438     0.878      54.1962   
3113.8     21.3674    10.5485    18.6933    13.0322    4.6424     2.963      13.814     8.647      0.886      55.065    
3114       21.391     10.4675    18.5757    13.4344    3.887      2.8524     15.7086    8.6438     0.89       56.1235   
3114.2     21.3944    10.3933    18.5496    13.2156    3.4979     3.1778     13.6899    8.647      0.89       57.4964   
3114.4     21.3978    10.3629    18.4581    13.9204    3.7823     4.0497     12.5041    8.6373     0.89       59.3285   
3114.6     21.4012    10.3595    18.4254    17.042     5.1787     5.9822     12.6958    8.647      0.89       61.1214   
3114.8     21.3978    10.3494    18.3895    22.1106    7.8993     8.5654     13.6126    8.6373     0.89       62.0604   
3115       21.3978    10.3595    18.3699    29.2066    13.1641    12.04      17.3762    8.647      0.89       62.0461   
3115.2     21.3978    10.3595    18.3699    36.1546    19.7369    15.3845    29.96      8.6373     0.89       61.8533   
3115.4     21.4045    10.3595    18.3699    42.4783    28.6183    16.7639    91.1526    8.647      0.89       62.1755   
3115.6     21.3978    10.3595    18.3699    46.1116    35.093     15.7358    54.3609    8.6438     0.89       62.8588   
3115.8     21.4012    10.3562    18.3699    47.1832    36.2997    11.9489    8.8236     -9999      0.89       62.9089   
3116       21.4012    10.3562    18.3699    48.3547    28.0297    8.162      5.6745     -9999      0.89       61.1148   
3116.2     21.4045    10.3562    18.3699    48.8245    19.5538    4.6288     4.5116     -9999      0.89       56.9879   
3116.4     21.3978    10.3629    18.3699    48.8277    14.2596    2.9696     5.2064     -9999      0.89       51.3171   
3116.6     21.4045    10.3629    18.3732    48.8277    11.5552    1.8764     5.4702     -9999      0.89       45.9748   
3116.8     21.4045    10.3562    18.3764    48.8342    10.5023    1.3689     4.9239     -9999      0.89       42.5632   
3117       21.3978    10.3562    18.3699    48.8277    9.8025     1.1411     5.0396     -9999      0.89       41.2085   
3117.2     21.4012    10.3595    18.3699    48.8309    9.2204     0.972      5.2338     -9999      0.89       40.8428   
