~Version
 VERS              .         2.0                           : CWLS LOG ASCII STANDARD - VERSION 2.0
 WRAP              .         NO                            : ONE LINE PER DEPTH STEP
 DLM               .         SPACE                         : DELIMITING CHARACTER(SPACE TAB OR COMMA)
~Well Information
#_______________________________________________________________________________
#
#PARAMETER_NAME    .UNIT     VALUE                         : DESCRIPTION
#_______________________________________________________________________________
STRT               .m        2903                          : First reference value
STOP               .m        3130                          : Last reference value
STEP               .m        0.2                           : Step increment
NULL               .         -9999                         : Missing value
COMP               .                                       : Company
WELL               .         304                           : Well name
FLD                .                                       : Field
LOC                .                                       : Location
CNTY               .                                       : County
STAT               .                                       : State
CTRY               .                                       : Country
SRVC               .                                       : Service Company
DATE               .                                       : Date
API                .                                       : API number
EREF               .m        138.34                        : 
Pad                .         3                             : 
X                  .m        219750                        : 
Y                  .m        249950                        : 
group              .         Pad3                          : 
Интер-р            .         Старостина                    : 
Куст               .         3                             : 
Статус             .         Не проверено                  : 
Тип                .         Эксплуатация                  : 
~Parameter Information Block
#_______________________________________________________________________________
#
#PARAMETER_NAME    .UNIT     VALUE                         : DESCRIPTION
#_______________________________________________________________________________
SET                .         LAS3                          : 
REAL_CREATION_DATE .         Ср апр 11 2012-13_17_09       : 
TLFamily_DEPTH     .         Measured Depth                : 
TLFamily_KS        .         Potential Resistivity         : 
TLFamily_KS1       .         Extra Shallow Resistivity     : 
TLFamily_KS2       .         Shallow Resistivity           : 
TLFamily_KS3       .         Medium Resistivity            : 
TLFamily_KS4       .         Deep Resistivity              : 
TLFamily_KS5       .         Extra Deep Resistivity        : 
TLFamily_LLD       .         Lateral Log Resistivity       : 
TLFamily_OKS3      .         Medium Resistivity Inverted   : 
TLFamily_RM        .         Mud Resistivity               : 
TLFamily_SP        .         Spontaneous Potential         : 
group              .         INI                           : 
~Curve Information
#_______________________________________________________________________________
#
#LOGNAME           .UNIT     LOG_ID                        : DESCRIPTION
#_______________________________________________________________________________
DEPTH              .m                                      : Measured Depth 
KS                 .ohm.m                                  : Potential Resistivity 
KS1                .ohm.m                                  : Extra Shallow Resistivity 
KS2                .ohm.m                                  : Shallow Resistivity 
KS3                .ohm.m                                  : Medium Resistivity 
KS4                .ohm.m                                  : Deep Resistivity 
KS5                .ohm.m                                  : Extra Deep Resistivity 
LLD                .ohm.m                                  : Lateral Log Resistivity 
OKS3               .ohm.m                                  : Medium Resistivity Inverted 
RM                 .ohm.m                                  : Mud Resistivity 
SP                 .mV                                     : Spontaneous Potential 
~Ascii
# ...
2916.4     7.0515     6.7089     9.067      6.1163     4.384      4.4661     5.615      6.3181     0.957      54.0142   
2916.6     6.9772     6.6616     9.067      6.2032     4.4494     4.4661     5.6025     6.3375     0.952      53.6065   
2916.8     6.9535     6.6751     9.0768     6.2483     4.4789     4.4726     5.609      6.2988     0.952      53.3978   
2917       6.8961     6.5942     8.9232     6.2161     4.4854     4.4791     5.4655     6.2634     0.952      53.5464   
2917.2     6.8117     6.6178     8.884      6.1807     4.5214     4.4661     5.4559     6.2279     0.953      53.7637   
2917.4     6.7644     6.5267     8.773      6.1324     4.5508     4.4661     5.4241     6.2022     0.953      53.8436   
2917.6     6.7543     6.385      8.5705     6.0455     4.6064     4.4531     5.2802     6.1829     0.95       53.941    
2917.8     6.7171     6.3715     8.5639     5.978      4.6587     4.4531     5.2961     6.199      0.963      54.2383   
2918       6.6766     6.3715     8.5084     5.9747     4.7568     4.4661     5.3534     6.2086     0.957      54.6172   
2918.2     6.6968     6.3681     8.4659     5.949      4.8026     4.4661     5.4001     6.1539     0.953      54.8286   
2918.4     6.734      6.2804     8.2471     5.8557     4.8026     4.4921     5.3954     6.083      0.947      54.9344   
2918.6     6.7576     6.2163     8.1785     5.801      4.8091     4.5051     5.2866     6.0443     0.943      54.9323   
2918.8     6.7644     6.2298     8.2405     5.8492     4.8811     4.5182     5.4002     6.054      0.94       54.5083   
2919       6.7644     6.3242     8.3908     5.9104     4.9628     4.5442     5.4337     6.0701     0.933      53.7188   
2919.2     6.7644     6.3006     8.4561     5.9329     5.0086     4.5962     5.4705     6.0637     0.926      53.0646   
2919.4     6.7543     6.3175     8.479      5.9297     5.0184     4.6093     5.4559     5.9477     0.92       52.9375   
2919.6     6.7509     6.3209     8.4561     5.9104     5.0053     4.5897     5.4908     5.7738     0.918      53.3782   
2919.8     6.6935     6.3107     8.4594     5.8878     4.9857     4.5767     5.3912     5.6159     0.921      54.1232   
2920       6.6563     6.2871     8.479      5.8685     4.9726     4.5702     5.3785     5.5322     0.926      55.0072   
2920.2     6.5685     6.1623     8.4202     5.8943     4.9988     4.5702     5.2642     5.4968     0.937      56.01     
2920.4     6.4706     6.2129     8.5378     5.9329     5.0446     4.5702     5.2781     5.4871     0.95       56.6885   
2920.6     6.4165     6.2095     8.4986     5.9168     5.038      4.5702     5.3127     5.4903     0.955      56.6729   
2920.8     6.3828     6.115      8.2765     5.8364     5.0086     4.5832     5.182      5.5        0.957      56.3193   
2921       6.3659     6.0543     8.0935     5.7784     5.0053     4.6158     5.1105     5.5708     0.957      55.9393   
2921.2     6.3726     6.0037     7.9662     5.7816     5.0511     4.6743     5.09       5.6675     0.957      55.4948   
2921.4     6.3524     6.0037     7.9727     5.8524     5.1525     4.7524     5.1552     5.7609     0.95       55.0174   
2921.6     6.376      6.1522     8.1164     5.9297     5.2539     4.8305     5.2978     5.7963     0.95       54.566    
2921.8     6.3254     6.0847     8.0054     5.9715     5.2898     4.876      5.173      5.7577     0.947      54.2744   
2922       6.2544     6.3917     8.2569     5.9039     5.2408     4.8956     5.2837     5.632      0.948      54.3454   
2922.2     6.2105     6.1454     7.9074     5.7334     5.1198     4.8956     5.0194     5.5257     0.952      54.7133   
2922.4     6.1869     5.9936     7.7538     5.5692     5.0217     4.8565     4.9532     5.4968     0.952      55.0652   
2922.6     6.2882     5.9059     7.8094     5.4534     4.9432     4.8175     5.0779     5.4549     0.957      55.2716   
2922.8     6.3693     5.9295     7.6134     5.3279     4.8255     4.8175     5.0366     5.4291     0.957      55.4546   
2923       6.3929     6.0341     7.5709     5.2507     4.7928     4.8305     5.0664     5.4549     0.957      55.5214   
2923.2     6.3929     6.1117     7.7114     5.2474     4.8353     4.837      5.149      5.4935     0.953      55.2268   
2923.4     6.3997     6.2298     7.9596     5.3118     4.8647     4.85       5.2747     5.5064     0.95       54.6887   
2923.6     6.3828     6.2669     8.1425     5.3633     4.8484     4.8695     5.53       5.4227     0.945      54.3406   
2923.8     6.2443     6.3883     8.2307     5.4083     4.7993     4.8695     5.4337     5.3293     0.943      54.387    
2924       5.9505     6.4963     8.2079     5.463      4.7764     4.8175     5.4004     5.3003     0.937      54.5378   
2924.2     5.7141     6.2702     8.0837     5.4083     4.6914     4.7914     5.1197     5.3293     0.93       54.5293   
2924.4     5.5824     5.7169     7.5905     5.2153     4.5835     4.7784     4.6689     5.4935     0.915      54.5434   
2924.6     5.525      5.3356     7.3586     5.0672     4.4985     4.7589     4.2669     5.6836     0.918      54.8862   
2924.8     5.6668     5.2344     7.0744     5.0157     4.4527     4.7719     4.6448     5.8414     0.916      55.5829   
2925       5.9167     5.1636     6.6628     5.0189     4.4233     4.837      4.6317     5.9638     0.918      56.2565   
2925.2     6.0586     5.3289     6.6236     5.0672     4.4723     4.8695     4.6636     6.083      0.923      56.4144   
2925.4     6.2375     5.7237     6.8947     5.1316     4.541      4.9086     5.4941     5.9928     0.93       56.0349   
2925.6     6.4233     5.9059     7.0581     5.1541     4.5606     4.9476     5.4236     5.8318     0.943      55.6422   
2925.8     6.4267     6.2669     7.437      5.1477     4.5508     4.9346     5.5147     5.7351     0.953      55.5857   
2926       6.3659     6.277      7.5709     5.1251     4.5704     4.9216     5.2622     5.7061     0.953      55.7707   
2926.2     6.2916     6.2466     7.8061     5.0543     4.5639     4.9216     5.1861     5.6965     0.955      56.1241   
2926.4     6.3152     6.0239     7.8224     4.9932     4.59       4.9476     4.968      5.7383     0.957      56.5005   
2926.6     6.3625     5.8856     7.7636     5.0157     4.747      4.9867     4.9697     5.7899     0.957      56.6052   
2926.8     6.4267     5.9126     7.8845     5.1477     4.7405     4.9997     5.2956     5.7673     0.953      56.558    
2927       6.4976     6.169      7.989      5.2925     4.7274     5.0257     5.6478     5.6578     0.948      56.658    
2927.2     6.5246     6.412      8.0446     5.3311     4.7045     5.0387     5.4651     5.5064     0.948      56.6335   
2927.4     6.501      6.3647     7.8943     5.3697     4.7012     5.0127     5.2637     5.5129     0.943      56.0281   
2927.6     6.3861     6.1488     7.891      5.4598     4.7208     4.9736     5.0163     5.5966     0.952      55.0536   
2927.8     6.349      6.1488     8.1817     5.5338     4.7274     4.9541     5.4236     5.6643     0.95       54.4325   
2928       6.2004     6.2298     8.2536     5.566      4.698      4.9216     5.2467     5.6707     0.957      54.5435   
2928.2     6.0586     6.0779     8.2307     5.5274     4.6358     4.8956     5.063      5.6965     0.953      55.0739   
2928.4     5.9978     5.916      7.9106     5.4984     4.5966     4.85       4.9085     5.7673     0.948      55.5175   
2928.6     5.9336     5.9497     7.9074     5.4534     4.5737     4.8045     5.0164     5.864      0.95       55.7535   
2928.8     5.7816     6.0037     7.891      5.4759     4.5639     4.7329     5.0485     5.9542     0.945      56.0179   
2929       5.6364     6.0003     7.1985     5.447      4.4854     4.6743     4.6459     5.9992     0.94       56.3998   
2929.2     5.6026     5.6056     6.9045     5.2796     4.3775     4.6093     4.2591     6.1184     0.926      56.6154   
2929.4     5.6736     5.2074     6.7423     5.0211     4.2761     4.5312     4.2686     6.4073     0.926      56.357    
2929.6     5.8559     5.0252     6.6106     4.8902     4.2827     4.5051     4.4937     6.6274     0.921      55.7317   
