~Version
 VERS              .         2.0                           : CWLS LOG ASCII STANDARD - VERSION 2.0
 WRAP              .         NO                            : ONE LINE PER DEPTH STEP
 DLM               .         SPACE                         : DELIMITING CHARACTER(SPACE TAB OR COMMA)
~Well Information
#_______________________________________________________________________________
#
#PARAMETER_NAME    .UNIT     VALUE                         : DESCRIPTION
#_______________________________________________________________________________
STRT               .m        2903                          : First reference value
STOP               .m        3130                          : Last reference value
STEP               .m        0.2                           : Step increment
NULL               .         -9999                         : Missing value
COMP               .                                       : Company
WELL               .         304                           : Well name
FLD                .                                       : Field
LOC                .                                       : Location
CNTY               .                                       : County
STAT               .                                       : State
CTRY               .                                       : Country
SRVC               .                                       : Service Company
DATE               .                                       : Date
API                .                                       : API number
EREF               .m        138.34                        : 
Pad                .         3                             : 
X                  .m        219750                        : 
Y                  .m        249950                        : 
group              .         Pad3                          : 
Интер-р            .         Старостина                    : 
Куст               .         3                             : 
Статус             .         Не проверено                  : 
Тип                .         Эксплуатация                  : 
~Parameter Information Block
#_______________________________________________________________________________
#
#PARAMETER_NAME    .UNIT     VALUE                         : DESCRIPTION
#_______________________________________________________________________________
SET                .         LAS3                          : 
REAL_CREATION_DATE .         Ср апр 11 2012-13_17_09       : 
TLFamily_DEPTH     .         Measured Depth                : 
TLFamily_KS        .         Potential Resistivity         : 
TLFamily_KS1       .         Extra Shallow Resistivity     : 
TLFamily_KS2       .         Shallow Resistivity           : 
TLFamily_KS3       .         Medium Resistivity            : 
TLFamily_KS4       .         Deep Resistivity              : 
TLFamily_KS5       .         Extra Deep Resistivity        : 
TLFamily_LLD       .         Lateral Log Resistivity       : 
TLFamily_OKS3      .         Medium Resistivity Inverted   : 
TLFamily_RM        .         Mud Resistivity               : 
TLFamily_SP        .         Spontaneous Potential         : 
group              .         INI                           : 
~Curve Information
#_______________________________________________________________________________
#
#LOGNAME           .UNIT     LOG_ID                        : DESCRIPTION
#_______________________________________________________________________________
DEPTH              .m                                      : Measured Depth 
KS                 .ohm.m                                  : Potential Resistivity 
KS1                .ohm.m                                  : Extra Shallow Resistivity 
KS2                .ohm.m                                  : Shallow Resistivity 
KS3                .ohm.m                                  : Medium Resistivity 
KS4                .ohm.m                                  : Deep Resistivity 
KS5                .ohm.m                                  : Extra Deep Resistivity 
LLD                .ohm.m                                  : Lateral Log Resistivity 
OKS3               .ohm.m                                  : Medium Resistivity Inverted 
RM                 .ohm.m                                  : Mud Resistivity 
SP                 .mV                                     : Spontaneous Potential 
~Ascii
# ...
3037       13.1709    11.0748    21.4012    20.5626    10.1818    9.3267     7.8846     6.7981     0.911      60.309    
3037.2     12.9244    10.3629    19.3564    19.1306    9.5801     8.4287     7.7787     6.7015     0.898      59.8538   
3037.4     12.5968    10.0086    18.5855    18.0042    9.2826     7.8236     8.2269     6.5082     0.893      59.8635   
3037.6     12.9244    9.9344     17.5402    16.7877    9.3055     7.9668     6.2571     6.5307     0.891      60.0705   
3037.8     13.5458    8.2238     15.6914    16.6461    10.5284    8.4287     11.2045    7.3586     0.898      60.0887   
3038       13.0325    9.3575     18.383     18.7219    12.9614    8.3246     21.3665    7.6356     0.932      59.9027   
3038.2     11.8673    13.9326    24.2855    20.5659    14.2792    8.0448     22.9509    7.0429     0.937      59.8947   
3038.4     10.3206    16.0076    23.7041    19.2046    12.6344    7.3681     6.5237     5.6804     0.908      60.1474   
3038.6     8.4462     12.5763    18.236     14.9534    9.3251     6.0212     4.9822     4.2373     0.91       60.3281   
3038.8     7.0954     9.3541     15.11      11.127     7.3794     4.5377     4.4643     3.5061     0.908      60.268    
3039       6.4942     7.3128     13.6694    8.7649     6.2741     3.8024     4.4643     3.0906     0.89       60.0243   
3039.2     6.224      5.6663     10.3703    7.1751     5.6921     3.5942     3.7776     2.7942     0.871      59.7387   
3039.4     5.7479     5.0455     9.1944     6.805      6.3068     3.4901     3.9055     3.1228     0.871      59.6176   
3039.6     5.2582     5.4976     9.5602     7.3779     7.2944     3.6072     4.2213     3.4481     0.888      59.721    
3039.8     5.3122     4.8768     8.2569     7.6353     7.7522     3.8935     3.8981     3.6575     0.883      59.8975   
3040       5.3932     4.8802     7.6656     7.5259     7.9255     3.9586     4.0906     3.8186     0.91       60.0003   
3040.2     5.3392     5.2682     7.2083     7.8541     7.9582     3.9846     4.395      3.9571     0.903      60.0009   
3040.4     5.5148     5.3863     6.493      7.5066     7.4448     4.1538     4.1127     3.9023     0.901      59.9949   
3040.6     5.6229     4.8667     5.5686     6.9981     7.3271     4.2319     3.7505     4.015      0.893      60.0804   
3040.8     5.6026     5.1298     6.3296     6.5797     7.5167     4.4531     4.2847     4.3404     0.898      60.2084   
3041       5.7816     5.1231     6.2578     6.4478     7.8895     4.9021     4.4256     4.6883     0.871      60.327    
3041.2     5.9707     5.1636     6.7282     6.3126     8.2819     5.2795     5.0831     4.9975     0.893      60.5573   
3041.4     6.0113     5.8755     7.4337     6.2676     8.586      5.4942     5.3972     5.1006     0.91       60.909    
3041.6     5.9539     6.0678     7.4337     5.9619     8.3114     5.5202     5.1848     5.0297     0.9        61.095    
3041.8     5.6229     7.0699     8.0543     5.5017     7.3794     5.2664     5.4616     4.582      0.905      60.9394   
3042       5.4439     6.4187     7.3292     4.7132     6.1041     4.9541     4.195      3.9925     0.891      60.608    
3042.2     5.167      5.5651     6.4668     4.0471     5.2342     4.5832     3.7046     3.6962     0.883      60.3442   
3042.4     4.8833     5.1535     6.4962     3.796      4.9171     4.362      3.5579     3.8186     0.873      60.2279   
3042.6     4.7752     4.5023     6.2023     3.6931     4.7045     4.5442     3.6414     4.1471     0.874      60.1917   
3042.8     4.8394     4.3639     5.9932     3.6255     4.6751     4.7264     3.7272     4.5594     0.896      60.2244   
3043       4.8124     4.1244     5.6992     3.8025     4.6914     5.0908     3.6764     5.4484     0.89       60.3216   
3043.2     4.8191     4.8262     6.1173     4.0438     4.6162     5.2469     4.0831     6.0121     0.905      60.3788   
3043.4     4.9204     4.509      5.4706     4.1822     4.3513     5.4551     3.9555     6.6113     0.883      60.3674   
3043.6     4.8428     5.2007     6.0226     4.2144     3.9655     5.5397     4.4168     6.5952     0.893      60.3719   
3043.8     4.988      4.5461     5.2386     4.1919     3.6777     5.4682     3.7431     5.9542     0.866      60.49     
3044       4.9373     4.5799     5.2844     4.0245     3.3769     5.1038     4.2677     4.6818     0.898      60.7352   
3044.2     4.9441     5.2817     5.7972     3.7993     2.9616     4.7134     4.1796     3.4127     0.91       60.9099   
3044.4     5.2784     4.3943     4.52       3.0848     2.4416     4.4726     3.9291     2.6525     0.886      60.8683   
3044.6     5.2514     4.3842     4.5004     2.6504     2.2291     4.1278     3.9504     2.3433     0.89       60.7531   
3044.8     5.0859     4.7452     5.157      2.5731     2.2291     4.5832     4.0304     2.3723     0.874      60.6737   
3045       5.373      3.8511     4.5069     2.541      2.4155     5.8976     3.4892     2.7524     0.866      60.5612   
3045.2     5.6094     3.5879     4.6115     2.8885     3.2526     8.2531     4.4762     3.7477     0.883      60.4614   
3045.4     5.8222     4.148      5.6502     3.9795     4.7372     13.4194    5.0575     5.3454     0.91       60.5604   
3045.6     6.9501     4.2054     5.6861     5.9393     8.4749     18.794     4.9207     8.0801     0.898      60.8773   
3045.8     8.0646     4.6372     7.437      8.8518     13.7331    22.0344    6.733      12.0872    0.893      61.2187   
3046       8.0173     7.5051     10.7949    12.7393    17.8108    22.8087    19.7221    13.8781    0.89       61.4327   
3046.2     8.4935     12.1005    13.8132    12.8004    15.9927    21.3577    5.908      11.6233    0.89       61.5017   
3046.4     8.4327     10.8994    10.0894    9.9492     10.4434    17.1283    4.8734     7.9094     0.896      61.4618   
3046.6     7.4736     9.4756     9.5112     6.4607     6.4965     10.9534    5.1852     5.0233     0.903      61.3686   
3046.8     6.967      7.4748     9.3446     4.504      4.6751     7.9668     4.5395     4.0891     0.898      61.2842   
3047       6.7002     6.5435     10.0926    3.4453     3.6352     6.327      4.3882     3.6736     0.886      61.1295   
3047.2     6.4334     6.1184     10.0698    2.895      3.0204     5.5462     4.5184     3.548      0.871      60.7322   
3047.4     6.3726     5.8384     9.1094     2.6568     2.785      5.1558     4.5333     3.5609     0.89       60.2512   
3047.6     6.4436     5.727      8.4463     2.8242     2.7359     5.0257     4.599      3.6704     0.903      60.0467   
3047.8     6.4368     5.7776     8.2601     3.3616     2.7915     5.0908     4.9932     3.8572     0.9        60.1272   
3048       6.4638     6.2061     8.4659     4.3592     3.0172     5.0908     5.2016     4.0247     0.898      60.2916   
3048.2     6.1801     6.5267     9.018      6.1389     3.1839     4.9476     5.7723     4.2373     0.88       60.5229   
3048.4     5.7512     7.2892     9.6843     7.9024     3.1512     4.7199     4.8839     4.1407     0.88       60.7881   
3048.6     5.4473     6.8944     8.9265     7.7866     2.7915     4.362      4.2907     3.8314     0.896      60.8372   
3048.8     4.8461     6.5638     8.2667     6.7278     2.3043     3.9065     3.8723     3.4836     0.891      60.5249   
3049       4.4713     5.5921     7.3423     5.8653     1.974      3.4641     3.3209     3.2355     0.881      59.9665   
3049.2     4.191      4.7115     6.4407     4.9481     1.7484     3.2103     3.2363     3.1969     0.871      59.398    
3049.4     3.9579     4.4618     6.3982     4.5073     1.6535     2.9696     3.1699     3.242      0.866      59.0238   
3049.6     3.8938     4.0906     5.6731     4.1758     1.6634     2.8915     3.1372     3.2742     0.885      58.891    
3049.8     3.887      3.868      5.0394     3.928      1.8072     2.7548     3.1504     3.3257     0.885      58.8969   
3050       3.833      3.9321     4.9251     3.8025     2.1015     2.6572     3.476      3.3257     0.888      58.93     
3050.2     3.86       4.0502     4.667      3.6802     2.6084     2.5661     3.2428     3.1937     0.876      59.0311   
