~Version
 VERS              .         2.0                           : CWLS LOG ASCII STANDARD - VERSION 2.0
 WRAP              .         NO                            : ONE LINE PER DEPTH STEP
 DLM               .         SPACE                         : DELIMITING CHARACTER(SPACE TAB OR COMMA)
~Well Information
#_______________________________________________________________________________
#
#PARAMETER_NAME    .UNIT     VALUE                         : DESCRIPTION
#_______________________________________________________________________________
STRT               .m        2903                          : First reference value
STOP               .m        3130                          : Last reference value
STEP               .m        0.2                           : Step increment
NULL               .         -9999                         : Missing value
COMP               .                                       : Company
WELL               .         304                           : Well name
FLD                .                                       : Field
LOC                .                                       : Location
CNTY               .                                       : County
STAT               .                                       : State
CTRY               .                                       : Country
SRVC               .                                       : Service Company
DATE               .                                       : Date
API                .                                       : API number
EREF               .m        138.34                        : 
Pad                .         3                             : 
X                  .m        219750                        : 
Y                  .m        249950                        : 
group              .         Pad3                          : 
Интер-р            .         Старостина                    : 
Куст               .         3                             : 
Статус             .         Не проверено                  : 
Тип                .         Эксплуатация                  : 
~Parameter Information Block
#_______________________________________________________________________________
#
#PARAMETER_NAME    .UNIT     VALUE                         : DESCRIPTION
#_______________________________________________________________________________
SET                .         LAS3                          : 
REAL_CREATION_DATE .         Ср апр 11 2012-13_17_09       : 
TLFamily_DEPTH     .         Measured Depth                : 
TLFamily_KS        .         Potential Resistivity         : 
TLFamily_KS1       .         Extra Shallow Resistivity     : 
TLFamily_KS2       .         Shallow Resistivity           : 
TLFamily_KS3       .         Medium Resistivity            : 
TLFamily_KS4       .         Deep Resistivity              : 
TLFamily_KS5       .         Extra Deep Resistivity        : 
TLFamily_LLD       .         Lateral Log Resistivity       : 
TLFamily_OKS3      .         Medium Resistivity Inverted   : 
TLFamily_RM        .         Mud Resistivity               : 
TLFamily_SP        .         Spontaneous Potential         : 
group              .         INI                           : 
~Curve Information
#_______________________________________________________________________________
#
#LOGNAME           .UNIT     LOG_ID                        : DESCRIPTION
#_______________________________________________________________________________
DEPTH              .m                                      : Measured Depth 
KS                 .ohm.m                                  : Potential Resistivity 
KS1                .ohm.m                                  : Extra Shallow Resistivity 
KS2                .ohm.m                                  : Shallow Resistivity 
KS3                .ohm.m                                  : Medium Resistivity 
KS4                .ohm.m                                  : Deep Resistivity 
KS5                .ohm.m                                  : Extra Deep Resistivity 
LLD                .ohm.m                                  : Lateral Log Resistivity 
OKS3               .ohm.m                                  : Medium Resistivity Inverted 
RM                 .ohm.m                                  : Mud Resistivity 
SP                 .mV                                     : Spontaneous Potential 
~Ascii
# ...
2956.6     6.2173     6.1387     8.2046     5.6819     4.6064     4.7784     4.9032     5.2262     0.903      55.6131   
2956.8     6.2207     5.7135     7.695      5.521      4.6391     4.8956     4.6794     5.136      0.905      55.6248   
2957       6.2038     5.6629     7.5807     5.4148     4.8222     5.1688     4.7154     4.7817     0.906      55.7168   
2957.2     6.197      5.4976     7.4827     5.6079     5.3291     5.3445     4.8016     4.5111     0.91       55.8567   
2957.4     6.0552     5.8991     8.2895     6.0005     5.7051     5.4421     5.0598     4.6013     0.911      55.8871   
2957.6     6.116      6.0374     8.1295     6.0455     5.6855     5.5397     4.8523     4.4982     0.916      55.8744   
2957.8     6.4402     5.6764     7.2867     5.5853     5.1885     5.8195     4.8915     4.2985     0.926      56.0335   
2958       6.6428     5.6494     6.9535     5.3311     5.2179     5.9757     4.9885     4.2888     0.932      56.3681   
2958.2     6.555      5.7        7.1691     5.7334     5.8588     6.1839     5.0915     4.9749     0.933      56.7146   
2958.4     6.376      6.5469     8.8579     6.2547     6.4115     6.6329     5.5085     5.5451     0.943      56.9586   
2958.6     6.4604     6.3883     8.5051     6.3448     6.4801     7.4527     5.1211     5.8124     0.937      57.1099   
2958.8     6.7543     6.3411     8.4627     6.1936     6.7385     8.2465     4.84       5.9735     0.937      57.2888   
2959       6.3118     6.2196     8.2471     7.1333     8.21       8.3181     5.3545     7.3875     0.93       57.4894   
2959.2     5.8458     7.7481     11.0269    7.7737     8.7528     8.188      5.3072     8.122      0.938      57.5432   
2959.4     5.8593     6.8371     9.4197     7.3296     7.3859     7.8366     4.7671     7.51       0.93       57.3697   
2959.6     6.143      6.2905     8.1033     5.7012     5.5547     6.9517     4.6636     5.7061     0.933      57.0673   
2959.8     6.0923     6.2129     7.29       4.7036     4.4985     5.4747     4.2498     4.9814     0.933      56.8243   
2960       5.9809     5.8822     6.7674     4.2273     3.9491     4.8435     4.4025     4.8074     0.92       56.7223   
2960.2     5.8593     5.6326     7.0679     3.928      3.6875     4.4986     4.6089     4.83       0.926      56.7157   
2960.4     5.8762     5.5347     7.5513     3.8314     3.5011     4.2839     4.6136     4.8654     0.916      56.7511   
2960.6     5.8829     5.6056     7.5611     3.8765     3.3703     4.1928     4.7585     4.8783     0.903      56.8522   
2960.8     5.8086     5.7945     7.5317     4.1114     3.2951     4.0627     4.6945     4.8944     0.905      57.0324   
2961       5.6871     5.8114     7.3651     4.2144     3.1774     3.9911     4.5399     4.9105     0.911      57.2059   
2961.2     5.5621     5.7709     7.2671     4.2981     3.0531     4.0041     4.3352     4.9588     0.923      57.33     
2961.4     5.4372     5.5077     7.0679     4.5652     2.9779     4.0302     4.1791     5.1521     0.933      57.3539   
2961.6     5.221      5.2176     6.8392     5.1219     3.0564     3.9716     4.1278     5.5966     0.923      57.1283   
2961.8     5.1366     5.339      7.2475     5.2539     3.1185     3.9065     4.1412     5.8768     0.935      56.727    
2962       5.2041     5.1028     6.6465     5.1026     3.0499     3.848      4.122      5.9928     0.926      56.5498   
2962.2     5.3257     4.9746     6.1859     4.7132     2.9485     3.7504     4.2216     6.0057     0.925      56.8845   
2962.4     5.4236     4.9746     5.9475     4.5427     2.9321     3.6593     4.3837     6.1539     0.926      57.6682   
2962.6     5.579      5.0792     5.9377     4.4525     2.9943     3.6202     4.358      6.3697     0.926      58.5164   
2962.8     5.7343     5.1231     5.9899     4.3689     3.1414     3.5812     4.648      6.5726     0.93       58.9753   
2963       5.9539     5.1906     6.1043     4.2981     3.2297     3.5421     4.9054     6.695      0.93       58.9354   
2963.2     6.17       5.3154     6.199      4.2434     3.3278     3.5421     4.9695     6.8657     0.925      58.5883   
2963.4     6.5043     5.5685     6.506      4.2112     3.802      3.5877     5.0663     7.1073     0.913      58.0448   
2963.6     6.7272     5.6764     6.7641     4.2691     4.1126     3.7113     5.1819     7.2716     0.903      57.3298   
2963.8     6.9231     5.7507     7.0385     4.4493     4.3579     3.8154     5.4049     7.7161     0.901      56.6185   
2964       7.0244     6.1522     7.8388     4.8741     4.626      3.9326     5.8328     8.0608     0.905      56.0413   
2964.2     7.1832     6.4052     8.2765     5.1509     4.7928     4.0106     5.7971     8.1284     0.906      55.545    
2964.4     7.4331     6.4187     8.2046     5.2024     4.747      4.0757     5.7417     8.1896     0.906      55.2118   
2964.6     7.5884     6.5503     8.2993     5.2153     4.662      4.1278     5.6913     8.1284     0.906      55.2543   
2964.8     7.6729     6.6178     8.4594     5.344      4.7241     4.1408     5.9148     8.0447     0.911      55.6372   
2965       7.8518     6.8742     8.9102     5.4502     4.7405     4.3099     6.0315     8.0962     0.93       56.0768   
2965.2     8.2808     6.5942     8.6586     5.4888     4.7699     4.7459     5.7763     8.5021     0.933      56.3394   
2965.4     8.5138     6.3816     8.5737     5.817      5.3683     5.0257     5.7211     9.8904     0.937      56.3033   
2965.6     8.6117     7.4444     10.661     6.4671     6.0452     5.4682     6.5865     11.0661    0.963      55.9547   
2965.8     9.3817     7.2723     10.1612    7.0142     6.4703     5.9431     6.4222     12.0131    0.926      55.363    
2966       10.0538    7.4781     10.4062    7.188      6.745      6.288      7.6665     12.3706    0.926      54.5879   
2966.2     10.3915    8.4195     11.4482    7.5709     6.9576     6.327      8.8117     11.6233    0.945      53.7949   
2966.4     11.2696    8.8041     11.5985    7.645      6.7614     6.776      8.3345     10.2672    0.935      53.3094   
2966.6     11.4148    8.6928     11.6605    7.9861     7.1603     6.789      7.7331     10.0031    0.943      53.4283   
2966.8     10.638     9.8703     14.9172    8.7617     7.7031     6.6654     10.4767    9.9226     0.95       54.0679   
2967       10.2429    10.643     16.4492    9.0481     7.4644     6.5873     6.9995     9.0561     0.94       54.6512   
2967.2     10.0639    9.3946     15.1361    8.1438     6.2447     6.3531     6.6102     7.8546     0.926      54.669    
2967.4     9.6688     8.5781     13.9308    7.4068     5.4599     5.7675     6.1512     7.278      0.92       54.1808   
2967.6     9.3716     7.8797     13.0586    7.1397     5.0642     5.4812     6.2368     7.1846     0.908      53.6527   
2967.8     9.3378     7.7683     12.9998    7.3489     4.8974     5.761      6.3536     7.3231     0.906      53.4894   
2968       9.554      7.2959     12.2877    8.0215     5.1558     6.0733     5.7074     8.0575     0.9        53.5992   
2968.2     9.0811     7.2993     13.0651    9.3087     5.9046     6.2099     6.5289     9.4877     0.91       53.6092   
2968.4     8.8785     8.7771     14.8944    10.9371    6.4932     6.2099     9.2122     9.9258     0.923      53.4364   
2968.6     9.1149     8.7839     13.689     10.921     5.9929     6.1058     7.0677     9.1624     0.937      53.3091   
2968.8     8.9393     8.4161     12.0721    9.7786     5.2931     5.5462     6.114      8.3797     0.937      53.4747   
2969       8.6218     7.991      11.3241    8.9451     4.8222     4.9997     6.0181     7.8772     0.94       54.0366   
2969.2     8.3821     7.657      11.3666    8.6651     4.6064     4.6678     5.9805     7.6001     0.937      54.9283   
2969.4     8.068      7.4343     11.752     8.2339     4.5606     4.4596     5.8233     7.4455     0.926      55.9236   
2969.6     7.8046     7.4343     11.7193    7.7994     4.5345     4.3034     5.799      7.3199     0.933      56.7044   
2969.8     7.71       7.1677     11.0432    7.4358     4.5999     4.1278     5.0858     7.3199     0.93       56.9263   
