~Version
 VERS              .         2.0                           : CWLS LOG ASCII STANDARD - VERSION 2.0
 WRAP              .         NO                            : ONE LINE PER DEPTH STEP
 DLM               .         SPACE                         : DELIMITING CHARACTER(SPACE TAB OR COMMA)
~Well Information
#_______________________________________________________________________________
#
#PARAMETER_NAME    .UNIT     VALUE                         : DESCRIPTION
#_______________________________________________________________________________
STRT               .m        2903                          : First reference value
STOP               .m        3130                          : Last reference value
STEP               .m        0.2                           : Step increment
NULL               .         -9999                         : Missing value
COMP               .                                       : Company
WELL               .         304                           : Well name
FLD                .                                       : Field
LOC                .                                       : Location
CNTY               .                                       : County
STAT               .                                       : State
CTRY               .                                       : Country
SRVC               .                                       : Service Company
DATE               .                                       : Date
API                .                                       : API number
EREF               .m        138.34                        : 
Pad                .         3                             : 
X                  .m        219750                        : 
Y                  .m        249950                        : 
group              .         Pad3                          : 
Интер-р            .         Старостина                    : 
Куст               .         3                             : 
Статус             .         Не проверено                  : 
Тип                .         Эксплуатация                  : 
~Parameter Information Block
#_______________________________________________________________________________
#
#PARAMETER_NAME    .UNIT     VALUE                         : DESCRIPTION
#_______________________________________________________________________________
SET                .         LAS3                          : 
REAL_CREATION_DATE .         Ср апр 11 2012-13_17_09       : 
TLFamily_DEPTH     .         Measured Depth                : 
TLFamily_KS        .         Potential Resistivity         : 
TLFamily_KS1       .         Extra Shallow Resistivity     : 
TLFamily_KS2       .         Shallow Resistivity           : 
TLFamily_KS3       .         Medium Resistivity            : 
TLFamily_KS4       .         Deep Resistivity              : 
TLFamily_KS5       .         Extra Deep Resistivity        : 
TLFamily_LLD       .         Lateral Log Resistivity       : 
TLFamily_OKS3      .         Medium Resistivity Inverted   : 
TLFamily_RM        .         Mud Resistivity               : 
TLFamily_SP        .         Spontaneous Potential         : 
group              .         INI                           : 
~Curve Information
#_______________________________________________________________________________
#
#LOGNAME           .UNIT     LOG_ID                        : DESCRIPTION
#_______________________________________________________________________________
DEPTH              .m                                      : Measured Depth 
KS                 .ohm.m                                  : Potential Resistivity 
KS1                .ohm.m                                  : Extra Shallow Resistivity 
KS2                .ohm.m                                  : Shallow Resistivity 
KS3                .ohm.m                                  : Medium Resistivity 
KS4                .ohm.m                                  : Deep Resistivity 
KS5                .ohm.m                                  : Extra Deep Resistivity 
LLD                .ohm.m                                  : Lateral Log Resistivity 
OKS3               .ohm.m                                  : Medium Resistivity Inverted 
RM                 .ohm.m                                  : Mud Resistivity 
SP                 .mV                                     : Spontaneous Potential 
~Ascii
# ...
3063.8     10.9791    10.4338    15.4333    8.2114     4.0603     4.6093     7.0555     6.7916     0.856      4.6771    
3064       11.0501    10.3224    15.1394    7.8895     3.972      4.5962     6.9659     6.6467     0.851      3.9055    
3064.2     11.1649    10.2819    15.1459    7.6482     3.9262     4.5182     7.1553     6.5436     0.841      2.9402    
3064.4     11.3067    10.3494    15.4431    7.4583     3.9099     4.4661     7.5159     6.3729     0.849      1.9981    
3064.6     11.5431    10.346     15.4529    7.3231     3.9099     4.4141     7.4915     6.17       0.859      1.3904    
3064.8     11.6647    10.6193    15.7273    7.2395     3.9262     4.349      7.7374     5.9703     0.853      1.0959    
3065       11.6174    10.869     16.1422    7.2491     3.9491     4.2774     7.697      5.8768     0.853      0.9518    
3065.2     11.4553    11.1254    16.655     7.291      3.9524     4.2058     7.7547     5.7995     0.843      0.9729    
3065.4     11.094     11.2132    17.0437    7.3489     3.9066     4.0887     7.5046     5.7222     0.841      1.2793    
3065.6     10.6583    11.3076    17.354     7.3585     3.8314     3.9716     7.3232     5.6159     0.858      1.7025    
3065.8     10.2091    10.9905    16.8673    7.2298     3.7202     3.8545     6.6695     5.5837     0.854      1.8636    
3066       9.8174     10.5316    16.2173    7.0239     3.609      3.7699     6.3227     5.6578     0.853      1.738     
3066.2     9.402      10.174     15.5999    6.8372     3.5306     3.6723     6.2127     5.7544     0.836      1.6791    
3066.4     9.0913     9.8906     15.1132    6.6827     3.439      3.5942     6.021      5.8253     0.846      1.9083    
3066.6     8.8481     9.7016     14.4175    6.5057     3.3442     3.5356     5.7616     6.0282     0.859      2.2648    
3066.8     8.7704     9.4418     13.6106    6.2322     3.2362     3.5031     5.7682     6.2795     0.856      2.4276    
3067       8.9427     8.902      12.3988    5.8911     3.1283     3.4641     5.6273     6.5372     0.839      2.2429    
3067.2     9.2939     8.7265     11.8827    5.6143     3.0695     3.4511     6.3054     6.6435     0.846      1.82      
3067.4     9.7161     8.8986     11.8859    5.5049     3.0924     3.4641     6.8358     6.608      0.853      1.4597    
3067.6     10.1382    9.2259     12.1081    5.4663     3.1349     3.4966     7.0746     6.4663     0.859      1.4361    
3067.8     10.3712    9.8096     12.549     5.447      3.1774     3.5291     7.2597     6.2763     0.839      1.7148    
3068       10.5063    10.0458    13.1239    5.418      3.2003     3.5812     6.8577     6.1796     0.854      2.1343    
3068.2     10.4725    10.093     13.7021    5.447      3.2526     3.6267     7.0676     6.1217     0.853      2.626     
3068.4     10.2564    10.3089    14.6135    5.5113     3.2853     3.6658     6.6964     6.0927     0.839      2.9934    
3068.6     10.378     10.2819    14.8878    5.5467     3.3115     3.6983     6.1145     6.1764     0.856      3.1085    
3068.8     10.5468    9.5329     14.1921    5.5371     3.3278     3.6983     6.841      6.0862     0.861      3.1922    
3069       10.7866    9.6578     14.3521    5.6497     3.3147     3.6853     7.8613     5.8156     0.856      3.496     
3069.2     10.8643    10.3629    15.0577    5.9007     3.2755     3.6658     7.6669     5.4452     0.858      4.1476    
3069.4     10.4759    11.0006    15.515     6.1292     3.2035     3.6202     6.8977     5.1714     0.851      5.1358    
3069.6     9.8579     11.1018    15.466     6.2676     3.112      3.5877     6.639      5.0587     0.843      6.1743    
3069.8     9.3817     10.5181    15.6914    6.2547     3.0172     3.5812     5.8324     5.0394     0.863      6.9161    
3070       9.0339     9.7488     14.7996    6.0842     2.9158     3.6007     5.9239     5.0297     0.859      7.2312    
3070.2     8.9967     9.2326     13.9569    5.817      2.8438     3.6593     5.9134     4.9717     0.841      7.2362    
3070.4     9.0035     9.0471     13.0717    5.6883     2.87       3.7373     6.0007     5.0458     0.856      7.2418    
3070.6     8.9461     9.074      12.5915    5.6561     2.9452     3.848      6.0363     5.2809     0.856      7.5119    
3070.8     8.7975     9.1955     12.3073    5.6754     3.0466     3.9195     6.0909     5.558      0.853      7.8816    
3071       8.6421     9.2158     12.2452    5.7591     3.112      3.9586     5.8524     5.6997     0.849      7.9113    
3071.2     8.4969     8.9661     11.9774    5.7495     3.1381     3.9651     5.6004     5.6965     0.859      7.5458    
3071.4     8.328      8.6321     11.5854    5.5467     3.1087     3.9521     5.5483     5.6739     0.853      7.0851    
3071.6     8.0646     8.6321     11.4123    5.3021     3.0597     3.9326     5.4919     5.7867     0.853      6.7301    
3071.8     7.7607     8.4127     11.0889    5.0962     3.0531     3.9326     5.3256     5.8704     0.844      6.6369    
3072       7.4668     8.2204     10.8341    4.9321     3.1218     3.913      5.2525     5.9928     0.869      7.036     
3072.2     6.9974     8.1732     10.5891    4.916      3.2134     3.8089     5.1288     6.1249     0.863      7.968     
3072.4     6.8353     8.0821     10.2266    4.7679     3.1676     3.6658     4.1281     6.4019     0.859      9.3265    
3072.6     6.8893     6.9788     8.5247     4.385      2.9256     3.5161     4.0883     7.0526     0.846      11.4657   
3072.8     7.2068     6.2939     7.646      3.9248     2.6574     3.4315     4.9781     7.9126     0.849      15.2925   
3073       7.3723     6.6043     7.7963     3.9505     2.6738     3.4576     6.131      8.9595     0.876      21.3117   
3073.2     7.2676     7.9168     8.4986     4.1983     2.955      3.6072     4.4682     10.5088    0.871      28.7837   
3073.4     7.3014     7.5625     8.0739     4.4075     3.197      3.9586     4.2676     12.0517    0.878      35.8963   
3073.6     7.7066     6.4187     7.3749     4.4912     3.4259     4.3555     4.5089     13.3112    0.849      41.2152   
3073.8     8.2909     5.5718     7.4958     4.8194     3.7627     4.6223     5.4604     14.6189    0.869      44.7086   
3074       8.7333     7.3162     9.4132     5.2925     4.2009     5.0257     7.7595     16.0266    0.898      46.9285   
3074.2     9.4695     7.4916     9.3773     5.4888     4.371      5.5332     6.0444     18.0108    0.883      47.6979   
3074.4     10.1821    7.964      9.5047     5.3633     4.4233     6.5418     5.5455     21.525     0.886      46.5169   
3074.6     12.6002    7.1036     8.7142     5.2732     4.7535     7.5308     5.5395     26.7529    0.859      43.9077   
3074.8     15.7106    5.5786     7.8453     5.4051     5.5678     8.6435     7.4855     28.4826    0.874      41.2265   
3075       20.8203    6.5537     9.7464     6.0616     6.5259     9.7041     28.8217    24.4466    0.9        39.4264   
3075.2     26.6628    10.1605    13.3265    7.2684     7.2617     10.7191    89.8667    18.3458    0.906      38.7323   
3075.4     28.8985    16.5711    20.5813    8.8035     7.9876     11.4219    32.5188    14.8605    0.873      39.2002   
3075.6     26.7202    21.0923    27         10.7022    8.8411     11.8578    25.8383    13.1759    0.903      40.9108   
3075.8     23.468     22.9513    36.9366    12.2855    8.8607     12.6712    15.4102    13.3241    0.891      43.7265   
3076       21.3505    18.6427    39.9712    12.6717    8.3931     14.3499    9.3822     15.0667    0.896      46.8723   
3076.2     19.7294    15.1135    38.106     13.0032    8.8803     16.3345    8.9729     19.1768    0.868      49.3024   
3076.4     19.3309    12.7146    35.1368    14.1778    10.2603    18.8721    13.5438    24.2758    0.885      50.788    
3076.6     18.8885    12.4885    33.5264    17.3091    11.7972    20.8957    19.1348    27.0557    0.906      51.8885   
3076.8     18.0375    15.7613    38.3477    20.9166    12.3106    21.3837    23.3803    27.6838    0.913      53.0313   
3077       16.3691    17.6137    36.3127    25.4768    11.3754    19.6399    10.3034    25.648     0.861      54.2187   
