~Version
 VERS              .         2.0                           : CWLS LOG ASCII STANDARD - VERSION 2.0
 WRAP              .         NO                            : ONE LINE PER DEPTH STEP
 DLM               .         SPACE                         : DELIMITING CHARACTER(SPACE TAB OR COMMA)
~Well Information
#_______________________________________________________________________________
#
#PARAMETER_NAME    .UNIT     VALUE                         : DESCRIPTION
#_______________________________________________________________________________
STRT               .m        2903                          : First reference value
STOP               .m        3130                          : Last reference value
STEP               .m        0.2                           : Step increment
NULL               .         -9999                         : Missing value
COMP               .                                       : Company
WELL               .         304                           : Well name
FLD                .                                       : Field
LOC                .                                       : Location
CNTY               .                                       : County
STAT               .                                       : State
CTRY               .                                       : Country
SRVC               .                                       : Service Company
DATE               .                                       : Date
API                .                                       : API number
EREF               .m        138.34                        : 
Pad                .         3                             : 
X                  .m        219750                        : 
Y                  .m        249950                        : 
group              .         Pad3                          : 
Интер-р            .         Старостина                    : 
Куст               .         3                             : 
Статус             .         Не проверено                  : 
Тип                .         Эксплуатация                  : 
~Parameter Information Block
#_______________________________________________________________________________
#
#PARAMETER_NAME    .UNIT     VALUE                         : DESCRIPTION
#_______________________________________________________________________________
SET                .         LAS5                          : 
REAL_CREATION_DATE .         Ср апр 11 2012-13_17_10       : 
TLFamily_DEPTH     .         Measured Depth                : 
TLFamily_GR        .         Gamma Ray                     : 
TLFamily_TNPH      .         Neutron Porosity              : 
group              .         INI                           : 
~Curve Information
#_______________________________________________________________________________
#
#LOGNAME           .UNIT     LOG_ID                        : DESCRIPTION
#_______________________________________________________________________________
DEPTH              .m                                      : Measured Depth 
GR                 .gAPI                                   :  
TNPH               .v/v                                    : Neutron Porosity 
~Ascii
2903.0     83.44      0.269     
2903.2     86.44      0.251     
2903.4     93.7       0.234     
2903.6     95.92      0.253     
2903.8     92.74001   0.249     
2904       91.41      0.247     
2904.2     90.99      0.267     
2904.4     89.08      0.268     
2904.6     86.91      0.276     
2904.8     90.60001   0.286     
2905       91.75      0.278     
2905.2     91.77      0.267     
2905.4     91.56      0.277     
2905.6     88.83      0.272     
2905.8     90.74001   0.262     
2906       89.5       0.276     
2906.2     89.44      0.267     
2906.4     90.85      0.258     
2906.6     90.78      0.285     
2906.8     90.53001   0.266     
2907       86.17      0.251     
2907.2     86.91      0.265     
2907.4     94.18999   0.268     
2907.6     95.28      0.264     
2907.8     92.31      0.256     
2908       94.8       0.274     
2908.2     92.88      0.278     
2908.4     87.72      0.283     
2908.6     85.53001   0.283     
2908.8     86.56      0.266     
2909       87.56      0.268     
2909.2     86.77      0.257     
2909.4     85.89      0.271     
2909.6     90.53001   0.28      
2909.8     97.08      0.26      
2910       92.53999   0.25      
2910.2     88.41      0.255     
2910.4     82.31      0.257     
2910.6     84.89      0.266     
2910.8     92.67      0.278     
2911       92.2       0.274     
2911.2     92.2       0.263     
2911.4     93.61      0.265     
2911.6     94.89999   0.279     
2911.8     92.37      0.302     
2912       94.22      0.302     
2912.2     96.44      0.278     
2912.4     100.61     0.257     
2912.6     100.86     0.259     
2912.8     99.71      0.27      
2913       98.83      0.27      
2913.2     98.4       0.287     
2913.4     103.2      0.264     
2913.6     103.21     0.254     
2913.8     96.00999   0.261     
2914       91.64      0.246     
2914.2     90.97      0.236     
2914.4     85.39      0.256     
2914.6     86.24      0.263     
2914.8     79.71      0.265     
2915       79.91      0.287     
2915.2     83.2       0.26      
2915.4     88.23      0.228     
2915.6     89.13      0.244     
2915.8     85.43999   0.269     
2916       83.73      0.258     
2916.2     79.88      0.248     
2916.4     79.55      0.258     
2916.6     85.13      0.264     
2916.8     87.47      0.262     
2917       83.00999   0.245     
2917.2     81.49001   0.241     
2917.4     84.41      0.241     
2917.6     85.25      0.249     
2917.8     90.38      0.256     
2918       90.7       0.237     
2918.2     89.41      0.249     
2918.4     83.84      0.273     
2918.6     81.94      0.261     
2918.8     83.03001   0.252     
2919       84.37      0.244     
2919.2     87.53999   0.253     
2919.4     91.19      0.259     
2919.6     90.3       0.267     
2919.8     84.53      0.268     
2920       81.6       0.267     
2920.2     82.59      0.261     
2920.4     81.75999   0.286     
2920.6     83.52      0.307     
2920.8     87.25      0.291     
2921       85.57999   0.296     
2921.2     85.27      0.306     
2921.4     84.87      0.281     
2921.6     87.67999   0.276     
2921.8     88.54      0.28      
2922       86.08      0.27      
2922.2     89.89      0.27      
2922.4     93.44      0.273     
2922.6     91.22      0.265     
2922.8     89.18      0.255     
2923       88.84      0.248     
2923.2     92.83      0.244     
2923.4     98.18      0.241     
2923.6     100.36     0.253     
2923.8     100.55     0.284     
2924       98.55      0.288     
2924.2     97.39      0.269     
2924.4     103.76     0.279     
2924.6     107.13     0.296     
2924.8     106.15     0.294     
2925       103.97     0.29      
2925.2     101.43     0.282     
2925.4     99.29      0.251     
2925.6     95.4       0.241     
2925.8     91.37      0.258     
2926       87.62      0.253     
2926.2     86.86      0.233     
2926.4     83.82      0.24      
2926.6     86.85001   0.251     
2926.8     91.82      0.242     
2927       91.53      0.237     
2927.2     87.53999   0.229     
2927.4     87.09      0.234     
2927.6     89.52      0.249     
2927.8     90.03      0.272     
2928       87.69      0.289     
2928.2     91.68      0.272     
2928.4     94.64      0.268     
2928.6     93.13      0.282     
2928.8     90.55      0.281     
2929       93.14999   0.279     
2929.2     95.71      0.268     
2929.4     98.14      0.253     
2929.6     99.24      0.26      
2929.8     97.45      0.256     
2930       91.79      0.243     
2930.2     87.55      0.236     
2930.4     88.05      0.233     
2930.6     87.72      0.234     
2930.8     84.11      0.24      
2931       82.11      0.246     
2931.2     82.64      0.244     
2931.4     85.3       0.24      
2931.6     85.23      0.242     
2931.8     87.02      0.241     
2932       87.77      0.233     
2932.2     89.89999   0.229     
2932.4     88.63      0.229     
2932.6     86.04      0.243     
2932.8     85.31      0.246     
2933       86.28      0.233     
2933.2     92.67999   0.237     
2933.4     98.82      0.243     
2933.6     96.68999   0.237     
2933.8     92.49      0.252     
2934       91.27      0.271     
2934.2     92.91      0.264     
2934.4     93.29001   0.261     
2934.6     87.93999   0.264     
2934.8     85.9       0.263     
2935       92.17      0.26      
2935.2     94.23      0.268     
2935.4     92.88      0.285     
2935.6     91.34      0.291     
2935.8     89.84      0.279     
2936       90.81001   0.264     
2936.2     90.60001   0.255     
2936.4     92.79      0.256     
2936.6     95.74001   0.249     
2936.8     95.8       0.239     
2937       93.10001   0.24      
2937.2     89.29      0.236     
2937.4     86.68      0.235     
2937.6     88.33      0.238     
2937.8     86.82999   0.234     
2938       88.86      0.251     
2938.2     88.28      0.258     
2938.4     88.83      0.229     
2938.6     90.21      0.236     
2938.8     99.13      0.255     
2939       101.52     0.267     
2939.2     95.73      0.289     
2939.4     90.29      0.277     
2939.6     90.82      0.258     
2939.8     91.34      0.244     
2940       93.17001   0.242     
2940.2     96.52      0.266     
2940.4     94.7       0.284     
2940.6     90.71999   0.269     
2940.8     92.47      0.261     
2941       89.94      0.263     
2941.2     86.44      0.265     
2941.4     87.92      0.262     
2941.6     87.98      0.259     
2941.8     85.86      0.253     
2942       85.9       0.261     
2942.2     82.85      0.273     
2942.4     83.06      0.262     
2942.6     79.09      0.256     
2942.8     83.77      0.279     
2943       91.87      0.276     
2943.2     91.36      0.26      
2943.4     90.24001   0.269     
2943.6     90.66      0.271     
2943.8     89.69      0.256     
2944       87.29      0.251     
2944.2     84.17      0.255     
2944.4     86.17      0.267     
2944.6     88.77      0.268     
2944.8     88.61      0.272     
2945       89.31      0.268     
2945.2     90.17999   0.261     
2945.4     93.83      0.266     
2945.6     96.96      0.269     
2945.8     88.52      0.256     
2946       82.81999   0.251     
2946.2     86.42999   0.247     
2946.4     91.02      0.238     
2946.6     93.18      0.243     
2946.8     90.87      0.252     
2947       93.52      0.262     
2947.2     93.92999   0.267     
2947.4     88.28      0.264     
2947.6     82.99      0.254     
2947.8     80.53001   0.251     
2948       82.13      0.255     
2948.2     83.94      0.249     
2948.4     84.88      0.246     
2948.6     85.53001   0.25      
2948.8     82.74001   0.261     
2949       85.39      0.266     
2949.2     89.46999   0.264     
2949.4     90.7       0.269     
2949.6     91.48      0.262     
2949.8     86.2       0.257     
2950       82.57      0.265     
2950.2     87.32001   0.251     
2950.4     89.25      0.241     
2950.6     86.56      0.252     
2950.8     86.02      0.248     
2951       87.58      0.241     
2951.2     90.11      0.251     
2951.4     88.54      0.272     
