~Version
 VERS              .         2.0                           : CWLS LOG ASCII STANDARD - VERSION 2.0
 WRAP              .         NO                            : ONE LINE PER DEPTH STEP
 DLM               .         SPACE                         : DELIMITING CHARACTER(SPACE TAB OR COMMA)
~Well Information
#_______________________________________________________________________________
#
#PARAMETER_NAME    .UNIT     VALUE                         : DESCRIPTION
#_______________________________________________________________________________
STRT               .m        2903                          : First reference value
STOP               .m        3130                          : Last reference value
STEP               .m        0.2                           : Step increment
NULL               .         -9999                         : Missing value
COMP               .                                       : Company
WELL               .         304                           : Well name
FLD                .                                       : Field
LOC                .                                       : Location
CNTY               .                                       : County
STAT               .                                       : State
CTRY               .                                       : Country
SRVC               .                                       : Service Company
DATE               .                                       : Date
API                .                                       : API number
EREF               .m        138.34                        : 
Pad                .         3                             : 
X                  .m        219750                        : 
Y                  .m        249950                        : 
group              .         Pad3                          : 
Интер-р            .         Старостина                    : 
Куст               .         3                             : 
Статус             .         Не проверено                  : 
Тип                .         Эксплуатация                  : 
~Parameter Information Block
#_______________________________________________________________________________
#
#PARAMETER_NAME    .UNIT     VALUE                         : DESCRIPTION
#_______________________________________________________________________________
SET                .         LAS3                          : 
REAL_CREATION_DATE .         Ср апр 11 2012-13_17_09       : 
TLFamily_DEPTH     .         Measured Depth                : 
TLFamily_KS        .         Potential Resistivity         : 
TLFamily_KS1       .         Extra Shallow Resistivity     : 
TLFamily_KS2       .         Shallow Resistivity           : 
TLFamily_KS3       .         Medium Resistivity            : 
TLFamily_KS4       .         Deep Resistivity              : 
TLFamily_KS5       .         Extra Deep Resistivity        : 
TLFamily_LLD       .         Lateral Log Resistivity       : 
TLFamily_OKS3      .         Medium Resistivity Inverted   : 
TLFamily_RM        .         Mud Resistivity               : 
TLFamily_SP        .         Spontaneous Potential         : 
group              .         INI                           : 
~Curve Information
#_______________________________________________________________________________
#
#LOGNAME           .UNIT     LOG_ID                        : DESCRIPTION
#_______________________________________________________________________________
DEPTH              .m                                      : Measured Depth 
KS                 .ohm.m                                  : Potential Resistivity 
KS1                .ohm.m                                  : Extra Shallow Resistivity 
KS2                .ohm.m                                  : Shallow Resistivity 
KS3                .ohm.m                                  : Medium Resistivity 
KS4                .ohm.m                                  : Deep Resistivity 
KS5                .ohm.m                                  : Extra Deep Resistivity 
LLD                .ohm.m                                  : Lateral Log Resistivity 
OKS3               .ohm.m                                  : Medium Resistivity Inverted 
RM                 .ohm.m                                  : Mud Resistivity 
SP                 .mV                                     : Spontaneous Potential 
~Ascii
# ...
3077.2     14.1334    16.3518    32.1904    28.0931    8.9        16.5036    8.0334     21.2222    0.874      55.13     
3077.4     13.1946    13.8145    28.4895    25.0198    6.3461     11.8318    6.5786     16.7417    0.896      55.4167   
3077.6     13.0899    9.7927     21.264     19.0147    4.0832     8.2986     7.0511     12.7153    0.883      55.1824   
3077.8     13.225     8.4532     17.4357    13.3218    2.6607     5.2729     7.1679     10.7117    0.878      54.8095   
3078       13.073     8.1057     15.3059    10.8374    2.1669     3.8805     7.9879     11.0628    0.859      54.3854   
3078.2     12.6981    8.6051     15.613     9.8269     2.0917     3.1908     8.6563     11.8101    0.891      53.5132   
3078.4     11.7289    9.3642     17.7133    10.9339    2.3893     2.8004     8.687      11.2207    0.886      51.8193   
3078.6     10.763     11.0343    21.6005    12.5044    2.6902     2.475      8.0491     8.8532     0.901      49.711    
3078.8     10.8947    9.1213     16.2761    13.0128    2.6051     2.2278     6.6966     6.4792     0.864      47.9261   
3079       11.3945    7.4545     12.144     10.8406    2.301      1.8959     6.3911     5.3164     0.881      46.387    
3079.2     11.408     7.3837     11.4156    9.8494     2.4743     1.5771     8.4588     5.2874     0.893      44.7147   
3079.4     11.7187    7.7379     11.5103    9.7175     2.8177     1.499      9.0168     5.6385     0.885      43.5724   
3079.6     11.8504    8.0618     11.5103    9.6981     3.1349     1.5511     10.3059    6.0798     0.868      44.1527   
3079.8     12.0058    8.4802     12.0035    9.9781     3.7496     1.8894     8.6018     7.0912     0.869      46.3499   
3080       11.918     8.4532     12.095     11.3491    5.1656     2.6767     8.2872     9.098      0.896      48.764    
3080.2     11.2831    8.099      13.2938    15.803     9.4886     3.9326     8.0691     13.0213    0.883      50.2691   
3080.4     9.4256     9.155      19.4185    25.7053    18.7919    4.4531     9.644      21.6603    0.888      50.6902   
3080.6     8.0815     11.6315    29.2996    34.5359    27.8695    4.5832     10.1975    25.6062    0.866      50.3919   
3080.8     8.686      9.5734     21.7279    31.7876    29.6321    4.4336     6.3645     22.5107    0.89       49.7672   
3081       9.2905     8.1327     14.0875    20.5112    20.4955    3.5552     6.0521     15.0635    0.895      49.1727   
3081.2     9.2703     7.6333     10.9844    13.4473    14.5702    2.2928     6.5044     10.0643    0.891      49.1406   
3081.4     9.0913     7.6097     10.2952    9.3055     10.8685    1.5836     6.6103     8.7565     0.873      49.7052   
3081.6     8.811      7.7413     11.7977    7.4133     8.4749     1.2518     6.6544     8.4409     0.859      49.5299   
3081.8     8.7299     7.9438     12.8463    6.2451     6.709      1.0566     6.6926     8.283      0.888      46.896    
3082       8.7873     7.5557     11.9905    5.4984     5.1165     0.8939     6.178      8.1091     0.893      41.4593   
3082.2     8.7806     7.4545     11.4678    5.0189     4.0047     0.7833     6.9673     8.2508     0.89       34.4337   
3082.4     8.919      7.9505     11.9839    5.0543     3.3311     0.7247     7.3457     8.2959     0.873      27.68     
3082.6     9.2601     8.045      11.4286    5.5113     2.7556     0.6922     7.2601     8.0608     0.856      22.582    
3082.8     9.6924     8.352      10.9485    6.6666     2.3403     0.6596     7.1678     7.7548     0.871      18.9511   
3083       10.1179    8.0652     9.9652     7.41       2.0721     0.6662     6.4489     7.9255     0.874      15.6323   
3083.2     10.4894    8.1428     10.3376    7.1558     1.8301     0.6987     7.9095     8.3764     0.88       12.3754   
3083.4     11.6411    8.099      10.2592    6.7728     1.6503     0.7442     8.3612     8.6277     0.873      9.8989    
3083.6     13.127     7.9707     10.269     6.3384     1.5653     0.7898     9.0156     8.7887     0.856      8.6114    
3083.8     14.4104    8.9323     11.1771    6.3931     1.6339     0.8223     11.7857    8.7726     0.874      8.5176    
3084       15.0115    10.508     12.7646    6.834      1.804      0.8744     13.9195    8.6084     0.88       9.869     
3084.2     14.6636    12.2996    15.7012    7.3682     2.1277     0.9785     13.4159    8.283      0.888      13.1056   
3084.4     13.5323    13.359     18.1641    7.8155     2.5757     1.0501     10.4855    8.2444     0.866      17.9799   
3084.6     12.303     12.9643    19.2486    8.0344     3.2951     1.1216     8.8118     8.5955     0.886      23.4033   
3084.8     11.2459    10.9432    18.1543    8.0215     4.8418     1.2518     7.1638     9.2912     0.89       28.5211   
3085       10.7495    9.57       16.9392    7.8702     6.3068     1.46       7.3309     10.016     0.891      33.3932   
3085.2     10.7326    8.5646     14.8454    7.7769     7.072      1.7788     7.0383     10.934     0.871      38.3313   
3085.4     10.9015    7.9674     12.8038    7.8702     7.5723     2.1302     7.5885     11.9905    0.906      43.1158   
3085.6     11.1851    7.7886     11.8206    8.1953     8.0726     2.5401     7.8995     13.076     0.91       47.4329   
3085.8     11.614     7.8088     11.4286    8.5267     8.3996     2.8524     8.3016     14.0456    0.881      50.9177   
3086       12.0463    8.0011     11.556     8.7584     8.6416     3.0672     8.7202     15.0957    0.905      53.3645   
3086.2     12.3233    8.5477     12.2191    8.958      8.7234     3.2168     8.4955     16.2102    0.89       55.0276   
3086.4     12.6947    8.7029     12.5654    8.9805     8.7005     3.373      9.2378     16.922     0.913      56.0627   
3086.6     13.0291    8.7029     12.8822    8.7488     8.5599     3.5161     9.6879     17.4567    0.91       56.4008   
3086.8     13.4175    8.8885     13.4996    8.5171     8.38       3.7569     9.7185     17.9077    0.883      56.2972   
3087       13.6066    9.2326     13.9471    8.4205     8.1838     4.1082     9.7921     18.3876    0.91       56.3503   
3087.2     13.6741    9.3743     14.4861    8.5074     8.0857     4.7654     9.9353     19.4699    0.903      56.842    
3087.4     13.7619    9.3946     14.8062    8.6072     8.0628     5.6373     9.5653     21.2061    0.885      57.5052   
3087.6     13.7383    9.3946     14.9532    8.7134     8.3441     7.5308     9.2392     24.0149    0.906      57.8494   
3087.8     13.7045    9.2023     14.9042    9.0481     9.348      11.0119    8.5094     28.7339    0.911      57.6451   
3088       13.8497    8.8345     14.6461    9.8494     11.4931    19.6269    8.484      36.9896    0.903      56.8694   
3088.2     15.2276    8.3756     14.3031    11.4392    17.6571    28.2679    7.1258     51.5104    0.888      55.2806   
3088.4     17.9632    6.638      13.542     15.597     27.6962    38.477     12.2479    72.9926    0.91       52.6471   
3088.6     22.7723    7.0058     15.466     19.6133    35.7438    47.3327    20.2267    85.811     0.92       49.2576   
3088.8     31.222     9.0707     16.9392    22.7092    38.1799    57.3294    52.2533    84.5975    0.923      45.7976   
3089       36.9194    14.4522    21.6789    24.064     37.0518    63.1678    65.838     70.4895    0.898      42.8375   
3089.2     40.6714    18.97      26.8693    24.4502    33.9027    69.6208    40.5101    54.7017    0.901      40.8968   
3089.4     42.4107    16.5643    25.1446    22.9119    29.3639    69.0063    27.1445    41.7794    0.859      40.2723   
3089.6     41.8906    20.4579    44.4463    22.1943    25.3941    61.9387    28.246     36.5644    0.926      41.0162   
3089.8     39.6346    21.5275    54.5876    23.916     25.1423    53.4884    34.2599    36.3325    0.903      42.9665   
3090       40.3506    19.9451    55.802     23.0213    21.797     50.2933    44.6742    34.271     0.868      45.7222   
3090.2     40.1682    16.1898    45.926     24.624     18.612     43.6239    51.8724    28.7983    0.846      48.7088   
3090.4     35.3692    21.1665    70.351     31.7007    18.3766    35.3733    27.5951    26.2762    0.866      51.5353   
