~Version
 VERS              .         2.0                           : CWLS LOG ASCII STANDARD - VERSION 2.0
 WRAP              .         NO                            : ONE LINE PER DEPTH STEP
 DLM               .         SPACE                         : DELIMITING CHARACTER(SPACE TAB OR COMMA)
~Well Information
#_______________________________________________________________________________
#
#PARAMETER_NAME    .UNIT     VALUE                         : DESCRIPTION
#_______________________________________________________________________________
STRT               .m        2903                          : First reference value
STOP               .m        3130                          : Last reference value
STEP               .m        0.2                           : Step increment
NULL               .         -9999                         : Missing value
COMP               .                                       : Company
WELL               .         304                           : Well name
FLD                .                                       : Field
LOC                .                                       : Location
CNTY               .                                       : County
STAT               .                                       : State
CTRY               .                                       : Country
SRVC               .                                       : Service Company
DATE               .                                       : Date
API                .                                       : API number
EREF               .m        138.34                        : 
Pad                .         3                             : 
X                  .m        219750                        : 
Y                  .m        249950                        : 
group              .         Pad3                          : 
Интер-р            .         Старостина                    : 
Куст               .         3                             : 
Статус             .         Не проверено                  : 
Тип                .         Эксплуатация                  : 
~Parameter Information Block
#_______________________________________________________________________________
#
#PARAMETER_NAME    .UNIT     VALUE                         : DESCRIPTION
#_______________________________________________________________________________
SET                .         LAS5                          : 
REAL_CREATION_DATE .         Ср апр 11 2012-13_17_10       : 
TLFamily_DEPTH     .         Measured Depth                : 
TLFamily_GR        .         Gamma Ray                     : 
TLFamily_TNPH      .         Neutron Porosity              : 
group              .         INI                           : 
~Curve Information
#_______________________________________________________________________________
#
#LOGNAME           .UNIT     LOG_ID                        : DESCRIPTION
#_______________________________________________________________________________
DEPTH              .m                                      : Measured Depth 
GR                 .gAPI                                   :  
TNPH               .v/v                                    : Neutron Porosity 
~Ascii
# ...
3048.8     132.68     0.275     
3049       122.06     0.267     
3049.2     117.27     0.294     
3049.4     121.23     0.333     
3049.6     119.67     0.344     
3049.8     117.74     0.306     
3050       119.53     0.273     
3050.2     120.07     0.295     
3050.4     118.25     0.299     
3050.6     119.97     0.305     
3050.8     130.67     0.324     
3051       134.22     0.308     
3051.2     131.7      0.308     
3051.4     131.56     0.306     
3051.6     129.31     0.301     
3051.8     128.79     0.313     
3052       130.51     0.321     
3052.2     126.63     0.301     
3052.4     125.83     0.281     
3052.6     127.27     0.306     
3052.8     121.88     0.331     
3053       118.07     0.321     
3053.2     127.11     0.33      
3053.4     128.9      0.33      
3053.6     126.17     0.298     
3053.8     123.65     0.282     
3054       123.43     0.274     
3054.2     114.89     0.242     
3054.4     94.97      0.21      
3054.6     79.09      0.179     
3054.8     71.89      0.171     
3055       81.88      0.187     
3055.2     113.61     0.196     
3055.4     162.46     0.203     
3055.6     172.17     0.198     
3055.8     109.91     0.178     
3056       71.18      0.174     
3056.2     51.84      0.183     
3056.4     47.71      0.186     
3056.6     47.36      0.171     
3056.8     42.05      0.15      
3057       38.56      0.154     
3057.2     42.4       0.163     
3057.4     43.81      0.162     
3057.6     41.18      0.157     
3057.8     40.69      0.156     
3058       42.53      0.163     
3058.2     44.09      0.179     
3058.4     47.68      0.193     
3058.6     41.54      0.181     
3058.8     40.07      0.168     
3059       41.76      0.178     
3059.2     40.39      0.192     
3059.4     42.06      0.199     
3059.6     46.28      0.195     
3059.8     48.4       0.18      
3060       48.2       0.182     
3060.2     48.24      0.184     
3060.4     50.08      0.192     
3060.6     51.04      0.204     
3060.8     48.31      0.209     
3061       47.37      0.211     
3061.2     48.87      0.212     
3061.4     51.2       0.204     
3061.6     55.03      0.198     
3061.8     59.35      0.193     
3062       56.3       0.185     
3062.2     51.91      0.192     
3062.4     52.3       0.2       
3062.6     52.08      0.199     
3062.8     52.52      0.199     
3063       52.07      0.199     
3063.2     48.65      0.211     
3063.4     48.76      0.217     
3063.6     48.06      0.204     
3063.8     47         0.186     
3064       49.52      0.179     
3064.2     46.44      0.2       
3064.4     42.22      0.207     
3064.6     39.44      0.193     
3064.8     39.33      0.184     
3065       40.64      0.176     
3065.2     41.28      0.175     
3065.4     42.75      0.191     
3065.6     44.26      0.206     
3065.8     41.67      0.214     
3066       39.21      0.216     
3066.2     42.93      0.213     
3066.4     45.19      0.216     
3066.6     45.74      0.209     
3066.8     43.91      0.197     
3067       41.98      0.199     
3067.2     39.15      0.201     
3067.4     39.36      0.194     
3067.6     42.45      0.184     
3067.8     41.5       0.185     
3068       40.1       0.2       
3068.2     39.4       0.203     
3068.4     41.72      0.194     
3068.6     44.41      0.184     
3068.8     42.01      0.192     
3069       37.98      0.201     
3069.2     38.52      0.201     
3069.4     41.6       0.207     
3069.6     43.47      0.211     
3069.8     46.67      0.196     
3070       48.88      0.19      
3070.2     51.23      0.2       
3070.4     51.27      0.201     
3070.6     53.02      0.193     
3070.8     55.02      0.188     
3071       57.05      0.185     
3071.2     57.48      0.194     
3071.4     57.05      0.216     
3071.6     54.83      0.206     
3071.8     49.33      0.191     
3072       47.59      0.207     
3072.2     47.21      0.231     
3072.4     46.9       0.236     
3072.6     51.22      0.236     
3072.8     59.3       0.233     
3073       66.1       0.255     
3073.2     76.91      0.278     
3073.4     79.62      0.269     
3073.6     72.81      0.251     
3073.8     64.59      0.248     
3074       70.41      0.261     
3074.2     75.39      0.24      
3074.4     75.19      0.213     
3074.6     65.02      0.197     
3074.8     33.52      0.162     
3075       17.48      0.128     
3075.2     7.809999   0.12      
3075.4     17.87      0.141     
3075.6     35.03      0.178     
3075.8     63.16      0.213     
3076       78.14999   0.299     
3076.2     89.08      0.315     
3076.4     80.24001   0.295     
3076.6     67.67      0.29      
3076.8     51.71      0.286     
3077       70.01      0.312     
3077.2     117.36     0.311     
3077.4     126.22     0.286     
3077.6     119.97     0.295     
3077.8     105.88     0.314     
3078       98.50999   0.323     
3078.2     95.02      0.326     
3078.4     86.48      0.321     
3078.6     83.24001   0.271     
3078.8     86.93      0.239     
3079       90.41      0.257     
3079.2     85.08      0.251     
3079.4     81.07001   0.246     
3079.6     82.91      0.272     
3079.8     85.56      0.294     
3080       87.46001   0.296     
3080.2     92.67      0.319     
3080.4     92.19      0.317     
3080.6     91.17      0.263     
3080.8     92.27      0.225     
3081       90.3       0.226     
3081.2     93.45      0.234     
3081.4     101.03     0.251     
3081.6     111.58     0.27      
3081.8     111.49     0.245     
3082       97.99      0.224     
3082.2     80.08      0.229     
3082.4     69.65      0.246     
3082.6     68.50999   0.259     
3082.8     73.18      0.246     
3083       70.55      0.222     
3083.2     61.33      0.208     
3083.4     57.47      0.207     
3083.6     52.29      0.208     
3083.8     50.14      0.192     
3084       50.75      0.187     
3084.2     56.2       0.207     
3084.4     66.24      0.229     
3084.6     73.84      0.241     
3084.8     77.48      0.253     
3085       78.97      0.281     
3085.2     89.13      0.281     
3085.4     98.85001   0.264     
3085.6     101.58     0.265     
3085.8     103.86     0.267     
3086       102.36     0.274     
3086.2     96.62      0.29      
3086.4     94.01      0.29      
3086.6     96.64      0.309     
3086.8     100.02     0.319     
3087       99.32      0.301     
3087.2     101.08     0.293     
3087.4     106.59     0.283     
3087.6     107.78     0.271     
3087.8     106.77     0.273     
3088       96.94      0.296     
3088.2     73.7       0.366     
3088.4     34.91      0.417     
3088.6     11.34      0.435     
3088.8     4.260001   0.494     
3089       1.84       0.547     
3089.2     1.860001   0.572     
3089.4     2.079999   0.535     
3089.6     1.41       0.508     
3089.8     3.280001   0.51      
3090       12.98      0.538     
3090.2     30.85      0.487     
3090.4     65.16      0.415     
3090.6     84.52      0.444     
3090.8     85.89      0.454     
3091       90.17999   0.392     
3091.2     93.25      0.364     
3091.4     93.92999   0.342     
3091.6     97.12      0.32      
3091.8     100.39     0.29      
3092       95.71999   0.267     
3092.2     88.96      0.249     
3092.4     82.62      0.236     
3092.6     75.85      0.238     
3092.8     68.34      0.271     
3093       64.06999   0.354     
3093.2     65.87      0.42      
3093.4     75.75      0.394     
3093.6     95.03      0.313     
3093.8     107.09     0.28      
3094       111.41     0.246     
3094.2     113.29     0.245     
3094.4     115.88     0.246     
3094.6     116.2      0.232     
3094.8     108.74     0.234     
3095       97.02      0.239     
3095.2     94.12      0.24      
3095.4     93.21      0.251     
3095.6     98.75      0.261     
3095.8     104.67     0.247     
3096       101.67     0.24      
3096.2     89.03      0.249     
3096.4     80.17999   0.256     
3096.6     85.95      0.254     
3096.8     86.84      0.25      
3097       82.81999   0.263     
3097.2     88.95      0.292     
