~Version
 VERS              .         2.0                           : CWLS LOG ASCII STANDARD - VERSION 2.0
 WRAP              .         NO                            : ONE LINE PER DEPTH STEP
 DLM               .         SPACE                         : DELIMITING CHARACTER(SPACE TAB OR COMMA)
~Well Information
#_______________________________________________________________________________
#
#PARAMETER_NAME    .UNIT     VALUE                         : DESCRIPTION
#_______________________________________________________________________________
STRT               .m        2903                          : First reference value
STOP               .m        3130                          : Last reference value
STEP               .m        0.2                           : Step increment
NULL               .         -9999                         : Missing value
COMP               .                                       : Company
WELL               .         304                           : Well name
FLD                .                                       : Field
LOC                .                                       : Location
CNTY               .                                       : County
STAT               .                                       : State
CTRY               .                                       : Country
SRVC               .                                       : Service Company
DATE               .                                       : Date
API                .                                       : API number
EREF               .m        138.34                        : 
Pad                .         3                             : 
X                  .m        219750                        : 
Y                  .m        249950                        : 
group              .         Pad3                          : 
Интер-р            .         Старостина                    : 
Куст               .         3                             : 
Статус             .         Не проверено                  : 
Тип                .         Эксплуатация                  : 
~Parameter Information Block
#_______________________________________________________________________________
#
#PARAMETER_NAME    .UNIT     VALUE                         : DESCRIPTION
#_______________________________________________________________________________
SET                .         LAS3                          : 
REAL_CREATION_DATE .         Ср апр 11 2012-13_17_09       : 
TLFamily_DEPTH     .         Measured Depth                : 
TLFamily_KS        .         Potential Resistivity         : 
TLFamily_KS1       .         Extra Shallow Resistivity     : 
TLFamily_KS2       .         Shallow Resistivity           : 
TLFamily_KS3       .         Medium Resistivity            : 
TLFamily_KS4       .         Deep Resistivity              : 
TLFamily_KS5       .         Extra Deep Resistivity        : 
TLFamily_LLD       .         Lateral Log Resistivity       : 
TLFamily_OKS3      .         Medium Resistivity Inverted   : 
TLFamily_RM        .         Mud Resistivity               : 
TLFamily_SP        .         Spontaneous Potential         : 
group              .         INI                           : 
~Curve Information
#_______________________________________________________________________________
#
#LOGNAME           .UNIT     LOG_ID                        : DESCRIPTION
#_______________________________________________________________________________
DEPTH              .m                                      : Measured Depth 
KS                 .ohm.m                                  : Potential Resistivity 
KS1                .ohm.m                                  : Extra Shallow Resistivity 
KS2                .ohm.m                                  : Shallow Resistivity 
KS3                .ohm.m                                  : Medium Resistivity 
KS4                .ohm.m                                  : Deep Resistivity 
KS5                .ohm.m                                  : Extra Deep Resistivity 
LLD                .ohm.m                                  : Lateral Log Resistivity 
OKS3               .ohm.m                                  : Medium Resistivity Inverted 
RM                 .ohm.m                                  : Mud Resistivity 
SP                 .mV                                     : Spontaneous Potential 
~Ascii
# ...
2983.4     16.2273    7.2656     11.298     11.3137    10.0739    11.3373    8.7176     17.3247    0.913      33.5702   
2983.6     19.7261    8.4903     12.9835    13.0482    12.4578    13.4585    16.7717    17.9303    0.913      32.0314   
2983.8     22.1408    12.0634    17.1352    15.1819    13.9293    14.6167    39.1853    16.5677    0.905      31.9396   
2984       21.5497    17.7475    24.291     16.4434    14.1527    14.6622    20.2758    14.1465    0.908      32.5073   
2984.2     19.466     20.0834    29.9169    16.4241    13.2262    13.6797    12.8619    12.3609    0.903      32.6339   
2984.4     16.4975    18.7979    32.7457    15.0757    11.3427    12.053     11.7033    10.2511    0.913      32.3242   
2984.6     14.255     16.9456    35.1106    13.3218    9.4886     10.0424    6.9279     9.0657     0.923      32.2024   
2984.8     12.921     12.8563    29.5217    11.3909    7.641      8.1489     7.5238     8.2959     0.93       32.631    
2985       11.9754    11.3819    25.4941    10.1937    6.2349     6.8085     7.3612     8.0769     0.926      33.3645   
2985.2     11.3304    10.4304    21.9892    10.3192    5.6365     5.8846     7.3242     8.1703     0.926      34.0528   
2985.4     10.6583    10.5181    19.5328    10.8438    5.2539     5.4942     6.3333     8.3925     0.926      35.0121   
2985.6     9.9457     9.8399     17.0503    11.4874    4.9857     5.2664     6.5576     8.5665     0.933      36.9649   
2985.8     9.5945     9.4047     15.8025    12.1279    4.783      5.1753     5.3597     8.8854     0.93       40.0219   
2986       9.4425     8.0652     13.9046    12.2888    4.5704     5.1949     6.4093     9.1624     0.923      43.3036   
2986.2     9.5979     7.9741     13.1827    11.8607    4.384      5.1819     6.8445     9.1688     0.923      45.5378   
2986.4     10.1044    7.9235     12.5098    11.4392    4.3644     5.1558     6.0781     8.9272     0.937      46.1935   
2986.6     10.4185    8.0315     11.8467    11.098     4.4756     5.1233     6.4813     8.8145     0.928      45.9666   
2986.8     10.79      8.8615     12.3563    10.596     4.4789     5.0973     8.1866     8.3185     0.937      45.3974   
2987       11.5938    8.9053     12.2518    9.9813     4.4462     4.9997     8.3161     7.4133     0.923      43.8062   
2987.2     12.0159    9.4351     12.6111    9.1704     4.456      4.9216     9.1315     6.5694     0.913      40.8777   
2987.4     12.0159    10.2111    13.3885    8.7391     4.7405     4.837      9.1036     6.0347     0.9        37.9763   
2987.6     11.4249    10.7745    14.62      8.8614     5.4435     4.9086     9.3332     5.6932     0.908      36.6557   
2987.8     10.5266    11.23      16.2794    9.1317     6.4376     5.0062     7.3641     5.5064     0.92       37.2602   
2988       9.9322     10.7138    16.5962    9.2733     7.4154     5.1819     5.6577     5.4935     0.93       39.6025   
2988.2     9.0237     9.0774     15.025     9.4761     8.259      5.3575     6.6416     5.471      0.938      43.3864   
2988.4     8.3652     8.8008     15.1557    9.8784     8.8803     5.4812     5.5443     5.4581     0.937      47.6336   
2988.6     7.764      8.4229     14.3848    10.1262    9.276      5.5853     5.1623     5.4452     0.933      51.2996   
2988.8     7.2642     7.883      13.1958    10.0682    9.2564     5.6503     4.7896     5.4968     0.923      54.1911   
2989       6.967      6.9518     11.2718    9.7979     8.9294     5.6243     4.9267     5.5096     0.93       56.4467   
2989.2     6.859      6.5773     10.3115    9.3313     8.4552     5.5658     4.9034     5.4549     0.932      57.9769   
2989.4     6.8083     6.3917     9.5177     8.6651     7.9647     5.5202     4.9332     5.297      0.93       58.787    
2989.6     6.7475     6.3647     8.9559     8.0891     7.5887     5.4747     4.9073     5.194      0.92       59.156    
2989.8     6.6428     6.3411     8.6227     7.6096     7.3892     5.4421     4.8594     5.1457     0.91       59.4624   
2990       6.5077     6.3344     8.5803     7.2717     7.2421     5.4682     4.824      5.1295     0.9        59.9181   
2990.2     6.4098     6.2264     8.5117     6.879      7.1309     5.4812     4.6911     5.1585     0.9        60.4515   
2990.4     6.3017     6.1657     8.3679     6.6119     7.0589     5.4551     4.5937     5.2423     0.9        60.8783   
2990.6     6.2105     6.169      8.3418     6.4156     6.9608     5.4226     4.5131     5.3582     0.903      61.1502   
2990.8     6.2004     5.9396     7.989      6.1871     6.7973     5.3966     4.6036     5.4001     0.913      61.2721   
2991       6.2848     5.8148     7.6983     5.92       6.5946     5.3966     4.9069     5.2809     0.928      61.1398   
2991.2     6.3557     5.8485     7.5872     5.7752     6.454      5.4291     4.844      5.2165     0.933      60.6445   
2991.4     6.2375     6.1488     7.7865     5.7945     6.3951     5.5332     4.9298     5.3099     0.937      59.9218   
2991.6     6.0518     6.4018     8.1033     5.817      6.297      5.7414     4.5692     5.4066     0.926      59.4149   
2991.8     5.9437     6.1555     7.8976     5.7237     6.127      6.0147     4.2874     5.5483     0.91       59.4437   
2992       5.8289     5.9059     7.7636     5.5886     5.9864     6.327      4.5268     5.632      0.925      59.7719   
2992.2     5.8323     5.7135     7.5905     5.4276     5.764      6.7175     4.7127     5.6095     0.926      59.9755   
2992.4     5.9471     5.6157     7.2475     5.2571     5.5285     7.199      4.5734     5.4935     0.913      60.0326   
2992.6     6.0045     5.7135     7.0842     5.1509     5.4239     7.6024     4.5473     5.4098     0.901      60.1237   
2992.8     5.9775     5.6832     7.0254     5.2507     5.558      7.8757     4.438      5.5161     0.893      60.1946   
2993       5.9133     5.7135     7.2769     5.4244     5.7149     7.9407     4.9089     5.529      0.903      60.1494   
2993.2     5.8998     5.7675     7.5807     5.5049     5.6332     7.8692     4.4168     5.4323     0.9        60.1075   
2993.4     5.9336     5.7743     7.4892     5.27       5.3062     7.7195     4.3225     5.2358     0.9        60.173    
2993.6     5.8998     5.5617     7.1463     5.0801     5.038      7.4072     4.371      5.2455     0.906      60.292    
2993.8     5.8593     5.4639     7.1626     5.0897     5.0413     7.1729     4.3947     5.5708     0.913      60.4153   
2994       5.8525     5.5482     7.4794     5.241      5.146      7.0688     4.6471     5.9123     0.928      60.5644   
2994.2     5.991      5.6832     7.6297     5.3536     5.1067     7.0623     4.8917     5.7577     0.925      60.7672   
2994.4     6.1396     5.7776     7.3945     5.4212     5.0544     6.9647     4.7976     5.6965     0.926      61.0736   
2994.6     6.2173     6.0577     7.4403     5.447      5.025      6.724      4.878      5.7544     0.926      61.4765   
2994.8     6.1632     6.2534     7.548      5.4727     4.989      6.4377     4.8917     5.8318     0.926      61.7919   
2995       6.2308     6.2669     7.597      5.3215     4.7666     6.1839     4.8007     5.7158     0.923      61.8363   
2995.2     6.349      6.1454     7.3749     5.0125     4.4167     5.8586     4.6791     5.5064     0.925      61.5694   
2995.4     6.3997     6.0003     7.192      4.7905     4.1453     5.5853     4.7458     5.4807     0.93       60.9918   
2995.6     6.3794     6.0746     7.4011     4.7036     4.0963     5.3966     4.7714     5.6932     0.926      60.2748   
2995.8     6.4469     5.9261     7.5088     4.7293     4.1748     5.4812     4.5562     6.0701     0.915      59.8455   
2996       6.7779     5.808      7.5709     4.9063     4.3611     5.5332     4.7183     6.8045     0.908      59.967    
2996.2     6.6259     5.862      8.2863     5.5081     4.8516     5.3901     7.8422     7.4906     0.903      60.4618   
2996.4     6.5922     7.8189     9.9522     5.8364     4.9334     5.1688     4.5844     7.2716     0.903      60.9727   
2996.6     6.7914     7.1947     8.3745     5.4148     4.3284     4.8956     4.4226     6.6596     0.915      61.2881   
