~Version
 VERS              .         2.0                           : CWLS LOG ASCII STANDARD - VERSION 2.0
 WRAP              .         NO                            : ONE LINE PER DEPTH STEP
 DLM               .         SPACE                         : DELIMITING CHARACTER(SPACE TAB OR COMMA)
~Well Information
#_______________________________________________________________________________
#
#PARAMETER_NAME    .UNIT     VALUE                         : DESCRIPTION
#_______________________________________________________________________________
STRT               .m        2903                          : First reference value
STOP               .m        3130                          : Last reference value
STEP               .m        0.2                           : Step increment
NULL               .         -9999                         : Missing value
COMP               .                                       : Company
WELL               .         304                           : Well name
FLD                .                                       : Field
LOC                .                                       : Location
CNTY               .                                       : County
STAT               .                                       : State
CTRY               .                                       : Country
SRVC               .                                       : Service Company
DATE               .                                       : Date
API                .                                       : API number
EREF               .m        138.34                        : 
Pad                .         3                             : 
X                  .m        219750                        : 
Y                  .m        249950                        : 
group              .         Pad3                          : 
Интер-р            .         Старостина                    : 
Куст               .         3                             : 
Статус             .         Не проверено                  : 
Тип                .         Эксплуатация                  : 
~Parameter Information Block
#_______________________________________________________________________________
#
#PARAMETER_NAME    .UNIT     VALUE                         : DESCRIPTION
#_______________________________________________________________________________
SET                .         LAS3                          : 
REAL_CREATION_DATE .         Ср апр 11 2012-13_17_09       : 
TLFamily_DEPTH     .         Measured Depth                : 
TLFamily_KS        .         Potential Resistivity         : 
TLFamily_KS1       .         Extra Shallow Resistivity     : 
TLFamily_KS2       .         Shallow Resistivity           : 
TLFamily_KS3       .         Medium Resistivity            : 
TLFamily_KS4       .         Deep Resistivity              : 
TLFamily_KS5       .         Extra Deep Resistivity        : 
TLFamily_LLD       .         Lateral Log Resistivity       : 
TLFamily_OKS3      .         Medium Resistivity Inverted   : 
TLFamily_RM        .         Mud Resistivity               : 
TLFamily_SP        .         Spontaneous Potential         : 
group              .         INI                           : 
~Curve Information
#_______________________________________________________________________________
#
#LOGNAME           .UNIT     LOG_ID                        : DESCRIPTION
#_______________________________________________________________________________
DEPTH              .m                                      : Measured Depth 
KS                 .ohm.m                                  : Potential Resistivity 
KS1                .ohm.m                                  : Extra Shallow Resistivity 
KS2                .ohm.m                                  : Shallow Resistivity 
KS3                .ohm.m                                  : Medium Resistivity 
KS4                .ohm.m                                  : Deep Resistivity 
KS5                .ohm.m                                  : Extra Deep Resistivity 
LLD                .ohm.m                                  : Lateral Log Resistivity 
OKS3               .ohm.m                                  : Medium Resistivity Inverted 
RM                 .ohm.m                                  : Mud Resistivity 
SP                 .mV                                     : Spontaneous Potential 
~Ascii
# ...
3050.4     3.9242     3.9658     4.3436     3.4356     3.0989     2.5271     3.2281     3.0004     0.863      59.3308   
3050.6     3.9343     3.8815     4.1738     3.3584     3.3572     2.5206     3.2075     2.9714     0.88       59.7252   
3050.8     3.9512     3.6723     4.0921     3.4002     3.5861     2.5401     3.1744     3.1808     0.89       59.9206   
3051       3.8836     3.8612     4.5396     3.6062     3.8674     2.5922     3.5585     3.4836     0.886      59.7908   
3051.2     3.9546     4.1716     5.0231     3.751      3.9851     2.6182     3.548      3.5738     0.883      59.4317   
3051.4     4.1099     4.0771     4.6409     3.6287     3.8249     2.6767     3.6217     3.6092     0.863      59.0066   
3051.6     4.1471     4.3066     4.5984     3.471      3.7071     2.6637     3.5521     3.7058     0.871      58.6094   
3051.8     4.1538     4.2087     4.5135     3.471      3.7202     2.6833     3.6022     3.9667     0.896      58.3811   
3052       4.1943     4.3201     4.7683     3.4742     3.7496     2.6963     3.8095     4.2598     0.886      58.521    
3052.2     4.2585     4.2897     4.863      3.5064     3.8118     2.7418     3.805      4.714      0.878      58.925    
3052.4     4.2349     4.5428     5.1145     3.5643     3.9001     2.7353     3.8564     5.0845     0.861      59.2251   
3052.6     4.2247     4.6102     5.1962     3.5257     3.9753     2.7093     3.8004     5.3196     0.869      59.1888   
3052.8     4.2281     4.5563     5.1276     3.3873     3.8608     2.6833     3.7957     5.3776     0.895      58.841    
3053       4.2011     4.5023     5.01       3.2329     3.6744     2.5857     3.6267     5.2616     0.876      58.4584   
3053.2     4.1133     4.5394     5.0622     3.1202     3.4652     2.488      3.6037     5.1553     0.873      58.1731   
3053.4     4.1268     4.4955     5.0165     3.0237     3.2101     2.41       3.1653     5.3067     0.853      57.6624   
3053.6     4.2686     3.9827     4.4645     2.8306     2.9485     2.41       3.1275     6.0282     0.859      56.9135   
3053.8     4.4341     3.8815     4.409      2.7147     2.8962     2.488      3.382      7.4133     0.874      56.5744   
3054       4.9036     3.7566     4.3208     2.7373     2.9746     2.8134     3.5621     9.2075     0.871      57.0034   
3054.2     5.8424     3.6554     4.1346     2.9014     3.2526     3.5291     4.3542     11.8134    0.873      57.6711   
3054.4     7.4601     3.6183     4.2946     3.4163     4.0995     4.4791     7.9895     15.057     0.866      57.6857   
3054.6     9.4155     4.6372     5.5588     4.2241     4.9792     5.9692     11.3978    17.7048    0.898      56.747    
3054.8     11.945     6.7831     7.3553     5.1863     5.4566     7.0948     15.8619    17.6371    0.891      55.1544   
3055       13.0054    10.0323    9.4753     5.772      5.4468     7.1469     17.5342    15.7624    0.9        52.9498   
3055.2     11.7829    13.8145    13.2317    5.9426     4.8876     6.4962     7.2399     13.4755    0.871      49.7601   
3055.4     10.79      13.8483    14.9597    5.3922     3.8935     5.5007     4.2511     12.522     0.864      45.2009   
3055.6     10.3476    9.4891     13.8066    4.3785     2.9387     4.5962     4.4531     13.8813    0.88       39.1401   
3055.8     10.4489    6.9012     13.3297    3.8636     2.4907     3.6983     6.8956     15.5595    0.876      31.9759   
3056       12.0126    7.0193     14.3652    4.0245     2.3631     3.36       9.8981     15.8687    0.869      24.7922   
3056.2     13.7518    8.7029     14.5122    4.562      2.3337     3.1582     10.5732    15.4146    0.849      18.7317   
3056.4     14.9541    10.1639    13.9732    5.4019     2.3501     3.0997     11.0562    15.1987    0.873      14.1354   
3056.6     15.8761    11.2199    14.1137    6.4961     2.4187     3.0606     11.1395    15.0731    0.873      10.6933   
3056.8     16.5177    11.7935    16.1748    8.1084     2.5168     3.0867     11.4746    14.7897    0.874      8.202     
3057       17.2607    12.0904    18.6868    9.6016     2.6476     3.1257     11.7168    14.3001    0.848      6.5512    
3057.2     17.9699    12.4683    20.6271    10.6797    2.8275     3.1778     12.0454    13.7879    0.866      5.3934    
3057.4     18.5778    12.6437    21.8977    11.1077    3.0204     3.2558     12.5266    13.2725    0.863      4.307     
3057.6     19.0743    12.9238    23.0312    11.2107    3.3147     3.3469     12.9769    12.7249    0.866      3.1823    
3057.8     19.1013    13.6458    25.0205    11.6033    3.645      3.4055     14.2051    11.9937    0.848      2.3205    
3058       18.4562    14.6412    27.6729    13.2896    4.0439     3.4185     14.1526    11.3656    0.871      1.9738    
3058.2     17.6964    15.6196    30.0607    14.8665    4.3611     3.399      9.7376     11.1079    0.863      1.9915    
3058.4     16.771     14.4387    28.3523    15.494     4.626      3.373      9.9389     10.9855    0.861      1.9854    
3058.6     16.153     13.5244    27.5063    15.3589    4.9596     3.2884     9.9565     10.7697    0.849      1.7928    
3058.8     15.7747    13.1735    26.9608    15.4265    5.6103     3.2233     10.0792    10.5732    0.858      1.6742    
3059       15.4944    13.0588    26.2062    15.5262    6.3199     3.2038     10.1894    10.4476    0.873      1.9448    
3059.2     15.0824    12.9238    24.4913    15.4458    6.8496     3.1908     9.5689     10.3381    0.869      2.5621    
3059.4     14.6096    13.0891    23.8609    15.1915    7.0982     3.2038     8.6489     10.4251    0.859      3.2134    
3059.6     14.3192    12.4919    22.8711    14.8472    7.1505     3.2493     8.375      10.4573    0.844      3.6691    
3059.8     14.1503    11.9588    22.0251    14.2422    6.9837     3.2819     8.8519     10.1964    0.863      3.9558    
3060       14.0659    12.0364    21.6756    13.6726    6.8039     3.3209     9.1855     9.8324     0.868      4.2611    
3060.2     14.0997    12.1545    21.1758    13.1094    6.7156     3.412      8.3677     9.5489     0.864      4.7071    
3060.4     14.0591    11.7328    19.964     12.3917    6.6861     3.5096     8.6696     9.4233     0.866      5.2333    
3060.6     13.8531    11.9285    20.2318    11.9798    6.7221     3.6463     8.9697     9.2751     0.849      5.7441    
3060.8     13.8768    12.1376    20.9243    11.9187    6.8039     3.7764     8.8994     9.1012     0.848      6.2543    
3061       14.0456    11.6788    20.1599    11.7159    6.83       3.913      8.2208     9.0174     0.866      6.8255    
3061.2     14.1976    11.5067    19.6177    11.3233    6.7156     4.0106     9.2953     8.7662     0.866      7.3819    
3061.4     14.4036    11.8306    20.0554    11.1592    6.6044     4.1147     9.7138     8.3217     0.863      7.7061    
3061.6     14.2618    12.2321    20.5258    11.1914    6.5488     4.1538     9.5187     7.9577     0.861      7.6288    
3061.8     13.664     12.9339    21.6952    11.2815    6.503      4.1343     9.3816     7.7161     0.859      7.2184    
3062       13.1068    12.7348    21.5809    11.3169    6.3101     4.0952     8.1562     7.5293     0.844      6.8588    
3062.2     12.6137    12.2186    21.2379    10.9114    5.9406     4.0106     7.9747     7.278      0.863      6.8526    
3062.4     12.1206    11.8272    20.6369    10.4576    5.4533     3.9195     7.6153     7.1009     0.869      7.0269    
3062.6     11.6073    11.6181    19.928     10.0393    5.1133     3.861      7.5585     7.0429     0.861      7.1534    
3062.8     11.2696    11.2537    18.935     9.7368     4.8615     3.8805     7.1782     7.0912     0.863      7.2861    
3063       10.9825    10.8623    17.8865    9.3441     4.6685     3.9976     6.8496     7.2072     0.854      7.3892    
3063.2     10.8373    10.5013    17.0241    9.0416     4.4919     4.2058     6.9665     7.2748     0.839      7.1388    
3063.4     10.8609    10.3326    16.3839    8.8164     4.3415     4.4401     7.1611     7.1717     0.856      6.3903    
3063.6     10.9454    10.2786    15.7763    8.5654     4.1911     4.5572     7.1552     6.9688     0.856      5.4658    
