~Version
 VERS              .         2.0                           : CWLS LOG ASCII STANDARD - VERSION 2.0
 WRAP              .         NO                            : ONE LINE PER DEPTH STEP
 DLM               .         SPACE                         : DELIMITING CHARACTER(SPACE TAB OR COMMA)
~Well Information
#_______________________________________________________________________________
#
#PARAMETER_NAME    .UNIT     VALUE                         : DESCRIPTION
#_______________________________________________________________________________
STRT               .m        2903                          : First reference value
STOP               .m        3130                          : Last reference value
STEP               .m        0.2                           : Step increment
NULL               .         -9999                         : Missing value
COMP               .                                       : Company
WELL               .         304                           : Well name
FLD                .                                       : Field
LOC                .                                       : Location
CNTY               .                                       : County
STAT               .                                       : State
CTRY               .                                       : Country
SRVC               .                                       : Service Company
DATE               .                                       : Date
API                .                                       : API number
EREF               .m        138.34                        : 
Pad                .         3                             : 
X                  .m        219750                        : 
Y                  .m        249950                        : 
group              .         Pad3                          : 
Интер-р            .         Старостина                    : 
Куст               .         3                             : 
Статус             .         Не проверено                  : 
Тип                .         Эксплуатация                  : 
~Parameter Information Block
#_______________________________________________________________________________
#
#PARAMETER_NAME    .UNIT     VALUE                         : DESCRIPTION
#_______________________________________________________________________________
SET                .         LAS3                          : 
REAL_CREATION_DATE .         Ср апр 11 2012-13_17_09       : 
TLFamily_DEPTH     .         Measured Depth                : 
TLFamily_KS        .         Potential Resistivity         : 
TLFamily_KS1       .         Extra Shallow Resistivity     : 
TLFamily_KS2       .         Shallow Resistivity           : 
TLFamily_KS3       .         Medium Resistivity            : 
TLFamily_KS4       .         Deep Resistivity              : 
TLFamily_KS5       .         Extra Deep Resistivity        : 
TLFamily_LLD       .         Lateral Log Resistivity       : 
TLFamily_OKS3      .         Medium Resistivity Inverted   : 
TLFamily_RM        .         Mud Resistivity               : 
TLFamily_SP        .         Spontaneous Potential         : 
group              .         INI                           : 
~Curve Information
#_______________________________________________________________________________
#
#LOGNAME           .UNIT     LOG_ID                        : DESCRIPTION
#_______________________________________________________________________________
DEPTH              .m                                      : Measured Depth 
KS                 .ohm.m                                  : Potential Resistivity 
KS1                .ohm.m                                  : Extra Shallow Resistivity 
KS2                .ohm.m                                  : Shallow Resistivity 
KS3                .ohm.m                                  : Medium Resistivity 
KS4                .ohm.m                                  : Deep Resistivity 
KS5                .ohm.m                                  : Extra Deep Resistivity 
LLD                .ohm.m                                  : Lateral Log Resistivity 
OKS3               .ohm.m                                  : Medium Resistivity Inverted 
RM                 .ohm.m                                  : Mud Resistivity 
SP                 .mV                                     : Spontaneous Potential 
~Ascii
# ...
2970       7.7573     6.665      10.1874    7.0625     4.7045     3.9846     5.6176     7.2426     0.93       56.6364   
2970.2     8.0004     6.3985     9.4785     6.6248     4.6816     3.8415     6.0418     6.8239     0.935      56.4439   
2970.4     8.3821     6.4457     9.031      6.4993     4.7372     3.7699     6.0882     6.4438     0.932      56.5887   
2970.6     8.534      6.8337     9.1944     6.805      4.9334     3.7829     6.4055     6.2988     0.933      56.7687   
2970.8     8.5408     6.8776     9.2597     7.2523     5.2898     3.9326     6.4863     6.5017     0.92       56.9051   
2971       8.2943     7.2959     10.2298    7.7351     6.0223     4.1147     6.4794     6.8979     0.903      57.0527   
2971.2     7.9734     7.6266     11.4711    8.324      6.7581     4.3099     6.3006     7.3714     0.9        57.1294   
2971.4     7.7269     7.5996     11.7422    8.5911     7.0589     4.4596     5.8482     7.8707     0.896      57.1133   
2971.6     7.5783     7.2015     10.9779    8.3948     6.9379     4.5507     5.5438     8.2766     0.908      57.0579   
2971.8     7.5141     6.9282     10.3213    8.1406     6.7908     4.6093     5.3481     8.8757     0.926      56.8803   
2972       7.6492     6.6987     9.8117     7.9153     6.7548     4.6743     5.1741     9.9838     0.926      56.4104   
2972.2     7.8552     6.4322     9.4197     7.8799     6.9477     4.7524     5.1414     11.6394    0.937      55.6057   
2972.4     8.1659     6.6549     9.6843     7.9893     7.1799     4.7524     5.8334     13.0567    0.933      54.4571   
2972.6     8.9393     6.9181     9.7758     7.8316     7.2878     4.7264     6.1255     14.329     0.925      52.8242   
2972.8     9.6924     7.3061     9.6909     7.2717     6.9903     4.6028     7.5384     15.3823    0.926      50.3731   
2973       10.3273    8.1799     10.1841    6.879      6.5717     4.3555     8.6651     16.1973    0.926      46.4651   
2973.2     11.0129    9.1786     10.8407    6.5347     6.0681     4.0822     7.954      17.2892    0.923      40.9003   
2973.4     11.5465    9.3946     11.2784    6.1292     5.3912     3.8545     7.5917     18.568     0.923      34.8078   
2973.6     12.1037    9.4857     11.8892    5.8235     4.9269     3.7373     7.965      19.5537    0.916      29.4683   
2973.8     12.8231    9.9344     12.8953    5.6754     4.662      3.6983     8.5961     20.3074    0.911      24.8211   
2974       13.7687    10.066     13.529     5.7044     4.5868     3.874      8.6938     20.3042    0.908      20.3618   
2974.2     14.9507    9.9918     13.7446    5.92       4.747      4.2774     9.0847     19.8436    0.9        16.3324   
2974.4     16.6832    10.0761    14.3391    6.4092     5.1394     4.8305     10.3473    19.2026    0.893      13.1834   
2974.6     19.1114    10.5924    15.6163    7.4454     5.7051     5.5527     12.2356    18.407     0.893      10.9991   
2974.8     21.4755    11.7463    17.5958    8.7617     6.5357     6.5483     15.4596    17.1636    0.9        9.6746    
2975       23.9138    12.3063    19.1702    10.2613    7.3532     7.3551     15.4506    15.3308    0.91       8.9525    
2975.2     26.1529    13.5391    22.5285    12.1355    8.1512     8.1945     17.6197    12.4349    0.921      8.5769    
2975.4     27.3788    15.623     27.957     14.1521    8.8673     8.8387     25.4357    10.8502    0.921      8.3807    
2975.6     27.3214    18.1737    33.9282    16.2181    9.4297     9.1835     27.1547    10.3155    0.923      8.1041    
2975.8     25.1026    20.0632    39.1905    18.5062    9.6979     9.0469     20.7882    9.6037     0.923      7.6092    
2976       21.3978    21.7333    45.1551    20.8298    9.7011     8.5003     18.1355    8.1735     0.926      7.0687    
2976.2     17.9767    22.0167    49.8817    22.3423    9.1812     7.8106     14.9111    6.9398     0.926      6.7502    
2976.4     15.0318    18.6056    43.7113    22.4131    8.1577     6.8866     8.2751     6.0862     0.925      6.8118    
2976.6     12.9751    14.9718    35.3034    20.3792    6.9837     6.0798     7.3291     5.7931     0.921      7.4425    
2976.8     11.9889    12.0331    28.3327    18.7959    6.2349     5.4812     7.2798     5.7706     0.911      8.8364    
2977       11.4722    11.0613    24.0111    17.544     5.8523     5.2209     7.6154     5.8962     0.906      10.827    
2977.2     10.969     10.8049    20.3102    16.5528    5.7476     5.1038     7.5906     6.1345     0.896      13.1781   
2977.4     10.172     10.7611    17.7525    15.6582    5.849      5.2339     7.2313     6.6628     0.9        16.0552   
2977.6     9.223      10.0019    15.9788    14.9212    6.1302     5.5397     6.8435     7.3908     0.9        19.6894   
2977.8     8.2976     10.0626    15.6261    14.062     6.5553     5.9562     6.5739     8.457      0.901      23.996    
2978       8.0714     8.7232     15.6751    13.4119    7.0295     6.3336     6.4998     9.3685     0.898      28.7742   
2978.2     7.9397     8.2508     13.382     12.7168    7.4579     6.6133     4.517      10.7311    0.913      33.9621   
2978.4     7.6729     7.9134     10.9583    11.5261    7.6639     6.5678     4.6068     12.5123    0.923      39.1588   
2978.6     8.0714     7.215      9.6517     9.8494     7.193      6.288      4.4962     14.2904    0.923      42.9784   
2978.8     8.9393     6.4187     9.6157     8.1824     6.4376     5.8325     6.0165     15.0925    0.916      43.7721   
2979       10.1787    6.9957     9.5341     6.9241     5.8654     5.1103     7.9918     15.1955    0.923      40.7857   
2979.2     11.6411    8.1192     9.6223     6.2418     5.5024     4.5702     8.4889     14.9121    0.92       34.4747   
2979.4     12.3638    9.8197     10.403     5.7237     5.2866     4.3099     8.3113     14.5255    0.92       26.6413   
2979.6     12.9919    10.4574    11.4384    5.595      5.1885     4.2058     8.3016     14.5513    0.92       19.564    
2979.8     13.9038    10.174     12.5327    5.9651     5.2015     4.2319     8.4206     14.8154    0.92       14.3495   
2980       15.0655    10.0154    14.0777    6.1968     5.3487     4.375      9.8613     14.8315    0.918      10.8135   
2980.2     16.7372    10.7982    15.8351    6.3416     5.5711     4.6353     11.4585    14.2517    0.92       8.4784    
2980.4     18.7804    11.1018    16.4851    6.7439     5.8359     4.8956     13.9933    13.556     0.913      6.9728    
2980.6     19.9794    12.1511    18.1217    7.6128     6.0877     5.1298     15.9635    12.944     0.905      6.0335    
2980.8     20.9148    13.6593    21.4437    8.9194     6.2937     5.351      17.0937    12.5091    0.896      5.5438    
2981       21.4552    14.9549    24.831     10.39      6.3853     5.5983     15.7185    12.1677    0.9        5.3403    
2981.2     20.8777    15.5184    27.6239    12.1697    6.4638     5.6503     17.1268    11.9937    0.903      5.2281    
2981.4     18.8919    17.1548    32.2263    13.7788    6.1727     5.5723     13.8498    11.6942    0.921      5.3531    
2981.6     16.8757    18.329     35.8227    14.8955    5.3814     5.3771     10.6424    10.8825    0.932      6.015     
2981.8     14.873     15.7478    31.9781    14.6895    5.11       5.1884     8.6212     10.3445    0.92       7.2051    
2982       13.2351    14.0575    29.5282    14.1553    5.1165     5.0062     7.7743     10.0579    0.92       8.8451    
2982.2     11.7154    12.3232    26.1605    14.0362    5.1623     5.0908     7.8315     9.813      0.92       11.3482   
2982.4     10.79      11.6315    23.6649    14.033     5.4108     5.4161     7.9395     9.5747     0.92       15.5321   
2982.6     10.1652    10.7037    19.8072    13.5889    5.9308     5.8455     5.8517     10.2415    0.932      21.6654   
2982.8     10.1821    9.0032     16.0213    12.6299    6.503      6.75       4.8991     12.2579    0.923      28.5071   
2983       11.1547    7.2521     12.4118    11.2944    7.023      8.0644     6.5898     14.0488    0.915      33.5708   
2983.2     13.1608    6.8674     11.2947    10.7247    8.1544     9.6325     7.4768     15.7045    0.92       35.0003   
