~Version
 VERS              .         2.0                           : CWLS LOG ASCII STANDARD - VERSION 2.0
 WRAP              .         NO                            : ONE LINE PER DEPTH STEP
 DLM               .         SPACE                         : DELIMITING CHARACTER(SPACE TAB OR COMMA)
~Well Information
#_______________________________________________________________________________
#
#PARAMETER_NAME    .UNIT     VALUE                         : DESCRIPTION
#_______________________________________________________________________________
STRT               .m        2903                          : First reference value
STOP               .m        3130                          : Last reference value
STEP               .m        0.2                           : Step increment
NULL               .         -9999                         : Missing value
COMP               .                                       : Company
WELL               .         304                           : Well name
FLD                .                                       : Field
LOC                .                                       : Location
CNTY               .                                       : County
STAT               .                                       : State
CTRY               .                                       : Country
SRVC               .                                       : Service Company
DATE               .                                       : Date
API                .                                       : API number
EREF               .m        138.34                        : 
Pad                .         3                             : 
X                  .m        219750                        : 
Y                  .m        249950                        : 
group              .         Pad3                          : 
Интер-р            .         Старостина                    : 
Куст               .         3                             : 
Статус             .         Не проверено                  : 
Тип                .         Эксплуатация                  : 
~Parameter Information Block
#_______________________________________________________________________________
#
#PARAMETER_NAME    .UNIT     VALUE                         : DESCRIPTION
#_______________________________________________________________________________
SET                .         LAS3                          : 
REAL_CREATION_DATE .         Ср апр 11 2012-13_17_09       : 
TLFamily_DEPTH     .         Measured Depth                : 
TLFamily_KS        .         Potential Resistivity         : 
TLFamily_KS1       .         Extra Shallow Resistivity     : 
TLFamily_KS2       .         Shallow Resistivity           : 
TLFamily_KS3       .         Medium Resistivity            : 
TLFamily_KS4       .         Deep Resistivity              : 
TLFamily_KS5       .         Extra Deep Resistivity        : 
TLFamily_LLD       .         Lateral Log Resistivity       : 
TLFamily_OKS3      .         Medium Resistivity Inverted   : 
TLFamily_RM        .         Mud Resistivity               : 
TLFamily_SP        .         Spontaneous Potential         : 
group              .         INI                           : 
~Curve Information
#_______________________________________________________________________________
#
#LOGNAME           .UNIT     LOG_ID                        : DESCRIPTION
#_______________________________________________________________________________
DEPTH              .m                                      : Measured Depth 
KS                 .ohm.m                                  : Potential Resistivity 
KS1                .ohm.m                                  : Extra Shallow Resistivity 
KS2                .ohm.m                                  : Shallow Resistivity 
KS3                .ohm.m                                  : Medium Resistivity 
KS4                .ohm.m                                  : Deep Resistivity 
KS5                .ohm.m                                  : Extra Deep Resistivity 
LLD                .ohm.m                                  : Lateral Log Resistivity 
OKS3               .ohm.m                                  : Medium Resistivity Inverted 
RM                 .ohm.m                                  : Mud Resistivity 
SP                 .mV                                     : Spontaneous Potential 
~Ascii
# ...
2943.2     6.7002     6.2264     8.1948     5.2507     4.2336     4.5702     5.2638     6.1506     0.937      56.5766   
2943.4     6.7475     6.1724     8.1589     5.3086     4.2696     4.6028     5.2385     6.0927     0.93       56.9745   
2943.6     6.8353     6.0577     8.0772     5.3858     4.3415     4.6288     5.3231     6.0121     0.923      57.0815   
2943.8     6.9029     6.1522     8.2275     5.5274     4.4494     4.6743     5.4428     5.9509     0.916      56.9365   
2944       6.9501     6.3141     8.3679     5.7076     4.5541     4.7264     5.5301     5.9284     0.913      56.8288   
2944.2     7.0109     6.3276     8.4104     5.8396     4.6326     4.7654     5.5191     5.9348     0.91       56.8611   
2944.4     7.0143     6.4187     8.5509     5.9265     4.7208     4.7719     5.6089     5.9574     0.913      56.7065   
2944.6     6.9772     6.5537     8.7795     5.9876     4.783      4.798      5.5445     5.938      0.918      56.2298   
2944.8     6.94       6.5334     8.7566     5.9973     4.7961     4.8435     5.4698     5.9187     0.926      55.972    
2945       6.8252     6.4693     8.7697     6.0359     4.868      4.8565     5.3382     5.9992     0.94       56.3809   
2945.2     6.6732     6.5807     9.0212     6.1228     4.9955     4.8825     5.3847     6.1249     0.943      57.0868   
2945.4     6.5922     6.4524     8.8971     6.155      5.0609     4.9346     5.119      6.1861     0.938      57.4896   
2945.6     6.4672     6.3951     8.7272     6.1292     5.0871     4.9346     5.0161     6.2569     0.933      57.4836   
2945.8     6.2815     6.4255     8.7109     6.1035     5.0904     4.8435     4.9947     6.054      0.938      57.3089   
2946       6.2375     6.196      8.2993     5.9426     4.9399     4.8045     4.8682     5.8414     0.937      57.1538   
2946.2     6.2848     5.9902     7.8878     5.6722     4.7666     4.7524     4.8004     5.558      0.93       57.0508   
2946.4     6.3861     5.8013     7.5317     5.4534     4.6947     4.7004     4.8148     5.3325     0.933      56.8203   
2946.6     6.4672     5.754      7.388      5.3601     4.711      4.7654     5.0066     5.3164     0.937      56.2656   
2946.8     6.5618     5.8249     7.4794     5.3955     4.832      4.8435     5.1359     5.4227     0.937      55.612    
2947       6.6496     5.9396     7.6983     5.5017     4.9465     4.9867     5.2268     5.5773     0.928      55.2459   
2947.2     6.7644     6.0644     7.8976     5.5757     5.074      5.1428     5.2152     5.6643     0.925      55.2117   
2947.4     6.9636     6.1319     7.9629     5.595      5.146      5.4616     5.3995     5.7834     0.93       55.4331   
2947.6     7.1122     6.1117     7.9302     5.8203     5.4566     5.8325     5.3691     6.2279     0.916      55.8326   
2947.8     6.8826     6.4389     8.6815     6.4639     6.2937     6.1058     5.8535     7.0558     0.91       56.1464   
2948       6.8488     7.2791     10.1645    6.9434     6.6077     6.3921     5.6644     7.3199     0.911      56.2069   
2948.2     6.9738     6.5874     8.9886     7.056      6.5521     6.4246     5.4614     7.3231     0.905      56.1168   
2948.4     6.8826     7.1306     9.7497     6.6345     6.1466     6.1514     5.1256     6.9946     0.918      55.9288   
2948.6     6.8691     6.9585     8.8938     6.348      5.7019     5.7544     4.9891     6.6274     0.911      55.5867   
2948.8     6.9366     6.5672     8.2895     5.6626     5.0609     5.4942     4.9925     6.1764     0.91       55.2158   
2949       6.68       6.746      8.6554     5.3215     4.7143     5.0127     4.9783     6.0411     0.93       55.0025   
2949.2     6.4976     6.4963     8.675      5.1927     4.5443     4.7914     4.9898     5.9896     0.935      54.9093   
2949.4     6.4199     6.2702     8.5443     5.0479     4.335      4.6483     5.0022     5.9123     0.94       54.9288   
2949.6     6.3794     6.1488     8.4757     4.9224     4.178      4.4856     4.9575     5.9058     0.938      55.2134   
2949.8     6.3456     6.0206     8.087      4.8741     4.0472     4.3815     4.9242     5.9284     0.935      55.6699   
2950       6.3152     5.9835     7.878      4.916      3.9622     4.3099     4.9048     5.8897     0.933      55.9545   
2950.2     6.2916     5.9531     7.8224     5.1509     3.9491     4.2579     4.8391     5.8865     0.923      55.8645   
2950.4     6.2713     5.8957     7.7277     5.3472     3.9295     4.2449     4.8049     5.7512     0.925      55.4338   
2950.6     6.2747     5.8249     7.6591     5.4276     3.9066     4.2449     4.9251     5.4452     0.932      55.0027   
2950.8     6.3625     5.7979     7.6101     5.5467     3.8935     4.2774     5.0023     5.1134     0.937      54.972    
2951       6.4402     5.7878     7.4925     5.5338     3.9458     4.3165     5.0173     5.0555     0.933      55.1417   
2951.2     6.4368     5.9126     7.6264     5.5918     4.1061     4.3425     5.1025     5.1714     0.932      55.0085   
2951.4     6.4604     6.1015     7.9172     5.6948     4.2369     4.3685     5.3188     5.2326     0.926      54.6281   
2951.6     6.6665     5.9531     7.6689     5.6336     4.2467     4.4791     5.0852     5.223      0.916      54.3731   
2951.8     6.7982     5.9328     7.5578     5.5403     4.3611     4.5572     5.1696     5.3744     0.906      54.2524   
2952       6.8319     6.1454     7.927      5.6948     4.6326     4.7329     5.385      5.7995     0.906      54.0643   
2952.2     7.0008     6.223      8.2079     5.9586     5.1296     5.0192     5.4588     6.1506     0.906      53.9254   
2952.4     7.0244     6.2736     8.4202     6.2901     5.7934     5.4682     5.5221     6.7272     0.916      54.1253   
2952.6     6.6529     7.1644     9.5439     7.0625     6.7614     5.5527     5.8021     7.5454     0.926      54.6219   
2952.8     6.5347     7.8122     10.4781    7.2845     7.0949     5.5202     5.4756     7.7387     0.957      55.0777   
2953       6.6665     6.9046     8.9298     6.7053     6.3461     5.312      5.0053     7.0107     0.933      55.2533   
2953.2     6.8488     6.4693     8.0446     5.5049     5.1361     4.9151     4.9878     6.1152     0.935      55.3022   
2953.4     6.7306     6.4592     7.731      4.961      4.6162     4.362      4.9618     5.7931     0.933      55.5733   
2953.6     6.6327     6.2298     7.8616     4.7583     4.4233     4.1798     4.9661     5.7319     0.933      56.1415   
2953.8     6.6158     6.0543     8.0119     4.6843     4.335      4.1343     4.974      5.748      0.923      56.7085   
2954       6.5989     6.0104     8.3189     4.6553     4.3023     4.1408     5.1069     5.7899     0.926      56.8747   
2954.2     6.5651     6.0982     8.2895     4.7422     4.3154     4.1538     5.139      5.8124     0.932      56.6226   
2954.4     6.5584     6.0881     8.1817     4.8934     4.3154     4.2058     5.0875     5.7738     0.935      56.3388   
2954.6     6.5618     6.0374     8.0152     5.0318     4.3121     4.2644     4.9689     5.7834     0.928      56.2621   
2954.8     6.5449     6.0037     8.0184     5.3021     4.3481     4.3034     5.0573     5.8511     0.928      56.3129   
2955       6.5246     6.0442     8.087      5.6626     4.3971     4.336      5.1861     5.9252     0.925      56.3703   
2955.2     6.5719     6.0239     8.0511     5.9747     4.4102     4.3685     5.126      5.8607     0.92       56.3455   
2955.4     6.5922     6.0408     8.0021     5.9297     4.3873     4.4141     5.1536     5.661      0.923      56.1409   
2955.6     6.5449     6.1522     8.0446     5.8524     4.4167     4.4271     5.1486     5.5837     0.923      55.8092   
2955.8     6.5179     6.1218     8.038      5.7945     4.4396     4.4726     5.082      5.5837     0.918      55.6177   
2956       6.4841     6.0476     8.0119     5.7205     4.4298     4.5247     5.069      5.6159     0.91       55.6426   
2956.2     6.4571     6.0273     8.0413     5.6819     4.4658     4.5767     5.0429     5.5032     0.903      55.6594   
2956.4     6.2882     5.9902     8.0707     5.7205     4.5737     4.6418     5.0373     5.3647     0.9        55.6222   
