~Version
 VERS              .         2.0                           : CWLS LOG ASCII STANDARD - VERSION 2.0
 WRAP              .         NO                            : ONE LINE PER DEPTH STEP
 DLM               .         SPACE                         : DELIMITING CHARACTER(SPACE TAB OR COMMA)
~Well Information
#_______________________________________________________________________________
#
#PARAMETER_NAME    .UNIT     VALUE                         : DESCRIPTION
#_______________________________________________________________________________
STRT               .m        2903                          : First reference value
STOP               .m        3130                          : Last reference value
STEP               .m        0.2                           : Step increment
NULL               .         -9999                         : Missing value
COMP               .                                       : Company
WELL               .         304                           : Well name
FLD                .                                       : Field
LOC                .                                       : Location
CNTY               .                                       : County
STAT               .                                       : State
CTRY               .                                       : Country
SRVC               .                                       : Service Company
DATE               .                                       : Date
API                .                                       : API number
EREF               .m        138.34                        : 
Pad                .         3                             : 
X                  .m        219750                        : 
Y                  .m        249950                        : 
group              .         Pad3                          : 
Интер-р            .         Старостина                    : 
Куст               .         3                             : 
Статус             .         Не проверено                  : 
Тип                .         Эксплуатация                  : 
~Parameter Information Block
#_______________________________________________________________________________
#
#PARAMETER_NAME    .UNIT     VALUE                         : DESCRIPTION
#_______________________________________________________________________________
SET                .         LAS3                          : 
REAL_CREATION_DATE .         Ср апр 11 2012-13_17_09       : 
TLFamily_DEPTH     .         Measured Depth                : 
TLFamily_KS        .         Potential Resistivity         : 
TLFamily_KS1       .         Extra Shallow Resistivity     : 
TLFamily_KS2       .         Shallow Resistivity           : 
TLFamily_KS3       .         Medium Resistivity            : 
TLFamily_KS4       .         Deep Resistivity              : 
TLFamily_KS5       .         Extra Deep Resistivity        : 
TLFamily_LLD       .         Lateral Log Resistivity       : 
TLFamily_OKS3      .         Medium Resistivity Inverted   : 
TLFamily_RM        .         Mud Resistivity               : 
TLFamily_SP        .         Spontaneous Potential         : 
group              .         INI                           : 
~Curve Information
#_______________________________________________________________________________
#
#LOGNAME           .UNIT     LOG_ID                        : DESCRIPTION
#_______________________________________________________________________________
DEPTH              .m                                      : Measured Depth 
KS                 .ohm.m                                  : Potential Resistivity 
KS1                .ohm.m                                  : Extra Shallow Resistivity 
KS2                .ohm.m                                  : Shallow Resistivity 
KS3                .ohm.m                                  : Medium Resistivity 
KS4                .ohm.m                                  : Deep Resistivity 
KS5                .ohm.m                                  : Extra Deep Resistivity 
LLD                .ohm.m                                  : Lateral Log Resistivity 
OKS3               .ohm.m                                  : Medium Resistivity Inverted 
RM                 .ohm.m                                  : Mud Resistivity 
SP                 .mV                                     : Spontaneous Potential 
~Ascii
# ...
2929.8     6.4841     5.2344     6.6138     4.9449     4.3513     4.5442     5.2253     6.7304     0.92       55.1175   
2930       6.8049     5.6191     6.689      5.0897     4.4462     4.5962     5.44       6.7433     0.92       54.7161   
2930.2     6.9704     6.1589     7.1626     5.2024     4.5345     4.6548     5.9681     6.6918     0.923      54.5776   
2930.4     7.0785     6.4592     7.6591     5.212      4.5868     4.7069     5.9415     6.5146     0.923      54.7246   
2930.6     7.1224     6.5739     8.1523     5.2603     4.6129     4.7134     5.7946     6.3407     0.923      55.0542   
2930.8     7.0582     6.6279     8.5705     5.315      4.6456     4.7134     5.8061     6.2215     0.926      55.473    
2931       6.9468     6.7021     8.8775     5.3826     4.6783     4.7134     5.681      6.1667     0.926      56.0093   
2931.2     6.8961     6.4794     8.884      5.4244     4.7012     4.7134     5.4444     6.1281     0.93       56.4933   
2931.4     6.8927     6.2905     8.7762     5.4566     4.7143     4.7134     5.4517     6.1184     0.926      56.5092   
2931.6     6.8792     6.2702     8.7632     5.5596     4.7437     4.7329     5.6908     6.0862     0.928      55.8778   
2931.8     6.9029     6.4153     8.8056     5.7495     4.8157     4.7654     5.6391     6.0186     0.93       54.8786   
2932       6.9265     6.2905     8.5509     5.8911     4.8844     4.7849     5.3359     6.0057     0.926      53.9874   
2932.2     6.8826     6.304      8.5672     5.994      4.904      4.8045     5.665      5.9864     0.93       53.5519   
2932.4     6.8049     6.4997     8.8056     6.1324     4.9203     4.8175     5.7432     5.9219     0.937      53.5572   
2932.6     6.6563     6.5705     8.8612     6.2129     4.9236     4.8175     5.2774     5.8768     0.937      53.7828   
2932.8     6.5077     6.4356     8.7632     6.1775     4.9236     4.8045     5.1495     5.9058     0.943      54.1433   
2933       6.4537     6.0914     8.4463     6.0745     4.9269     4.824      4.947      5.9799     0.948      54.4071   
2933.2     6.4672     5.9632     8.3124     5.978      4.9236     4.8435     5.1352     5.9928     0.95       54.2321   
2933.4     6.5381     6.0307     8.2471     5.9393     4.9301     4.863      5.3202     5.9799     0.947      53.7587   
2933.6     6.5888     6.1015     8.0446     5.8975     4.9596     4.889      5.3016     5.9735     0.947      53.4616   
2933.8     6.5719     6.2635     8.0446     5.8846     5.0217     4.9346     5.3138     5.9896     0.957      53.4401   
2934       6.5584     6.2635     8.0641     5.8782     5.0806     4.9736     5.212      6.0089     0.955      53.3499   
2934.2     6.5753     6.1724     8.0641     5.8267     5.1198     5.0192     5.2092     6.0089     0.948      53.1222   
2934.4     6.6259     6.1387     8.0707     5.7945     5.1656     5.0452     5.2869     6.0121     0.943      53.098    
2934.6     6.6732     6.1859     8.1295     5.7816     5.2081     5.0843     5.4208     5.9606     0.943      53.4332   
2934.8     6.761      6.2601     8.136      5.7559     5.2375     5.1298     5.4506     5.8897     0.947      53.9264   
2935       6.7678     6.3411     8.1981     5.7591     5.2768     5.1428     5.4112     5.8446     0.953      54.2806   
2935.2     6.6867     6.4558     8.3875     5.8042     5.3029     5.1558     5.4586     5.7931     0.948      54.3688   
2935.4     6.68       6.4524     8.5117     5.801      5.2539     5.1819     5.2372     5.6836     0.942      54.4571   
2935.6     6.6732     6.2972     8.3418     5.743      5.1787     5.1688     5.2091     5.5741     0.937      54.7719   
2935.8     6.6192     6.2466     8.3255     5.7141     5.1329     5.1558     5.2458     5.4356     0.932      54.8195   
2936       6.5786     6.277      8.4006     5.743      5.1361     5.1688     5.3382     5.2423     0.92       54.1998   
2936.2     6.5212     6.2466     8.4039     5.7784     5.146      5.1688     5.2408     5.0812     0.916      53.5281   
2936.4     6.4334     6.2399     8.4267     5.8074     5.1361     5.1428     5.1673     4.9653     0.915      53.6082   
2936.6     6.3254     6.2433     8.3843     5.817      5.1034     5.1428     5.1399     4.8976     0.916      54.5149   
2936.8     6.2072     6.1893     8.2895     5.8106     5.0282     5.1233     5.0872     4.8268     0.916      55.6192   
2937       6.0957     6.1117     8.1425     5.7559     4.9628     5.1168     4.9398     4.7784     0.916      56.3343   
2937.2     6.0011     5.9497     7.9204     5.6851     4.9334     5.1233     4.7031     4.8074     0.916      56.6946   
2937.4     5.9268     5.754      7.7342     5.6497     4.9465     5.1949     4.7149     4.8976     0.916      56.8931   
2937.6     5.9843     5.6764     7.6656     5.6529     5.038      5.312      4.7481     5.0168     0.92       56.8503   
2937.8     5.991      5.5448     7.4925     5.7945     5.2441     5.351      4.748      5.252      0.92       56.533    
2938       5.8357     6.0746     8.0413     5.9393     5.365      5.338      5.3728     5.2809     0.928      56.0639   
2938.2     5.7141     6.3445     7.9531     5.8621     5.2441     5.299      5.3676     5.0909     0.923      55.4437   
2938.4     5.5013     6.2331     7.4729     5.4984     4.9072     5.1753     4.1866     4.9202     0.923      54.7381   
2938.6     5.2514     5.7844     7.2214     5.138      4.662      5.0127     3.9896     4.9363     0.926      54.3495   
2938.8     5.1872     5.0826     6.7086     4.8902     4.5246     4.9216     3.8354     5.1553     0.91       54.546    
2939       5.2278     4.8667     6.689      4.7583     4.505      4.9086     4.1128     5.4259     0.926      55.0496   
2939.2     5.3629     4.897      6.6073     4.7325     4.5541     4.9151     4.5725     5.5998     0.937      55.4766   
2939.4     5.5689     5.0826     6.4113     4.6875     4.5443     4.9281     4.8245     5.6514     0.942      55.7414   
2939.6     5.6702     5.4774     6.4407     4.6456     4.5116     4.9086     4.6944     5.661      0.947      55.9209   
2939.8     5.7343     5.5448     6.4048     4.6135     4.4462     4.876      4.7006     5.7093     0.95       55.9752   
2940       5.7782     5.5448     6.5289     4.5845     4.371      4.8305     4.6883     5.7609     0.947      55.7072   
2940.2     5.8357     5.5482     6.7641     4.6231     4.3219     4.7914     4.8271     5.806      0.943      55.1232   
2940.4     5.9066     5.5887     6.9176     4.6489     4.2794     4.7654     4.9291     5.835      0.95       54.5887   
2940.6     5.937      5.7237     7.0581     4.6135     4.263      4.7524     4.9442     5.8833     0.952      54.5202   
2940.8     5.9539     5.7574     7.1528     4.607      4.2696     4.7329     4.8508     6.0025     0.948      54.9575   
2941       5.9944     5.6832     7.1463     4.6006     4.2402     4.7199     4.8266     6.0894     0.943      55.4765   
2941.2     6.089      5.673      7.1626     4.607      4.1682     4.7134     4.9285     6.1764     0.943      55.7204   
2941.4     6.1903     5.7169     7.2247     4.7036     4.1486     4.7004     5.0344     6.2988     0.943      55.799    
2941.6     6.2916     5.8249     7.339      4.8323     4.2009     4.6873     5.1295     6.4341     0.943      55.9544   
2941.8     6.3861     5.916      7.4109     4.9385     4.2402     4.6873     5.2013     6.5114     0.945      56.1532   
2942       6.5246     6.0712     7.6003     4.9964     4.2336     4.6938     5.3747     6.4695     0.943      56.2257   
2942.2     6.609      6.0779     7.5611     5.0093     4.2336     4.6678     5.2755     6.4051     0.94       56.1274   
2942.4     6.6496     6.2264     7.7734     5.0383     4.2467     4.6353     5.2916     6.3471     0.947      55.9204   
2942.6     6.6665     6.1589     7.8649     5.0962     4.2467     4.5962     5.2822     6.3214     0.947      55.7563   
2942.8     6.6833     6.1859     8.0478     5.1316     4.214      4.5832     5.3347     6.2763     0.943      55.8072   
2943       6.6935     6.223      8.1915     5.1831     4.2075     4.5767     5.3398     6.2183     0.94       56.1125   
