~Version
 VERS              .         2.0                           : CWLS LOG ASCII STANDARD - VERSION 2.0
 WRAP              .         NO                            : ONE LINE PER DEPTH STEP
 DLM               .         SPACE                         : DELIMITING CHARACTER(SPACE TAB OR COMMA)
~Well Information
#_______________________________________________________________________________
#
#PARAMETER_NAME    .UNIT     VALUE                         : DESCRIPTION
#_______________________________________________________________________________
STRT               .m        3075                          : First reference value
STOP               .m        3285                          : Last reference value
STEP               .m        0.2                           : Step increment
NULL               .         -9999                         : Missing value
COMP               .                                       : Company
WELL               .         305                           : Well name
FLD                .                                       : Field
LOC                .                                       : Location
CNTY               .                                       : County
STAT               .                                       : State
CTRY               .                                       : Country
SRVC               .                                       : Service Company
DATE               .                                       : Date
API                .                                       : API number
EREF               .m        138.34                        : 
Pad                .         3                             : 
X                  .m        219750                        : 
Y                  .m        249950                        : 
group              .         Pad3                          : 
Интер-р            .         Пузин                         : 
Куст               .         3                             : 
Статус             .         Не проверено                  : 
Тип                .         Разведка                      : 
~Parameter Information Block
#_______________________________________________________________________________
#
#PARAMETER_NAME    .UNIT     VALUE                         : DESCRIPTION
#_______________________________________________________________________________
SET                .         LAS1                          : 
REAL_CREATION_DATE .         Ср апр 11 2012-13_17_10       : 
TLFamily_DEPTH     .         Measured Depth                : 
TLFamily_KS        .         Potential Resistivity         : 
TLFamily_KS1       .         Extra Shallow Resistivity     : 
TLFamily_KS2       .         Shallow Resistivity           : 
TLFamily_KS3       .         Medium Resistivity            : 
TLFamily_KS4       .         Deep Resistivity              : 
TLFamily_KS5       .         Extra Deep Resistivity        : 
TLFamily_LLD       .         Lateral Log Resistivity       : 
TLFamily_OKS3      .         Medium Resistivity Inverted   : 
TLFamily_RM        .         Mud Resistivity               : 
TLFamily_SP        .         Spontaneous Potential         : 
group              .         INI                           : 
~Curve Information
#_______________________________________________________________________________
#
#LOGNAME           .UNIT     LOG_ID                        : DESCRIPTION
#_______________________________________________________________________________
DEPTH              .m                                      : Measured Depth 
KS                 .ohm.m                                  : Potential Resistivity 
KS1                .ohm.m                                  : Extra Shallow Resistivity 
KS2                .ohm.m                                  : Shallow Resistivity 
KS3                .ohm.m                                  : Medium Resistivity 
KS4                .ohm.m                                  : Deep Resistivity 
KS5                .ohm.m                                  : Extra Deep Resistivity 
LLD                .ohm.m                                  : Lateral Log Resistivity 
OKS3               .ohm.m                                  : Medium Resistivity Inverted 
RM                 .ohm.m                                  : Mud Resistivity 
SP                 .mV                                     : Spontaneous Potential 
~Ascii
# ...
3128.6     6.5536     6.028      8.3325     5.9335     5.0664     5.0644     5.1415     7.4896     0.898      97.6376   
3128.8     6.4905     6.0005     8.3256     5.8615     4.9983     5.0445     4.9487     7.8789     0.892      97.1425   
3129       6.4431     5.7792     8.119      5.7486     4.9164     5.0124     4.7629     8.4004     0.891      99.2449   
3129.2     6.3688     5.706      8.1131     5.6333     4.8464     4.9658     4.7303     9.106      0.88       98.5014   
3129.4     6.3887     5.7253     8.0751     5.5482     4.7272     4.8797     4.8389     9.924      0.88       97.6415   
3129.6     6.5195     5.4988     7.6336     5.3654     4.5949     4.8215     4.5636     11.1225    0.88       97.3652   
3129.8     6.7104     5.408      7.4389     5.1452     4.4713     4.7316     4.6137     12.7794    0.883      95.1923   
3130       7.0453     5.293      7.2259     5.04       4.4026     4.7069     4.8645     14.8791    0.883      93.5617   
3130.2     7.5548     5.3321     7.2381     4.991      4.355      4.7414     5.3564     17.3834    0.892      92.6918   
3130.4     8.1741     5.5944     7.419      5.0295     4.3697     4.7916     5.9191     20.0587    0.908      91.9461   
3130.6     8.8105     6.0134     7.738      5.1086     4.4107     4.8744     6.4538     22.6072    0.916      91.1132   
3130.8     9.5184     6.4551     8.1802     5.2398     4.4854     4.9887     6.7494     25.2143    0.92       90.6847   
3131       10.3164    6.6368     8.6635     5.4301     4.6308     5.1349     6.8511     27.8231    0.923      90.9905   
3131.2     11.1792    6.9866     9.5108     5.6504     4.8061     5.3356     7.7733     29.7494    0.932      90.8854   
3131.4     12.3107    7.3813     10.3758    5.8809     4.985      5.611      8.398      31.1459    0.94       88.9469   
3131.6     14.1632    7.5316     10.6822    6.0599     5.1622     6.0464     8.0951     33.0339    0.931      86.2792   
3131.8     16.7356    7.061      10.4398    6.3082     5.6297     6.6405     8.9275     34.5691    0.922      83.6997   
3132       20.4062    7.2864     11.3693    7.0415     6.5619     7.3563     12.268     35.1057    0.923      82.1252   
3132.2     24.8003    8.4213     13.5131    8.3697     7.6392     8.1368     19.1648    33.9578    0.917      80.4785   
3132.4     29.104     10.2267    16.6183    10.1013    8.6301     8.8529     32.1475    30.1444    0.923      78.6923   
3132.6     32.2748    13.0268    21.8675    12.3518    9.4927     9.3039     47.124     25.1884    0.912      76.2794   
3132.8     33.1802    16.2944    29.4676    15.1617    10.2132    9.5135     52.1122    21.4268    0.91       73.1952   
3133       31.8589    19.0115    38.2687    18.3286    10.6656    9.4198     43.2177    18.4987    0.91       70.6397   
3133.2     28.9922    20.5677    46.6893    21.4463    10.7153    8.9839     29.6684    16.1878    0.91       68.6205   
3133.4     25.5557    20.6778    52.9898    24.3604    10.4088    8.2886     20.9694    14.3731    0.91       66.2257   
3133.6     22.3526    19.3195    53.6484    26.6124    9.7021     7.4679     15.5912    12.9692    0.917      63.4402   
3133.8     19.5767    17.1922    49.1237    27.9296    8.8112     6.666      12.0948    12.0769    0.908      61.1674   
3134       17.3691    15.4186    43.8183    29.111     7.9944     5.9116     10.556     11.4661    0.9        60.1692   
3134.2     16.1845    13.798     37.3294    29.636     7.369      5.333      9.0178     11.1391    0.896      59.6134   
3134.4     15.1181    11.6805    30.3297    29.8964    7.0569     4.9721     8.349      10.9432    0.882      60.2996   
3134.6     14.101     12.0135    28.5544    29.9259    6.9897     4.7202     10.4725    10.3982    0.879      62.4613   
3134.8     13.8077    11.9061    25.377     28.3848    6.9305     4.5528     8.6658     10.1523    0.887      65.8976   
3135       13.6737    10.1186    20.3841    24.7796    6.7932     4.4302     6.2809     10.3287    0.904      67.335    
3135.2     13.7035    9.4016     18.6747    21.7555    6.8084     4.3143     8.6755     10.1104    0.918      66.7392   
3135.4     14.3186    10.0247    19.0171    20.1513    7.0886     4.2132     10.8927    9.3809     0.92       65.5954   
3135.6     14.3026    11.1417    19.283     18.4888    7.3557     4.1651     10.5514    8.7283     0.925      65.0926   
3135.8     13.858     11.3635    18.6062    16.8311    7.6582     4.1861     9.2311     8.4478     0.921      66.1325   
3136       12.99      11.1605    18.4768    15.5769    8.2338     4.335      8.9941     8.3847     0.918      69.6407   
3136.2     11.9948    11.3627    20.4335    14.997     9.2128     4.5595     9.0113     8.4859     0.91       73.5506   
3136.4     11.1518    10.9737    20.2078    14.6351    10.3018    4.8179     6.9219     9.0385     0.905      78.4449   
3136.6     10.422     9.9275     18.2345    14.037     11.1968    5.069      6.117      9.9848     0.9        84.9059   
3136.8     9.9678     8.6127     16.5435    13.4205    11.7329    5.2374     6.2327     10.7749    0.901      88.5862   
3137       9.816      8.1537     15.5726    12.729     11.9841    5.3191     6.7819     11.2993    0.913      90.2391   
3137.2     9.7425     8.0907     14.6457    12.1475    11.917     5.3415     6.52       11.6695    0.917      90.8908   
3137.4     9.5554     8.1566     13.6089    11.788     11.5519    5.3415     6.55       12.1099    0.902      91.6903   
3137.6     9.5802     7.8841     12.828     11.2097    11.0851    5.3353     5.9819     12.9254    0.896      93.3256   
3137.8     9.6563     7.4074     12.0152    10.4679    10.5582    5.3415     6.1269     14.0323    0.888      94.7259   
3138       9.8348     7.3713     12.0263    9.9016     10.1638    5.3475     6.753      15.4623    0.877      96.0648   
3138.2     10.0705    7.6772     12.2101    9.5405     9.7861     5.3972     7.1827     17.0603    0.879      96.1471   
3138.4     10.3503    7.9582     12.1811    9.2197     9.4127     5.4393     6.769      19.5467    0.892      95.3726   
3138.6     10.8181    7.8126     11.7461    8.8045     8.9883     5.4374     6.4707     23.4696    0.89       92.8838   
3138.8     11.694     7.5293     11.5288    8.4165     8.5319     5.412      6.7312     27.9909    0.899      90.7741   
3139       13.1768    7.2853     11.5456    8.2511     8.0298     5.3723     8.3714     30.9007    0.902      87.1117   
3139.2     14.5269    8.0799     12.2016    8.4672     7.7287     5.3026     11.9312    31.4338    0.91       81.7086   
3139.4     15.2109    10.6223    14.4473    8.8847     7.5589     5.2422     14.6779    30.9158    0.915      76.8267   
3139.6     15.5235    11.0701    15.8197    9.0212     7.2116     5.2724     10.1139    31.1471    0.917      75.2562   
3139.8     15.6621    10.6443    16.1369    8.7575     6.8148     5.4877     9.0832     32.4264    0.937      75.528    
3140       16.2813    9.6368     16.6879    8.7698     6.7389     6.0544     9.175      33.5672    0.934      75.1819   
3140.2     17.9316    9.2726     17.0063    9.1149     7.141      7.1037     9.3281     36.226     0.945      75.2869   
3140.4     20.9015    7.5256     14.5761    9.8662     8.1545     8.3767     8.9051     40.552     0.922      75.7126   
3140.6     24.9044    6.748      15.2285    11.2845    9.735      9.8374     16.6944    41.1701    0.903      75.5268   
3140.8     30.823     8.0404     18.3452    13.7544    11.4194    11.3824    64.6652    34.973     0.922      72.8905   
3141       37.6248    11.3141    23.4572    17.7428    12.7964    12.4249    224.7279   26.9451    0.928      70.4342   
3141.2     40.3707    17.2924    31.6061    22.896     13.7551    12.8914    188.4628   20.5976    0.91       66.4063   
3141.4     39.5214    21.2146    38.3831    26.7001    13.8692    12.9708    42.4118    16.3965    0.905      63.2745   
3141.6     35.1439    22.2836    46.2317    29.7234    13.5774    12.5494    32.0134    13.5808    0.9        59.9744   
3141.8     29.4959    23.8289    61.5414    33.0311    13.6558    11.5824    30.5096    11.8346    0.898      56.0834   
