~Version
 VERS              .         2.0                           : CWLS LOG ASCII STANDARD - VERSION 2.0
 WRAP              .         NO                            : ONE LINE PER DEPTH STEP
 DLM               .         SPACE                         : DELIMITING CHARACTER(SPACE TAB OR COMMA)
~Well Information
#_______________________________________________________________________________
#
#PARAMETER_NAME    .UNIT     VALUE                         : DESCRIPTION
#_______________________________________________________________________________
STRT               .m        3075                          : First reference value
STOP               .m        3285                          : Last reference value
STEP               .m        0.2                           : Step increment
NULL               .         -9999                         : Missing value
COMP               .                                       : Company
WELL               .         305                           : Well name
FLD                .                                       : Field
LOC                .                                       : Location
CNTY               .                                       : County
STAT               .                                       : State
CTRY               .                                       : Country
SRVC               .                                       : Service Company
DATE               .                                       : Date
API                .                                       : API number
EREF               .m        138.34                        : 
Pad                .         3                             : 
X                  .m        219750                        : 
Y                  .m        249950                        : 
group              .         Pad3                          : 
Интер-р            .         Пузин                         : 
Куст               .         3                             : 
Статус             .         Не проверено                  : 
Тип                .         Разведка                      : 
~Parameter Information Block
#_______________________________________________________________________________
#
#PARAMETER_NAME    .UNIT     VALUE                         : DESCRIPTION
#_______________________________________________________________________________
SET                .         LAS1                          : 
REAL_CREATION_DATE .         Ср апр 11 2012-13_17_10       : 
TLFamily_DEPTH     .         Measured Depth                : 
TLFamily_KS        .         Potential Resistivity         : 
TLFamily_KS1       .         Extra Shallow Resistivity     : 
TLFamily_KS2       .         Shallow Resistivity           : 
TLFamily_KS3       .         Medium Resistivity            : 
TLFamily_KS4       .         Deep Resistivity              : 
TLFamily_KS5       .         Extra Deep Resistivity        : 
TLFamily_LLD       .         Lateral Log Resistivity       : 
TLFamily_OKS3      .         Medium Resistivity Inverted   : 
TLFamily_RM        .         Mud Resistivity               : 
TLFamily_SP        .         Spontaneous Potential         : 
group              .         INI                           : 
~Curve Information
#_______________________________________________________________________________
#
#LOGNAME           .UNIT     LOG_ID                        : DESCRIPTION
#_______________________________________________________________________________
DEPTH              .m                                      : Measured Depth 
KS                 .ohm.m                                  : Potential Resistivity 
KS1                .ohm.m                                  : Extra Shallow Resistivity 
KS2                .ohm.m                                  : Shallow Resistivity 
KS3                .ohm.m                                  : Medium Resistivity 
KS4                .ohm.m                                  : Deep Resistivity 
KS5                .ohm.m                                  : Extra Deep Resistivity 
LLD                .ohm.m                                  : Lateral Log Resistivity 
OKS3               .ohm.m                                  : Medium Resistivity Inverted 
RM                 .ohm.m                                  : Mud Resistivity 
SP                 .mV                                     : Spontaneous Potential 
~Ascii
# ...
3182.2     20.2132    12.2192    25.3919    23.0884    19.231     10.8434    14.1623    24.6001    0.883      102.4356  
3182.4     20.0739    12.1513    25.5157    22.7265    18.6835    11.2487    13.7067    24.5713    0.881      102.0263  
3182.6     19.8793    12.3448    26.1268    22.5465    18.6249    11.7328    13.6449    25.0416    0.891      101.6924  
3182.8     20.003     12.2143    26.0012    22.4936    18.667     12.3906    13.1623    25.7737    0.918      102.3322  
3183       20.4915    11.4917    24.7958    22.1599    18.7177    13.3385    11.9768    26.8591    0.929      101.6458  
3183.2     21.2616    10.8895    23.6549    21.9153    19.1023    14.2775    12.0937    28.0302    0.934      100.6498  
3183.4     22.3813    11.0125    24.2375    22.6694    20.1555    15.2806    14.3559    27.6799    0.923      99.9683   
3183.6     23.6267    11.668     25.426     24.8554    21.521     16.306     17.9636    25.8707    0.905      100.9046  
3183.8     24.1347    13.3074    28.0944    26.9022    22.945     17.1005    21.0605    23.3698    0.902      101.851   
3184       23.8307    15.0584    30.9784    28.5952    24.0229    17.4445    23.0436    21.2401    0.906      100.4357  
3184.2     22.9289    15.7201    32.7295    29.1482    24.1024    17.3193    19.1687    19.5664    0.916      99.7368   
3184.4     21.9956    15.64      33.7886    28.0872    23.0001    16.9585    15.9801    18.6468    0.915      101.8762  
3184.6     21.3891    13.6969    31.5746    26.3543    21.2826    16.6105    12.7184    18.7049    0.905      105.1381  
3184.8     20.9766    12.6013    30.3446    25.3523    20.1562    16.6231    11.8806    19.6283    0.888      105.4772  
3185       20.7957    12.2421    30.2431    25.9876    20.4746    17.0315    12.9149    20.8221    0.871      105.5367  
3185.2     20.5168    12.812     31.1237    27.4751    21.4093    17.792     15.4747    20.8481    0.882      105.4115  
3185.4     19.9232    13.9196    32.3672    29.2898    22.0616    18.5299    18.1925    19.4325    0.899      103.9252  
3185.6     18.4858    14.9341    32.695     30.6761    21.3727    18.5076    17.3248    17.2733    0.908      101.6471  
3185.8     16.8962    15.3865    32.2807    30.0483    19.0761    17.4892    14.931     14.7914    0.919      99.7224   
3186       15.6031    13.1499    28.0191    26.9709    16.105     15.7991    10.0778    12.9996    0.922      98.9394   
3186.2     14.5368    11.4675    25.0208    22.8833    13.5666    13.9605    8.299      12.2022    0.916      98.1802   
3186.4     14.0449    9.758      21.8243    19.7142    12.0209    12.3839    7.4512     12.3157    0.906      96.8243   
3186.6     14.0267    8.5107     19.1868    17.4883    11.3888    11.677     7.33       13.125     0.906      96.911    
3186.8     14.4122    8.2111     17.8215    16.8285    11.7482    11.8366    8.5143     14.4277    0.915      98.025    
3187       15.066     8.5707     17.3666    17.3242    12.7721    12.5539    9.5435     16.0463    0.904      98.7246   
3187.2     15.6925    9.3048     17.7293    18.5547    14.0653    13.4206    10.7013    17.6004    0.893      98.826    
3187.4     16.3285    10.128     18.4102    19.9626    15.2953    14.2071    12.0602    18.4139    0.882      98.236    
3187.6     16.9163    10.884     19.1845    20.7708    16.2221    14.8924    12.4604    18.3228    0.884      97.8265   
3187.8     17.0011    11.3481    19.9505    20.9099    16.9084    15.2254    12.2907    17.9894    0.894      97.8209   
3188       16.8294    12.0031    21.5024    20.4809    17.2636    15.2502    12.6654    17.9128    0.914      97.2723   
3188.2     16.4328    11.7513    22.1489    19.6752    17.4365    15.0262    11.3788    18.034     0.915      96.9391   
3188.4     15.4396    12.0611    23.4827    18.656     17.1916    14.3478    11.9088    17.7105    0.917      96.803    
3188.6     14.8622    12.4956    24.6984    17.2016    15.7824    13.3438    11.7102    16.739     0.911      96.8368   
3188.8     14.4822    10.709     20.6995    15.1528    13.5471    12.2351    8.7037     15.7652    0.907      97.0314   
3189       14.1634    9.8969     19.095     13.2741    11.7733    11.2199    8.4074     16.2599    0.907      96.8315   
3189.2     14.1268    8.8853     17.2047    12.5865    11.206     10.5709    7.8095     18.3646    0.906      97.6132   
3189.4     14.3137    8.4337     16.564     12.68      11.5596    10.7293    8.1698     21.3314    0.909      99.2235   
3189.6     14.5529    8.5379     16.9797    13.9641    12.8049    11.1764    9.3491     24.1943    0.908      99.3354   
3189.8     14.9853    9.8955     18.6501    15.2406    13.6425    12.2138    11.3881    25.9088    0.889      99.2155   
3190       16.0332    9.7587     17.2337    15.4703    13.4911    13.2509    10.2636    28.0012    0.878      101.181   
3190.2     17.116     9.1244     15.4375    14.825     13.1912    14.1175    9.1235     31.7566    0.884      101.3304  
3190.4     18.028     9.1508     16.2054    15.4529    14.0553    14.8659    10.6488    34.7819    0.918      100.3459  
3190.6     19.453     10.2168    18.6594    16.7013    14.9769    15.9121    14.6895    35.7653    0.918      101.0795  
3190.8     20.7805    11.1541    20.4571    17.5477    15.3579    16.8117    16.0613    35.5012    0.926      101.6978  
3191       21.5274    12.5309    22.576     17.668     15.4101    17.3121    16.9289    35.3235    0.92       102.3857  
3191.2     21.9953    12.7623    22.9516    17.5415    15.4842    17.6324    14.9409    35.3352    0.911      102.2504  
3191.4     22.2675    12.9637    25.0375    17.2794    15.5792    18.0471    14.9463    34.5696    0.908      102.2286  
3191.6     23.1662    12.8442    26.1214    17.4501    15.9426    18.7255    14.2396    33.6252    0.918      101.6536  
3191.8     24.0178    12.0449    26.0524    17.8159    16.4099    19.9274    13.7174    32.9664    0.914      100.6452  
3192       24.9471    12.2711    26.4634    19.2811    17.5633    21.1976    15.4463    32.2545    0.905      99.5258   
3192.2     25.932     13.2161    28.5673    21.2468    18.9721    22.5699    18.7558    30.9753    0.888      98.8967   
3192.4     27.2494    13.9096    30.5269    22.8747    19.7606    23.8768    20.0989    29.1357    0.879      98.7124   
3192.6     28.0528    13.868     30.4443    24.6315    20.0902    24.9754    17.2293    26.5173    0.889      98.4401   
3192.8     28.7459    14.4353    32.5048    26.6108    20.3667    25.9424    21.2498    24.3603    0.908      99.1792   
3193       29.1693    15.1461    34.6269    28.8084    20.7465    27.3062    21.3278    22.498     0.92       98.3312   
3193.2     28.8718    15.2438    36.6303    30.9094    21.6239    28.9046    20.8533    21.904     0.923      97.8353   
3193.4     27.3698    16.4001    41.9027    34.7923    23.4965    29.8441    20.5732    21.1505    0.917      97.76     
3193.6     25.5464    18.617     48.0445    40.6712    25.1048    29.8417    28.2171    19.1295    0.909      98.2379   
3193.8     23.6031    18.4611    46.8968    41.5726    24.5155    28.6326    22.619     16.025     0.902      100.0201  
3194       21.6377    17.4916    43.9572    38.9199    21.8708    25.9611    14.6794    13.4368    0.903      102.1639  
3194.2     20.0259    14.9843    37.8286    35.8572    19.1444    22.5452    11.4796    11.9474    0.894      103.5684  
3194.4     18.2612    13.3375    34.8915    33.9187    17.1274    19.3579    10.2005    11.267     0.883      104.7136  
3194.6     16.7126    13.6734    36.2433    33.5891    16.7192    16.4711    11.5051    10.5025    0.87       105.436   
3194.8     15.9082    12.8801    32.682     32.1391    16.337     14.4491    11.405     9.6746     0.876      105.9839  
3195       14.9377    11.926     27.7894    29.2876    15.2956    12.8247    8.7642     8.9823     0.902      105.5979  
3195.2     14.1077    11.6156    25.6977    27.0455    14.1478    11.2296    9.3854     8.6374     0.898      106.2865  
3195.4     13.5914    10.6756    22.7301    24.714     13.2358    10.0111    8.654      8.3209     0.926      107.2213  
