~Version
 VERS              .         2.0                           : CWLS LOG ASCII STANDARD - VERSION 2.0
 WRAP              .         NO                            : ONE LINE PER DEPTH STEP
 DLM               .         SPACE                         : DELIMITING CHARACTER(SPACE TAB OR COMMA)
~Well Information
#_______________________________________________________________________________
#
#PARAMETER_NAME    .UNIT     VALUE                         : DESCRIPTION
#_______________________________________________________________________________
STRT               .m        3075                          : First reference value
STOP               .m        3285                          : Last reference value
STEP               .m        0.2                           : Step increment
NULL               .         -9999                         : Missing value
COMP               .                                       : Company
WELL               .         305                           : Well name
FLD                .                                       : Field
LOC                .                                       : Location
CNTY               .                                       : County
STAT               .                                       : State
CTRY               .                                       : Country
SRVC               .                                       : Service Company
DATE               .                                       : Date
API                .                                       : API number
EREF               .m        138.34                        : 
Pad                .         3                             : 
X                  .m        219750                        : 
Y                  .m        249950                        : 
group              .         Pad3                          : 
Интер-р            .         Пузин                         : 
Куст               .         3                             : 
Статус             .         Не проверено                  : 
Тип                .         Разведка                      : 
~Parameter Information Block
#_______________________________________________________________________________
#
#PARAMETER_NAME    .UNIT     VALUE                         : DESCRIPTION
#_______________________________________________________________________________
SET                .         LAS1                          : 
REAL_CREATION_DATE .         Ср апр 11 2012-13_17_10       : 
TLFamily_DEPTH     .         Measured Depth                : 
TLFamily_KS        .         Potential Resistivity         : 
TLFamily_KS1       .         Extra Shallow Resistivity     : 
TLFamily_KS2       .         Shallow Resistivity           : 
TLFamily_KS3       .         Medium Resistivity            : 
TLFamily_KS4       .         Deep Resistivity              : 
TLFamily_KS5       .         Extra Deep Resistivity        : 
TLFamily_LLD       .         Lateral Log Resistivity       : 
TLFamily_OKS3      .         Medium Resistivity Inverted   : 
TLFamily_RM        .         Mud Resistivity               : 
TLFamily_SP        .         Spontaneous Potential         : 
group              .         INI                           : 
~Curve Information
#_______________________________________________________________________________
#
#LOGNAME           .UNIT     LOG_ID                        : DESCRIPTION
#_______________________________________________________________________________
DEPTH              .m                                      : Measured Depth 
KS                 .ohm.m                                  : Potential Resistivity 
KS1                .ohm.m                                  : Extra Shallow Resistivity 
KS2                .ohm.m                                  : Shallow Resistivity 
KS3                .ohm.m                                  : Medium Resistivity 
KS4                .ohm.m                                  : Deep Resistivity 
KS5                .ohm.m                                  : Extra Deep Resistivity 
LLD                .ohm.m                                  : Lateral Log Resistivity 
OKS3               .ohm.m                                  : Medium Resistivity Inverted 
RM                 .ohm.m                                  : Mud Resistivity 
SP                 .mV                                     : Spontaneous Potential 
~Ascii
# ...
3209       4.4983     4.2337     5.842      4.6952     4.5437     2.4325     3.4241     4.0744     0.878      93.5135   
3209.2     4.4396     4.3512     5.7532     4.6172     4.9868     2.3351     3.6327     3.9794     0.896      94.2752   
3209.4     4.4523     4.4015     5.4025     4.5529     4.9099     2.2601     3.838      3.7902     0.878      95.2479   
3209.6     4.4836     4.4119     5.2384     4.2971     4.4763     2.2036     3.5303     3.6114     0.87       95.4541   
3209.8     4.4079     4.2829     5.0277     4.044      4.2271     2.0954     3.4532     3.568      0.878      95.0092   
3210       4.4279     4.0993     5.0061     3.8155     4.0395     2.0878     3.4393     3.592      0.879      94.7703   
3210.2     4.476      4.0297     4.9694     3.7047     3.9728     2.1302     3.5821     3.6764     0.854      96.6609   
3210.4     4.5444     4.1124     5.1919     3.7067     4.0662     2.204      3.66       3.8455     0.864      98.881    
3210.6     4.5805     4.2639     5.257      3.8398     4.2673     2.2926     3.7043     4.0161     0.887      101.6539  
3210.8     4.6482     4.3829     5.3789     4.0019     4.4628     2.384      3.9076     4.203      0.885      103.4588  
3211       4.7311     4.4311     5.4554     4.1092     4.6056     2.4752     3.9374     4.2923     0.878      103.6065  
3211.2     4.846      4.6464     5.5575     4.1449     4.677      2.5438     4.0752     4.3122     0.871      103.5299  
3211.4     4.9387     4.5787     5.4483     4.1867     4.7989     2.6049     4.0394     4.3487     0.876      105.1162  
3211.6     4.9197     4.8789     5.7468     4.3077     5.0015     2.6401     4.1274     4.4056     0.875      104.9573  
3211.8     4.9141     4.9974     6.0891     4.33       5.0965     2.6771     4.2581     4.4286     0.853      106.3202  
3212       4.9084     5.0459     6.0811     4.2611     5.0383     2.7092     4.1025     4.4002     0.847      107.5521  
3212.2     4.8669     4.9537     6.1606     4.0824     4.8169     2.77       4.1428     4.4195     0.859      107.9305  
3212.4     4.7444     4.9438     6.0832     3.9663     4.6167     2.8797     4.0153     4.5021     0.875      105.5547  
3212.6     4.6483     5.0247     6.2228     3.8782     4.4317     3.0872     4.0418     4.498      0.887      102.1971  
3212.8     4.6198     4.6664     5.8391     3.7727     4.2273     3.5402     3.7884     4.5765     0.876      100.1784  
3213       4.5707     4.4914     5.6692     3.6593     4.0567     4.3091     3.5281     4.8658     0.863      98.8513   
3213.2     4.5561     4.3591     5.7397     3.7067     4.0948     5.1552     3.6294     5.3841     0.863      98.089    
3213.4     4.5752     4.4321     5.8058     3.8715     4.2055     5.9478     3.9152     5.9145     0.85       97.1094   
3213.6     4.5264     4.7666     5.9736     3.9801     4.2541     6.3143     4.0702     6.3933     0.84       96.5165   
3213.8     4.4601     4.8391     5.7183     3.8864     4.0573     6.3079     4.0532     6.7764     0.846      95.9799   
3214       4.4154     4.6058     5.3134     3.6715     3.7442     6.1602     3.7173     7.1934     0.853      95.2935   
3214.2     4.3761     4.2879     5.0432     3.4918     3.4599     5.9644     3.5292     7.7967     0.87       95.0963   
3214.4     4.4498     3.9768     4.9418     3.4263     3.3421     5.9159     3.3864     8.6986     0.873      94.7034   
3214.6     4.5452     3.6957     4.8758     3.5592     3.4814     5.9582     3.3658     10.0546    0.872      93.5646   
3214.8     4.7419     3.8942     5.2818     3.7557     3.7012     5.9587     3.6607     11.0784    0.87       92.6473   
3215       5.1416     3.8967     5.1869     3.7984     3.8249     5.8478     3.9601     11.6177    0.859      91.9854   
3215.2     5.7672     3.9674     4.9629     3.5172     3.5788     5.6306     3.9158     11.5351    0.847      91.6717   
3215.4     6.486      3.8593     4.6892     3.27       3.1912     5.2528     4.4635     11.2095    0.859      91.509    
3215.6     7.2785     4.4608     5.058      3.2319     2.8722     4.9718     5.4092     11.2464    0.876      89.4677   
3215.8     8.1129     4.7559     5.5304     3.3926     2.9609     4.8537     5.0141     12.3257    0.886      85.273    
3216       9.2108     4.8303     6.2448     3.7474     3.2657     4.9198     5.504      14.4402    0.876      81.3081   
3216.2     11.0623    5.2522     7.6042     4.2826     3.6467     5.0607     8.0415     15.6927    0.87       75.3239   
3216.4     13.3348    6.9305     9.4478     4.9531     3.9589     5.2012     14.1289    15.4109    0.873      67.7529   
3216.6     14.6099    9.9311     11.6061    5.5567     4.0887     5.2023     17.4008    14.2302    0.863      61.9466   
3216.8     14.5228    11.9408    13.2455    6.0683     4.0881     5.0936     13.572     13.4563    0.852      57.6812   
3217       13.8064    12.2444    15.4262    6.5273     3.9938     4.9737     10.7267    13.2213    0.846      53.2513   
3217.2     13.2048    11.3942    18.032     7.0513     3.9804     4.8188     9.8166     13.2103    0.856      45.9993   
3217.4     12.8412    10.7811    19.6764    7.5494     4.0673     4.7016     9.4632     13.3512    0.869      35.8041   
3217.6     12.6048    10.3506    19.398     8.0272     4.2373     4.6464     9.0498     13.6716    0.871      31.4663   
3217.8     12.5028    10.0426    18.1704    8.3536     4.4297     4.6367     8.7582     14.0767    0.872      27.5867   
3218       12.5416    9.6895     16.9032    8.6369     4.6495     4.6398     8.6145     14.4429    0.873      25.2852   
3218.2     12.6563    9.5538     16.2502    9.2556     4.8716     4.6663     8.6        14.8645    0.852      24.0551   
3218.4     12.7687    9.5408     16.0425    10.3132    5.1575     4.7067     8.6556     15.2658    0.844      22.5245   
3218.6     12.9594    9.6417     16.0007    11.2032    5.4583     4.7547     8.7923     15.5929    0.854      21.0632   
3218.8     13.2312    9.6276     15.8198    11.5148    5.7638     4.8307     8.7874     15.8918    0.867      20.3267   
3219       13.6036    9.7378     16.0061    11.4412    6.1605     4.9201     9.1178     16.0417    0.868      19.8592   
3219.2     14.0496    9.7205     16.0211    11.4177    6.6639     5.0244     9.3401     16.1679    0.868      19.5778   
3219.4     14.4118    9.9857     16.3584    11.4796    7.1131     5.1527     9.6537     16.2985    0.865      19.5403   
3219.6     14.6863    10.213     16.8301    11.6397    7.5429     5.3425     9.6851     16.5319    0.87       18.6827   
3219.8     14.93      10.2977    17.3814    11.8925    7.9658     5.6793     9.923      16.7654    0.855      17.509    
3220       15.1091    10.5092    18.1739    12.2612    8.4072     5.942      10.1473    17.2203    0.848      16.7853   
3220.2     15.3443    10.7858    18.7144    12.6677    8.9511     6.223      10.31      17.3888    0.854      16.3136   
3220.4     15.6437    10.5904    18.9476    13.0435    9.6168     6.5146     10.7209    17.3089    0.869      16.2275   
3220.6     15.7645    10.9299    19.5048    13.478     10.3001    6.747      10.8286    17.1316    0.873      17.764    
3220.8     15.6852    11.1114    20.0856    14.0436    10.8576    6.926      10.6329    16.963     0.865      21.1525   
3221       15.6387    11.1859    20.6309    14.5077    11.19      7.0826     10.5603    16.8262    0.865      24.2795   
3221.2     15.556     10.9348    20.456     14.8196    11.2991    7.1938     10.032     16.7413    0.873      25.922    
3221.4     15.4523    11.0149    20.8429    15.0458    11.346     7.2856     10.159     16.5818    0.862      27.5164   
3221.6     15.5402    10.8409    20.6476    15.231     11.3987    7.3919     10.168     16.3505    0.844      29.0785   
3221.8     15.5998    10.821     20.1977    15.2325    11.3532    7.5295     10.2194    16.0795    0.851      32.4534   
3222       15.6524    10.9633    20.3749    15.3505    11.4003    7.7014     10.0555    15.8968    0.862      34.1863   
3222.2     15.8167    10.7994    20.1073    15.5066    11.4837    7.9014     10.0697    15.7553    0.869      31.4182   
