~Version
 VERS              .         2.0                           : CWLS LOG ASCII STANDARD - VERSION 2.0
 WRAP              .         NO                            : ONE LINE PER DEPTH STEP
 DLM               .         SPACE                         : DELIMITING CHARACTER(SPACE TAB OR COMMA)
~Well Information
#_______________________________________________________________________________
#
#PARAMETER_NAME    .UNIT     VALUE                         : DESCRIPTION
#_______________________________________________________________________________
STRT               .m        3075                          : First reference value
STOP               .m        3285                          : Last reference value
STEP               .m        0.2                           : Step increment
NULL               .         -9999                         : Missing value
COMP               .                                       : Company
WELL               .         305                           : Well name
FLD                .                                       : Field
LOC                .                                       : Location
CNTY               .                                       : County
STAT               .                                       : State
CTRY               .                                       : Country
SRVC               .                                       : Service Company
DATE               .                                       : Date
API                .                                       : API number
EREF               .m        138.34                        : 
Pad                .         3                             : 
X                  .m        219750                        : 
Y                  .m        249950                        : 
group              .         Pad3                          : 
Интер-р            .         Пузин                         : 
Куст               .         3                             : 
Статус             .         Не проверено                  : 
Тип                .         Разведка                      : 
~Parameter Information Block
#_______________________________________________________________________________
#
#PARAMETER_NAME    .UNIT     VALUE                         : DESCRIPTION
#_______________________________________________________________________________
SET                .         LAS3                          : 
REAL_CREATION_DATE .         Ср апр 11 2012-13_17_10       : 
TLFamily_DEPTH     .         Measured Depth                : 
TLFamily_GR        .         Gamma Ray                     : 
TLFamily_TNPH      .         Neutron Porosity              : 
group              .         INI                           : 
~Curve Information
#_______________________________________________________________________________
#
#LOGNAME           .UNIT     LOG_ID                        : DESCRIPTION
#_______________________________________________________________________________
DEPTH              .m                                      : Measured Depth 
GR                 .gAPI                                   :  
TNPH               .v/v                                    : Neutron Porosity 
~Ascii
# ...
3220.8     19.352     0.171     
3221       18.864     0.168     
3221.2     19.656     0.166     
3221.4     19.32      0.18      
3221.6     20.896     0.197     
3221.8     21.856     0.207     
3222       23.776     0.239     
3222.2     25.328     0.214     
3222.4     24.816     0.205     
3222.6     26.272     0.202     
3222.8     24.048     0.203     
3223       25.72      0.196     
3223.2     25.896     0.208     
3223.4     27.872     0.2       
3223.6     26.56      0.184     
3223.8     27.952     0.167     
3224       29.072     0.155     
3224.2     29.288     0.153     
3224.4     30.736     0.163     
3224.6     31.288     0.162     
3224.8     28.44      0.159     
3225       30.16      0.164     
3225.2     34.416     0.164     
3225.4     38.36      0.173     
3225.6     34.96      0.162     
3225.8     35.664     0.155     
3226       38.136     0.155     
3226.2     34.896     0.159     
3226.4     34.416     0.171     
3226.6     33.84      0.172     
3226.8     34.592     0.16      
3227       35.144     0.186     
3227.2     33.536     0.193     
3227.4     32.336     0.199     
3227.6     31.72      0.204     
3227.8     34.104     0.216     
3228       33.592     0.221     
3228.2     34.904     0.219     
3228.4     33.584     0.21      
3228.6     37.608     0.219     
3228.8     38.616     0.201     
3229       34.968     0.203     
3229.2     34.92      0.214     
3229.4     35.136     0.23      
3229.6     31.256     0.231     
3229.8     30.752     0.227     
3230       30.504     0.221     
3230.2     29.84      0.212     
3230.4     29.288     0.21      
3230.6     29.424     0.214     
3230.8     27.88      0.208     
3231       30.136     0.201     
3231.2     30.056     0.197     
3231.4     29.264     0.194     
3231.6     30.328     0.196     
3231.8     28.36      0.188     
3232       29.096     0.191     
3232.2     30.32      0.191     
3232.4     31         0.202     
3232.6     31.768     0.195     
3232.8     31.12      0.206     
3233       29.216     0.21      
3233.2     30.016     0.216     
3233.4     28.488     0.216     
3233.6     29.688     0.217     
3233.8     27.776     0.217     
3234       29.504     0.213     
3234.2     29.064     0.212     
3234.4     33.208     0.214     
3234.6     37.664     0.206     
3234.8     39.224     0.211     
3235       36.64      0.222     
3235.2     33.528     0.219     
3235.4     36.104     0.203     
3235.6     37.664     0.214     
3235.8     45.976     0.217     
3236       46.504     0.206     
3236.2     48.336     0.214     
3236.4     48.4       0.212     
3236.6     54.416     0.227     
3236.8     62.056     0.237     
3237       68.424     0.248     
3237.2     69.648     0.264     
3237.4     72.816     0.273     
3237.6     69.72      0.296     
3237.8     72.728     0.281     
3238       76.568     0.272     
3238.2     78.08      0.275     
3238.4     74.096     0.278     
3238.6     75.2       0.284     
3238.8     75.656     0.342     
3239       83.136     0.343     
3239.2     88.392     0.306     
3239.4     76.96      0.25      
3239.6     73.048     0.236     
3239.8     70.864     0.224     
3240       63.576     0.208     
3240.2     60         0.203     
3240.4     56.248     0.184     
3240.6     50.2       0.168     
3240.8     54.24      0.183     
3241       63.464     0.201     
3241.2     72.344     0.214     
3241.4     73.032     0.291     
3241.6     72.672     0.297     
3241.8     74.92      0.257     
3242       77.968     0.261     
3242.2     77.72      0.27      
3242.4     76.184     0.281     
3242.6     72.44      0.263     
3242.8     70.864     0.258     
3243       72.464     0.265     
3243.2     66.76      0.279     
3243.4     65.904     0.255     
3243.6     66.736     0.244     
3243.8     66.128     0.243     
3244       64.296     0.246     
3244.2     67.496     0.254     
3244.4     70.064     0.258     
3244.6     75.528     0.277     
3244.8     76.064     0.268     
3245       76.816     0.265     
3245.2     75.168     0.26      
3245.4     77.528     0.214     
3245.6     77.344     0.21      
3245.8     78.688     0.232     
3246       80.76      0.288     
3246.2     83.944     0.293     
3246.4     85.704     0.269     
3246.6     90.944     0.238     
3246.8     87.72      0.233     
3247       83.728     0.214     
3247.2     81.032     0.214     
3247.4     76.56      0.228     
3247.6     69.664     0.215     
3247.8     59.296     0.217     
3248       47.968     0.227     
3248.2     44.816     0.228     
3248.4     40.824     0.221     
3248.6     43.712     0.221     
3248.8     45.384     0.209     
3249       55.504     0.228     
3249.2     65.832     0.25      
3249.4     69.376     0.246     
3249.6     73.56      0.244     
3249.8     75.496     0.239     
3250       79.712     0.235     
3250.2     83.512     0.242     
3250.4     87.888     0.274     
3250.6     86.6       0.26      
3250.8     88.224     0.272     
3251       85.176     0.259     
3251.2     84.968     0.259     
3251.4     82.936     0.278     
3251.6     78.104     0.251     
3251.8     76.456     0.246     
3252       73.888     0.274     
3252.2     73.792     0.299     
3252.4     74.712     0.297     
3252.6     68.424     0.284     
3252.8     67.512     0.281     
3253       61.808     0.307     
3253.2     42.776     0.349     
3253.4     18.768     0.412     
3253.6     5.983999   0.509     
3253.8     5.632      0.376     
3254       3.087999   0.335     
3254.2     5.087999   0.335     
3254.4     8.344      0.332     
3254.6     7.615999   0.386     
3254.8     9.608      0.417     
3255       16.808     0.413     
3255.2     25.8       0.302     
3255.4     39.656     0.314     
3255.6     47.608     0.292     
3255.8     61.272     0.243     
3256       74.848     0.247     
3256.2     69.072     0.253     
3256.4     62.808     0.239     
3256.6     57.36      0.238     
3256.8     51.256     0.241     
3257       47.192     0.243     
3257.2     48.752     0.284     
3257.4     55.224     0.282     
3257.6     65.848     0.234     
3257.8     75.752     0.192     
3258       73.032     0.191     
3258.2     74.52      0.192     
3258.4     74.92      0.192     
3258.6     71.408     0.2       
3258.8     70.288     0.196     
3259       67.08      0.196     
3259.2     67.936     0.192     
3259.4     69.96      0.216     
3259.6     71.864     0.236     
3259.8     73.832     0.247     
3260       69.08      0.263     
3260.2     71.512     0.242     
3260.4     71.576     0.242     
3260.6     71.68      0.238     
3260.8     69.728     0.232     
3261       61.328     0.224     
3261.2     52.504     0.189     
3261.4     46.664     0.188     
3261.6     49.224     0.199     
3261.8     53.408     0.199     
3262       57.88      0.205     
3262.2     61.768     0.25      
3262.4     66.656     0.261     
3262.6     69.168     0.243     
3262.8     77.816     0.233     
3263       86.664     0.233     
3263.2     83.864     0.251     
3263.4     77.384     0.268     
3263.6     71.896     0.279     
3263.8     77.664     0.307     
3264       88.256     0.284     
3264.2     97.728     0.285     
3264.4     94.344     0.271     
3264.6     84.624     0.257     
3264.8     80.408     0.247     
3265       77.584     0.226     
3265.2     69.872     0.21      
3265.4     62.848     0.221     
3265.6     58.112     0.202     
3265.8     59.496     0.197     
3266       61.584     0.212     
3266.2     56.92      0.213     
3266.4     58.032     0.221     
3266.6     61.368     0.238     
3266.8     57.112     0.229     
3267       58.752     0.229     
3267.2     56.768     0.266     
3267.4     50.184     0.266     
3267.6     51.376     0.252     
3267.8     46.064     0.26      
3268       47.8       0.236     
3268.2     44.12      0.204     
3268.4     46.344     0.211     
3268.6     56.152     0.248     
3268.8     60.872     0.252     
3269       58.848     0.25      
3269.2     68.888     0.237     
