~Version
 VERS              .         2.0                           : CWLS LOG ASCII STANDARD - VERSION 2.0
 WRAP              .         NO                            : ONE LINE PER DEPTH STEP
 DLM               .         SPACE                         : DELIMITING CHARACTER(SPACE TAB OR COMMA)
~Well Information
#_______________________________________________________________________________
#
#PARAMETER_NAME    .UNIT     VALUE                         : DESCRIPTION
#_______________________________________________________________________________
STRT               .m        3075                          : First reference value
STOP               .m        3285                          : Last reference value
STEP               .m        0.2                           : Step increment
NULL               .         -9999                         : Missing value
COMP               .                                       : Company
WELL               .         305                           : Well name
FLD                .                                       : Field
LOC                .                                       : Location
CNTY               .                                       : County
STAT               .                                       : State
CTRY               .                                       : Country
SRVC               .                                       : Service Company
DATE               .                                       : Date
API                .                                       : API number
EREF               .m        138.34                        : 
Pad                .         3                             : 
X                  .m        219750                        : 
Y                  .m        249950                        : 
group              .         Pad3                          : 
Интер-р            .         Пузин                         : 
Куст               .         3                             : 
Статус             .         Не проверено                  : 
Тип                .         Разведка                      : 
~Parameter Information Block
#_______________________________________________________________________________
#
#PARAMETER_NAME    .UNIT     VALUE                         : DESCRIPTION
#_______________________________________________________________________________
SET                .         LAS1                          : 
REAL_CREATION_DATE .         Ср апр 11 2012-13_17_10       : 
TLFamily_DEPTH     .         Measured Depth                : 
TLFamily_KS        .         Potential Resistivity         : 
TLFamily_KS1       .         Extra Shallow Resistivity     : 
TLFamily_KS2       .         Shallow Resistivity           : 
TLFamily_KS3       .         Medium Resistivity            : 
TLFamily_KS4       .         Deep Resistivity              : 
TLFamily_KS5       .         Extra Deep Resistivity        : 
TLFamily_LLD       .         Lateral Log Resistivity       : 
TLFamily_OKS3      .         Medium Resistivity Inverted   : 
TLFamily_RM        .         Mud Resistivity               : 
TLFamily_SP        .         Spontaneous Potential         : 
group              .         INI                           : 
~Curve Information
#_______________________________________________________________________________
#
#LOGNAME           .UNIT     LOG_ID                        : DESCRIPTION
#_______________________________________________________________________________
DEPTH              .m                                      : Measured Depth 
KS                 .ohm.m                                  : Potential Resistivity 
KS1                .ohm.m                                  : Extra Shallow Resistivity 
KS2                .ohm.m                                  : Shallow Resistivity 
KS3                .ohm.m                                  : Medium Resistivity 
KS4                .ohm.m                                  : Deep Resistivity 
KS5                .ohm.m                                  : Extra Deep Resistivity 
LLD                .ohm.m                                  : Lateral Log Resistivity 
OKS3               .ohm.m                                  : Medium Resistivity Inverted 
RM                 .ohm.m                                  : Mud Resistivity 
SP                 .mV                                     : Spontaneous Potential 
~Ascii
# ...
3142       25.3168    23.7001    71.0605    34.9974    13.186     10.5462    20.1842    10.4102    0.902      54.6551   
3142.2     21.7063    20.0822    64.328     35.2954    12.1005    9.284      11.9287    9.4474     0.909      53.1644   
3142.4     19.0019    17.3125    53.1753    34.5653    10.7172    8.1749     10.7856    8.7996     0.905      51.7127   
3142.6     16.7216    15.5105    44.9047    34.5365    9.5654     7.1088     10.0829    8.2841     0.904      52.5962   
3142.8     14.5448    14.3631    39.088     36.5328    8.7946     6.2481     8.9585     7.929      0.909      54.4055   
3143       12.9933    13.1652    32.6057    37.6436    8.1182     5.6037     7.0615     7.9867     0.902      58.7072   
3143.2     12.112     11.1393    25.7428    33.305     7.4178     5.1557     6.2988     8.2118     0.89       63.2806   
3143.4     11.7481    9.5541     21.2088    27.3284    6.8623     4.8672     7.193      8.4224     0.881      65.9055   
3143.6     11.7558    9.2042     18.6198    22.3042    6.6283     4.7187     7.5742     8.8619     0.884      67.2248   
3143.8     11.5571    9.4451     16.9832    18.8157    6.5232     4.7306     7.6592     9.5632     0.891      68.0499   
3144       11.056     9.6738     15.9644    16.7051    6.6452     4.841      7.6743     10.5111    0.913      70.2709   
3144.2     10.4953    9.7205     15.6091    15.0023    6.8941     5.0134     6.7998     11.7619    0.914      74.118    
3144.4     9.9991     9.3632     15.2525    13.5626    7.2727     5.2082     6.1314     13.527     0.915      78.2849   
3144.6     9.5431     8.4901     14.4412    12.5051    7.7735     5.4253     5.9895     15.5017    0.92       83.7098   
3144.8     9.1712     8.0616     13.9217    11.61      8.5815     5.5904     6.0744     17.2269    0.92       88.757    
3145       9.0775     7.7368     13.2366    10.7447    9.4677     5.7572     5.7139     18.7197    0.918      92.104    
3145.2     9.1411     7.2159     11.9642    9.8056     9.7817     5.9116     5.4136     19.7612    0.924      94.1335   
3145.4     9.4878     6.815      10.9769    8.961      9.675      6.0889     5.3818     19.7893    0.916      94.258    
3145.6     10.4633    6.2718     9.8503     8.2659     9.429      6.3666     5.3624     20.0922    0.915      92.5586   
3145.8     12.1644    5.6756     8.8133     7.6577     9.3218     6.7757     6.7657     20.3057    0.916      90.7533   
3146       14.9291    6.0521     9.1151     7.4835     9.6172     7.3623     10.7004    19.787     0.927      88.1984   
3146.2     18.2738    7.4773     10.2058    7.8889     10.2337    8.2181     14.6467    18.4162    0.922      79.4967   
3146.4     21.3227    9.2471     11.8007    8.5975     11.1334    9.3361     16.5222    16.9387    0.924      73.4145   
3146.6     24.2234    10.4574    14.185     9.8436     12.4944    10.659     17.723     16.0609    0.918      73.8095   
3146.8     26.7124    11.103     18.0885    11.9323    14.5331    12.1237    21.5764    15.6018    0.903      75.6814   
3147       28.1457    13.2618    25.2157    14.737     16.4686    13.6713    41.717     14.4849    0.887      77.0613   
3147.2     27.4308    16.6498    33.9023    18.0986    17.9207    14.7173    61.2518    12.3715    0.883      78.261    
3147.4     23.5859    21.4444    45.6622    21.8418    18.719     14.2984    52.8502    10.0997    0.885      80.2078   
3147.6     18.9365    24.6812    54.5185    24.4676    17.5994    12.9193    18.9528    8.1402     0.89       81.7287   
3147.8     15.1244    20.0215    46.3776    24.0691    14.1746    11.0954    7.6348     6.6377     0.906      82.9483   
3148       12.2708    14.2612    37.4071    21.2842    10.3744    8.9064     6.2686     5.7974     0.916      86.1158   
3148.2     10.6717    10.4315    30.6668    19.7442    8.3647     7.3651     6.1727     5.364      0.92       88.0153   
3148.4     9.5327     9.296      26.0473    18.8519    7.2863     6.5954     6.1386     5.1279     0.923      89.9738   
3148.6     8.7619     8.5715     21.1409    17.8867    6.6354     6.1931     5.2654     5.1031     0.917      91.207    
3148.8     8.1498     7.7308     16.1895    16.4139    6.1088     5.9789     4.9961     5.1947     0.908      91.2623   
3149       7.6938     7.166      13.7141    15.0937    5.8        5.9418     4.964      5.286      0.903      91.264    
3149.2     7.4264     6.745      12.1155    14.2295    5.6856     6.1218     4.8457     5.2956     0.904      93.1102   
3149.4     7.206      6.5129     11.0605    13.3433    5.702      6.416      4.8182     5.3813     0.911      95.0845   
3149.6     6.941      6.4646     10.3968    12.3909    5.8167     6.6789     4.8143     5.4779     0.91       95.6981   
3149.8     6.7305     6.3931     9.9231     11.3645    5.9602     6.9369     4.5781     5.5893     0.904      95.2898   
3150       6.642      6.0911     9.3331     10.1465    6.1348     7.0336     4.5173     5.695      0.895      95.0735   
3150.2     6.6138     5.9448     8.9471     9.1544     6.3083     6.9705     4.6173     5.6872     0.881      95.3694   
3150.4     6.6129     6.0018     8.6408     8.3481     6.3967     6.8722     4.8392     5.5349     0.883      95.4042   
3150.6     6.642      6.0225     8.2687     7.5831     6.3703     6.8053     4.6283     5.4629     0.895      96.4902   
3150.8     6.6971     5.8531     7.8624     6.9145     6.4199     6.8143     4.5246     5.6551     0.913      98.8264   
3151       6.684      5.7272     7.9105     6.6059     6.8867     6.8438     4.608      6.1371     0.918      100.6688  
3151.2     6.6383     5.8714     8.4301     6.6758     7.5948     6.8952     4.8482     6.6002     0.92       101.8658  
3151.4     6.7285     6.0558     8.6857     6.7578     8.1057     6.9652     5.0765     6.7965     0.919      101.756   
3151.6     6.935      6.1315     8.5276     6.5852     8.1789     6.8986     5.1429     6.8509     0.917      102.2405  
3151.8     6.9878     6.3957     8.3964     6.2693     7.9871     6.677      5.1089     6.8787     0.913      102.3845  
3152       7.0682     6.2476     8.1669     5.9925     7.5548     6.4314     5.0615     6.9282     0.903      102.8405  
3152.2     7.0538     6.1797     8.1371     5.8062     7.08       6.269      4.9831     7.2377     0.9        102.8518  
3152.4     6.9328     6.3586     8.8513     5.8529     6.8613     6.0693     5.02       7.7903     0.898      101.1312  
3152.6     6.8848     6.5041     9.2348     5.9599     6.738      5.8606     5.2187     7.999      0.907      100.0549  
3152.8     7.026      6.2558     8.7042     5.8608     6.2908     5.6702     5.1801     7.7126     0.905      99.6887   
3153       7.0309     6.0601     8.2916     5.4831     5.6338     5.4174     4.8926     7.2373     0.9        99.7346   
3153.2     6.9309     6.2654     8.5505     5.2438     5.1965     5.049      4.9979     6.7683     0.893      99.8153   
3153.4     6.8949     6.1536     8.4321     5.1995     4.8801     4.7625     5.0983     6.2883     0.878      101.1747  
3153.6     6.9383     6.0177     8.3209     5.0861     4.4654     4.5677     4.9002     5.8955     0.879      102.4157  
3153.8     6.96       5.8825     8.107      4.9783     4.0945     4.3894     4.8789     5.7506     0.894      103.1902  
3154       6.9948     5.7517     7.9224     4.9731     3.9293     4.2609     4.9367     5.7673     0.912      103.7645  
3154.2     7.051      5.8143     7.9498     5.0125     3.8858     4.2525     5.0648     5.914      0.916      102.8933  
3154.4     7.2092     5.7999     7.957      5.0633     3.9139     4.4322     4.9863     6.0506     0.926      101.5058  
3154.6     7.4474     5.6585     7.6844     5.2815     4.0137     4.9174     4.9713     6.4095     0.925      100.5133  
3154.8     7.6547     5.6972     7.8656     6.025      4.4469     5.7582     5.0403     7.3131     0.916      100.3812  
3155       7.7084     6.0537     8.7409     7.3103     5.5092     6.7736     5.3354     8.66       0.912      101.6764  
3155.2     7.8867     6.8449     10.2312    8.3745     6.8326     7.7993     6.1008     9.669      0.905      100.5866  
