~Version
 VERS              .         2.0                           : CWLS LOG ASCII STANDARD - VERSION 2.0
 WRAP              .         NO                            : ONE LINE PER DEPTH STEP
 DLM               .         SPACE                         : DELIMITING CHARACTER(SPACE TAB OR COMMA)
~Well Information
#_______________________________________________________________________________
#
#PARAMETER_NAME    .UNIT     VALUE                         : DESCRIPTION
#_______________________________________________________________________________
STRT               .m        3075                          : First reference value
STOP               .m        3285                          : Last reference value
STEP               .m        0.2                           : Step increment
NULL               .         -9999                         : Missing value
COMP               .                                       : Company
WELL               .         305                           : Well name
FLD                .                                       : Field
LOC                .                                       : Location
CNTY               .                                       : County
STAT               .                                       : State
CTRY               .                                       : Country
SRVC               .                                       : Service Company
DATE               .                                       : Date
API                .                                       : API number
EREF               .m        138.34                        : 
Pad                .         3                             : 
X                  .m        219750                        : 
Y                  .m        249950                        : 
group              .         Pad3                          : 
Интер-р            .         Пузин                         : 
Куст               .         3                             : 
Статус             .         Не проверено                  : 
Тип                .         Разведка                      : 
~Parameter Information Block
#_______________________________________________________________________________
#
#PARAMETER_NAME    .UNIT     VALUE                         : DESCRIPTION
#_______________________________________________________________________________
SET                .         LAS1                          : 
REAL_CREATION_DATE .         Ср апр 11 2012-13_17_10       : 
TLFamily_DEPTH     .         Measured Depth                : 
TLFamily_KS        .         Potential Resistivity         : 
TLFamily_KS1       .         Extra Shallow Resistivity     : 
TLFamily_KS2       .         Shallow Resistivity           : 
TLFamily_KS3       .         Medium Resistivity            : 
TLFamily_KS4       .         Deep Resistivity              : 
TLFamily_KS5       .         Extra Deep Resistivity        : 
TLFamily_LLD       .         Lateral Log Resistivity       : 
TLFamily_OKS3      .         Medium Resistivity Inverted   : 
TLFamily_RM        .         Mud Resistivity               : 
TLFamily_SP        .         Spontaneous Potential         : 
group              .         INI                           : 
~Curve Information
#_______________________________________________________________________________
#
#LOGNAME           .UNIT     LOG_ID                        : DESCRIPTION
#_______________________________________________________________________________
DEPTH              .m                                      : Measured Depth 
KS                 .ohm.m                                  : Potential Resistivity 
KS1                .ohm.m                                  : Extra Shallow Resistivity 
KS2                .ohm.m                                  : Shallow Resistivity 
KS3                .ohm.m                                  : Medium Resistivity 
KS4                .ohm.m                                  : Deep Resistivity 
KS5                .ohm.m                                  : Extra Deep Resistivity 
LLD                .ohm.m                                  : Lateral Log Resistivity 
OKS3               .ohm.m                                  : Medium Resistivity Inverted 
RM                 .ohm.m                                  : Mud Resistivity 
SP                 .mV                                     : Spontaneous Potential 
~Ascii
3075.0     -9999      -9999      -9999      -9999      -9999      -9999      -9999      0.027      -9999      -9999     
3075.2     -9999      -9999      -9999      -9999      -9999      -9999      -9999      0.0378     -9999      -9999     
3075.4     -9999      -9999      -9999      -9999      -9999      -9999      -9999      0.8845     -9999      -9999     
3075.6     -9999      -9999      -9999      -9999      -9999      -9999      -9999      11.742     -9999      -9999     
3075.8     -9999      -9999      -9999      -9999      -9999      -9999      -9999      20.6641    -9999      -9999     
3076       -9999      -9999      -9999      -9999      -9999      -9999      -9999      23.298     -9999      -9999     
3076.2     -9999      -9999      -9999      -9999      -9999      -9999      -9999      17.1687    -9999      -9999     
3076.4     -9999      -9999      -9999      -9999      -9999      -9999      -9999      13.2723    -9999      -9999     
3076.6     -9999      -9999      -9999      -9999      -9999      -9999      -9999      11.0625    -9999      72.04     
3076.8     -9999      -9999      -9999      -9999      -9999      -9999      -9999      9.7892     -9999      75.9652   
3077       -9999      -9999      -9999      -9999      -9999      -9999      -9999      9.1247     -9999      79.7438   
3077.2     -9999      -9999      -9999      -9999      -9999      -9999      -9999      8.7339     -9999      81.7049   
3077.4     -9999      -9999      -9999      -9999      -9999      -9999      -9999      8.4631     -9999      83.935    
3077.6     -9999      -9999      -9999      -9999      -9999      -9999      -9999      8.2445     -9999      85.515    
3077.8     -9999      -9999      -9999      -9999      -9999      -9999      -9999      8.0667     -9999      85.1782   
3078       -9999      -9999      -9999      -9999      -9999      -9999      -9999      7.9211     -9999      84.1658   
3078.2     -9999      -9999      -9999      -9999      -9999      -9999      -9999      7.7683     -9999      83.5468   
3078.4     -9999      -9999      -9999      -9999      -9999      -9999      -9999      7.5738     -9999      84.5996   
3078.6     -9999      -9999      -9999      -9999      -9999      -9999      -9999      7.4213     -9999      85.172    
3078.8     -9999      -9999      -9999      -9999      -9999      -9999      -9999      7.3746     -9999      85.6264   
3079       -9999      -9999      -9999      -9999      -9999      -9999      -9999      7.3255     -9999      86.7211   
3079.2     -9999      -9999      -9999      -9999      -9999      -9999      -9999      7.3239     -9999      88.469    
3079.4     -9999      -9999      -9999      -9999      -9999      -9999      -9999      7.2919     -9999      89.2875   
3079.6     -9999      -9999      -9999      -9999      -9999      -9999      -9999      7.3173     -9999      88.9106   
3079.8     -9999      -9999      -9999      -9999      -9999      -9999      -9999      7.3487     -9999      89.2707   
3080       -9999      -9999      -9999      -9999      -9999      -9999      -9999      7.3783     -9999      89.8227   
3080.2     -9999      -9999      -9999      -9999      -9999      -9999      -9999      7.3777     -9999      90.1453   
3080.4     -9999      -9999      -9999      -9999      -9999      -9999      -9999      7.3776     -9999      89.8248   
3080.6     -9999      -9999      -9999      -9999      -9999      -9999      -9999      7.3301     -9999      88.9397   
3080.8     7.4852     6.6588     9.6459     6.8714     4.6155     0.399      -9999      7.2184     0.939      88.4357   
3081       7.5071     6.5544     9.4656     6.7621     4.8047     0.3963     -9999      7.0872     0.94       88.3194   
3081.2     7.5392     6.5379     9.4247     6.6672     4.9322     0.3896     -9999      6.9775     0.943      88.5922   
3081.4     7.5542     6.5375     9.3937     6.6283     5.0303     0.4012     -9999      6.8802     0.941      89.0976   
3081.6     7.5289     6.619      9.4526     6.6222     5.1358     0.4026     -9999      6.7345     0.937      89.4073   
3081.8     7.5634     6.4906     9.4958     6.6437     5.2381     0.4026     -9999      6.6052     0.934      90.2976   
3082       7.6056     6.466      9.4161     6.6329     5.3205     0.4026     -9999      6.533      0.936      91.3634   
3082.2     7.6285     6.5787     9.4949     6.6672     5.3868     0.3941     -9999      6.4566     0.929      92.1713   
3082.4     7.6713     6.5927     9.5569     6.7366     5.4652     0.393      -9999      6.3866     0.917      92.3784   
3082.6     7.6902     6.6204     9.6078     6.8123     5.5572     0.3929     -9999      6.3581     0.909      93.773    
3082.8     7.6613     6.7078     9.772      6.8723     5.6298     0.4026     -9999      6.4103     0.901      94.5965   
3083       7.6095     6.7772     9.8523     6.9785     5.7203     0.3983     5.8084     6.4241     0.893      95.0746   
3083.2     7.5456     6.7443     9.8615     7.0653     5.7883     0.3896     5.8464     6.3747     0.885      95.6428   
3083.4     7.4278     6.7697     9.8762     7.0544     5.8136     0.3896     5.7814     6.3377     0.896      96.5143   
3083.6     7.0882     6.78       9.8204     7.0735     5.8368     0.3896     5.7105     6.3893     0.894      97.3872   
3083.8     6.7415     6.7869     10.1114    7.0882     5.8633     0.3896     5.3992     6.4531     0.899      96.1272   
3084       6.5011     6.4359     9.7976     6.9197     5.8493     0.3896     4.9        6.5025     0.907      93.9563   
3084.2     6.3249     5.9081     9.1328     6.6776     5.7066     0.6665     4.5354     6.6291     0.923      92.4501   
3084.4     6.2332     5.5613     8.6052     6.4317     5.5438     2.3039     4.4127     6.7934     0.935      92.1291   
3084.6     6.2217     5.3798     8.193      6.2689     5.4513     3.2402     4.4564     7.0456     0.937      93.0879   
3084.8     6.3361     5.2368     7.811      6.101      5.373      3.7561     4.4985     7.2491     0.938      92.3665   
3085       6.5422     5.1841     7.5272     5.9324     5.3042     4.0966     4.7503     7.3831     0.941      91.9779   
3085.2     6.8109     5.3064     7.5445     5.8744     5.2541     4.3365     5.1094     7.4929     0.942      93.7393   
3085.4     7.0535     5.6487     7.7008     5.8744     5.2504     4.5075     5.5799     7.5353     0.945      94.6896   
3085.6     7.2327     5.972      7.8657     5.8588     5.2148     4.6384     5.7008     7.5551     0.941      95.1022   
3085.8     7.2889     6.321      8.2359     5.8109     5.1701     4.7216     5.7113     7.5652     0.937      94.9433   
3086       7.3308     6.3769     8.4993     5.7732     5.1302     4.7786     5.5304     7.6183     0.933      94.9421   
3086.2     7.4224     6.2271     8.5764     5.7243     5.0877     4.8471     5.4606     7.5779     0.93       96.0669   
3086.4     7.5301     6.2008     8.7898     5.7322     5.083      4.9178     5.672      7.144      0.924      96.4723   
3086.6     7.6759     6.2597     8.9775     5.805      5.1362     5.0191     5.856      6.6752     0.92       95.4682   
3086.8     7.7552     6.3995     9.1182     5.9863     5.2605     5.1349     5.9896     6.4777     0.92       95.0003   
3087       7.7254     6.6659     9.6463     6.2673     5.4324     5.2237     6.0686     6.3697     0.921      95.4832   
3087.2     7.7467     6.7617     9.6898     6.4826     5.5157     5.3107     6.0588     6.1783     0.923      95.424    
3087.4     7.8531     6.6297     9.5425     6.4645     5.4083     5.3903     5.8715     5.9715     0.933      94.5731   
3087.6     7.9015     6.6135     9.4677     6.4779     5.4027     5.4653     5.8098     5.9206     0.948      94.1586   
3087.8     7.9483     6.5619     9.4449     6.5851     5.5793     5.6407     5.786      6.0666     0.924      94.2028   
3088       8.0769     6.5136     9.6096     6.8539     6.0807     6.0292     5.7048     6.464      0.918      94.6987   
3088.2     8.2604     6.3728     9.8493     7.5004     6.9693     6.6604     5.8419     7.1739     0.917      95.6111   
