~Version
 VERS              .         2.0                           : CWLS LOG ASCII STANDARD - VERSION 2.0
 WRAP              .         NO                            : ONE LINE PER DEPTH STEP
 DLM               .         SPACE                         : DELIMITING CHARACTER(SPACE TAB OR COMMA)
~Well Information
#_______________________________________________________________________________
#
#PARAMETER_NAME    .UNIT     VALUE                         : DESCRIPTION
#_______________________________________________________________________________
STRT               .m        3075                          : First reference value
STOP               .m        3285                          : Last reference value
STEP               .m        0.2                           : Step increment
NULL               .         -9999                         : Missing value
COMP               .                                       : Company
WELL               .         305                           : Well name
FLD                .                                       : Field
LOC                .                                       : Location
CNTY               .                                       : County
STAT               .                                       : State
CTRY               .                                       : Country
SRVC               .                                       : Service Company
DATE               .                                       : Date
API                .                                       : API number
EREF               .m        138.34                        : 
Pad                .         3                             : 
X                  .m        219750                        : 
Y                  .m        249950                        : 
group              .         Pad3                          : 
Интер-р            .         Пузин                         : 
Куст               .         3                             : 
Статус             .         Не проверено                  : 
Тип                .         Разведка                      : 
~Parameter Information Block
#_______________________________________________________________________________
#
#PARAMETER_NAME    .UNIT     VALUE                         : DESCRIPTION
#_______________________________________________________________________________
SET                .         LAS1                          : 
REAL_CREATION_DATE .         Ср апр 11 2012-13_17_10       : 
TLFamily_DEPTH     .         Measured Depth                : 
TLFamily_KS        .         Potential Resistivity         : 
TLFamily_KS1       .         Extra Shallow Resistivity     : 
TLFamily_KS2       .         Shallow Resistivity           : 
TLFamily_KS3       .         Medium Resistivity            : 
TLFamily_KS4       .         Deep Resistivity              : 
TLFamily_KS5       .         Extra Deep Resistivity        : 
TLFamily_LLD       .         Lateral Log Resistivity       : 
TLFamily_OKS3      .         Medium Resistivity Inverted   : 
TLFamily_RM        .         Mud Resistivity               : 
TLFamily_SP        .         Spontaneous Potential         : 
group              .         INI                           : 
~Curve Information
#_______________________________________________________________________________
#
#LOGNAME           .UNIT     LOG_ID                        : DESCRIPTION
#_______________________________________________________________________________
DEPTH              .m                                      : Measured Depth 
KS                 .ohm.m                                  : Potential Resistivity 
KS1                .ohm.m                                  : Extra Shallow Resistivity 
KS2                .ohm.m                                  : Shallow Resistivity 
KS3                .ohm.m                                  : Medium Resistivity 
KS4                .ohm.m                                  : Deep Resistivity 
KS5                .ohm.m                                  : Extra Deep Resistivity 
LLD                .ohm.m                                  : Lateral Log Resistivity 
OKS3               .ohm.m                                  : Medium Resistivity Inverted 
RM                 .ohm.m                                  : Mud Resistivity 
SP                 .mV                                     : Spontaneous Potential 
~Ascii
# ...
3168.8     14.9512    10.1306    19.5293    16.4154    8.8536     7.0617     9.777      18.292     0.907      99.594    
3169       15.382     10.1919    19.1271    15.7296    8.8359     6.9855     10.1691    17.9136    0.898      98.2747   
3169.2     15.5896    10.4911    18.9303    15.3554    8.8755     6.8618     10.4797    17.6582    0.888      95.2788   
3169.4     15.7139    10.8618    19.3162    15.0964    8.9352     6.8109     10.3524    17.5538    0.883      94.3166   
3169.6     15.9584    10.8909    19.5473    14.9139    9.0792     6.832      9.8281     17.5048    0.895      95.985    
3169.8     16.1763    10.496     19.4512    14.8734    9.3646     6.8955     10.6748    17.4137    0.918      97.3333   
3170       16.32      10.7615    20.2696    15.1142    9.8424     6.9939     11.2861    17.2672    0.924      97.6207   
3170.2     16.5363    11.073     20.9046    15.393     10.3537    7.1668     10.6711    17.3255    0.932      97.2105   
3170.4     16.6484    11.0229    20.9332    15.6933    11.0108    7.3279     11.2334    17.6649    0.925      97.4563   
3170.6     16.5651    11.3154    21.7608    16.2494    11.8014    7.4734     11.4995    17.9759    0.916      97.2751   
3170.8     16.6094    11.5586    22.4097    17.0268    12.4271    7.6276     10.9004    18.1681    0.91       96.6021   
3171       16.5787    11.6161    22.6276    17.6162    12.7536    7.7228     10.613     18.2931    0.911      96.1798   
3171.2     16.6162    11.5082    22.6519    17.9042    12.9607    7.7483     11.021     18.1727    0.914      97.5219   
3171.4     16.7668    11.3947    22.477     17.9203    12.9681    7.7848     11.2699    17.7853    0.914      97.4343   
3171.6     16.82      11.4377    22.3585    18.0133    13.0841    7.813      11.2103    17.7337    0.903      97.1136   
3171.8     16.5734    12.0343    23.3863    18.2214    13.3266    7.8099     11.3098    17.9388    0.89       97.9587   
3172       16.4557    12.07      23.8071    18.4784    13.3821    7.7305     10.9753    17.6761    0.88       97.5816   
3172.2     16.3419    11.925     23.4397    18.3277    12.9704    7.5788     11.0196    16.7962    0.882      98.5161   
3172.4     16.2756    11.796     22.9963    17.6907    12.1758    7.3623     10.5555    15.6911    0.894      98.3814   
3172.6     16.2102    11.3235    22.0106    16.9239    11.4006    7.1837     10.5521    14.8304    0.914      98.165    
3172.8     15.8604    11.3498    22.0589    16.3476    10.8309    7.1079     10.8527    14.5004    0.924      98.5277   
3173       15.2838    11.5331    22.5295    16.3813    10.6766    7.1292     10.6642    14.5696    0.936      98.6188   
3173.2     14.6722    11.5138    22.7199    16.53      10.5691    7.0545     9.8067     14.8817    0.93       97.8528   
3173.4     13.9973    11.2794    22.3087    16.6513    10.4195    6.9623     9.4725     15.3111    0.915      98.1908   
3173.6     13.4341    11.0301    21.4283    16.2481    10.0435    7.0238     8.7247     16.1039    0.91       98.9456   
3173.8     13.6156    9.9043     19.4516    15.6674    9.8013     7.1868     5.8094     19.2702    0.907      99.7756   
3174       13.6091    8.5965     17.622     15.7051    10.1686    7.3893     9.6578     22.7073    0.913      100.193   
3174.2     14.5171    9.1468     18.7053    16.5052    10.8173    7.6477     12.08      24.8011    0.909      100.4444  
3174.4     15.3738    10.2574    19.001     17.0834    11.2821    7.803      11.7262    25.3458    0.899      101.0638  
3174.6     15.5832    11.3477    19.1544    16.823     11.1224    7.6722     11.6122    25.8002    0.885      101.6842  
3174.8     15.6259    11.4916    18.4206    15.7191    10.4611    7.2835     10.8725    26.0891    0.876      102.0464  
3175       15.5589    11.2051    18.8447    14.166     9.4319     6.7571     10.3368    26.6687    0.884      101.4823  
3175.2     15.4506    10.6459    19.2082    12.947     8.5688     6.1791     9.8981     28.5492    0.898      100.6785  
3175.4     15.2837    10.4025    19.4617    12.2086    8.0622     5.7557     9.7997     31.8412    0.915      99.2566   
3175.6     15.2518    10.0996    19.3635    11.9171    7.9429     5.5453     9.744      35.5743    0.928      98.3445   
3175.8     15.4276    9.9183     19.1785    11.832     8.0323     5.4955     9.6758     37.8343    0.917      97.3942   
3176       16.1328    9.639      18.5111    11.665     8.1502     5.6304     9.4734     38.1109    0.922      97.3438   
3176.2     17.2456    9.0727     16.9977    12.1519    8.3955     5.9331     9.9693     39.1574    0.912      97.3435   
3176.4     19.0097    9.0501     16.7082    13.076     8.9169     6.3979     10.9214    41.3071    0.914      97.2579   
3176.6     22.4702    8.6218     15.9341    13.8289    9.8981     7.008      11.5048    44.8074    0.915      97.3955   
3176.8     27.561     7.16       14.341     14.7978    11.2162    7.7175     19.6678    47.8118    0.916      98.0596   
3177       33.8361    8.542      16.883     16.4948    12.7256    8.5166     66.2065    46.314     0.914      97.0335   
3177.2     40.3991    11.4516    21.5006    19.0922    14.0515    9.2371     103.8873   40.5548    0.882      97.1637   
3177.4     44.4796    15.6148    29.2563    22.0574    15.1776    9.813      138.9572   33.6984    0.888      97.3093   
3177.6     44.9991    19.1242    37.5335    25.4197    16.3723    10.1569    111.4935   28.5798    0.906      96.5386   
3177.8     39.6621    24.0951    55.607     31.523     18.1399    10.4406    157.3358   23.9656    0.916      95.6696   
3178       30.4043    30.2997    81.6271    40.22      19.6826    10.289     41.933     20.5357    0.93       95.5      
3178.2     24.8813    25.3185    76.8265    41.7896    19.282     9.995      12.4345    20.9578    0.916      96.2056   
3178.4     21.1061    19.0325    63.3008    39.3741    17.8143    9.451      10.3588    22.2784    0.91       96.9288   
3178.6     19.7195    14.5795    49.8989    36.7547    16.0522    8.7099     9.9067     23.3193    0.906      96.7255   
3178.8     19.4674    11.8443    37.9062    35.1304    14.7412    8.0713     10.0828    24.1632    0.91       96.8317   
3179       19.7473    11.2105    31.0166    35.1721    13.9294    7.6944     12.2965    24.2759    0.915      97.9659   
3179.2     20.2112    11.397     26.9372    36.1118    13.5389    7.5716     13.3352    24.0179    0.908      98.6923   
3179.4     20.6344    11.8091    25.3051    35.6654    13.3591    7.626      13.5162    23.7706    0.901      99.2404   
3179.6     20.8143    12.0217    24.9162    34.0975    13.2977    7.7609     14.341     23.3491    0.882      100.0489  
3179.8     20.8788    12.427     25.7006    31.9307    13.402     8.0618     14.9086    22.9004    0.883      101.1334  
3180       20.6566    12.7271    26.587     29.8166    13.6966    8.2731     14.428     22.5536    0.886      101.1129  
3180.2     20.1063    12.9207    27.4594    27.5886    14.2068    8.4767     13.9247    22.6025    0.905      99.8628   
3180.4     19.5084    13.0802    28.1378    25.4633    14.7235    8.6455     12.8756    22.7506    0.921      99.2751   
3180.6     19.1537    12.5809    27.5005    23.942     15.179     8.8402     11.7059    22.9235    0.929      99.6538   
3180.8     19.1703    11.6114    25.7462    22.6519    15.6946    9.0743     11.6158    23.599     0.92       100.7776  
3181       19.2862    11.0836    24.5062    22.2761    16.8759    9.2953     12.3449    24.7296    0.914      101.5854  
3181.2     19.3943    11.3919    24.6672    22.7359    18.4734    9.56       13.4336    25.813     0.906      101.2846  
3181.4     19.6124    11.7057    24.754     23.3666    19.6073    9.8962     13.7232    26.4239    0.91       99.9184   
3181.6     19.9562    11.8966    24.6857    23.5191    20.0478    10.2016    13.5124    26.6017    0.913      99.7983   
3181.8     20.0677    11.8927    24.5564    23.4124    19.9319    10.4199    13.8889    26.3406    0.911      100.3407  
3182       20.1575    12.2552    24.8149    23.3157    19.6761    10.6023    14.3413    25.4347    0.901      101.5011  
