~Version
 VERS              .         2.0                           : CWLS LOG ASCII STANDARD - VERSION 2.0
 WRAP              .         NO                            : ONE LINE PER DEPTH STEP
 DLM               .         SPACE                         : DELIMITING CHARACTER(SPACE TAB OR COMMA)
~Well Information
#_______________________________________________________________________________
#
#PARAMETER_NAME    .UNIT     VALUE                         : DESCRIPTION
#_______________________________________________________________________________
STRT               .m        3075                          : First reference value
STOP               .m        3285                          : Last reference value
STEP               .m        0.2                           : Step increment
NULL               .         -9999                         : Missing value
COMP               .                                       : Company
WELL               .         305                           : Well name
FLD                .                                       : Field
LOC                .                                       : Location
CNTY               .                                       : County
STAT               .                                       : State
CTRY               .                                       : Country
SRVC               .                                       : Service Company
DATE               .                                       : Date
API                .                                       : API number
EREF               .m        138.34                        : 
Pad                .         3                             : 
X                  .m        219750                        : 
Y                  .m        249950                        : 
group              .         Pad3                          : 
Интер-р            .         Пузин                         : 
Куст               .         3                             : 
Статус             .         Не проверено                  : 
Тип                .         Разведка                      : 
~Parameter Information Block
#_______________________________________________________________________________
#
#PARAMETER_NAME    .UNIT     VALUE                         : DESCRIPTION
#_______________________________________________________________________________
SET                .         LAS1                          : 
REAL_CREATION_DATE .         Ср апр 11 2012-13_17_10       : 
TLFamily_DEPTH     .         Measured Depth                : 
TLFamily_KS        .         Potential Resistivity         : 
TLFamily_KS1       .         Extra Shallow Resistivity     : 
TLFamily_KS2       .         Shallow Resistivity           : 
TLFamily_KS3       .         Medium Resistivity            : 
TLFamily_KS4       .         Deep Resistivity              : 
TLFamily_KS5       .         Extra Deep Resistivity        : 
TLFamily_LLD       .         Lateral Log Resistivity       : 
TLFamily_OKS3      .         Medium Resistivity Inverted   : 
TLFamily_RM        .         Mud Resistivity               : 
TLFamily_SP        .         Spontaneous Potential         : 
group              .         INI                           : 
~Curve Information
#_______________________________________________________________________________
#
#LOGNAME           .UNIT     LOG_ID                        : DESCRIPTION
#_______________________________________________________________________________
DEPTH              .m                                      : Measured Depth 
KS                 .ohm.m                                  : Potential Resistivity 
KS1                .ohm.m                                  : Extra Shallow Resistivity 
KS2                .ohm.m                                  : Shallow Resistivity 
KS3                .ohm.m                                  : Medium Resistivity 
KS4                .ohm.m                                  : Deep Resistivity 
KS5                .ohm.m                                  : Extra Deep Resistivity 
LLD                .ohm.m                                  : Lateral Log Resistivity 
OKS3               .ohm.m                                  : Medium Resistivity Inverted 
RM                 .ohm.m                                  : Mud Resistivity 
SP                 .mV                                     : Spontaneous Potential 
~Ascii
# ...
3115.2     7.2799     6.449      9.5963     6.5945     5.412      5.337      5.4729     6.1942     0.925      98.9959   
3115.4     7.1504     6.5561     9.5432     6.6175     5.446      5.3101     5.2791     6.1742     0.924      98.8263   
3115.6     7.0087     6.4755     9.4186     6.6265     5.4308     5.2964     5.0781     6.1994     0.92       99.4821   
3115.8     6.9447     6.2524     9.2237     6.5844     5.4146     5.2896     4.9529     6.3004     0.909      101.6877  
3116       6.9163     6.0722     9.0615     6.5344     5.4176     5.3076     5.2558     6.4102     0.905      103.6449  
3116.2     6.9248     6.0556     9.0299     6.5683     5.4728     5.3083     5.3993     6.511      0.911      104.1108  
3116.4     6.8521     6.1465     8.9695     6.6304     5.5068     5.315      5.5135     6.539      0.906      104.1857  
3116.6     6.7077     6.4861     9.1606     6.6312     5.4912     5.2904     5.0238     6.5049     0.926      103.1139  
3116.8     6.539      6.3578     8.9257     6.5465     5.4226     5.2488     4.6408     6.4793     0.92       101.6917  
3117       6.3744     6.1032     8.5752     6.341      5.2836     5.1957     4.468      6.542      0.914      100.5741  
3117.2     6.3591     5.6747     8.2476     6.1257     5.1697     5.1549     4.5086     6.7083     0.91       99.542    
3117.4     6.4524     5.3993     8.026      5.9556     5.1331     5.147      4.9314     6.899      0.911      98.047    
3117.6     6.6289     5.4605     7.9939     5.8687     5.163      5.1382     5.1706     6.9858     0.906      97.9148   
3117.8     6.9103     5.6173     7.8811     5.8162     5.1724     5.1473     5.3158     6.9391     0.901      98.0533   
3118       7.1739     5.897      7.8569     5.7734     5.1622     5.16       5.443      6.8598     0.892      97.6591   
3118.2     7.37       6.0028     7.9023     5.7757     5.1755     5.1627     5.7811     6.7689     0.89       98.5274   
3118.4     7.4694     6.3232     8.3213     5.8549     5.2281     5.1834     5.8664     6.6383     0.891      99.1386   
3118.6     7.4877     6.5428     8.852      5.977      5.2795     5.1965     5.7409     6.4979     0.892      99.6339   
3118.8     7.4392     6.6286     9.2218     6.0776     5.3121     5.2021     5.6057     6.3499     0.902      100.4523  
3119       7.371      6.591      9.3883     6.0926     5.3108     5.2262     5.5326     6.2827     0.921      101.4509  
3119.2     7.2659     6.5234     9.5118     6.1087     5.3054     5.2431     5.4591     6.2041     0.92       100.7026  
3119.4     7.1601     6.4979     9.5725     6.1653     5.3135     5.2581     5.2312     6.1896     0.925      99.8268   
3119.6     7.0837     6.3686     9.4722     6.2414     5.3132     5.3072     5.2279     6.2118     0.916      100.5572  
3119.8     6.9996     6.2405     9.3003     6.3909     5.3584     5.3399     5.3235     6.2348     0.914      101.9769  
3120       6.9229     6.2526     9.3258     6.5131     5.3931     5.3544     5.4577     6.2089     0.916      104.4275  
3120.2     6.8679     6.2822     9.2201     6.5847     5.3878     5.3426     5.3601     6.1354     0.902      104.3051  
3120.4     6.7799     6.335      9.1079     6.5248     5.3035     5.3458     5.1133     6.0201     0.924      104.4733  
3120.6     6.6473     6.2454     8.8503     6.4691     5.2641     5.2836     4.8051     6.0356     0.904      103.2229  
3120.8     6.485      6.1089     8.7894     6.3627     5.2008     5.2524     4.6524     6.0805     0.91       102.8635  
3121       6.4525     5.8874     8.2545     6.2126     5.144      5.2683     4.397      6.2305     0.911      102.3255  
3121.2     6.5283     5.4592     8.0695     6.0674     5.1323     5.2891     4.624      6.4723     0.898      101.1227  
3121.4     6.5165     5.5036     8.3226     6.1213     5.2708     5.2918     5.325      6.6077     0.9        99.8438   
3121.6     6.6296     5.8055     8.5272     6.2092     5.3444     5.3309     5.2202     6.6092     0.914      97.743    
3121.8     6.5649     6.0802     8.359      6.1281     5.3115     5.3382     4.9797     6.6285     0.909      94.6647   
3122       6.5328     6.0023     8.2869     6.0088     5.2373     5.281      5.0004     6.6155     0.91       92.9176   
3122.2     6.5244     5.7716     8.1225     5.8967     5.129      5.2171     4.7905     6.6541     0.909      92.4307   
3122.4     6.4979     5.8851     8.2891     5.817      5.0834     5.176      4.7506     6.7499     0.899      92.988    
3122.6     6.5183     5.6753     8.1484     5.7586     5.0842     5.1467     4.8442     6.8557     0.89       93.8696   
3122.8     6.6448     5.6258     8.0391     5.7124     5.0532     5.1268     4.9259     6.8649     0.885      94.631    
3123       6.7704     5.7323     8.064      5.6172     5.0043     5.1201     5.0477     6.8419     0.88       94.8766   
3123.2     6.9057     5.8337     8.0739     5.5885     4.9712     5.1037     5.1829     6.792      0.883      95.8653   
3123.4     7.0089     5.927      8.0248     5.579      4.9388     5.084      5.2919     6.7357     0.884      97.4037   
3123.6     7.0889     6.0597     8.2803     5.6968     4.9277     5.071      5.2941     6.6824     0.883      99.1618   
3123.8     7.1537     6.1138     8.4781     5.8113     4.9378     5.0693     5.3708     6.6465     0.883      99.847    
3124       7.2309     6.1348     8.6015     5.8573     4.9598     5.0693     5.4222     6.6065     0.886      98.4976   
3124.2     7.2879     6.232      8.8048     5.9424     4.9797     5.0867     5.5114     6.5716     0.888      98.0271   
3124.4     7.312      6.2864     8.9483     6.0246     5.0284     5.102      5.553      6.546      0.897      97.6638   
3124.6     7.2703     6.4117     9.1507     6.1129     5.0802     5.1282     5.6644     6.5415     0.907      96.9137   
3124.8     7.1978     6.4868     9.351      6.2518     5.1337     5.1663     5.5773     6.5234     0.91       95.6061   
3125       7.0913     6.4569     9.3436     6.3561     5.1732     5.2015     5.4487     6.4608     0.916      94.3373   
3125.2     7.0221     6.392      9.3659     6.4021     5.1961     5.2336     5.2484     6.4267     0.925      94.453    
3125.4     6.9687     6.1544     9.139      6.4448     5.2044     5.2507     5.1088     6.4296     0.921      96.3915   
3125.6     6.9177     6.203      9.1979     6.4517     5.252      5.2507     5.2678     6.4032     0.926      96.6119   
3125.8     6.923      6.2084     9.0722     6.4367     5.2664     5.2417     5.2648     6.3593     0.93       96.9296   
3126       6.899      6.1378     8.8726     6.385      5.2476     5.2278     5.1215     6.3201     0.927      96.942    
3126.2     6.9062     6.1865     8.844      6.3009     5.2105     5.1867     5.2281     6.2481     0.924      96.2964   
3126.4     6.946      6.0676     8.6632     6.2349     5.1591     5.16       5.1618     6.1699     0.911      95.0166   
3126.6     6.9565     6.1384     8.7088     6.1755     5.1431     5.1724     5.1724     6.1154     0.912      93.8662   
3126.8     6.9461     6.0808     8.671      6.2044     5.2071     5.1881     5.2034     6.1424     0.911      94.3755   
3127       6.8505     6.2058     8.8999     6.2806     5.317      5.2116     5.2882     6.1777     0.912      95.3508   
3127.2     6.7432     6.3641     9.1847     6.3281     5.3622     5.2352     5.3065     6.1427     0.907      96.6272   
3127.4     6.678      6.1868     8.8877     6.2453     5.3194     5.2486     4.8205     6.169      0.908      97.4081   
3127.6     6.5823     5.9571     8.5818     6.1512     5.2644     5.2423     4.7427     6.2977     0.908      97.9459   
3127.8     6.576      5.797      8.5036     6.0805     5.2047     5.1924     4.8685     6.443      0.903      99.4344   
3128       6.6305     5.7977     8.4083     6.0345     5.1561     5.156      4.9676     6.6181     0.908      99.2783   
3128.2     6.6658     5.7967     8.2497     5.9623     5.1116     5.1236     4.9597     6.8419     0.908      99.752    
3128.4     6.6279     5.9231     8.2282     5.939      5.0826     5.0907     5.1152     7.1274     0.905      99.0752   
