~Version
 VERS              .         2.0                           : CWLS LOG ASCII STANDARD - VERSION 2.0
 WRAP              .         NO                            : ONE LINE PER DEPTH STEP
 DLM               .         SPACE                         : DELIMITING CHARACTER(SPACE TAB OR COMMA)
~Well Information
#_______________________________________________________________________________
#
#PARAMETER_NAME    .UNIT     VALUE                         : DESCRIPTION
#_______________________________________________________________________________
STRT               .m        3075                          : First reference value
STOP               .m        3285                          : Last reference value
STEP               .m        0.2                           : Step increment
NULL               .         -9999                         : Missing value
COMP               .                                       : Company
WELL               .         305                           : Well name
FLD                .                                       : Field
LOC                .                                       : Location
CNTY               .                                       : County
STAT               .                                       : State
CTRY               .                                       : Country
SRVC               .                                       : Service Company
DATE               .                                       : Date
API                .                                       : API number
EREF               .m        138.34                        : 
Pad                .         3                             : 
X                  .m        219750                        : 
Y                  .m        249950                        : 
group              .         Pad3                          : 
Интер-р            .         Пузин                         : 
Куст               .         3                             : 
Статус             .         Не проверено                  : 
Тип                .         Разведка                      : 
~Parameter Information Block
#_______________________________________________________________________________
#
#PARAMETER_NAME    .UNIT     VALUE                         : DESCRIPTION
#_______________________________________________________________________________
SET                .         LAS1                          : 
REAL_CREATION_DATE .         Ср апр 11 2012-13_17_10       : 
TLFamily_DEPTH     .         Measured Depth                : 
TLFamily_KS        .         Potential Resistivity         : 
TLFamily_KS1       .         Extra Shallow Resistivity     : 
TLFamily_KS2       .         Shallow Resistivity           : 
TLFamily_KS3       .         Medium Resistivity            : 
TLFamily_KS4       .         Deep Resistivity              : 
TLFamily_KS5       .         Extra Deep Resistivity        : 
TLFamily_LLD       .         Lateral Log Resistivity       : 
TLFamily_OKS3      .         Medium Resistivity Inverted   : 
TLFamily_RM        .         Mud Resistivity               : 
TLFamily_SP        .         Spontaneous Potential         : 
group              .         INI                           : 
~Curve Information
#_______________________________________________________________________________
#
#LOGNAME           .UNIT     LOG_ID                        : DESCRIPTION
#_______________________________________________________________________________
DEPTH              .m                                      : Measured Depth 
KS                 .ohm.m                                  : Potential Resistivity 
KS1                .ohm.m                                  : Extra Shallow Resistivity 
KS2                .ohm.m                                  : Shallow Resistivity 
KS3                .ohm.m                                  : Medium Resistivity 
KS4                .ohm.m                                  : Deep Resistivity 
KS5                .ohm.m                                  : Extra Deep Resistivity 
LLD                .ohm.m                                  : Lateral Log Resistivity 
OKS3               .ohm.m                                  : Medium Resistivity Inverted 
RM                 .ohm.m                                  : Mud Resistivity 
SP                 .mV                                     : Spontaneous Potential 
~Ascii
# ...
3195.6     12.8153    10.3492    21.4903    23.2098    12.3941    9.1582     8.302      7.9909     0.905      106.9383  
3195.8     12.0079    10.6068    21.3889    22.4864    12.2488    8.4327     8.7541     7.4302     0.889      107.5315  
3196       11.4233    10.2503    19.9555    21.2659    12.1165    7.9861     8.3586     6.7607     0.891      107.9944  
3196.2     10.5086    9.457      18.5843    19.6451    12.0814    7.5299     6.8446     6.3117     0.887      108.0506  
3196.4     9.429      9.5774     18.7571    18.1161    11.9594    6.9268     7.546      5.7565     0.884      107.5535  
3196.6     8.6265     8.814      16.87      16.2902    11.0906    6.2657     6.8782     4.9981     0.864      106.4692  
3196.8     7.7866     8.2265     15.2175    14.1947    9.9319     5.5284     5.8384     4.4256     0.867      105.7586  
3197       7.1886     7.3084     13.3709    12.0855    8.7108     4.7091     5.1374     3.9672     0.877      104.4017  
3197.2     6.7833     6.223      10.8408    10.1233    7.683      4.1588     4.656      3.5948     0.898      100.8618  
3197.4     6.4506     5.6852     9.6605     9.0228     7.3227     3.885      4.3859     3.5666     0.898      99.3312   
3197.6     6.0439     5.1706     9.1056     9.1551     8.2061     3.808      3.8116     3.9346     0.893      98.7816   
3197.8     5.7396     5.1937     9.4263     9.6515     9.4351     3.8897     4.2785     4.3506     0.894      97.4666   
3198       5.758      5.1977     9.0269     9.8423     10.0511    4.0073     4.7711     4.5425     0.886      96.6896   
3198.2     5.978      5.4515     8.2226     9.1257     9.4986     4.1971     4.6383     4.3823     0.897      96.5017   
3198.4     6.19       5.1664     6.5291     8.1723     8.982      4.2873     4.1628     4.5073     0.894      96.7353   
3198.6     6.1617     5.2505     6.7393     7.8305     9.0456     4.3143     4.2488     4.8802     0.881      96.9976   
3198.8     6.3826     5.4521     7.2831     7.7118     9.3495     4.507      4.8008     5.228      0.873      96.385    
3199       6.7436     5.1026     7.0554     7.3856     9.5746     4.9302     4.4902     5.7361     0.864      96.1022   
3199.2     6.8054     5.7455     7.7414     7.3239     10.0568    5.2695     4.9927     5.9171     0.868      96.8415   
3199.4     6.956      6.2175     8.2811     7.2955     10.3868    5.5451     5.8587     5.9508     0.888      97.231    
3199.6     6.8043     6.5227     8.5414     6.9616     10.0843    5.7262     5.7446     5.5426     0.893      97.7516   
3199.8     6.4581     7.3643     9.2575     6.4164     9.201      5.5018     5.9054     4.9049     0.893      97.153    
3200       6.257      6.7337     8.1501     5.7351     7.872      5.1967     4.7913     4.397      0.879      97.6317   
3200.2     5.9749     5.9531     7.522      4.9849     6.5865     4.8428     4.0434     4.1838     0.88       97.571    
3200.4     5.6836     5.4516     7.5936     4.5086     5.8046     4.5763     4.038      4.2762     0.879      96.6261   
3200.6     5.5479     4.8506     7.041      4.2519     5.4135     4.5684     3.9209     4.5978     0.868      96.2285   
3200.8     5.5312     4.8441     7.0838     4.1251     5.1272     4.8006     4.0384     5.0007     0.865      95.8068   
3201       5.6477     4.5384     6.5301     4.3044     5.0785     5.0286     3.917      5.703      0.865      96.8828   
3201.2     5.5748     4.7388     6.3727     4.5899     5.138      5.2614     4.111      6.2764     0.89       97.8074   
3201.4     5.7226     5.2595     6.8626     4.8744     5.0178     5.567      4.9589     6.7163     0.901      97.795    
3201.6     5.752      4.9221     6.1179     4.9552     4.6992     5.7456     4.3419     7.2362     0.89       96.9127   
3201.8     5.7077     5.7591     6.7159     5.0176     4.4828     5.753      4.3196     7.5751     0.875      97.266    
3202       5.9688     4.7997     6.2359     4.9586     4.2287     5.8836     4.6916     7.7544     0.871      97.2102   
3202.2     5.951      4.9287     5.9269     4.6251     3.8961     5.8979     4.1567     7.7508     0.882      96.7157   
3202.4     5.8769     5.4726     6.9144     4.3976     3.8326     5.5237     4.9436     7.0716     0.874      96.9738   
3202.6     6.2135     5.0922     6.2292     4.0556     3.3859     5.3296     4.7878     5.2479     0.865      97.6616   
3202.8     6.2673     4.7255     5.4804     3.4331     2.84       5.1445     4.3954     3.9722     0.861      97.4298   
3203       6.0043     5.0739     6.0069     3.1539     2.7828     4.9316     4.4824     3.7914     0.865      96.7376   
3203.2     6.0747     4.9339     6.2647     3.2434     2.894      5.2393     4.6584     3.7421     0.874      94.8252   
3203.4     6.4793     4.1422     5.56       3.2562     3.0286     6.3944     4.2954     4.0747     0.9        93.5005   
3203.6     6.6854     4.1444     5.7461     3.7303     3.67       8.2377     3.9526     5.3391     0.924      94.4298   
3203.8     7.0324     4.6371     6.4581     4.5798     4.9971     11.8148    4.6023     7.1891     0.919      95.5423   
3204       8.1684     4.6307     6.4582     6.009      6.9845     18.0912    5.5375     9.9435     0.882      94.1492   
3204.2     9.8492     4.6224     7.3018     8.7952     10.6324    25.025     5.5473     14.108     0.887      93.1581   
3204.4     11.2985    5.8206     10.1402    12.8335    16.6883    32.2954    8.1706     17.5593    0.888      93.2052   
3204.6     11.7836    8.896      13.3534    16.4292    22.4459    36.2091    24.439     18.3416    0.87       95.5436   
3204.8     11.5051    14.7561    18.798     15.9667    22.9149    35.3973    37.4942    15.3768    0.863      96.2951   
3205       10.7503    13.2961    16.14      11.986     17.8571    30.3344    8.323      11.1989    0.875      97.666    
3205.2     9.3853     10.3512    13.9649    7.8212     11.0884    22.8941    5.0708     7.7125     0.897      97.7589   
3205.4     8.5246     8.7117     15.0232    6.047      7.3018     15.1302    5.6073     5.9696     0.903      97.2698   
3205.6     8.1496     7.2844     14.726     4.8215     4.7796     10.206     5.0696     5.0784     0.892      100.6061  
3205.8     7.8264     6.8968     13.4445    4.1449     3.7536     7.5695     4.9053     4.5386     0.886      102.4147  
3206       7.6348     6.4384     11.6394    4.0565     3.1124     5.9801     4.8728     4.3917     0.889      103.44    
3206.2     7.5689     6.3266     10.5473    4.3335     2.6975     5.0885     5.0091     4.396      0.886      106.0578  
3206.4     7.6541     6.2446     10.0434    4.8726     2.4396     4.5837     5.0396     4.3956     0.874      108.4193  
3206.6     7.6881     6.2132     9.6086     6.1572     2.3938     4.3147     5.1661     4.499      0.858      109.1092  
3206.8     7.7449     6.697      10.0225    7.9169     2.4462     4.2816     5.6999     4.5864     0.862      107.856   
3207       7.595      6.7559     10.0877    9.5476     2.5618     4.2913     5.6046     4.8576     0.872      107.3835  
3207.2     7.1231     7.6015     11.4428    10.5415    2.6155     4.2079     5.944      4.8251     0.876      106.7505  
3207.4     6.7834     7.7664     11.4301    10.3086    2.4343     4.0561     6.0918     4.5006     0.87       104.0991  
3207.6     6.3659     7.2504     10.2874    9.0704     2.1693     3.8294     4.9612     4.0655     0.874      100.6018  
3207.8     5.7532     6.9964     10.0019    7.8239     1.9853     3.4376     4.3832     3.8187     0.877      98.5023   
3208       5.2946     6.1477     8.9415     6.8328     1.9684     3.1141     3.9017     3.7118     0.865      96.999    
3208.2     5.02       5.2552     7.8556     5.8773     2.0469     2.9044     3.5065     3.7088     0.861      95.3439   
3208.4     4.6836     4.8187     7.4809     5.3616     2.3625     2.7302     3.4596     3.849      0.856      94.451    
3208.6     4.5231     4.6944     7.2265     5.1341     3.0316     2.579      3.5747     3.9492     0.855      93.7275   
3208.8     4.5097     4.3917     6.395      4.8522     3.8159     2.5016     3.4551     3.9902     0.874      93.4494   
