~Version
 VERS              .         2.0                           : CWLS LOG ASCII STANDARD - VERSION 2.0
 WRAP              .         NO                            : ONE LINE PER DEPTH STEP
 DLM               .         SPACE                         : DELIMITING CHARACTER(SPACE TAB OR COMMA)
~Well Information
#_______________________________________________________________________________
#
#PARAMETER_NAME    .UNIT     VALUE                         : DESCRIPTION
#_______________________________________________________________________________
STRT               .m        3075                          : First reference value
STOP               .m        3285                          : Last reference value
STEP               .m        0.2                           : Step increment
NULL               .         -9999                         : Missing value
COMP               .                                       : Company
WELL               .         305                           : Well name
FLD                .                                       : Field
LOC                .                                       : Location
CNTY               .                                       : County
STAT               .                                       : State
CTRY               .                                       : Country
SRVC               .                                       : Service Company
DATE               .                                       : Date
API                .                                       : API number
EREF               .m        138.34                        : 
Pad                .         3                             : 
X                  .m        219750                        : 
Y                  .m        249950                        : 
group              .         Pad3                          : 
Интер-р            .         Пузин                         : 
Куст               .         3                             : 
Статус             .         Не проверено                  : 
Тип                .         Разведка                      : 
~Parameter Information Block
#_______________________________________________________________________________
#
#PARAMETER_NAME    .UNIT     VALUE                         : DESCRIPTION
#_______________________________________________________________________________
SET                .         LAS1                          : 
REAL_CREATION_DATE .         Ср апр 11 2012-13_17_10       : 
TLFamily_DEPTH     .         Measured Depth                : 
TLFamily_KS        .         Potential Resistivity         : 
TLFamily_KS1       .         Extra Shallow Resistivity     : 
TLFamily_KS2       .         Shallow Resistivity           : 
TLFamily_KS3       .         Medium Resistivity            : 
TLFamily_KS4       .         Deep Resistivity              : 
TLFamily_KS5       .         Extra Deep Resistivity        : 
TLFamily_LLD       .         Lateral Log Resistivity       : 
TLFamily_OKS3      .         Medium Resistivity Inverted   : 
TLFamily_RM        .         Mud Resistivity               : 
TLFamily_SP        .         Spontaneous Potential         : 
group              .         INI                           : 
~Curve Information
#_______________________________________________________________________________
#
#LOGNAME           .UNIT     LOG_ID                        : DESCRIPTION
#_______________________________________________________________________________
DEPTH              .m                                      : Measured Depth 
KS                 .ohm.m                                  : Potential Resistivity 
KS1                .ohm.m                                  : Extra Shallow Resistivity 
KS2                .ohm.m                                  : Shallow Resistivity 
KS3                .ohm.m                                  : Medium Resistivity 
KS4                .ohm.m                                  : Deep Resistivity 
KS5                .ohm.m                                  : Extra Deep Resistivity 
LLD                .ohm.m                                  : Lateral Log Resistivity 
OKS3               .ohm.m                                  : Medium Resistivity Inverted 
RM                 .ohm.m                                  : Mud Resistivity 
SP                 .mV                                     : Spontaneous Potential 
~Ascii
# ...
3262.6     9.036      8.3333     13.2333    8.3527     10.0289    2.6049     6.7902     6.1451     0.877      82.5093   
3262.8     9.0498     7.5605     11.3209    7.8513     9.1864     2.8766     6.7327     5.3858     0.86       87.0581   
3263       9.59       6.7326     9.4283     7.3595     9.1072     3.4535     6.5659     5.6044     0.861      88.9831   
3263.2     9.8526     6.1998     9.171      7.7493     11.1183    4.9574     7.1842     7.9687     0.884      91.1444   
3263.4     9.5678     6.5458     9.7958     9.9271     16.827     6.6758     7.5166     11.6885    0.901      92.8135   
3263.6     8.611      7.7889     12.0248    14.1418    24.3437    8.0433     7.4488     12.7296    0.898      94.1278   
3263.8     8.5384     8.8298     17.7925    16.5047    26.5257    9.4407     6.4708     12.4765    0.888      94.1454   
3264       9.338      6.899      14.1376    15.6271    22.5313    10.7482    6.6549     12.4105    0.885      94.2425   
3264.2     10.2182    6.6218     11.6603    13.1024    20.6217    10.6637    7.1715     12.4105    0.898      95.3802   
3264.4     10.0868    7.6217     14.3389    13.6105    21.3607    9.9069     8.4418     12.4105    0.893      94.5725   
3264.6     9.5414     9.7753     14.8918    14.0042    20.2317    9.7956     7.2771     12.4082    0.885      90.7158   
3264.8     9.3491     9.8803     13.9682    12.37      14.7749    9.7192     6.7388     12.341     0.866      86.2088   
3265       9.9751     8.8168     13.2164    8.9472     9.5694     8.3529     7.0168     12.3592    0.852      78.2886   
3265.2     10.1341    8.4342     12.8762    6.6549     6.6769     7.6487     6.9457     12.3624    0.859      73.5171   
3265.4     10.3247    8.3009     12.3312    5.4881     5.1368     7.85       6.9851     12.3728    0.859      71.1718   
3265.6     9.809      8.3539     11.9934    5.2713     4.4634     7.9341     9.345      12.391     0.859      71.1709   
3265.8     9.2256     10.2461    13.3519    5.8327     4.1759     7.6083     10.1104    12.3988    0.859      74.532    
3266       8.5242     9.137      16.0309    6.6047     3.7253     6.9912     7.0541     12.4117    0.859      78.6628   
3266.2     8.0019     8.1589     13.6536    7.0606     3.1135     6.0212     6.0263     12.4234    0.859      81.0669   
3266.4     7.8939     7.1384     11.9677    6.8789     2.5807     4.963      5.4789     12.4326    0.859      82.2349   
3266.6     7.8872     6.8614     10.807     6.5356     2.2026     4.247      5.232      12.4385    0.862      80.6055   
3266.8     7.8937     6.8537     10.2332    6.4438     1.8921     3.7625     5.8071     12.461     0.862      75.5853   
3267       7.8872     6.8537     9.7526     6.6909     1.7285     3.4127     6.2906     12.4741    0.863      70.3364   
3267.2     7.8872     6.8537     9.2988     6.5881     1.7468     3.2763     5.5092     12.4749    0.862      66.1684   
3267.4     7.8872     6.8335     9.2878     6.6749     1.9635     3.3395     6.1216     12.4875    0.862      64.1724   
3267.6     7.8966     6.813      9.2979     7.7122     2.3947     3.433      8.6228     12.4875    0.863      63.4993   
3267.8     7.8872     6.8241     9.2867     8.6243     3.0063     3.4489     10.4971    12.4938    0.863      64.6209   
3268       7.8886     6.8267     9.2768     8.5903     3.6345     3.4425     7.891      12.5014    0.863      67.3976   
3268.2     7.9007     6.8334     9.2475     8.3774     4.227      3.4359     6.7795     12.5132    0.863      70.1649   
3268.4     7.9007     6.8537     9.2479     8.4018     4.6192     3.423      8.5875     12.5132    0.863      72.4199   
3268.6     7.9007     6.861      9.2613     8.4018     5.005      3.4111     6.912      12.5154    0.863      73.8709   
3268.8     7.9007     6.8747     9.2746     8.4018     6.0228     3.4648     6.106      12.526     0.863      75.2456   
3269       7.9007     6.8824     9.2878     8.4018     7.8673     3.4364     5.6864     12.526     0.863      85.9996   
3269.2     7.9007     6.8941     9.3067     8.4042     8.4762     3.2429     5.1165     12.532     0.863      88.7214   
3269.4     7.9135     6.9087     9.32       8.4146     7.1967     2.9815     4.9647     12.5389    0.863      89.0629   
3269.6     7.9102     6.9337     9.3273     8.4146     5.6977     2.6903     5.1174     12.5479    0.863      86.9522   
3269.8     7.9136     6.9476     9.3407     8.4146     5.2089     2.3674     4.9053     12.5536    0.863      83.0155   
3270       7.9067     6.9483     9.3656     8.4146     4.8497     2.1688     4.9937     12.5645    0.863      79.6539   
3270.2     7.9141     6.9622     9.4019     8.4135     4.5723     2.0389     5.5016     12.5671    0.86       75.9769   
3270.4     7.9141     6.9696     9.4161     -9999      4.5109     1.9642     5.743      0          -9999      70.6751   
3270.6     7.9201     6.9759     9.4164     -9999      4.5109     1.9228     6.0242     0          -9999      64.0365   
3270.8     7.9229     6.9884     9.4212     -9999      4.5109     1.941      6.8749     0          -9999      54.3847   
3271       -9999      6.9948     9.4364     -9999      4.5109     1.9954     7.6302     0          -9999      52.9126   
3271.2     -9999      -9999      -9999      -9999      -9999      -9999      7.0494     0          -9999      53.9862   
3271.4     -9999      -9999      -9999      -9999      -9999      -9999      6.3257     0          -9999      55.4544   
3271.6     -9999      -9999      -9999      -9999      -9999      -9999      5.7547     0          -9999      57.3201   
3271.8     -9999      -9999      -9999      -9999      -9999      -9999      5.4078     0          -9999      61.6961   
3272       -9999      -9999      -9999      -9999      -9999      -9999      5.3339     0          -9999      67.2949   
3272.2     -9999      -9999      -9999      -9999      -9999      -9999      5.4313     0          -9999      71.7331   
3272.4     -9999      -9999      -9999      -9999      -9999      -9999      5.52       0          -9999      74.935    
3272.6     -9999      -9999      -9999      -9999      -9999      -9999      5.6971     0          -9999      77.9769   
3272.8     -9999      -9999      -9999      -9999      -9999      -9999      6.1386     0          -9999      81.045    
3273       -9999      -9999      -9999      -9999      -9999      -9999      6.1629     0          -9999      83.8003   
3273.2     -9999      -9999      -9999      -9999      -9999      -9999      5.6742     0          -9999      84.4606   
3273.4     -9999      -9999      -9999      -9999      -9999      -9999      5.7167     0          -9999      81.3652   
3273.6     -9999      -9999      -9999      -9999      -9999      -9999      6.8029     0          -9999      77.0929   
3273.8     -9999      -9999      -9999      -9999      -9999      -9999      6.5271     0          -9999      73.8774   
3274       -9999      -9999      -9999      -9999      -9999      -9999      7.1807     0          -9999      70.8169   
3274.2     -9999      -9999      -9999      -9999      -9999      -9999      7.0474     0          -9999      68.6554   
3274.4     -9999      -9999      -9999      -9999      -9999      -9999      6.1627     0          -9999      68.2853   
3274.6     -9999      -9999      -9999      -9999      -9999      -9999      5.951      0          -9999      67.4046   
3274.8     -9999      -9999      -9999      -9999      -9999      -9999      6.4998     0          -9999      67.9703   
3275       -9999      -9999      -9999      -9999      -9999      -9999      5.8763     0          -9999      68.1826   
3275.2     -9999      -9999      -9999      -9999      -9999      -9999      5.7351     0          -9999      67.662    
3275.4     -9999      -9999      -9999      -9999      -9999      -9999      6.2633     0          -9999      66.6946   
3275.6     -9999      -9999      -9999      -9999      -9999      -9999      6.5469     0          -9999      66.5224   
3275.8     -9999      -9999      -9999      -9999      -9999      -9999      6.4619     0          -9999      67.2009   
