~Version
 VERS              .         2.0                           : CWLS LOG ASCII STANDARD - VERSION 2.0
 WRAP              .         NO                            : ONE LINE PER DEPTH STEP
 DLM               .         SPACE                         : DELIMITING CHARACTER(SPACE TAB OR COMMA)
~Well Information
#_______________________________________________________________________________
#
#PARAMETER_NAME    .UNIT     VALUE                         : DESCRIPTION
#_______________________________________________________________________________
STRT               .m        3075                          : First reference value
STOP               .m        3285                          : Last reference value
STEP               .m        0.2                           : Step increment
NULL               .         -9999                         : Missing value
COMP               .                                       : Company
WELL               .         305                           : Well name
FLD                .                                       : Field
LOC                .                                       : Location
CNTY               .                                       : County
STAT               .                                       : State
CTRY               .                                       : Country
SRVC               .                                       : Service Company
DATE               .                                       : Date
API                .                                       : API number
EREF               .m        138.34                        : 
Pad                .         3                             : 
X                  .m        219750                        : 
Y                  .m        249950                        : 
group              .         Pad3                          : 
Интер-р            .         Пузин                         : 
Куст               .         3                             : 
Статус             .         Не проверено                  : 
Тип                .         Разведка                      : 
~Parameter Information Block
#_______________________________________________________________________________
#
#PARAMETER_NAME    .UNIT     VALUE                         : DESCRIPTION
#_______________________________________________________________________________
SET                .         LAS3                          : 
REAL_CREATION_DATE .         Ср апр 11 2012-13_17_10       : 
TLFamily_DEPTH     .         Measured Depth                : 
TLFamily_GR        .         Gamma Ray                     : 
TLFamily_TNPH      .         Neutron Porosity              : 
group              .         INI                           : 
~Curve Information
#_______________________________________________________________________________
#
#LOGNAME           .UNIT     LOG_ID                        : DESCRIPTION
#_______________________________________________________________________________
DEPTH              .m                                      : Measured Depth 
GR                 .gAPI                                   :  
TNPH               .v/v                                    : Neutron Porosity 
~Ascii
3075.0     33.912     0.266     
3075.2     31.76      0.26      
3075.4     30.12      0.276     
3075.6     27.4       0.276     
3075.8     25.2       0.272     
3076       28.448     0.29      
3076.2     42.392     0.293     
3076.4     56.624     0.27      
3076.6     66.64      0.243     
3076.8     65.216     0.243     
3077       66.6       0.255     
3077.2     67.448     0.262     
3077.4     66.128     0.253     
3077.6     61.688     0.236     
3077.8     66.104     0.259     
3078       67.816     0.259     
3078.2     66.648     0.276     
3078.4     68.816     0.277     
3078.6     67.256     0.267     
3078.8     72.52      0.259     
3079       73.848     0.248     
3079.2     70.432     0.241     
3079.4     69.344     0.253     
3079.6     68.168     0.282     
3079.8     66.624     0.289     
3080       69.88      0.294     
3080.2     70.952     0.285     
3080.4     74.2       0.274     
3080.6     77.96      0.246     
3080.8     78.056     0.248     
3081       75.072     0.241     
3081.2     77.696     0.209     
3081.4     71.088     0.197     
3081.6     72.248     0.245     
3081.8     74.576     0.246     
3082       69.664     0.295     
3082.2     67.96      0.295     
3082.4     67.128     0.272     
3082.6     72.2       0.256     
3082.8     75.984     0.253     
3083       77.88      0.268     
3083.2     74.552     0.268     
3083.4     73.8       0.241     
3083.6     73.176     0.241     
3083.8     74.888     0.251     
3084       75.848     0.275     
3084.2     75.248     0.271     
3084.4     75.496     0.262     
3084.6     80.664     0.262     
3084.8     77.864     0.242     
3085       74.72      0.243     
3085.2     76.824     0.231     
3085.4     78.128     0.221     
3085.6     73.112     0.22      
3085.8     74.448     0.23      
3086       76.384     0.229     
3086.2     75.896     0.218     
3086.4     75.512     0.211     
3086.6     73.176     0.228     
3086.8     73.536     0.235     
3087       73.624     0.272     
3087.2     69.512     0.272     
3087.4     69.944     0.266     
3087.6     69.392     0.274     
3087.8     67.496     0.279     
3088       65.256     0.279     
3088.2     63.768     0.261     
3088.4     66.536     0.26      
3088.6     68.976     0.28      
3088.8     69.64      0.292     
3089       69.064     0.263     
3089.2     76.712     0.263     
3089.4     78.888     0.254     
3089.6     82.336     0.235     
3089.8     82.408     0.228     
3090       82.288     0.217     
3090.2     79.272     0.236     
3090.4     79.072     0.273     
3090.6     76.376     0.272     
3090.8     74.072     0.251     
3091       72.744     0.261     
3091.2     74.792     0.261     
3091.4     72.2       0.246     
3091.6     71.56      0.255     
3091.8     75.72      0.255     
3092       77.072     0.287     
3092.2     73.104     0.267     
3092.4     71.048     0.262     
3092.6     75.248     0.264     
3092.8     74.448     0.276     
3093       72.632     0.281     
3093.2     73.208     0.271     
3093.4     76.808     0.247     
3093.6     79.752     0.279     
3093.8     76.096     0.273     
3094       72.08      0.263     
3094.2     70.76      0.245     
3094.4     71.656     0.267     
3094.6     75.432     0.267     
3094.8     75.704     0.271     
3095       74.912     0.253     
3095.2     72.504     0.272     
3095.4     71.688     0.271     
3095.6     65.768     0.271     
3095.8     65.536     0.265     
3096       65.856     0.246     
3096.2     69.504     0.25      
3096.4     70.944     0.25      
3096.6     69.888     0.278     
3096.8     70.744     0.284     
3097       69.312     0.294     
3097.2     72.968     0.307     
3097.4     70.112     0.294     
3097.6     67.72      0.269     
3097.8     72.656     0.259     
3098       76.128     0.256     
3098.2     75.176     0.254     
3098.4     77.008     0.255     
3098.6     72.744     0.308     
3098.8     74.936     0.318     
3099       75.24      0.278     
3099.2     76.248     0.256     
3099.4     78.064     0.292     
3099.6     81.464     0.276     
3099.8     79.184     0.273     
3100       74.696     0.277     
3100.2     75.632     0.271     
3100.4     75.32      0.259     
3100.6     71.576     0.253     
3100.8     66.152     0.239     
3101       64.768     0.25      
3101.2     67.232     0.23      
3101.4     68.656     0.227     
3101.6     74.544     0.222     
3101.8     75.016     0.206     
3102       71.384     0.214     
3102.2     69.504     0.217     
3102.4     69         0.241     
3102.6     73.296     0.269     
3102.8     71.064     0.25      
3103       63.68      0.261     
3103.2     70.576     0.261     
3103.4     70.992     0.265     
3103.6     70.944     0.257     
3103.8     74.256     0.266     
3104       73.736     0.277     
3104.2     70.872     0.252     
3104.4     70.6       0.239     
3104.6     72.744     0.251     
3104.8     69.432     0.251     
3105       69.76      0.243     
3105.2     67.448     0.232     
3105.4     61.688     0.243     
3105.6     59.912     0.246     
3105.8     65.392     0.246     
3106       68.824     0.227     
3106.2     72.52      0.223     
3106.4     71.504     0.242     
3106.6     71.968     0.255     
3106.8     73.328     0.267     
3107       69.04      0.259     
3107.2     72.264     0.257     
3107.4     75.672     0.257     
3107.6     73.256     0.278     
3107.8     72.736     0.29      
3108       73.248     0.293     
3108.2     71.744     0.246     
3108.4     68.504     0.249     
3108.6     68.272     0.273     
3108.8     66.544     0.276     
3109       68.784     0.276     
3109.2     67.992     0.305     
3109.4     71.272     0.31      
3109.6     71.952     0.295     
3109.8     77.664     0.266     
3110       78.328     0.266     
3110.2     78.688     0.267     
3110.4     79.024     0.254     
3110.6     79.672     0.273     
3110.8     75.752     0.291     
3111       69.992     0.293     
3111.2     68.4       0.286     
3111.4     70.84      0.286     
3111.6     68.64      0.276     
3111.8     72.288     0.25      
3112       70.88      0.221     
3112.2     69.224     0.228     
3112.4     69.528     0.248     
3112.6     69.448     0.26      
3112.8     69.8       0.249     
3113       69.536     0.247     
3113.2     71.912     0.227     
3113.4     73.216     0.227     
3113.6     72.976     0.222     
3113.8     71.528     0.246     
3114       69.968     0.247     
3114.2     72.224     0.243     
3114.4     70.264     0.253     
3114.6     69.608     0.246     
3114.8     70.296     0.246     
3115       70.288     0.236     
3115.2     70.208     0.269     
3115.4     71.712     0.249     
3115.6     75.976     0.238     
3115.8     77.72      0.235     
3116       77.456     0.233     
3116.2     74.704     0.241     
3116.4     77.184     0.259     
3116.6     74.216     0.24      
3116.8     73.64      0.233     
3117       75.128     0.261     
3117.2     74.808     0.249     
3117.4     73.944     0.24      
3117.6     73.96      0.235     
3117.8     74.24      0.231     
3118       76.184     0.231     
3118.2     73.04      0.22      
3118.4     72.792     0.229     
3118.6     69.864     0.233     
3118.8     69.752     0.226     
3119       68.568     0.23      
3119.2     73.152     0.218     
3119.4     79.208     0.222     
3119.6     76.192     0.253     
3119.8     76.168     0.268     
3120       77.736     0.271     
3120.2     76.448     0.291     
3120.4     72.872     0.284     
3120.6     73.936     0.284     
3120.8     74.856     0.275     
3121       77.288     0.251     
3121.2     78.416     0.248     
3121.4     81.392     0.253     
3121.6     78.784     0.251     
3121.8     77.112     0.239     
3122       81.968     0.233     
3122.2     82.48      0.229     
3122.4     78.592     0.247     
3122.6     78.52      0.287     
3122.8     79.952     0.271     
3123       81.48      0.246     
3123.2     79.4       0.259     
3123.4     73.712     0.265     
