~Version
 VERS              .         2.0                           : CWLS LOG ASCII STANDARD - VERSION 2.0
 WRAP              .         NO                            : ONE LINE PER DEPTH STEP
 DLM               .         SPACE                         : DELIMITING CHARACTER(SPACE TAB OR COMMA)
~Well Information
#_______________________________________________________________________________
#
#PARAMETER_NAME    .UNIT     VALUE                         : DESCRIPTION
#_______________________________________________________________________________
STRT               .m        3075                          : First reference value
STOP               .m        3285                          : Last reference value
STEP               .m        0.2                           : Step increment
NULL               .         -9999                         : Missing value
COMP               .                                       : Company
WELL               .         305                           : Well name
FLD                .                                       : Field
LOC                .                                       : Location
CNTY               .                                       : County
STAT               .                                       : State
CTRY               .                                       : Country
SRVC               .                                       : Service Company
DATE               .                                       : Date
API                .                                       : API number
EREF               .m        138.34                        : 
Pad                .         3                             : 
X                  .m        219750                        : 
Y                  .m        249950                        : 
group              .         Pad3                          : 
Интер-р            .         Пузин                         : 
Куст               .         3                             : 
Статус             .         Не проверено                  : 
Тип                .         Разведка                      : 
~Parameter Information Block
#_______________________________________________________________________________
#
#PARAMETER_NAME    .UNIT     VALUE                         : DESCRIPTION
#_______________________________________________________________________________
SET                .         LAS1                          : 
REAL_CREATION_DATE .         Ср апр 11 2012-13_17_10       : 
TLFamily_DEPTH     .         Measured Depth                : 
TLFamily_KS        .         Potential Resistivity         : 
TLFamily_KS1       .         Extra Shallow Resistivity     : 
TLFamily_KS2       .         Shallow Resistivity           : 
TLFamily_KS3       .         Medium Resistivity            : 
TLFamily_KS4       .         Deep Resistivity              : 
TLFamily_KS5       .         Extra Deep Resistivity        : 
TLFamily_LLD       .         Lateral Log Resistivity       : 
TLFamily_OKS3      .         Medium Resistivity Inverted   : 
TLFamily_RM        .         Mud Resistivity               : 
TLFamily_SP        .         Spontaneous Potential         : 
group              .         INI                           : 
~Curve Information
#_______________________________________________________________________________
#
#LOGNAME           .UNIT     LOG_ID                        : DESCRIPTION
#_______________________________________________________________________________
DEPTH              .m                                      : Measured Depth 
KS                 .ohm.m                                  : Potential Resistivity 
KS1                .ohm.m                                  : Extra Shallow Resistivity 
KS2                .ohm.m                                  : Shallow Resistivity 
KS3                .ohm.m                                  : Medium Resistivity 
KS4                .ohm.m                                  : Deep Resistivity 
KS5                .ohm.m                                  : Extra Deep Resistivity 
LLD                .ohm.m                                  : Lateral Log Resistivity 
OKS3               .ohm.m                                  : Medium Resistivity Inverted 
RM                 .ohm.m                                  : Mud Resistivity 
SP                 .mV                                     : Spontaneous Potential 
~Ascii
# ...
3155.4     8.2825     7.221      10.5243    8.8332     7.7078     8.6563     6.6091     9.7246     0.905      98.3178   
3155.6     8.7084     7.6766     10.1376    8.432      7.5216     9.2772     6.4994     9.231      0.917      97.5607   
3155.8     9.0231     7.4936     9.3993     7.7004     7.2139     9.5712     6.007      8.9863     0.913      98.3851   
3156       9.2272     7.3367     9.6038     7.1852     7.3279     9.8484     5.8359     9.2249     0.91       100.9181  
3156.2     9.5605     7.2822     10.4255    7.1114     7.8062     10.3857    6.1334     9.876      0.901      102.0894  
3156.4     9.8554     7.264      11.2956    7.4299     8.5226     10.9056    6.4616     10.7482    0.883      102.889   
3156.6     10.0651    8.1525     13.0801    7.8454     9.0134     11.1654    8.0478     11.0515    0.886      103.2835  
3156.8     10.2423    8.7807     13.6078    7.964      8.8368     11.0613    7.8696     10.5752    0.897      103.7657  
3157       9.9223     9.3088     13.9781    7.7224     8.1003     10.4902    7.5215     9.665      0.916      105.4149  
3157.2     9.6931     9.3249     13.9739    7.4592     7.1635     9.4199     7.0637     8.6045     0.918      105.9841  
3157.4     9.4187     8.4138     13.0375    7.2927     6.1669     8.2879     6.0907     7.7966     0.925      105.9926  
3157.6     8.9926     8.2092     13.481     7.3283     5.492      7.342      6.1088     7.3706     0.918      105.4459  
3157.8     8.6001     7.8584     13.169     7.4981     5.0841     6.5        6.0657     7.1619     0.914      104.7304  
3158       8.2689     7.8638     13.2575    7.4354     4.6809     5.8696     5.8642     6.9102     0.913      104.3531  
3158.2     8.0234     7.5064     12.3873    7.3078     4.2782     5.3807     5.586      6.6259     0.905      103.6417  
3158.4     7.9634     7.2363     11.4415    7.0652     3.8079     5.0331     5.4269     6.2638     0.91       100.5422  
3158.6     7.9907     6.6336     10.1432    6.9125     3.4987     4.7832     5.0601     6.2934     0.914      96.8699   
3158.8     7.8817     6.5318     10.0563    7.1939     3.4758     4.6201     5.1286     6.5449     0.913      96.1841   
3159       7.9611     6.7168     10.2515    7.6        3.5789     4.5653     5.6733     6.6769     0.903      96.6181   
3159.2     8.1501     6.5501     9.8541     7.9015     3.8507     4.6712     5.5508     6.8134     0.897      97.5618   
3159.4     8.0078     7.0802     10.6037    8.2592     4.332      4.7778     5.8889     7.0739     0.883      97.6692   
3159.6     7.9836     7.2836     10.5649    8.5306     4.9346     4.8519     5.8796     7.3853     0.876      96.9303   
3159.8     7.9715     7.2891     10.6637    8.3348     5.2049     4.9719     5.5749     7.5488     0.883      96.5523   
3160       7.9879     7.2222     10.5762    8.1677     5.3949     4.88       5.6796     7.7303     0.905      97.1866   
3160.2     8.0824     7.1656     10.4278    7.8024     5.3991     4.7595     5.72       7.8302     0.913      97.015    
3160.4     8.1291     7.1574     10.1527    7.4693     5.4481     4.62       5.7394     8.0074     0.921      98.2517   
3160.6     8.1886     7.2051     10.1544    7.1396     5.5602     4.5067     5.6637     8.195      0.909      98.678    
3160.8     8.1858     7.0688     10.0916    6.8669     5.805      4.396      5.685      8.4912     0.901      99.1925   
3161       8.1172     7.2592     10.5519    6.7711     6.0879     4.2747     5.9783     8.6618     0.906      98.9316   
3161.2     7.9238     7.3218     10.7579    6.8754     6.256      4.1005     5.9713     8.6158     0.906      98.6633   
3161.4     7.7356     7.6849     11.1561    6.6878     5.98       3.8901     6.0809     8.1181     0.903      98.5118   
3161.6     7.5807     7.216      10.1841    6.2437     5.3598     3.656      5.4507     7.5905     0.903      98.6638   
3161.8     7.3722     6.9721     9.7258     5.7769     4.7246     3.3885     5.0039     7.3388     0.911      99.7425   
3162       7.199      6.2977     9.1077     5.5586     4.4088     3.1397     4.5678     7.1596     0.906      101.7494  
3162.2     7.3136     5.9655     8.8716     5.3901     4.1688     3.0176     4.9909     6.8782     0.906      104.1623  
3162.4     7.6273     5.671      8.3935     5.2925     4.0302     2.9945     5.0497     6.9291     0.899      105.6797  
3162.6     7.919      5.8524     8.3031     5.3947     4.0869     3.0703     5.3579     7.2701     0.889      107.0598  
3162.8     8.2974     6.0755     8.2818     5.7321     4.3199     3.2548     5.8083     7.8815     0.88       108.1412  
3163       8.6091     6.4805     8.7198     6.2526     4.7114     3.5248     6.0749     8.7337     0.883      106.7501  
3163.2     8.7979     7.0815     9.6021     6.9278     5.2605     3.8205     6.6101     9.7832     0.885      104.3876  
3163.4     9.1161     7.373      10.1637    7.4077     5.6851     4.2258     6.6754     10.8429    0.891      102.2566  
3163.6     9.5835     7.4063     10.137     7.6535     6.0792     4.8434     6.4992     12.2503    0.911      100.9357  
3163.8     9.9896     7.2601     10.2771    7.9632     6.9076     5.7699     6.6049     14.2345    0.915      101.7373  
3164       10.0467    7.7789     11.408     8.9152     8.4546     6.5049     7.3683     16.8871    0.917      101.2121  
3164.2     10.0615    8.897      13.9295    9.8816     9.6084     6.9723     7.9996     18.554     0.925      100.0649  
3164.4     10.3908    9.0669     14.0085    9.8701     9.4493     7.175      7.7108     18.0247    0.922      99.7273   
3164.6     10.877     8.563      12.7816    8.6037     8.118      7.05       7.1189     16.5314    0.914      100.5205  
3164.8     11.0413    8.601      12.4986    7.5198     7.007      6.5923     7.1368     16.1209    0.91       101.3307  
3165       11.3214    8.3688     12.401     7.027      6.4596     6.3313     6.8241     17.0209    0.909      103.3123  
3165.2     11.8026    8.0626     12.4988    6.7539     6.202      6.3794     6.8317     18.1001    0.931      106.3801  
3165.4     12.7521    7.9942     12.993     6.7939     6.1429     6.5439     7.6903     19.0794    0.911      106.9922  
3165.6     14.4913    7.9051     12.8181    6.8805     6.0609     6.9041     8.3304     19.4743    0.912      106.8524  
3165.8     16.4819    7.7323     12.2832    7.3024     6.218      7.3145     10.111     19.9391    0.899      106.4068  
3166       17.6496    9.4036     15.0908    8.5323     6.7226     7.6529     17.7023    19.6566    0.887      105.5074  
3166.2     18.3457    12.7619    19.673     10.3457    7.1913     7.9129     20.8498    18.7839    0.886      105.3873  
3166.4     18.5252    13.3457    21.0979    11.9674    7.2373     8.0914     13.0172    17.5813    0.896      106.9607  
3166.6     18.2996    13.4781    22.0496    12.5356    7.1057     8.0892     12.1308    17.1206    0.907      107.7836  
3166.8     17.7186    13.013     23.424     13.2653    6.8418     7.9907     11.7112    16.466     0.923      108.376   
3167       17.3218    12.4648    24.506     13.5453    6.693      7.9116     10.7816    16.1653    0.926      110.714   
3167.2     16.6944    11.8159    24.8682    14.1527    6.8785     7.8415     11.0924    16.3955    0.93       111.5703  
3167.4     16.0424    12.2498    26.3867    15.008     7.2038     7.7515     10.6463    16.7896    0.927      111.4799  
3167.6     15.5804    11.9441    25.4477    15.9775    7.4148     7.6785     10.0334    17.0285    0.92       110.1465  
3167.8     15.2721    11.5299    23.8759    16.3493    7.3372     7.5541     9.8234     16.8121    0.914      108.4513  
3168       15.0624    11.0138    22.13      16.5376    7.2673     7.3432     9.4041     16.6155    0.913      107.8177  
3168.2     14.8201    10.8632    21.1531    16.6785    7.406      7.2118     9.0254     16.9141    0.914      104.8979  
3168.4     14.6046    10.6751    20.7282    17.0214    7.8869     7.1243     8.7731     17.8886    0.923      101.7873  
3168.6     14.6263    10.3832    20.2623    16.9191    8.5203     7.1001     9.398      18.3399    0.914      99.5945   
