~Version
 VERS              .         2.0                           : CWLS LOG ASCII STANDARD - VERSION 2.0
 WRAP              .         NO                            : ONE LINE PER DEPTH STEP
 DLM               .         SPACE                         : DELIMITING CHARACTER(SPACE TAB OR COMMA)
~Well Information
#_______________________________________________________________________________
#
#PARAMETER_NAME    .UNIT     VALUE                         : DESCRIPTION
#_______________________________________________________________________________
STRT               .m        3075                          : First reference value
STOP               .m        3285                          : Last reference value
STEP               .m        0.2                           : Step increment
NULL               .         -9999                         : Missing value
COMP               .                                       : Company
WELL               .         305                           : Well name
FLD                .                                       : Field
LOC                .                                       : Location
CNTY               .                                       : County
STAT               .                                       : State
CTRY               .                                       : Country
SRVC               .                                       : Service Company
DATE               .                                       : Date
API                .                                       : API number
EREF               .m        138.34                        : 
Pad                .         3                             : 
X                  .m        219750                        : 
Y                  .m        249950                        : 
group              .         Pad3                          : 
Интер-р            .         Пузин                         : 
Куст               .         3                             : 
Статус             .         Не проверено                  : 
Тип                .         Разведка                      : 
~Parameter Information Block
#_______________________________________________________________________________
#
#PARAMETER_NAME    .UNIT     VALUE                         : DESCRIPTION
#_______________________________________________________________________________
SET                .         LAS3                          : 
REAL_CREATION_DATE .         Ср апр 11 2012-13_17_10       : 
TLFamily_DEPTH     .         Measured Depth                : 
TLFamily_GR        .         Gamma Ray                     : 
TLFamily_TNPH      .         Neutron Porosity              : 
group              .         INI                           : 
~Curve Information
#_______________________________________________________________________________
#
#LOGNAME           .UNIT     LOG_ID                        : DESCRIPTION
#_______________________________________________________________________________
DEPTH              .m                                      : Measured Depth 
GR                 .gAPI                                   :  
TNPH               .v/v                                    : Neutron Porosity 
~Ascii
# ...
3123.6     71.712     0.27      
3123.8     71.944     0.254     
3124       69.96      0.29      
3124.2     74.232     0.317     
3124.4     79.152     0.321     
3124.6     80.2       0.35      
3124.8     78.96      0.323     
3125       80.528     0.294     
3125.2     80.592     0.277     
3125.4     80.224     0.293     
3125.6     81.776     0.327     
3125.8     82.24      0.315     
3126       83.608     0.301     
3126.2     85.928     0.282     
3126.4     84.112     0.27      
3126.6     78.992     0.267     
3126.8     74.44      0.27      
3127       78.008     0.261     
3127.2     82.416     0.273     
3127.4     78.72      0.279     
3127.6     79.264     0.288     
3127.8     81.208     0.287     
3128       78.368     0.275     
3128.2     76.488     0.278     
3128.4     77.608     0.277     
3128.6     74.912     0.247     
3128.8     74.768     0.236     
3129       78.16      0.246     
3129.2     83.464     0.256     
3129.4     89.736     0.241     
3129.6     89.208     0.245     
3129.8     89.344     0.245     
3130       91.768     0.241     
3130.2     91.968     0.222     
3130.4     87.776     0.236     
3130.6     82.376     0.222     
3130.8     79.48      0.214     
3131       76.504     0.19      
3131.2     74.152     0.18      
3131.4     70.736     0.178     
3131.6     69.136     0.17      
3131.8     64.736     0.168     
3132       59.216     0.161     
3132.2     44.568     0.16      
3132.4     35.936     0.149     
3132.6     29.608     0.157     
3132.8     29.256     0.163     
3133       31.744     0.165     
3133.2     33.2       0.161     
3133.4     36.976     0.162     
3133.6     42.136     0.172     
3133.8     47.088     0.198     
3134       49.624     0.223     
3134.2     50.544     0.223     
3134.4     51.336     0.206     
3134.6     54.632     0.21      
3134.8     56.88      0.227     
3135       59.456     0.25      
3135.2     63.624     0.235     
3135.4     56.432     0.234     
3135.6     48.768     0.217     
3135.8     53.992     0.212     
3136       51.848     0.215     
3136.2     55.504     0.222     
3136.4     60.048     0.248     
3136.6     70.272     0.261     
3136.8     81.744     0.255     
3137       86.568     0.255     
3137.2     86.624     0.267     
3137.4     86.048     0.267     
3137.6     81.184     0.261     
3137.8     80.568     0.261     
3138       83.736     0.272     
3138.2     82.208     0.242     
3138.4     83.536     0.218     
3138.6     80.8       0.201     
3138.8     75.424     0.204     
3139       72.16      0.2       
3139.2     64.56      0.196     
3139.4     59.776     0.188     
3139.6     56.448     0.205     
3139.8     55.672     0.189     
3140       55.648     0.177     
3140.2     55.512     0.164     
3140.4     53.112     0.152     
3140.6     51.304     0.15      
3140.8     42.008     0.15      
3141       31.72      0.129     
3141.2     29.712     0.125     
3141.4     33.224     0.135     
3141.6     33.6       0.158     
3141.8     33.896     0.155     
3142       37.008     0.175     
3142.2     40.928     0.207     
3142.4     43.752     0.241     
3142.6     50.696     0.224     
3142.8     53.952     0.217     
3143       60.896     0.217     
3143.2     65.232     0.214     
3143.4     66.768     0.214     
3143.6     60.032     0.214     
3143.8     59.368     0.223     
3144       61.968     0.219     
3144.2     69.472     0.246     
3144.4     79.216     0.262     
3144.6     83.616     0.246     
3144.8     88.656     0.241     
3145       90.784     0.247     
3145.2     90.688     0.241     
3145.4     87.784     0.27      
3145.6     85.216     0.256     
3145.8     76.96      0.225     
3146       63.2       0.2       
3146.2     51.752     0.184     
3146.4     40.968     0.161     
3146.6     37.392     0.157     
3146.8     35.72      0.157     
3147       35.96      0.155     
3147.2     37.136     0.155     
3147.4     43.936     0.152     
3147.6     54.816     0.184     
3147.8     69.872     0.219     
3148       81.568     0.256     
3148.2     88.08      0.285     
3148.4     91.312     0.264     
3148.6     93.272     0.234     
3148.8     95.712     0.254     
3149       97.688     0.258     
3149.2     96.6       0.26      
3149.4     93.288     0.278     
3149.6     95.672     0.291     
3149.8     93.64      0.285     
3150       93.552     0.268     
3150.2     93.976     0.249     
3150.4     96.216     0.237     
3150.6     98.808     0.244     
3150.8     97.832     0.287     
3151       102.392    0.313     
3151.2     109.176    0.356     
3151.4     116.512    0.34      
3151.6     120.616    0.313     
3151.8     118.92     0.305     
3152       114.976    0.286     
3152.2     118.456    0.258     
3152.4     113.344    0.256     
3152.6     110.888    0.272     
3152.8     107.216    0.294     
3153       101.808    0.294     
3153.2     93.992     0.298     
3153.4     88.016     0.276     
3153.6     91.632     0.249     
3153.8     95.776     0.238     
3154       97.752     0.23      
3154.2     97.408     0.23      
3154.4     106.032    0.238     
3154.6     116.648    0.25      
3154.8     133.464    0.256     
3155       153.664    0.263     
3155.2     171.504    0.3       
3155.4     191.6      0.289     
3155.6     192.128    0.288     
3155.8     180.944    0.287     
3156       183.976    0.283     
3156.2     179.576    0.274     
3156.4     183.368    0.254     
3156.6     181.056    0.278     
3156.8     184.352    0.274     
3157       187.096    0.274     
3157.2     194.176    0.254     
3157.4     194.864    0.242     
3157.6     187.248    0.271     
3157.8     187.856    0.313     
3158       179.664    0.3       
3158.2     173.272    0.268     
3158.4     165.632    0.261     
3158.6     163.624    0.241     
3158.8     158.24     0.258     
3159       167.248    0.258     
3159.2     178.064    0.27      
3159.4     182.8      0.273     
3159.6     194.888    0.273     
3159.8     205.848    0.265     
3160       208.696    0.25      
3160.2     211.032    0.256     
3160.4     215.496    0.288     
3160.6     213.696    0.296     
3160.8     207.904    0.289     
3161       194.664    0.292     
3161.2     183.264    0.29      
3161.4     176.376    0.278     
3161.6     164.656    0.27      
3161.8     157.888    0.277     
3162       153.896    0.278     
3162.2     148.104    0.253     
3162.4     151.776    0.277     
3162.6     153.312    0.294     
3162.8     164.544    0.314     
3163       178.024    0.295     
3163.2     192.76     0.3       
3163.4     211.48     0.3       
3163.6     233.184    0.322     
3163.8     249.952    0.29      
3164       250.928    0.276     
3164.2     268.832    0.276     
3164.4     295.76     0.264     
3164.6     299.904    0.316     
3164.8     298.152    0.346     
3165       298.44     0.346     
3165.2     301.872    0.34      
3165.4     299.616    0.356     
3165.6     292.88     0.356     
3165.8     276.896    0.321     
3166       250.24     0.311     
3166.2     244.328    0.293     
3166.4     273.648    0.295     
3166.6     324.536    0.334     
3166.8     352.568    0.316     
3167       353.688    0.316     
3167.2     331.448    0.284     
3167.4     318.536    0.267     
3167.6     303.224    0.271     
3167.8     288.856    0.318     
3168       273.256    0.356     
3168.2     269.56     0.356     
3168.4     279.112    0.397     
3168.6     285.432    0.4       
3168.8     290.096    0.373     
3169       287.096    0.359     
3169.2     296.48     0.388     
3169.4     301.984    0.353     
3169.6     299.232    0.323     
3169.8     297.56     0.323     
3170       297.792    0.302     
3170.2     290.392    0.318     
3170.4     275.04     0.323     
3170.6     267.632    0.308     
3170.8     262.12     0.317     
3171       257.648    0.301     
3171.2     253.088    0.317     
3171.4     244.608    0.317     
3171.6     240.488    0.305     
3171.8     239.488    0.328     
3172       240.768    0.365     
