~Version
 VERS              .         2.0                           : CWLS LOG ASCII STANDARD - VERSION 2.0
 WRAP              .         NO                            : ONE LINE PER DEPTH STEP
 DLM               .         SPACE                         : DELIMITING CHARACTER(SPACE TAB OR COMMA)
~Well Information
#_______________________________________________________________________________
#
#PARAMETER_NAME    .UNIT     VALUE                         : DESCRIPTION
#_______________________________________________________________________________
STRT               .m        3075                          : First reference value
STOP               .m        3285                          : Last reference value
STEP               .m        0.2                           : Step increment
NULL               .         -9999                         : Missing value
COMP               .                                       : Company
WELL               .         305                           : Well name
FLD                .                                       : Field
LOC                .                                       : Location
CNTY               .                                       : County
STAT               .                                       : State
CTRY               .                                       : Country
SRVC               .                                       : Service Company
DATE               .                                       : Date
API                .                                       : API number
EREF               .m        138.34                        : 
Pad                .         3                             : 
X                  .m        219750                        : 
Y                  .m        249950                        : 
group              .         Pad3                          : 
Интер-р            .         Пузин                         : 
Куст               .         3                             : 
Статус             .         Не проверено                  : 
Тип                .         Разведка                      : 
~Parameter Information Block
#_______________________________________________________________________________
#
#PARAMETER_NAME    .UNIT     VALUE                         : DESCRIPTION
#_______________________________________________________________________________
SET                .         LAS3                          : 
REAL_CREATION_DATE .         Ср апр 11 2012-13_17_10       : 
TLFamily_DEPTH     .         Measured Depth                : 
TLFamily_GR        .         Gamma Ray                     : 
TLFamily_TNPH      .         Neutron Porosity              : 
group              .         INI                           : 
~Curve Information
#_______________________________________________________________________________
#
#LOGNAME           .UNIT     LOG_ID                        : DESCRIPTION
#_______________________________________________________________________________
DEPTH              .m                                      : Measured Depth 
GR                 .gAPI                                   :  
TNPH               .v/v                                    : Neutron Porosity 
~Ascii
# ...
3172.2     226.216    0.37      
3172.4     208.304    0.326     
3172.6     187.272    0.302     
3172.8     178.632    0.316     
3173       179.408    0.336     
3173.2     183.552    0.312     
3173.4     177.336    0.328     
3173.6     174.008    0.36      
3173.8     169.464    0.318     
3174       169.544    0.325     
3174.2     165.472    0.336     
3174.4     148.808    0.307     
3174.6     133.744    0.307     
3174.8     129.896    0.307     
3175       129.056    0.315     
3175.2     123.896    0.299     
3175.4     123.328    0.309     
3175.6     119.736    0.296     
3175.8     120.696    0.289     
3176       124        0.266     
3176.2     124.68     0.267     
3176.4     116.584    0.259     
3176.6     116.296    0.249     
3176.8     99.376     0.248     
3177       75.616     0.215     
3177.2     63.664     0.202     
3177.4     63.608     0.192     
3177.6     54.904     0.202     
3177.8     52.776     0.208     
3178       66.864     0.22      
3178.2     88.368     0.258     
3178.4     113.544    0.275     
3178.6     111.664    0.257     
3178.8     102.816    0.26      
3179       95.504     0.242     
3179.2     86.152     0.25      
3179.4     87.304     0.243     
3179.6     88.904     0.231     
3179.8     90.64      0.2       
3180       86.552     0.216     
3180.2     87.888     0.218     
3180.4     93.016     0.263     
3180.6     95.616     0.268     
3180.8     97.856     0.267     
3181       93.888     0.28      
3181.2     96.136     0.294     
3181.4     96.32      0.272     
3181.6     102.112    0.276     
3181.8     103.168    0.276     
3182       100.248    0.278     
3182.2     94.84      0.269     
3182.4     96.152     0.275     
3182.6     97.136     0.281     
3182.8     104.352    0.302     
3183       107.816    0.305     
3183.2     108.392    0.307     
3183.4     116.6      0.312     
3183.6     115.664    0.307     
3183.8     106.752    0.307     
3184       106.032    0.297     
3184.2     110.704    0.272     
3184.4     106.704    0.283     
3184.6     102.696    0.264     
3184.8     100.408    0.264     
3185       100.2      0.277     
3185.2     105.6      0.284     
3185.4     111.896    0.284     
3185.6     107.384    0.285     
3185.8     102.784    0.291     
3186       91.568     0.282     
3186.2     87.528     0.298     
3186.4     85.96      0.298     
3186.6     86.76      0.311     
3186.8     88.68      0.333     
3187       89.432     0.318     
3187.2     94.944     0.328     
3187.4     107.336    0.311     
3187.6     113.816    0.315     
3187.8     119.648    0.325     
3188       130.568    0.359     
3188.2     128.912    0.331     
3188.4     119.136    0.292     
3188.6     108.064    0.27      
3188.8     103.512    0.27      
3189       92.416     0.27      
3189.2     93.52      0.273     
3189.4     99.928     0.316     
3189.6     102.824    0.338     
3189.8     109.176    0.338     
3190       121.192    0.307     
3190.2     126.672    0.295     
3190.4     137.456    0.335     
3190.6     156.664    0.333     
3190.8     173.208    0.327     
3191       175.712    0.303     
3191.2     174.416    0.297     
3191.4     171.04     0.265     
3191.6     164.416    0.273     
3191.8     162.408    0.277     
3192       173.84     0.316     
3192.2     194.672    0.342     
3192.4     200.24     0.313     
3192.6     195.216    0.332     
3192.8     179.2      0.32      
3193       173.328    0.3       
3193.2     160.992    0.341     
3193.4     155        0.32      
3193.6     159.32     0.315     
3193.8     158.64     0.329     
3194       133.792    0.318     
3194.2     107.4      0.264     
3194.4     97.944     0.264     
3194.6     100.424    0.264     
3194.8     101.792    0.276     
3195       103.224    0.283     
3195.2     101.488    0.271     
3195.4     99.424     0.292     
3195.6     97.72      0.297     
3195.8     96.088     0.29      
3196       96.632     0.273     
3196.2     96.44      0.267     
3196.4     103.2      0.248     
3196.6     104.992    0.22      
3196.8     106.352    0.201     
3197       112.888    0.218     
3197.2     113.752    0.242     
3197.4     117.944    0.255     
3197.6     117.84     0.214     
3197.8     113.568    0.245     
3198       106.608    0.25      
3198.2     107.384    0.252     
3198.4     106.504    0.268     
3198.6     109.176    0.351     
3198.8     105.264    0.334     
3199       109.072    0.305     
3199.2     110.96     0.294     
3199.4     110.464    0.32      
3199.6     105.704    0.32      
3199.8     102.904    0.309     
3200       101.696    0.275     
3200.2     97.96      0.284     
3200.4     93.32      0.267     
3200.6     96.04      0.24      
3200.8     99.152     0.225     
3201       97.288     0.263     
3201.2     99.104     0.272     
3201.4     97.624     0.292     
3201.6     97.688     0.279     
3201.8     97.664     0.278     
3202       99.864     0.276     
3202.2     100.008    0.269     
3202.4     104.128    0.265     
3202.6     104.52     0.25      
3202.8     105.104    0.247     
3203       102.624    0.24      
3203.2     98.84      0.254     
3203.4     95.712     0.26      
3203.6     91         0.267     
3203.8     93.752     0.267     
3204       90.312     0.258     
3204.2     85.312     0.258     
3204.4     75.32      0.239     
3204.6     61.464     0.21      
3204.8     57.528     0.203     
3205       81.136     0.23      
3205.2     95.744     0.243     
3205.4     101.944    0.289     
3205.6     105.856    0.303     
3205.8     103.192    0.27      
3206       105.52     0.271     
3206.2     106.24     0.338     
3206.4     114.536    0.35      
3206.6     114.912    0.308     
3206.8     115.36     0.277     
3207       113.464    0.281     
3207.2     114.936    0.272     
3207.4     110.088    0.264     
3207.6     106.824    0.279     
3207.8     107        0.308     
3208       103.904    0.335     
3208.2     99.208     0.329     
3208.4     100.904    0.302     
3208.6     102.552    0.271     
3208.8     98.968     0.253     
3209       100.976    0.286     
3209.2     96.104     0.286     
3209.4     94.256     0.295     
3209.6     95.84      0.291     
3209.8     92.952     0.289     
3210       91.272     0.271     
3210.2     97.28      0.271     
3210.4     100.976    0.278     
3210.6     97.128     0.275     
3210.8     101.08     0.276     
3211       105.552    0.272     
3211.2     102.504    0.261     
3211.4     99.04      0.3       
3211.6     100.24     0.327     
3211.8     97.12      0.327     
3212       96.984     0.361     
3212.2     91.304     0.329     
3212.4     93.264     0.35      
3212.6     95.456     0.362     
3212.8     103.016    0.335     
3213       100.696    0.309     
3213.2     98.096     0.309     
3213.4     101.448    0.298     
3213.6     106.232    0.308     
3213.8     102.456    0.297     
3214       100.328    0.309     
3214.2     103.36     0.319     
3214.4     98.12      0.319     
3214.6     96.808     0.305     
3214.8     96.016     0.28      
3215       92.96      0.248     
3215.2     98.408     0.247     
3215.4     102.192    0.245     
3215.6     103.848    0.199     
3215.8     107.464    0.198     
3216       99.216     0.196     
3216.2     70.816     0.171     
3216.4     37.816     0.162     
3216.6     20.928     0.168     
3216.8     15.6       0.151     
3217       18.104     0.144     
3217.2     18.368     0.183     
3217.4     19.536     0.18      
3217.6     21.8       0.18      
3217.8     19.728     0.201     
3218       19.56      0.193     
3218.2     20.568     0.188     
3218.4     21.288     0.17      
3218.6     18.192     0.16      
3218.8     18.016     0.156     
3219       18.112     0.159     
3219.2     20.76      0.166     
3219.4     22.552     0.18      
3219.6     23.736     0.19      
3219.8     22.568     0.186     
3220       25.2       0.157     
3220.2     23.024     0.158     
3220.4     22.12      0.16      
3220.6     20.896     0.162     
