~Version
 VERS              .         2.0                           : CWLS LOG ASCII STANDARD - VERSION 2.0
 WRAP              .         NO                            : ONE LINE PER DEPTH STEP
 DLM               .         SPACE                         : DELIMITING CHARACTER(SPACE TAB OR COMMA)
~Well Information
#_______________________________________________________________________________
#
#PARAMETER_NAME    .UNIT     VALUE                         : DESCRIPTION
#_______________________________________________________________________________
STRT               .m        3075                          : First reference value
STOP               .m        3285                          : Last reference value
STEP               .m        0.2                           : Step increment
NULL               .         -9999                         : Missing value
COMP               .                                       : Company
WELL               .         305                           : Well name
FLD                .                                       : Field
LOC                .                                       : Location
CNTY               .                                       : County
STAT               .                                       : State
CTRY               .                                       : Country
SRVC               .                                       : Service Company
DATE               .                                       : Date
API                .                                       : API number
EREF               .m        138.34                        : 
Pad                .         3                             : 
X                  .m        219750                        : 
Y                  .m        249950                        : 
group              .         Pad3                          : 
Интер-р            .         Пузин                         : 
Куст               .         3                             : 
Статус             .         Не проверено                  : 
Тип                .         Разведка                      : 
~Parameter Information Block
#_______________________________________________________________________________
#
#PARAMETER_NAME    .UNIT     VALUE                         : DESCRIPTION
#_______________________________________________________________________________
SET                .         LAS1                          : 
REAL_CREATION_DATE .         Ср апр 11 2012-13_17_10       : 
TLFamily_DEPTH     .         Measured Depth                : 
TLFamily_KS        .         Potential Resistivity         : 
TLFamily_KS1       .         Extra Shallow Resistivity     : 
TLFamily_KS2       .         Shallow Resistivity           : 
TLFamily_KS3       .         Medium Resistivity            : 
TLFamily_KS4       .         Deep Resistivity              : 
TLFamily_KS5       .         Extra Deep Resistivity        : 
TLFamily_LLD       .         Lateral Log Resistivity       : 
TLFamily_OKS3      .         Medium Resistivity Inverted   : 
TLFamily_RM        .         Mud Resistivity               : 
TLFamily_SP        .         Spontaneous Potential         : 
group              .         INI                           : 
~Curve Information
#_______________________________________________________________________________
#
#LOGNAME           .UNIT     LOG_ID                        : DESCRIPTION
#_______________________________________________________________________________
DEPTH              .m                                      : Measured Depth 
KS                 .ohm.m                                  : Potential Resistivity 
KS1                .ohm.m                                  : Extra Shallow Resistivity 
KS2                .ohm.m                                  : Shallow Resistivity 
KS3                .ohm.m                                  : Medium Resistivity 
KS4                .ohm.m                                  : Deep Resistivity 
KS5                .ohm.m                                  : Extra Deep Resistivity 
LLD                .ohm.m                                  : Lateral Log Resistivity 
OKS3               .ohm.m                                  : Medium Resistivity Inverted 
RM                 .ohm.m                                  : Mud Resistivity 
SP                 .mV                                     : Spontaneous Potential 
~Ascii
# ...
3249.2     12.1669    9.1693     14.6952    9.2826     2.3434     2.5526     8.1531     12.4851    0.912      57.4011   
3249.4     12.3814    8.6147     13.6702    8.5775     2.4796     2.3507     8.0483     12.9017    0.912      63.6279   
3249.6     12.7167    8.1323     12.8084    8.2156     2.7793     2.2163     8.2006     13.6691    0.907      69.655    
3249.8     13.1765    7.8588     12.3721    8.2225     3.4491     2.1143     8.7705     14.6383    0.902      73.318    
3250       13.7824    7.9841     12.7725    8.4737     4.7829     2.1231     9.7007     15.6434    0.899      76.8561   
3250.2     14.3404    8.313      13.3912    8.9308     7.1482     2.1822     10.4603    16.6562    0.918      80.8718   
3250.4     14.7037    8.8821     14.2756    9.456      9.1952     2.2201     11.3408    17.6621    0.907      84.2172   
3250.6     14.9839    9.3447     15.1762    9.9741     10.1803    2.2718     11.5966    18.3993    0.884      87.5593   
3250.8     15.1947    9.7556     15.9976    10.3257    10.4366    2.3278     11.1418    19.3788    0.919      90.6059   
3251       15.2015    9.8464     16.6204    10.6327    10.3579    2.4258     11.0233    21.1742    0.913      93.2094   
3251.2     14.9096    9.971      17.284     10.9772    10.1647    2.5457     11.0327    22.934     0.911      96.0882   
3251.4     14.8569    10.0602    17.7421    11.0429    9.9452     2.7624     9.3591     25.0117    0.909      97.473    
3251.6     14.8281    8.9498     16.2892    10.9084    9.8771     3.1234     9.5321     29.1681    0.892      98.3605   
3251.8     14.9872    8.8818     16.3237    10.956     10.1557    3.6913     10.3542    36.4031    0.893      101.7543  
3252       15.1861    9.1117     16.391     11.4404    11.0913    4.6622     10.0845    46.2936    0.906      101.7096  
3252.2     15.596     8.9493     16.1662    12.1052    13.0933    6.6845     9.2873     61.5995    0.878      97.9865   
3252.4     16.7283    8.4988     15.1259    13.0462    17.0973    9.9904     8.5324     90.4518    0.914      94.2138   
3252.6     18.9536    7.153      14.5421    15.2055    25.4982    13.4461    8.5535     132.5984   0.915      90.2608   
3252.8     23.2634    7.0439     15.9161    18.6907    34.5224    16.188     15.6991    149.1073   0.871      86.1323   
3253       32.5537    7.8371     16.7848    21.5978    37.614     19.5532    38.9405    119.7657   0.852      83.606    
3253.2     39.4848    8.3609     14.7814    21.1949    35.8808    21.9376    73.2707    93.432     0.876      81.4489   
3253.4     40.932     15.1021    23.8893    22.6043    36.2002    21.5293    112.1539   79.8327    0.905      80.1098   
3253.6     42.9485    16.314     32.2324    25.3606    37.1638    20.8282    91.5726    67.3257    0.911      79.3947   
3253.8     46.5199    10.9354    26.7065    21.5204    30.6396    21.779     50.2623    48.9205    0.882      78.3557   
3254       48.279     9.8679     30.9544    18.6599    22.1238    22.2817    39.5836    34.9334    0.879      78.0034   
3254.2     46.4523    11.8523    42.9083    23.0403    21.5068    23.2122    53.3083    32.3414    0.905      78.9418   
3254.4     44.1831    14.5527    52.6772    29.2711    23.5984    29.9534    88.2175    29.1047    0.906      79.8088   
3254.6     42.5849    13.3902    50.7204    35.8516    24.5193    39.5685    91.1172    22.2965    0.898      80.7852   
3254.8     39.516     13.9086    56.314     48.3416    24.1997    45.7012    66.4892    16.014     0.902      83.1097   
3255       32.5721    16.5013    63.9953    82.078     26.6722    45.9891    51.1746    12.3776    0.876      85.2142   
3255.2     27.4399    20.2866    82.0709    109.5329   30.9539    43.6138    29.3138    10.1034    0.873      88.3063   
3255.4     24.4719    15.5451    66.808     103.5855   30.6326    39.4103    12.8259    8.2865     0.894      90.8025   
3255.6     23.1144    11.7868    49.1152    88.5625    22.7666    33.0192    11.7657    7.3982     0.914      92.5605   
3255.8     22.0779    10.3719    37.3772    78.601     19.0793    26.0721    12.0216    7.5009     0.897      92.4386   
3256       19.9954    10.6814    33.9809    77.0507    19.6957    21.125     12.0832    8.9027     0.904      91.3898   
3256.2     18.2944    13.222     39.4451    74.9835    21.5416    17.8675    11.4879    10.8886    0.887      89.9017   
3256.4     17.6634    10.9819    31.4908    70.6887    23.2334    16.7162    8.8562     14.274     0.862      87.8461   
3256.6     17.0014    10.1454    29.7766    65.5942    27.1458    16.4084    9.273      19.9937    0.889      88.2256   
3256.8     15.3641    11.9129    34.1241    70.1698    39.1093    15.3084    14.3367    24.7296    0.902      90.0233   
3257       13.337     14.6686    38.226     71.6575    55.6186    13.8619    20.7701    24.9357    0.9        91.5972   
3257.2     11.9215    15.9696    36.1071    59.1318    56.668     12.1787    12.5151    20.2045    0.89       93.5099   
3257.4     10.6977    11.9624    25.1778    39.6064    41.9565    9.7152     6.3434     14.3359    0.898      95.703    
3257.6     9.8087     9.58       19.9259    25.6571    30.5864    6.8013     5.8389     10.178     0.889      97.177    
3257.8     9.2025     7.882      16.9431    17.8189    23.4089    4.3227     5.7839     8.1858     0.869      97.9403   
3258       8.7422     7.3793     15.5336    12.7178    17.9703    2.9883     5.8245     7.1886     0.894      98.1675   
3258.2     8.4574     6.9977     13.8217    9.7438     13.1881    2.0583     5.6176     6.6714     0.908      97.2659   
3258.4     8.3644     6.7136     11.903     7.9669     9.4607     1.5293     5.6386     6.3301     0.894      95.5429   
3258.6     8.236      6.3084     10.5131    7.0048     7.0593     1.2507     6.0231     6.2432     0.893      93.0828   
3258.8     8.0916     6.4917     9.9237     6.6777     5.403      1.0442     5.9346     6.3869     0.884      93.2597   
3259       7.9662     6.274      9.3884     7.2387     4.2871     0.9167     5.6921     6.6399     0.867      94.1758   
3259.2     7.8841     6.0886     8.969      7.8138     3.5511     0.8082     5.6354     6.9105     0.855      94.2079   
3259.4     7.8848     5.8315     8.6504     8.1662     3.0986     0.7677     5.7116     7.0331     0.87       92.5709   
3259.6     7.9234     5.8758     8.4489     8.1558     2.8642     0.7091     6.341      7.0679     0.898      91.6891   
3259.8     8.032      5.9938     8.5725     8.1061     2.7727     0.7035     6.2        7.0929     0.896      91.5561   
3260       8.1383     5.9635     8.4765     7.9194     2.72       0.7443     5.9426     7.1876     0.894      92.1118   
3260.2     8.3516     5.8599     8.306      7.6406     2.7475     0.7507     5.8021     7.332      0.889      92.7755   
3260.4     8.7009     5.8717     8.3578     7.4295     2.9476     0.7534     6.0714     7.4749     0.866      89.164    
3260.6     9.4159     5.7233     8.1688     7.2566     3.4168     0.7849     6.7442     7.936      0.891      84.2101   
3260.8     10.6586    5.6702     8.3435     7.1596     4.202      0.8189     9.087      8.5704     0.905      75.5465   
3261       12.235     6.5471     9.2628     7.3779     5.8427     0.8932     12.8546    8.9037     0.9        69.108    
3261.2     13.2629    8.4519     10.7287    7.8242     7.7574     1.1718     15.802     8.7169     0.881      65.5777   
3261.4     12.8749    10.71      12.5848    8.3312     9.4389     1.5579     14.5221    8.1707     0.885      63.44     
3261.6     11.7019    12.3946    15.5906    8.7108     10.3641    1.7781     9.4825     7.425      0.867      63.0031   
3261.8     10.5127    11.2389    16.7363    8.7763     10.4872    1.947      7.1745     7.0692     0.877      65.529    
3262       9.7925     9.5387     16.5181    8.4937     10.1699    2.1963     6.9551     7.0655     0.892      68.3138   
3262.2     9.472      7.9545     15.2409    8.2407     10.0233    2.4208     7.9031     7.1554     0.884      71.3543   
3262.4     9.2407     8.0812     14.852     8.3278     10.1688    2.5173     7.2134     6.9247     0.887      76.2992   
