~Version
 VERS              .         2.0                           : CWLS LOG ASCII STANDARD - VERSION 2.0
 WRAP              .         NO                            : ONE LINE PER DEPTH STEP
 DLM               .         SPACE                         : DELIMITING CHARACTER(SPACE TAB OR COMMA)
~Well Information
#_______________________________________________________________________________
#
#PARAMETER_NAME    .UNIT     VALUE                         : DESCRIPTION
#_______________________________________________________________________________
STRT               .m        3075                          : First reference value
STOP               .m        3285                          : Last reference value
STEP               .m        0.2                           : Step increment
NULL               .         -9999                         : Missing value
COMP               .                                       : Company
WELL               .         305                           : Well name
FLD                .                                       : Field
LOC                .                                       : Location
CNTY               .                                       : County
STAT               .                                       : State
CTRY               .                                       : Country
SRVC               .                                       : Service Company
DATE               .                                       : Date
API                .                                       : API number
EREF               .m        138.34                        : 
Pad                .         3                             : 
X                  .m        219750                        : 
Y                  .m        249950                        : 
group              .         Pad3                          : 
Интер-р            .         Пузин                         : 
Куст               .         3                             : 
Статус             .         Не проверено                  : 
Тип                .         Разведка                      : 
~Parameter Information Block
#_______________________________________________________________________________
#
#PARAMETER_NAME    .UNIT     VALUE                         : DESCRIPTION
#_______________________________________________________________________________
SET                .         LAS1                          : 
REAL_CREATION_DATE .         Ср апр 11 2012-13_17_10       : 
TLFamily_DEPTH     .         Measured Depth                : 
TLFamily_KS        .         Potential Resistivity         : 
TLFamily_KS1       .         Extra Shallow Resistivity     : 
TLFamily_KS2       .         Shallow Resistivity           : 
TLFamily_KS3       .         Medium Resistivity            : 
TLFamily_KS4       .         Deep Resistivity              : 
TLFamily_KS5       .         Extra Deep Resistivity        : 
TLFamily_LLD       .         Lateral Log Resistivity       : 
TLFamily_OKS3      .         Medium Resistivity Inverted   : 
TLFamily_RM        .         Mud Resistivity               : 
TLFamily_SP        .         Spontaneous Potential         : 
group              .         INI                           : 
~Curve Information
#_______________________________________________________________________________
#
#LOGNAME           .UNIT     LOG_ID                        : DESCRIPTION
#_______________________________________________________________________________
DEPTH              .m                                      : Measured Depth 
KS                 .ohm.m                                  : Potential Resistivity 
KS1                .ohm.m                                  : Extra Shallow Resistivity 
KS2                .ohm.m                                  : Shallow Resistivity 
KS3                .ohm.m                                  : Medium Resistivity 
KS4                .ohm.m                                  : Deep Resistivity 
KS5                .ohm.m                                  : Extra Deep Resistivity 
LLD                .ohm.m                                  : Lateral Log Resistivity 
OKS3               .ohm.m                                  : Medium Resistivity Inverted 
RM                 .ohm.m                                  : Mud Resistivity 
SP                 .mV                                     : Spontaneous Potential 
~Ascii
# ...
3222.4     15.8937    10.7156    20.1123    15.7995    11.6154    8.0631     10.6197    16.0575    0.87       29.6044   
3222.6     15.8962    11.2393    21.0012    16.1561    11.7199    8.2138     10.9522    16.5577    0.868      28.4251   
3222.8     15.9226    11.289     21.0576    16.4348    11.8565    8.3642     10.1574    17.2107    0.872      26.3485   
3223       15.8869    11.1716    20.9125    16.4639    11.9566    8.4704     10.3366    17.9139    0.854      23.2357   
3223.2     15.8816    11.1627    21.0585    16.5074    12.0386    8.5863     10.5025    18.6774    0.843      21.3931   
3223.4     15.7854    11.3512    21.4337    16.5118    12.0164    8.7767     10.4763    19.6278    0.845      20.7585   
3223.6     15.6546    11.379     21.4815    16.5796    12.0184    8.9003     10.1144    20.7144    0.851      21.3854   
3223.8     15.4227    11.3728    21.6148    16.587     12.0063    8.9652     10.4334    21.5559    0.862      21.5588   
3224       15.2038    11.5025    21.6952    16.5396    11.9778    8.9522     9.9837     22.989     0.874      20.9454   
3224.2     14.9461    11.4181    21.5446    16.4575    11.9463    8.8608     8.8843     24.5789    0.871      20.7961   
3224.4     15.597     10.9258    21.1691    15.9126    11.7949    8.7655     8.4659     26.7427    0.865      20.9337   
3224.6     16.9033    9.2871     17.9878    15.0039    11.3912    8.7926     7.8508     27.6195    0.862      21.1129   
3224.8     18.8146    9.3801     17.6913    14.3232    11.2328    8.9266     10.7551    27.2704    0.855      20.4686   
3225       21.263     10.1509    18.3841    14.592     11.6492    9.1402     13.4588    25.7799    0.857      18.974    
3225.2     23.7395    11.2939    19.9229    15.2675    12.2229    9.4759     15.8148    23.243     0.847      17.2718   
3225.4     25.9878    12.4881    22.3024    16.1956    12.7859    9.8893     18.939     20.1398    0.865      17.1855   
3225.6     27.3738    13.7452    25.335     17.4569    13.4915    10.1436    22.0396    17.6248    0.863      17.8353   
3225.8     27.8647    15.7382    31.6181    19.1385    14.1102    10.1497    23.0136    15.5428    0.862      17.7735   
3226       27.6978    17.0022    35.4444    20.9045    14.3807    10.0548    24.502     13.4169    0.862      19.1518   
3226.2     27.148     17.4333    39.2422    22.0553    14.0677    9.8572     22.9718    11.4402    0.867      20.9207   
3226.4     24.9908    17.8934    41.8177    23.4376    13.7066    9.4058     19.804     9.9738     0.863      30.8585   
3226.6     21.8914    18.5504    44.7804    25.2194    13.2534    8.8239     15.8125    8.9858     0.843      29.4091   
3226.8     19.2156    17.7729    45.0466    26.8189    12.6201    8.2869     12.0544    8.4641     0.841      32.436    
3227       16.7827    15.8954    43.1108    28.1126    11.8826    7.6963     10.0023    8.2017     0.857      36.2705   
3227.2     14.8297    14.8207    39.3935    28.1105    10.9556    7.1111     9.286      7.9898     0.86       40.2694   
3227.4     13.5367    13.2457    33.2838    27.3963    10.024     6.5774     7.9009     7.8934     0.862      46.5679   
3227.6     12.5208    12.2892    28.6524    25.7211    9.0857     6.1805     7.2192     7.8955     0.863      51.905    
3227.8     11.8919    11.0601    23.7435    23.5426    8.3787     5.8606     6.669      8.0953     0.866      51.7925   
3228       11.5581    10.3936    20.6117    20.8129    7.7675     5.6607     6.7543     8.2579     0.869      45.6052   
3228.2     11.541     9.9251     18.607     18.4947    7.3339     5.5431     6.9802     8.2656     0.86       32.7125   
3228.4     11.6588    9.8804     17.2772    16.0764    7.0916     5.4709     7.0775     8.2695     0.844      30.2868   
3228.6     11.7657    9.9861     16.4092    13.9051    6.9693     5.4535     7.2174     8.3149     0.85       28.2947   
3228.8     11.9103    9.9061     15.8749    12.3645    6.9461     5.5188     7.2476     8.3806     0.87       27.2646   
3229       11.9954    9.9954     16.079     11.2691    7.0975     5.5771     7.7479     8.4034     0.878      26.7017   
3229.2     12.0898    10.3206    16.7014    10.5197    7.2238     5.6216     7.9493     8.2904     0.876      26.0405   
3229.4     12.1149    10.5022    16.8051    9.9773     7.2117     5.6625     7.7875     8.0499     0.87       25.1864   
3229.6     12.0342    10.506     16.9076    9.4331     7.1595     5.6859     7.6424     7.7979     0.873      26.0511   
3229.8     11.9099    10.5099    17.0424    9.0662     7.1119     5.6651     7.5736     7.656      0.862      26.7028   
3230       11.7321    10.4603    17.124     8.7867     6.9879     5.6526     7.3993     7.5365     0.841      26.7305   
3230.2     11.5521    10.3713    17.2268    8.6685     6.8793     5.6567     7.3852     7.4589     0.849      27.1228   
3230.4     11.5106    10.3517    17.2253    8.6424     6.7268     5.6766     7.4255     7.393      0.869      27.0997   
3230.6     11.4933    10.0668    16.7978    8.5579     6.4935     5.6715     7.2002     7.3812     0.864      28.2776   
3230.8     11.5394    10.1348    16.5888    8.4732     6.248      5.6778     7.4377     7.2634     0.865      29.6328   
3231       11.6424    9.9909     16.2765    8.4407     6.0234     5.674      7.56       7.0118     0.861      31.3537   
3231.2     11.7108    10.1476    16.4284    8.4646     5.8324     5.666      7.6802     6.7245     0.843      34.2227   
3231.4     11.5204    10.2904    16.5339    8.511      5.6621     5.6306     7.6401     6.421      0.859      35.5788   
3231.6     11.102     10.5871    16.9625    8.5146     5.4512     5.6051     7.3857     6.135      0.872      36.8706   
3231.8     10.7855    10.3684    16.9988    8.4407     5.2409     5.5615     6.9781     5.9519     0.866      40.7568   
3232       10.5131    10.1391    16.8343    8.2085     4.9991     5.4982     6.758      5.8402     0.858      52.2357   
3232.2     10.4063    9.7705     16.3254    7.9027     4.7772     5.4275     6.4976     5.6698     0.848      55.3048   
3232.4     10.4549    9.5379     15.5788    7.6863     4.6227     5.3606     6.6248     5.4477     0.86       49.4868   
3232.6     10.5092    9.4775     15.0959    7.54       4.5131     5.2925     6.7371     5.2042     0.879      43.3831   
3232.8     10.4411    9.6387     14.8416    7.4006     4.3925     5.2567     6.7463     4.9672     0.872      38.6774   
3233       10.3108    9.793      14.79      7.3199     4.2778     5.2292     6.605      4.7729     0.864      34.7239   
3233.2     10.0298    9.6828     14.7573    7.2827     4.1989     5.2026     6.447      4.6522     0.847      32.3874   
3233.4     9.676      9.7404     14.8303    7.1109     4.1213     5.1765     6.3655     4.5905     0.866      29.2166   
3233.6     9.3231     9.5376     14.5168    6.7607     4.0189     5.1993     6.0017     4.5545     0.878      28.2278   
3233.8     9.0237     9.1593     14.0005    6.4862     3.9344     5.2754     5.6974     4.5669     0.88       28.5762   
3234       8.7456     8.86       13.3231    6.2502     3.943      5.3486     5.6565     4.6457     0.867      29.5511   
3234.2     8.4735     8.6949     12.8518    6.1036     3.9617     5.4241     5.6205     4.7257     0.872      30.3878   
3234.4     8.2373     8.6544     12.5397    5.9964     3.9764     5.5179     5.4998     4.7614     0.853      30.973    
3234.6     8.0063     8.505      11.996     5.8467     3.9415     5.5611     5.2957     4.7328     0.857      30.4143   
3234.8     7.7861     8.186      11.1829    5.6195     3.836      5.5009     5.0273     4.705      0.877      30.5396   
3235       7.6241     7.9633     10.7358    5.3529     3.7295     5.3879     4.8666     4.7097     0.884      31.2745   
3235.2     7.5571     7.6994     10.3076    5.0794     3.6397     5.2648     4.9144     4.732      0.883      32.0759   
3235.4     7.579      7.5952     10.0093    4.7852     3.5069     5.1412     5.0888     4.6904     0.878      32.2967   
3235.6     7.6087     7.5555     9.6296     4.4875     3.307      5.0017     5.1322     4.7417     0.877      32.9267   
