~Version
 VERS              .         2.0                           : CWLS LOG ASCII STANDARD - VERSION 2.0
 WRAP              .         NO                            : ONE LINE PER DEPTH STEP
 DLM               .         SPACE                         : DELIMITING CHARACTER(SPACE TAB OR COMMA)
~Well Information
#_______________________________________________________________________________
#
#PARAMETER_NAME    .UNIT     VALUE                         : DESCRIPTION
#_______________________________________________________________________________
STRT               .m        3075                          : First reference value
STOP               .m        3285                          : Last reference value
STEP               .m        0.2                           : Step increment
NULL               .         -9999                         : Missing value
COMP               .                                       : Company
WELL               .         305                           : Well name
FLD                .                                       : Field
LOC                .                                       : Location
CNTY               .                                       : County
STAT               .                                       : State
CTRY               .                                       : Country
SRVC               .                                       : Service Company
DATE               .                                       : Date
API                .                                       : API number
EREF               .m        138.34                        : 
Pad                .         3                             : 
X                  .m        219750                        : 
Y                  .m        249950                        : 
group              .         Pad3                          : 
Интер-р            .         Пузин                         : 
Куст               .         3                             : 
Статус             .         Не проверено                  : 
Тип                .         Разведка                      : 
~Parameter Information Block
#_______________________________________________________________________________
#
#PARAMETER_NAME    .UNIT     VALUE                         : DESCRIPTION
#_______________________________________________________________________________
SET                .         LAS1                          : 
REAL_CREATION_DATE .         Ср апр 11 2012-13_17_10       : 
TLFamily_DEPTH     .         Measured Depth                : 
TLFamily_KS        .         Potential Resistivity         : 
TLFamily_KS1       .         Extra Shallow Resistivity     : 
TLFamily_KS2       .         Shallow Resistivity           : 
TLFamily_KS3       .         Medium Resistivity            : 
TLFamily_KS4       .         Deep Resistivity              : 
TLFamily_KS5       .         Extra Deep Resistivity        : 
TLFamily_LLD       .         Lateral Log Resistivity       : 
TLFamily_OKS3      .         Medium Resistivity Inverted   : 
TLFamily_RM        .         Mud Resistivity               : 
TLFamily_SP        .         Spontaneous Potential         : 
group              .         INI                           : 
~Curve Information
#_______________________________________________________________________________
#
#LOGNAME           .UNIT     LOG_ID                        : DESCRIPTION
#_______________________________________________________________________________
DEPTH              .m                                      : Measured Depth 
KS                 .ohm.m                                  : Potential Resistivity 
KS1                .ohm.m                                  : Extra Shallow Resistivity 
KS2                .ohm.m                                  : Shallow Resistivity 
KS3                .ohm.m                                  : Medium Resistivity 
KS4                .ohm.m                                  : Deep Resistivity 
KS5                .ohm.m                                  : Extra Deep Resistivity 
LLD                .ohm.m                                  : Lateral Log Resistivity 
OKS3               .ohm.m                                  : Medium Resistivity Inverted 
RM                 .ohm.m                                  : Mud Resistivity 
SP                 .mV                                     : Spontaneous Potential 
~Ascii
# ...
3088.4     7.984      6.75       10.8112    8.6117     7.8761     7.1285     7.3476     8.0868     0.905      95.3181   
3088.6     7.7419     8.4267     13.0608    9.3101     8.1661     7.328      7.9924     8.044      0.902      95.5505   
3088.8     7.5973     8.1865     11.8331    8.9456     7.5189     7.314      5.9341     7.1607     0.9        98.2627   
3089       7.1636     7.6341     10.5007    7.7121     6.4059     7.0319     5.113      6.3971     0.895      98.4565   
3089.2     6.7096     6.8332     9.8537     6.9015     5.7299     6.3843     4.7869     6.1162     0.893      99.43     
3089.4     6.4499     6.1013     9.4997     6.4536     5.3361     5.7601     4.5947     6.1272     0.889      100.6781  
3089.6     6.3254     5.6552     9.2161     6.0401     5.0757     5.4261     4.512      6.2296     0.893      102.2638  
3089.8     6.2742     5.5143     8.7974     5.7328     4.8976     5.156      4.5345     6.3434     0.903      100.9643  
3090       6.2762     5.4169     8.1991     5.5599     4.7707     5.0743     4.65       6.4508     0.902      100.8059  
3090.2     6.3597     5.3786     7.8049     5.4443     4.6922     5.0634     4.6672     6.579      0.92       101.6725  
3090.4     6.4838     5.3833     7.6273     5.4794     4.6822     5.067      4.7869     6.8135     0.925      101.3906  
3090.6     6.6211     5.4888     7.6851     5.6942     4.7079     5.086      5.2081     7.0094     0.926      100.4229  
3090.8     6.7753     5.6573     7.7522     6.0467     4.746      5.1132     5.3185     7.1687     0.931      99.615    
3091       6.9497     5.9259     7.9837     6.2118     4.7634     5.1332     5.3759     7.2613     0.934      99.9789   
3091.2     7.0436     6.0527     8.0726     6.1526     4.7615     5.1001     5.445      7.347      0.94       101.1959  
3091.4     7.2253     6.1607     8.2375     5.9279     4.7058     5.0915     5.4501     7.3147     0.941      101.1171  
3091.6     7.3946     6.0765     8.1564     5.7812     4.6366     5.1265     5.4824     7.1852     0.942      101.237   
3091.8     7.479      6.1806     8.451      5.8224     4.7256     5.1492     5.7407     7.1835     0.939      100.8171  
3092       7.4985     6.4287     9.0319     6.028      4.9074     5.1627     6.0118     7.2484     0.933      100.3427  
3092.2     7.5203     6.7152     9.5804     6.1517     4.9963     5.173      6.0624     7.1925     0.929      99.7033   
3092.4     7.5462     6.7429     9.4913     6.1628     4.9891     5.1561     5.8416     7.0436     0.923      99.0956   
3092.6     7.5379     6.6449     9.3448     6.0917     5.0124     5.0862     5.6855     6.9243     0.921      98.8025   
3092.8     7.4861     6.576      9.3392     6.1019     5.1891     5.019      5.6212     6.9575     0.924      98.0726   
3093       7.4537     6.5263     9.4817     6.1802     5.3327     5.012      5.6626     7.024      0.92       97.7618   
3093.2     7.5378     6.3625     9.3528     6.2228     5.3547     5.1087     5.4563     7.138      0.921      97.7097   
3093.4     7.6179     6.2335     9.218      6.3884     5.5099     5.2883     5.5483     7.4049     0.925      98.0069   
3093.6     7.5563     6.3505     9.4293     6.8685     5.9155     5.4062     5.8852     7.9383     0.926      98.654    
3093.8     7.5635     6.8852     10.509     7.2508     6.177      5.4805     6.1811     8.1183     0.929      97.6291   
3094       7.6893     6.8175     10.0539    7.2857     6.0208     5.4779     6.1177     7.8166     0.926      96.121    
3094.2     7.8112     6.8908     9.6988     6.9607     5.6215     5.3285     5.809      7.3032     0.92       95.6846   
3094.4     7.7898     6.8482     9.3962     6.6968     5.3323     5.096      5.6381     6.9827     0.919      96.8173   
3094.6     7.7348     6.6467     9.333      6.5402     5.1905     4.9341     5.6494     6.8141     0.915      97.3081   
3094.8     7.699      6.5954     9.6476     6.4369     5.1533     4.8631     5.8776     6.6841     0.907      98.4089   
3095       7.7349     6.5685     9.8693     6.4132     5.1803     4.8761     5.717      6.6221     0.898      99.5891   
3095.2     7.7349     6.5664     9.84       6.4551     5.2818     4.9094     5.792      6.6207     0.893      100.3675  
3095.4     7.6448     6.6236     9.8545     6.6332     5.454      4.9137     6.0482     6.6411     0.893      99.7585   
3095.6     7.5626     6.8872     10.2428    6.771      5.5133     4.9236     5.9529     6.5139     0.893      98.8291   
3095.8     7.5448     6.79       10.0005    6.7894     5.3901     4.9242     5.6836     6.2515     0.895      98.456    
3096       7.4382     6.6035     9.623      6.8111     5.2971     4.8873     5.4622     6.0285     0.9        96.6749   
3096.2     7.2311     6.5775     9.6863     6.9701     5.3185     4.8619     5.4499     5.8987     0.91       95.7972   
3096.4     7.0974     6.4358     9.6867     7.0398     5.4057     4.8899     5.3908     5.7862     0.923      95.6529   
3096.6     6.9939     6.2628     9.5905     7.0151     5.4746     4.9432     5.3049     5.7792     0.928      96.5988   
3096.8     6.8423     6.3959     9.6337     6.9759     5.5156     5.0162     5.313      5.7605     0.927      97.4863   
3097       6.7791     6.2772     9.1914     6.8677     5.4796     5.1481     5.1066     5.7265     0.93       98.0693   
3097.2     6.7425     6.0365     8.7487     6.6863     5.425      5.3085     5.0361     5.7567     0.934      98.909    
3097.4     6.6639     6.0156     8.7212     6.6313     5.4869     5.3755     5.1173     5.8987     0.946      99.7853   
3097.6     6.628      6.0223     8.7918     6.6161     5.5379     5.4349     5.1243     6.0248     0.934      100.2506  
3097.8     6.6475     5.9123     8.5271     6.613      5.6143     5.5053     5.0191     6.1726     0.913      100.2753  
3098       6.6824     5.9301     8.5325     6.5559     5.729      5.5402     5.0651     6.3673     0.911      99.4036   
3098.2     6.5632     5.9851     8.6383     6.5681     5.9461     5.4993     5.6343     6.5092     0.916      97.771    
3098.4     6.4191     6.3233     8.9319     6.5314     5.9958     5.4163     5.3532     6.4761     0.901      97.0966   
3098.6     6.3645     6.3762     8.7787     6.2636     5.7294     5.3028     4.8522     6.2857     0.897      97.2779   
3098.8     6.1668     6.0015     8.2052     5.9179     5.3752     5.1332     4.6419     6.2318     0.909      96.8058   
3099       6.0024     5.7127     7.9984     5.5839     5.0974     4.9695     4.5765     6.3532     0.912      95.8583   
3099.2     5.8979     5.3931     7.7858     5.4029     4.9413     4.847      4.42       6.6027     0.918      95.4299   
3099.4     5.9201     5.2979     7.7444     5.2472     4.8143     4.8274     4.3424     6.9331     0.922      95.497    
3099.6     5.9997     5.0095     7.3198     5.177      4.8063     4.865      4.3777     7.3238     0.929      97.2416   
3099.8     6.1844     5.0098     7.1914     5.1563     4.8474     4.9292     4.8248     7.6869     0.927      99.4948   
3100       6.4452     5.1222     7.1834     5.2542     4.9242     4.9888     5.164      7.8802     0.924      99.2273   
3100.2     6.7804     5.425      7.2885     5.345      4.9364     5.0441     5.4701     7.9649     0.923      97.2348   
3100.4     7.1806     5.6393     7.2931     5.4072     4.9006     5.0808     5.776      7.9331     0.917      97.1141   
3100.6     7.5396     6.0062     7.5613     5.4903     4.8764     5.1145     6.0257     7.8746     0.911      99.7421   
3100.8     7.797      6.299      7.932      5.5599     4.8784     5.1288     6.1699     7.8483     0.905      100.9897  
3101       7.9476     6.5563     8.4539     5.6267     4.9115     5.1673     6.3386     7.8089     0.895      99.7199   
3101.2     8.0221     6.7915     9.1179     5.7186     4.9727     5.1957     6.3782     7.7185     0.89       97.5238   
3101.4     8.049      6.9        9.6342     5.8236     5.0205     5.236      6.2327     7.6676     0.889      95.1411   
3101.6     8.0239     6.9121     9.9323     5.9111     5.0552     5.277      6.1178     7.6736     0.892      93.6037   
