~Version
 VERS              .         2.0                           : CWLS LOG ASCII STANDARD - VERSION 2.0
 WRAP              .         NO                            : ONE LINE PER DEPTH STEP
 DLM               .         SPACE                         : DELIMITING CHARACTER(SPACE TAB OR COMMA)
~Well Information
#_______________________________________________________________________________
#
#PARAMETER_NAME    .UNIT     VALUE                         : DESCRIPTION
#_______________________________________________________________________________
STRT               .m        3075                          : First reference value
STOP               .m        3285                          : Last reference value
STEP               .m        0.2                           : Step increment
NULL               .         -9999                         : Missing value
COMP               .                                       : Company
WELL               .         305                           : Well name
FLD                .                                       : Field
LOC                .                                       : Location
CNTY               .                                       : County
STAT               .                                       : State
CTRY               .                                       : Country
SRVC               .                                       : Service Company
DATE               .                                       : Date
API                .                                       : API number
EREF               .m        138.34                        : 
Pad                .         3                             : 
X                  .m        219750                        : 
Y                  .m        249950                        : 
group              .         Pad3                          : 
Интер-р            .         Пузин                         : 
Куст               .         3                             : 
Статус             .         Не проверено                  : 
Тип                .         Разведка                      : 
~Parameter Information Block
#_______________________________________________________________________________
#
#PARAMETER_NAME    .UNIT     VALUE                         : DESCRIPTION
#_______________________________________________________________________________
SET                .         LAS1                          : 
REAL_CREATION_DATE .         Ср апр 11 2012-13_17_10       : 
TLFamily_DEPTH     .         Measured Depth                : 
TLFamily_KS        .         Potential Resistivity         : 
TLFamily_KS1       .         Extra Shallow Resistivity     : 
TLFamily_KS2       .         Shallow Resistivity           : 
TLFamily_KS3       .         Medium Resistivity            : 
TLFamily_KS4       .         Deep Resistivity              : 
TLFamily_KS5       .         Extra Deep Resistivity        : 
TLFamily_LLD       .         Lateral Log Resistivity       : 
TLFamily_OKS3      .         Medium Resistivity Inverted   : 
TLFamily_RM        .         Mud Resistivity               : 
TLFamily_SP        .         Spontaneous Potential         : 
group              .         INI                           : 
~Curve Information
#_______________________________________________________________________________
#
#LOGNAME           .UNIT     LOG_ID                        : DESCRIPTION
#_______________________________________________________________________________
DEPTH              .m                                      : Measured Depth 
KS                 .ohm.m                                  : Potential Resistivity 
KS1                .ohm.m                                  : Extra Shallow Resistivity 
KS2                .ohm.m                                  : Shallow Resistivity 
KS3                .ohm.m                                  : Medium Resistivity 
KS4                .ohm.m                                  : Deep Resistivity 
KS5                .ohm.m                                  : Extra Deep Resistivity 
LLD                .ohm.m                                  : Lateral Log Resistivity 
OKS3               .ohm.m                                  : Medium Resistivity Inverted 
RM                 .ohm.m                                  : Mud Resistivity 
SP                 .mV                                     : Spontaneous Potential 
~Ascii
# ...
3235.8     7.5116     7.6642     9.418      4.2295     3.1734     4.8925     5.1866     4.9404     0.855      33.8737   
3236       7.2731     7.8159     9.3863     4.0518     3.0859     4.8528     5.1685     5.2973     0.875      35.1982   
3236.2     7.0473     7.8279     9.356      3.9573     3.1309     4.9803     4.8766     5.8851     0.896      38.1965   
3236.4     6.8913     7.1779     8.7713     3.97       3.3543     5.266      4.2863     6.2406     0.887      42.6249   
3236.6     6.7321     6.9731     8.8738     4.1194     3.6602     5.6507     4.8631     6.3959     0.879      51.0817   
3236.8     6.9298     6.925      8.8242     4.3421     3.9754     6.0607     4.6237     6.4589     0.882      62.1172   
3237       7.2196     6.5787     8.2259     4.4584     4.2183     6.493      4.599      6.0505     0.868      70.2538   
3237.2     7.6297     6.3455     7.8472     4.524      4.3932     6.9319     4.9589     5.7142     0.852      80.3586   
3237.4     7.9749     6.4458     7.8535     4.6204     4.6068     7.3747     5.4375     5.688      0.874      84.9627   
3237.6     8.3764     6.8484     8.452      4.6862     4.8169     7.9651     5.8029     5.9872     0.897      86.6453   
3237.8     8.7943     6.7011     8.5411     4.671      5.0432     9.0804     5.688      6.8897     0.897      87.0097   
3238       9.1402     6.6901     8.8521     4.7361     5.7342     11.2712    5.8539     8.7532     0.869      86.7252   
3238.2     9.0055     6.8357     9.7954     5.4047     7.732      16.4859    5.861      11.7394    0.891      85.6418   
3238.4     8.2663     7.7433     12.6465    7.6726     12.5478    21.8723    5.8403     17.9857    0.875      83.9998   
3238.6     8.1833     8.5535     16.8952    10.2733    16.0253    26.5386    5.3562     24.6235    0.865      83.0172   
3238.8     8.6099     7.0621     13.2227    11.5475    17.0466    28.8354    5.9976     28.0966    0.896      82.5216   
3239       9.4648     8.094      14.6665    10.4382    14.0012    28.1985    7.3716     25.5596    0.899      82.6864   
3239.2     9.8549     9.115      12.4699    9.3187     10.7962    23.5918    6.673      20.9379    0.883      81.8952   
3239.4     10.4184    8.5696     11.2657    7.2654     7.0435     18.6207    6.6049     14.7774    0.905      79.2264   
3239.6     10.8156    8.5417     11.5047    5.9065     4.7992     13.344     6.6305     11.3246    0.896      76.7893   
3239.8     11.4609    8.3167     12.0665    4.8778     3.3682     7.6027     5.9532     10.3426    0.871      75.7817   
3240       12.7821    7.467      11.2998    3.9906     2.2602     5.502      6.0475     10.0498    0.881      76.2044   
3240.2     14.2445    6.4552     10.6553    3.6852     1.6722     4.1941     11.0116    9.2202     0.902      78.0031   
3240.4     14.7571    9.3518     13.2804    4.3457     1.502      3.4523     27.6991    8.3412     0.892      80.8853   
3240.6     14.1485    13.8894    17.8315    5.3762     1.4958     3.1069     14.3136    8.1553     0.896      82.7965   
3240.8     12.7154    14.2991    18.8572    6.6735     1.4219     2.8512     7.2258     8.4221     0.885      83.8569   
3241       11.4778    11.465     17.1935    8.2872     1.2931     2.6298     6.5277     8.7056     0.865      84.8258   
3241.2     10.7923    9.082      16.5367    9.2568     1.2369     2.3869     6.6181     8.935      0.884      85.9439   
3241.4     10.4544    8.3154     16.5228    10.4454    1.2885     2.1785     6.6272     9.3007     0.905      86.4987   
3241.6     10.2658    7.7163     14.7846    11.1103    1.3833     2.0227     6.6353     9.7929     0.897      86.4013   
3241.8     10.1405    7.4672     13.1622    11.1282    1.541      1.9175     6.8134     10.2765    0.886      87.1633   
3242       10.1193    7.5418     12.7083    10.9897    1.7608     1.7943     6.961      10.654     0.884      87.673    
3242.2     10.1121    7.4296     12.3774    10.6857    1.9944     1.7361     6.908      10.9559    0.869      86.6801   
3242.4     10.0058    7.4824     11.6302    10.4962    2.3435     1.6544     6.7598     11.3664    0.854      84.5192   
3242.6     10.1507    7.3834     11.9335    10.3697    2.8702     1.5731     6.583      11.6425    0.871      83.1014   
3242.8     10.4934    6.934      10.9494    9.841      3.7204     1.5318     6.4724     11.735     0.897      81.6156   
3243       10.9271    6.9623     10.9605    8.9906     5.1032     1.5113     7.1131     11.6796    0.912      80.3606   
3243.2     11.5395    7.1587     10.9365    8.4824     6.2497     1.4554     7.6422     11.5348    0.888      77.8202   
3243.4     12.0054    7.5551     11.1547    8.1605     7.3902     1.429      8.1765     11.1899    0.887      75.5493   
3243.6     12.1533    8.2536     11.9984    7.91       7.9054     1.4438     9.5576     9.9284     0.869      73.9805   
3243.8     12.1912    8.8884     12.9155    8.0097     7.9774     1.4772     9.8358     7.9377     0.864      74.4572   
3244       12.0137    9.1186     13.3962    8.2269     8.0061     1.5238     8.5212     6.8243     0.892      75.9049   
3244.2     11.7911    8.734      13.4062    8.5016     8.1145     1.6653     7.7284     6.5617     0.908      78.4631   
3244.4     11.7567    8.1522     13.531     9.0464     8.6018     1.9026     7.7888     6.9659     0.886      81.0488   
3244.6     11.8591    8.0352     14.1786    9.8574     9.5092     2.202      8.2856     7.6436     0.895      82.8818   
3244.8     12.0673    8.3523     14.4929    10.633     10.4904    2.6151     9.4885     8.3846     0.884      82.8597   
3245       12.3828    8.5656     14.1315    11.1803    11.494     3.3028     9.2407     9.2805     0.865      83.2054   
3245.2     12.3425    8.6614     13.77      12.2914    12.9239    4.6656     8.808      10.7961    0.871      83.6094   
3245.4     12.0472    8.8022     14.4355    14.5756    16.7806    7.7315     8.3938     14.124     0.895      84.7199   
3245.6     11.1326    8.8887     16.2715    19.5927    29.6518    11.6771    7.933      21.5004    0.904      86.7404   
3245.8     9.6097     10.1809    23.1035    27.0358    46.5397    14.2854    8.1399     32.054     0.89       88.8312   
3246       9.1556     11.1461    24.415     29.712     48.5464    15.8071    8.1917     35.7831    0.894      91.0509   
3246.2     9.7445     9.0472     18.1436    24.0386    31.6679    16.2479    6.9671     29.9386    0.879      93.121    
3246.4     10.1907    8.1898     14.2295    16.202     20.2243    14.0553    6.5876     19.8804    0.861      95.2633   
3246.6     10.2987    7.8953     12.3904    11.4188    13.2873    10.1904    6.602      14.1012    0.874      96.201    
3246.8     10.3707    7.5321     11.5367    8.6313     9.0988     8.0568     6.3842     10.9352    0.899      95.34     
3247       10.3682    7.283      12.1785    7.124      7.0645     7.0892     6.3045     9.413      0.897      92.0025   
3247.2     10.6025    7.3324     12.9529    6.3235     5.4289     6.9644     6.3662     8.9108     0.892      86.6775   
3247.4     11.1029    7.0265     12.4735    5.8782     4.2777     6.5893     6.7521     8.9103     0.888      79.4021   
3247.6     11.6792    7.3903     12.3434    5.7451     3.5172     6.1314     8.138      9.0405     0.871      68.8101   
3247.8     12.1525    8.1362     12.5831    6.1128     3.0548     5.4473     9.0111     9.3229     0.871      59.6869   
3248       12.5196    9.0787     12.8035    7.0218     2.647      4.6175     8.9819     9.7247     0.906      52.9879   
3248.2     12.8605    9.171      12.7256    8.6243     2.2917     4.0265     8.8595     10.2344    0.915      50.1036   
3248.4     12.9305    9.2385     13.3826    9.8709     2.1547     3.5712     9.7645     10.7122    0.898      47.9203   
3248.6     12.7057    10.0561    15.0601    10.6254    2.1866     3.2184     10.1191    11.3927    0.9        47.4255   
3248.8     12.3814    10.2785    15.9179    10.8076    2.2713     2.974      8.74       12.1326    0.874      49.3801   
3249       12.1394    9.8701     15.4854    10.1653    2.3076     2.7669     8.4252     12.465     0.885      52.722    
