~Version
 VERS              .         2.0                           : CWLS LOG ASCII STANDARD - VERSION 2.0
 WRAP              .         NO                            : ONE LINE PER DEPTH STEP
 DLM               .         SPACE                         : DELIMITING CHARACTER(SPACE TAB OR COMMA)
~Well Information
#_______________________________________________________________________________
#
#PARAMETER_NAME    .UNIT     VALUE                         : DESCRIPTION
#_______________________________________________________________________________
STRT               .m        3075                          : First reference value
STOP               .m        3285                          : Last reference value
STEP               .m        0.2                           : Step increment
NULL               .         -9999                         : Missing value
COMP               .                                       : Company
WELL               .         305                           : Well name
FLD                .                                       : Field
LOC                .                                       : Location
CNTY               .                                       : County
STAT               .                                       : State
CTRY               .                                       : Country
SRVC               .                                       : Service Company
DATE               .                                       : Date
API                .                                       : API number
EREF               .m        138.34                        : 
Pad                .         3                             : 
X                  .m        219750                        : 
Y                  .m        249950                        : 
group              .         Pad3                          : 
Интер-р            .         Пузин                         : 
Куст               .         3                             : 
Статус             .         Не проверено                  : 
Тип                .         Разведка                      : 
~Parameter Information Block
#_______________________________________________________________________________
#
#PARAMETER_NAME    .UNIT     VALUE                         : DESCRIPTION
#_______________________________________________________________________________
SET                .         LAS1                          : 
REAL_CREATION_DATE .         Ср апр 11 2012-13_17_10       : 
TLFamily_DEPTH     .         Measured Depth                : 
TLFamily_KS        .         Potential Resistivity         : 
TLFamily_KS1       .         Extra Shallow Resistivity     : 
TLFamily_KS2       .         Shallow Resistivity           : 
TLFamily_KS3       .         Medium Resistivity            : 
TLFamily_KS4       .         Deep Resistivity              : 
TLFamily_KS5       .         Extra Deep Resistivity        : 
TLFamily_LLD       .         Lateral Log Resistivity       : 
TLFamily_OKS3      .         Medium Resistivity Inverted   : 
TLFamily_RM        .         Mud Resistivity               : 
TLFamily_SP        .         Spontaneous Potential         : 
group              .         INI                           : 
~Curve Information
#_______________________________________________________________________________
#
#LOGNAME           .UNIT     LOG_ID                        : DESCRIPTION
#_______________________________________________________________________________
DEPTH              .m                                      : Measured Depth 
KS                 .ohm.m                                  : Potential Resistivity 
KS1                .ohm.m                                  : Extra Shallow Resistivity 
KS2                .ohm.m                                  : Shallow Resistivity 
KS3                .ohm.m                                  : Medium Resistivity 
KS4                .ohm.m                                  : Deep Resistivity 
KS5                .ohm.m                                  : Extra Deep Resistivity 
LLD                .ohm.m                                  : Lateral Log Resistivity 
OKS3               .ohm.m                                  : Medium Resistivity Inverted 
RM                 .ohm.m                                  : Mud Resistivity 
SP                 .mV                                     : Spontaneous Potential 
~Ascii
# ...
3101.8     7.9622     6.8932     10.0966    6.0699     5.1146     5.3033     6.2016     7.6759     0.896      92.3355   
3102       7.9614     6.8974     10.3528    6.2606     5.1774     5.3335     6.16       7.6375     0.908      91.7893   
3102.2     7.9544     6.8314     10.2374    6.458      5.2118     5.3799     5.9745     7.5999     0.924      91.6513   
3102.4     7.9298     6.8105     10.1236    6.6361     5.2304     5.4484     5.9692     7.5829     0.931      91.1321   
3102.6     7.9427     6.7665     10.0884    6.8249     5.3049     5.4904     5.9872     7.5393     0.929      91.0736   
3102.8     7.9814     6.7167     10.0334    6.9445     5.3591     5.5093     5.9701     7.5077     0.934      91.2229   
3103       8.0105     6.7437     10.0372    7.0275     5.3715     5.5309     6.0354     7.4734     0.94       90.7731   
3103.2     7.9814     6.8233     10.1992    7.1271     5.4079     5.5366     6.1896     7.4032     0.94       91.454    
3103.4     7.9598     6.9706     10.2699    7.1985     5.441      5.5489     5.9868     7.3113     0.934      91.684    
3103.6     7.9172     6.869      10.1422    7.2082     5.4366     5.5518     5.7816     7.2616     0.933      92.0217   
3103.8     7.8657     6.7969     10.1369    7.1714     5.4499     5.5619     5.8626     7.2077     0.93       91.5101   
3104       7.8575     6.7177     10.1033    7.1997     5.4999     5.5757     5.8076     7.1457     0.923      90.8412   
3104.2     7.8605     6.6813     10.1054    7.2301     5.5808     5.6031     5.8541     7.0959     0.917      90.5547   
3104.4     7.8562     6.6671     10.0521    7.2616     5.7096     5.6253     5.8466     7.0414     0.917      90.1771   
3104.6     7.8033     6.759      10.1488    7.3225     5.853      5.6267     5.9498     6.9691     0.919      90.9896   
3104.8     7.7628     6.8065     10.2157    7.3621     5.9425     5.6267     5.9047     6.8276     0.918      92.3169   
3105       7.7424     6.7345     10.062     7.3215     5.9428     5.6049     5.7502     6.7073     0.917      92.4899   
3105.2     7.6731     6.7096     10.0251    7.26       5.9176     5.5755     5.7364     6.6154     0.916      92.8469   
3105.4     7.5636     6.704      10.0284    7.2482     5.9216     5.5229     5.7992     6.5367     0.913      93.3095   
3105.6     7.4821     6.6869     10.0247    7.2151     5.8969     5.4829     5.6821     6.4686     0.921      92.5527   
3105.8     7.3663     6.6015     9.8727     7.1403     5.8587     5.4497     5.5601     6.4198     0.918      91.5825   
3106       7.2131     6.5558     9.7759     7.0812     5.8525     5.4344     5.448      6.4338     0.912      91.1358   
3106.2     7.1115     6.4243     9.7015     7.0388     5.8823     5.4433     5.2141     6.4775     0.906      90.9698   
3106.4     7.0384     6.2164     9.3907     7.0157     5.8703     5.457      5.2052     6.5994     0.903      91.8136   
3106.6     6.9932     6.198      9.3691     6.9456     5.8765     5.486      5.3111     6.6593     0.893      93.4538   
3106.8     6.9902     6.1511     9.1517     6.9044     5.8438     5.5005     5.3062     6.6805     0.891      93.6043   
3107       6.9834     6.2011     8.9867     6.8135     5.803      5.5226     5.269      6.6584     0.887      93.5419   
3107.2     6.9668     6.1192     8.8469     6.7122     5.75       5.4909     5.2011     6.6299     0.893      93.553    
3107.4     6.9666     6.1146     8.783      6.6053     5.7106     5.4567     5.3267     6.5497     0.893      93.2003   
3107.6     6.9962     6.0203     8.7253     6.4926     5.6546     5.4219     5.2458     6.4489     0.909      93.4986   
3107.8     7.0256     6.0786     8.7421     6.3723     5.5794     5.3952     5.2475     6.3884     0.925      93.3587   
3108       7.0139     6.0508     8.7278     6.3105     5.5755     5.3804     5.2619     6.4149     0.923      94.3707   
3108.2     7.0364     6.0703     8.7943     6.2721     5.5649     5.3853     5.3421     6.3932     0.93       96.7266   
3108.4     7.066      6.0842     8.8881     6.2634     5.5684     5.3997     5.3937     6.4101     0.929      97.0336   
3108.6     7.0988     6.1785     8.9074     6.2602     5.5615     5.4136     5.4526     6.4166     0.925      96.8      
3108.8     7.1301     6.2158     8.8667     6.2675     5.528      5.4391     5.4362     6.4185     0.918      95.0784   
3109       7.1352     6.2118     8.8751     6.285      5.5172     5.4576     5.5441     6.4013     0.91       93.256    
3109.2     7.0557     6.3201     9.0063     6.348      5.5357     5.4535     5.5861     6.3933     0.908      92.9686   
3109.4     6.919      6.4334     9.2166     6.3908     5.5138     5.4657     5.457      6.3806     0.918      93.069    
3109.6     6.7528     6.4147     9.2998     6.3976     5.4606     5.4453     5.1336     6.3752     0.916      94.3197   
3109.8     6.5694     6.2774     9.2166     6.3181     5.3671     5.4136     4.8548     6.4042     0.907      93.3516   
3110       6.4099     5.8997     8.7269     6.2267     5.2839     5.3897     4.6784     6.493      0.913      91.5963   
3110.2     6.3779     5.6596     8.536      6.0979     5.2057     5.3592     4.6709     6.6448     0.914      91.4891   
3110.4     6.4032     5.5655     8.3269     6.0467     5.1819     5.3479     4.8316     6.813      0.913      90.8302   
3110.6     6.5741     5.5682     8.1164     5.962      5.1064     5.3614     4.9382     6.9196     0.913      91.5899   
3110.8     6.7681     5.471      7.6704     5.8853     5.0924     5.3553     5.0023     7.0375     0.913      94.0243   
3111       6.9376     5.6758     7.9027     5.8773     5.1462     5.3578     5.5546     7.1403     0.916      96.1082   
3111.2     7.1414     5.9745     8.1112     5.9586     5.1835     5.3578     5.6831     7.1729     0.916      96.6771   
3111.4     7.3158     6.2125     8.3067     5.9707     5.1655     5.3703     5.6236     7.1285     0.921      96.3392   
3111.6     7.3476     6.4069     8.5241     5.9514     5.1639     5.3542     5.6995     7.0918     0.923      96.822    
3111.8     7.3594     6.4706     8.7776     5.9541     5.1732     5.3386     5.657      7.0595     0.917      97.4321   
3112       7.3493     6.4781     9.0317     5.9322     5.1512     5.3285     5.534      7.014      0.914      97.9991   
3112.2     7.325      6.4276     9.1941     5.9543     5.1515     5.3175     5.5989     6.95       0.912      100.0862  
3112.4     7.2852     6.4222     9.301      6.0057     5.1741     5.3091     5.5874     6.9028     0.91       100.0256  
3112.6     7.2562     6.444      9.3297     6.0747     5.1752     5.3146     5.4052     6.8811     0.91       98.0494   
3112.8     7.2254     6.3872     9.267      6.1356     5.1777     5.3228     5.3276     6.8965     0.903      96.3523   
3113       7.2168     6.2986     9.1267     6.2013     5.2017     5.3366     5.3217     6.9495     0.893      95.2952   
3113.2     7.2982     6.1778     9.0553     6.2844     5.2313     5.3639     5.4644     6.9903     0.891      95.2201   
3113.4     7.4063     6.1707     9.0335     6.4089     5.2697     5.3912     5.7182     6.9742     0.886      96.4192   
3113.6     7.5519     6.3025     9.0825     6.4768     5.2957     5.4285     5.7559     6.918      0.889      97.7803   
3113.8     7.67       6.427      9.0775     6.5499     5.3338     5.4692     5.787      6.8663     0.892      98.7761   
3114       7.6584     6.5562     9.2419     6.6626     5.4173     5.4918     5.904      6.8658     0.899      102.5697  
3114.2     7.546      6.8081     9.7079     6.7805     5.4943     5.4841     5.9853     6.7679     0.912      105.0188  
3114.4     7.4785     6.9087     9.9567     6.815      5.4733     5.48       5.4067     6.5967     0.925      104.8525  
3114.6     7.4045     6.646      9.6462     6.7238     5.4283     5.4407     5.2692     6.4698     0.928      102.5696  
3114.8     7.3422     6.4367     9.5675     6.6279     5.4096     5.3885     5.5759     6.3799     0.93       100.7377  
3115       7.3137     6.3654     9.5517     6.6045     5.4096     5.3564     5.6421     6.2786     0.927      99.6436   
