~Version
 VERS              .         2.0                           : CWLS LOG ASCII STANDARD - VERSION 2.0
 WRAP              .         NO                            : ONE LINE PER DEPTH STEP
 DLM               .         SPACE                         : DELIMITING CHARACTER(SPACE TAB OR COMMA)
~Well Information
#_______________________________________________________________________________
#
#PARAMETER_NAME    .UNIT     VALUE                         : DESCRIPTION
#_______________________________________________________________________________
STRT               .m        2685                          : First reference value
STOP               .m        2885                          : Last reference value
STEP               .m        0.2                           : Step increment
NULL               .         -9999                         : Missing value
COMP               .                                       : Company
WELL               .         306                           : Well name
FLD                .                                       : Field
LOC                .                                       : Location
CNTY               .                                       : County
STAT               .                                       : State
CTRY               .                                       : Country
SRVC               .                                       : Service Company
DATE               .                                       : Date
API                .                                       : API number
EREF               .m        138.34                        : 
Pad                .         3                             : 
X                  .m        219750                        : 
Y                  .m        249950                        : 
group              .         Pad3                          : 
Интер-р            .         Ярышев                        : 
Куст               .         3                             : 
Статус             .         Не проверено                  : 
Тип                .         Разведка                      : 
~Parameter Information Block
#_______________________________________________________________________________
#
#PARAMETER_NAME    .UNIT     VALUE                         : DESCRIPTION
#_______________________________________________________________________________
SET                .         LAS1                          : 
REAL_CREATION_DATE .         Ср апр 11 2012-13_17_10       : 
TLFamily_DEPTH     .         Measured Depth                : 
TLFamily_KS        .         Potential Resistivity         : 
TLFamily_KS1       .         Extra Shallow Resistivity     : 
TLFamily_KS2       .         Shallow Resistivity           : 
TLFamily_KS3       .         Medium Resistivity            : 
TLFamily_KS4       .         Deep Resistivity              : 
TLFamily_KS5       .         Extra Deep Resistivity        : 
TLFamily_LLD       .         Lateral Log Resistivity       : 
TLFamily_OKS3      .         Medium Resistivity Inverted   : 
TLFamily_RM        .         Mud Resistivity               : 
group              .         INI                           : 
~Curve Information
#_______________________________________________________________________________
#
#LOGNAME           .UNIT     LOG_ID                        : DESCRIPTION
#_______________________________________________________________________________
DEPTH              .m                                      : Measured Depth 
KS                 .ohm.m                                  : Potential Resistivity 
KS1                .ohm.m                                  : Extra Shallow Resistivity 
KS2                .ohm.m                                  : Shallow Resistivity 
KS3                .ohm.m                                  : Medium Resistivity 
KS4                .ohm.m                                  : Deep Resistivity 
KS5                .ohm.m                                  : Extra Deep Resistivity 
LLD                .ohm.m                                  : Lateral Log Resistivity 
OKS3               .ohm.m                                  : Medium Resistivity Inverted 
RM                 .ohm.m                                  : Mud Resistivity 
~Ascii
# ...
2831       5.1884     1.6146     5.8431     9.7757     15.7557    14.707     4.9884     7.1019     0.085     
2831.2     5.1204     1.567      5.6525     9.4131     14.8405    14.1964    4.9239     7.2446     0.085     
2831.4     5.0864     1.5399     5.4947     9.1347     14.2881    13.9739    4.9371     7.4974     0.085     
2831.6     5.0593     1.5229     5.3896     8.8757     13.4786    13.555     4.8473     7.6607     0.081     
2831.8     5.0321     1.4992     5.2252     8.6426     12.7613    13.2408    4.988      7.8864     0.081     
2832       5.0049     1.4924     5.1332     8.461      12.1492    13.0051    5.0627     8.2235     0.081     
2832.2     4.9573     1.4856     5.0773     8.3966     11.7346    12.7302    4.4409     8.7486     0.085     
2832.4     4.9165     1.5059     5.1595     8.2671     11.3932    12.5469    4.922      9.4034     0.085     
2832.6     4.9165     1.4788     5.0609     7.9757     11.0239    12.4814    4.4548     9.8248     0.088     
2832.8     4.9268     1.4245     4.8045     7.5937     10.4645    12.416     4.3568     10.2203    0.088     
2833       4.9505     1.4245     4.6862     7.2376     10.0498    12.4945    4.4007     10.9399    0.081     
2833.2     5.0117     1.3566     4.4824     6.9463     9.8063     12.8873    4.2244     11.5493    0.081     
2833.4     5.1476     1.2955     4.3247     6.7779     9.7208     13.7775    4.3094     12.4959    0.085     
2833.6     5.3379     1.2072     4.1459     6.6937     10.0301    15.0998    4.3685     13.4666    0.085     
2833.8     5.5621     1.214      4.1998     6.875      10.7738    16.3042    5.2227     14.1166    0.085     
2834       5.8151     1.3158     4.5087     7.2311     11.2864    17.6134    7.1986     14.2204    0.091     
2834.2     6.0107     1.3163     4.5745     7.5096     11.478     18.1501    9.0815     13.6823    0.081     
2834.4     6.3165     1.3905     4.9031     7.7362     11.5701    19.0403    10.3214    13.0599    0.081     
2834.6     6.4932     1.5195     5.2712     8.1376     11.8662    19.5509    9.6966     12.8524    0.085     
2834.8     6.5702     1.6033     5.649      8.3675     12.1031    20.3233    9.7678     12.8124    0.085     
2835       6.5271     1.6621     5.8497     8.6491     12.3335    21.423     8.6845     12.7876    0.085     
2835.2     6.4116     1.8794     6.3756     9.2513     12.9785    22.85      10.5505    13.034     0.085     
2835.4     6.2689     1.9982     7.2695     10.1059    13.4687    24.6436    7.3318     14.2333    0.088     
2835.6     6.167      1.8454     7.1184     10.6887    14.0512    25.8742    4.9852     16.1069    0.081     
2835.8     6.1534     1.6961     6.7042     10.8441    14.5382    29.3173    5.0442     18.322     0.085     
2836       6.2621     1.567      6.4216     11.3003    15.8676    32.2236    4.6512     20.3145    0.085     
2836.2     6.3847     1.4992     6.415      11.6599    17.0588    34.1219    5.3467     21.9158    0.085     
2836.4     6.697      1.4959     6.1586     12.1649    17.1377    34.6325    11.9574    21.1637    0.088     
2836.6     7.0368     1.5603     6.0469     12.0613    16.1835    33.3626    10.1784    19.2707    0.088     
2836.8     7.2203     1.6078     6.1324     11.8088    15.5343    31.8571    8.2082     17.9481    0.081     
2837       7.3766     1.6349     6.2114     11.5174    14.7356    28.8329    9.0867     17.0275    0.083     
2837.2     7.4923     1.6214     6.4019     11.3459    13.9788    25.8349    8.9821     16.0551    0.085     
2837.4     7.5873     1.6383     6.5793     11.0448    13.2746    23.3213    8.819      15.5624    0.085     
2837.6     7.7028     1.6282     6.5465     10.8376    12.781     20.991     8.6037     14.927     0.088     
2837.8     7.7844     1.6757     6.6714     10.8829    12.5836    18.988     9.4776     14.2787    0.088     
2838       7.8048     1.73       6.8851     11.2261    12.7198    17.3384    9.6628     13.6823    0.081     
2838.2     7.7776     1.7775     7          11.5765    12.9258    15.9114    10.6615    13.2155    0.081     
2838.4     7.7504     1.7979     7.217      12.1455    13.2285    15.283     9.4714     12.82      0.085     
2838.6     7.696      1.7571     7.0855     12.644     13.2088    14.1572    8.0868     12.5283    0.085     
2838.8     7.6077     1.7775     7.2367     12.8253    13.064     13.0051    8.9464     12.3014    0.091     
2839       7.5465     1.7707     7.0198     12.8771    12.8468    11.9709    8.0865     12.3986    0.085     
2839.2     7.4718     1.7028     6.9047     12.7767    12.679     11.1461    6.8389     12.6126    0.085     
2839.4     7.4582     1.6689     6.8423     12.7412    12.5967    10.5046    7.3639     13.0696    0.085     
2839.6     7.397      1.6417     6.6911     12.9419    12.8337    10.1184    7.6384     13.209     0.086     
2839.8     7.3426     1.7843     7.0658     13.3239    13.4325    9.8369     9.9632     13.034     0.091     
2840       7.3155     1.7945     7.0132     13.434     13.9788    9.5227     10.9117    13.008     0.085     
2840.2     7.2135     1.7368     6.7305     13.3368    14.4341    9.4704     6.9763     13.3905    0.081     
2840.4     7.1116     1.7639     7.0263     13.3498    15.6438    9.5227     8.18       14.1296    0.081     
2840.6     7.064      1.73       6.8423     13.434     17.3747    9.7715     6.1986     14.8946    0.085     
2840.8     7.0776     1.6485     6.6779     13.3368    18.7369    10.2166    6.2555     16.3792    0.088     
2841       7.1456     1.5806     6.4347     13.285     20.2374    10.6925    6.7944     17.4165    0.081     
2841.2     7.3053     1.567      6.4939     13.544     21.8054    11.2377    10.1759    17.6369    0.081     
2841.4     7.3902     1.6349     6.6385     14.3728    23.4556    12.2851    10.2422    17.6305    0.085     
2841.6     7.3766     1.7707     7.0986     15.5901    26.45      13.2146    15.797     17.8444    0.086     
2841.8     7.3324     1.8522     7.6376     16.3088    28.1151    13.8822    13.7276    17.4425    0.088     
2842       7.329      1.9031     7.8743     16.244     27.3253    14.2357    14.2207    16.6774    0.081     
2842.2     7.3087     1.8115     7.5851     15.4347    25.6406    14.3274    8.7592     15.598     0.085     
2842.4     7.2475     1.8251     7.6574     15.0138    24.8966    14.1572    10.2491    14.5704    0.086     
2842.6     7.1727     1.8726     7.8316     14.8778    24.0348    13.5811    9.5607     14.1426    0.088     
2842.8     7.1116     1.8692     7.7691     14.3404    22.1131    13.0575    8.81       14.0388    0.085     
2843       7.0912     1.6485     6.9606     13.6541    19.9545    12.5469    5.783      14.149     0.081     
2843.2     7.1252     1.6417     6.8883     13.2753    18.7567    11.8792    7.2841     14.0648    0.085     
2843.4     7.1456     1.7232     7.1479     13.7383    18.8028    11.8203    12.8883    13.7471    0.091     
2843.6     7.0572     1.8963     7.5851     14.3404    19.0199    11.8661    12.1184    13.6174    0.085     
2843.8     6.9213     2.022      7.9006     14.9393    18.8126    11.6959    9.562      13.9578    0.085     
2844       6.7718     2.0084     7.9137     14.6965    17.9538    11.421     6.5883     15.2123    0.091     
2844.2     6.765      1.7843     6.9737     13.4922    15.7491    11.0021    4.7656     16.0356    0.088     
2844.4     6.8941     1.5399     6.2901     12.1196    13.8011    10.7066    4.8072     16.7293    0.081     
2844.6     7.0572     1.4652     5.922      11.32      13.1232    10.557     5.6054     17.0664    0.085     
2844.8     7.2475     1.5399     5.9121     11.0059    12.8797    10.7664    7.0106     17.5591    0.091     
2845       7.465      1.5467     5.7117     10.6369    12.6297    11.0545    7.712      18.6418    0.085     
2845.2     7.6756     1.3905     5.2318     10.1513    12.2644    11.3817    5.6491     19.7375    0.081     
2845.4     7.9271     1.3973     5.3238     9.9797     12.4388    11.4341    6.974      20.3209    0.085     
