~Version
 VERS              .         2.0                           : CWLS LOG ASCII STANDARD - VERSION 2.0
 WRAP              .         NO                            : ONE LINE PER DEPTH STEP
 DLM               .         SPACE                         : DELIMITING CHARACTER(SPACE TAB OR COMMA)
~Well Information
#_______________________________________________________________________________
#
#PARAMETER_NAME    .UNIT     VALUE                         : DESCRIPTION
#_______________________________________________________________________________
STRT               .m        2685                          : First reference value
STOP               .m        2885                          : Last reference value
STEP               .m        0.2                           : Step increment
NULL               .         -9999                         : Missing value
COMP               .                                       : Company
WELL               .         306                           : Well name
FLD                .                                       : Field
LOC                .                                       : Location
CNTY               .                                       : County
STAT               .                                       : State
CTRY               .                                       : Country
SRVC               .                                       : Service Company
DATE               .                                       : Date
API                .                                       : API number
EREF               .m        138.34                        : 
Pad                .         3                             : 
X                  .m        219750                        : 
Y                  .m        249950                        : 
group              .         Pad3                          : 
Интер-р            .         Ярышев                        : 
Куст               .         3                             : 
Статус             .         Не проверено                  : 
Тип                .         Разведка                      : 
~Parameter Information Block
#_______________________________________________________________________________
#
#PARAMETER_NAME    .UNIT     VALUE                         : DESCRIPTION
#_______________________________________________________________________________
SET                .         LAS3                          : 
REAL_CREATION_DATE .         Ср апр 11 2012-13_17_11       : 
TLFamily_DEPTH     .         Measured Depth                : 
TLFamily_GR        .         Gamma Ray                     : 
TLFamily_TNPH      .         Neutron Porosity              : 
group              .         INI                           : 
~Curve Information
#_______________________________________________________________________________
#
#LOGNAME           .UNIT     LOG_ID                        : DESCRIPTION
#_______________________________________________________________________________
DEPTH              .m                                      : Measured Depth 
GR                 .gAPI                                   :  
TNPH               .v/v                                    : Neutron Porosity 
~Ascii
2685.0     38.87      0.254     
2685.2     34.82      0.252     
2685.4     25.86      0.347     
2685.6     18.89      0.335     
2685.8     17.76      0.29      
2686       22.8       0.258     
2686.2     31.94      0.22      
2686.4     40.98      0.226     
2686.6     44.36      0.256     
2686.8     45.2       0.239     
2687       43.02      0.271     
2687.2     42.83      0.235     
2687.4     43.22      0.249     
2687.6     44.37      0.299     
2687.8     39.86      0.309     
2688       40.95      0.255     
2688.2     42.71      0.254     
2688.4     44.84      0.234     
2688.6     46.13      0.289     
2688.8     46.07      0.305     
2689       43.61      0.288     
2689.2     43.74      0.257     
2689.4     43.07      0.322     
2689.6     42.91      0.313     
2689.8     43.12      0.337     
2690       43.39      0.318     
2690.2     45.69      0.253     
2690.4     43.85      0.275     
2690.6     43.17      0.259     
2690.8     42.05      0.239     
2691       42.01      0.324     
2691.2     42.78      0.375     
2691.4     41.88      0.336     
2691.6     41.06      0.303     
2691.8     40.28      0.313     
2692       43.45      0.285     
2692.2     44.09      0.257     
2692.4     45.11      0.279     
2692.6     42.97      0.28      
2692.8     42.38      0.25      
2693       41.73      0.276     
2693.2     39.57      0.284     
2693.4     39.5       0.294     
2693.6     41.35      0.307     
2693.8     44.15      0.307     
2694       45.37      0.287     
2694.2     45.07      0.276     
2694.4     50.03      0.298     
2694.6     46.21      0.277     
2694.8     44.44      0.242     
2695       41.42      0.291     
2695.2     44.18      0.31      
2695.4     41.98      0.294     
2695.6     40.91      0.314     
2695.8     43.21      0.297     
2696       39.1       0.28      
2696.2     41.65      0.273     
2696.4     41.89      0.262     
2696.6     44.12      0.273     
2696.8     45.42      0.286     
2697       41.93      0.262     
2697.2     38.4       0.246     
2697.4     40.3       0.259     
2697.6     38.58      0.279     
2697.8     31.44      0.281     
2698       24.54      0.275     
2698.2     30.73      0.281     
2698.4     48.24      0.328     
2698.6     73.02      0.265     
2698.8     81.48      0.225     
2699       85.97      0.236     
2699.2     81.56      0.259     
2699.4     85.64      0.241     
2699.6     85.71      0.243     
2699.8     82.93      0.228     
2700       80.5       0.204     
2700.2     82.52      0.217     
2700.4     89.41      0.276     
2700.6     91.82999   0.282     
2700.8     92.41      0.259     
2701       89.18      0.247     
2701.2     86.18      0.243     
2701.4     88.88      0.252     
2701.6     90.93001   0.263     
2701.8     91.18      0.278     
2702       91.64      0.232     
2702.2     93.54      0.246     
2702.4     100.5      0.269     
2702.6     100.42     0.303     
2702.8     102.01     0.28      
2703       101.6      0.269     
2703.2     100.45     0.296     
2703.4     96.65      0.288     
2703.6     92.06001   0.279     
2703.8     89.45      0.256     
2704       83.87      0.237     
2704.2     84.16      0.214     
2704.4     84.99      0.233     
2704.6     87.84      0.277     
2704.8     90.23      0.234     
2705       88.14999   0.244     
2705.2     86.82999   0.254     
2705.4     86.28999   0.253     
2705.6     84.53      0.252     
2705.8     86.52      0.248     
2706       78.84      0.254     
2706.2     79.38      0.237     
2706.4     86.46      0.233     
2706.6     93.88      0.287     
2706.8     94.94      0.285     
2707       90.87      0.268     
2707.2     91.98      0.258     
2707.4     90.81001   0.253     
2707.6     92.32001   0.29      
2707.8     96.07001   0.286     
2708       94.65      0.296     
2708.2     90.9       0.277     
2708.4     94.17      0.276     
2708.6     94.37      0.263     
2708.8     96.22      0.257     
2709       95.33      0.267     
2709.2     92.37      0.262     
2709.4     86.75      0.281     
2709.6     77.9       0.259     
2709.8     82.1       0.242     
2710       83.52      0.255     
2710.2     88.31001   0.212     
2710.4     93.86      0.225     
2710.6     97.14      0.254     
2710.8     95.91      0.283     
2711       90         0.297     
2711.2     88.74      0.286     
2711.4     88.24001   0.239     
2711.6     88.07      0.237     
2711.8     88.53      0.218     
2712       85.05      0.215     
2712.2     84.62      0.212     
2712.4     84.89999   0.234     
2712.6     82.86      0.245     
2712.8     79.92      0.26      
2713       84.13      0.273     
2713.2     86.39      0.26      
2713.4     91.48      0.246     
2713.6     90.78      0.241     
2713.8     91.28      0.253     
2714       94.35001   0.267     
2714.2     95.78      0.248     
2714.4     94.08      0.238     
2714.6     97.33      0.242     
2714.8     94.79      0.238     
2715       93.44      0.25      
2715.2     86.61      0.227     
2715.4     83.72      0.213     
2715.6     86.82      0.21      
2715.8     80.98      0.224     
2716       85.41      0.245     
2716.2     87.67      0.234     
2716.4     81.81      0.248     
2716.6     83.26      0.266     
2716.8     83.62      0.289     
2717       84.69      0.3       
2717.2     86.70999   0.242     
2717.4     88.62      0.23      
2717.6     85.22      0.261     
2717.8     80.15      0.241     
2718       85.86      0.243     
2718.2     85.98      0.238     
2718.4     85         0.254     
2718.6     84.18999   0.23      
2718.8     84.86      0.205     
2719       81.81      0.201     
2719.2     80.08      0.206     
2719.4     73         0.23      
2719.6     76.84      0.237     
2719.8     82.61      0.202     
2720       89.05      0.182     
2720.2     93.36      0.226     
2720.4     95.81001   0.231     
2720.6     94.36      0.271     
2720.8     90.69      0.247     
2721       89.8       0.214     
2721.2     88.8       0.21      
2721.4     88.47      0.24      
2721.6     91.96      0.238     
2721.8     91.33      0.253     
2722       90.4       0.26      
2722.2     90.57      0.256     
2722.4     87.02      0.263     
2722.6     88.24001   0.27      
2722.8     84.84      0.289     
2723       85.93001   0.246     
2723.2     87.58      0.228     
2723.4     85.2       0.228     
2723.6     87.09      0.255     
2723.8     91.3       0.28      
2724       91.91      0.284     
2724.2     88.73      0.253     
2724.4     91.87      0.242     
2724.6     97.22      0.247     
2724.8     94.56001   0.228     
2725       86.18      0.221     
2725.2     84.05      0.215     
2725.4     77.72      0.22      
2725.6     78.21999   0.235     
2725.8     77.89      0.222     
2726       80.07      0.238     
2726.2     82.83      0.253     
2726.4     86.18      0.257     
2726.6     89.25999   0.263     
2726.8     91.74      0.241     
2727       90.64      0.24      
2727.2     94.32999   0.251     
2727.4     91.88      0.283     
2727.6     96.08      0.331     
2727.8     94.92      0.317     
2728       89.75999   0.291     
2728.2     88.9       0.296     
2728.4     88.98      0.244     
2728.6     86.94      0.245     
2728.8     92.09      0.251     
2729       87.01      0.234     
2729.2     83.33      0.221     
2729.4     86.47      0.227     
2729.6     82.84      0.222     
2729.8     85.41      0.225     
2730       85.85      0.212     
2730.2     81.63      0.237     
2730.4     88.82      0.237     
2730.6     86.4       0.246     
2730.8     87.57      0.259     
2731       90.98      0.258     
2731.2     88.99001   0.25      
2731.4     90.92      0.255     
2731.6     92.14      0.232     
2731.8     90.14      0.221     
2732       88.92999   0.244     
2732.2     92.17      0.249     
2732.4     92.35      0.224     
2732.6     90.86      0.225     
2732.8     90.25      0.214     
2733       94.68001   0.214     
2733.2     96.33      0.237     
2733.4     92.02      0.255     
