~Version
 VERS              .         2.0                           : CWLS LOG ASCII STANDARD - VERSION 2.0
 WRAP              .         NO                            : ONE LINE PER DEPTH STEP
 DLM               .         SPACE                         : DELIMITING CHARACTER(SPACE TAB OR COMMA)
~Well Information
#_______________________________________________________________________________
#
#PARAMETER_NAME    .UNIT     VALUE                         : DESCRIPTION
#_______________________________________________________________________________
STRT               .m        2685                          : First reference value
STOP               .m        2885                          : Last reference value
STEP               .m        0.2                           : Step increment
NULL               .         -9999                         : Missing value
COMP               .                                       : Company
WELL               .         306                           : Well name
FLD                .                                       : Field
LOC                .                                       : Location
CNTY               .                                       : County
STAT               .                                       : State
CTRY               .                                       : Country
SRVC               .                                       : Service Company
DATE               .                                       : Date
API                .                                       : API number
EREF               .m        138.34                        : 
Pad                .         3                             : 
X                  .m        219750                        : 
Y                  .m        249950                        : 
group              .         Pad3                          : 
Интер-р            .         Ярышев                        : 
Куст               .         3                             : 
Статус             .         Не проверено                  : 
Тип                .         Разведка                      : 
~Parameter Information Block
#_______________________________________________________________________________
#
#PARAMETER_NAME    .UNIT     VALUE                         : DESCRIPTION
#_______________________________________________________________________________
SET                .         LAS3                          : 
REAL_CREATION_DATE .         Ср апр 11 2012-13_17_11       : 
TLFamily_DEPTH     .         Measured Depth                : 
TLFamily_GR        .         Gamma Ray                     : 
TLFamily_TNPH      .         Neutron Porosity              : 
group              .         INI                           : 
~Curve Information
#_______________________________________________________________________________
#
#LOGNAME           .UNIT     LOG_ID                        : DESCRIPTION
#_______________________________________________________________________________
DEPTH              .m                                      : Measured Depth 
GR                 .gAPI                                   :  
TNPH               .v/v                                    : Neutron Porosity 
~Ascii
# ...
2830.8     48.65      0.179     
2831       49.24      0.214     
2831.2     45.28      0.23      
2831.4     43.76      0.243     
2831.6     41.06      0.253     
2831.8     43.45      0.222     
2832       49.05      0.227     
2832.2     54.98      0.237     
2832.4     62.23      0.226     
2832.6     62.45      0.221     
2832.8     58.41      0.209     
2833       59.37      0.199     
2833.2     56.52      0.206     
2833.4     59.67      0.237     
2833.6     62.1       0.216     
2833.8     62.56      0.215     
2834       67.17      0.198     
2834.2     78.68      0.186     
2834.4     86.56      0.173     
2834.6     85.55      0.184     
2834.8     90.03      0.204     
2835       90.22      0.212     
2835.2     83.84      0.193     
2835.4     71.09      0.203     
2835.6     53.99      0.206     
2835.8     44.78      0.195     
2836       45.99      0.193     
2836.2     54.78      0.213     
2836.4     73.6       0.235     
2836.6     87.46001   0.269     
2836.8     89.51      0.246     
2837       88.97      0.187     
2837.2     86.56999   0.181     
2837.4     83.54      0.201     
2837.6     85.96      0.213     
2837.8     84.27      0.206     
2838       78         0.229     
2838.2     73.98      0.236     
2838.4     71.36      0.235     
2838.6     76.18      0.212     
2838.8     82.81999   0.203     
2839       83.68      0.247     
2839.2     77.75      0.25      
2839.4     74.39999   0.231     
2839.6     77.65      0.238     
2839.8     81.7       0.258     
2840       79.52      0.251     
2840.2     70.09      0.222     
2840.4     66.62      0.223     
2840.6     62.88      0.211     
2840.8     59.56      0.205     
2841       56.92      0.197     
2841.2     61.82999   0.226     
2841.4     71.07001   0.266     
2841.6     72.44      0.265     
2841.8     89.28001   0.297     
2842       91.36      0.325     
2842.2     92.92      0.337     
2842.4     95.26      0.284     
2842.6     95.53001   0.238     
2842.8     84.75      0.216     
2843       82.19      0.22      
2843.2     90.22      0.205     
2843.4     96.74      0.248     
2843.6     94.68001   0.279     
2843.8     81.94      0.258     
2844       68.78999   0.252     
2844.2     66.00999   0.227     
2844.4     57.89      0.223     
2844.6     56.51      0.244     
2844.8     56.31      0.227     
2845       63.96      0.202     
2845.2     71.13      0.206     
2845.4     85.08      0.229     
2845.6     88.31001   0.267     
2845.8     90.26      0.252     
2846       93.48      0.254     
2846.2     94.36      0.239     
2846.4     97.51      0.222     
2846.6     95.57999   0.257     
2846.8     98.25      0.291     
2847       99.46999   0.273     
2847.2     107.05     0.31      
2847.4     108.94     0.297     
2847.6     110.78     0.269     
2847.8     101.7      0.276     
2848       99.12      0.275     
2848.2     99.91      0.262     
2848.4     88.43001   0.295     
2848.6     73.02      0.348     
2848.8     49.88      0.392     
2849       27.72      0.418     
2849.2     22.61      0.471     
2849.4     17.18      0.405     
2849.6     14.54      0.436     
2849.8     19.45      0.4       
2850       31.32      0.382     
2850.2     51.25      0.341     
2850.4     65.35      0.351     
2850.6     75.36      0.367     
2850.8     80.26      0.347     
2851       75.85      0.3       
2851.2     70.28      0.296     
2851.4     69.5       0.289     
2851.6     59.07      0.275     
2851.8     58.6       0.293     
2852       69.65      0.278     
2852.2     87.83      0.319     
2852.4     94.75      0.341     
2852.6     100.85     0.301     
2852.8     99.61      0.26      
2853       100.42     0.268     
2853.2     96.02      0.252     
2853.4     93.56      0.246     
2853.6     91.32      0.214     
2853.8     81.64      0.213     
2854       68.25      0.178     
2854.2     61.16      0.185     
2854.4     52.89      0.163     
2854.6     50.08      0.159     
2854.8     48.73      0.159     
2855       49.52      0.131     
2855.2     46.38      0.142     
2855.4     41.51      0.135     
2855.6     40.72      0.102     
2855.8     41.57      0.085     
2856       44.3       0.084     
2856.2     48.98      0.1       
2856.4     53.33      0.118     
2856.6     63.85      0.145     
2856.8     79.48      0.196     
2857       88.75      0.218     
2857.2     90.25      0.205     
2857.4     94.52      0.196     
2857.6     103.41     0.215     
2857.8     106.04     0.236     
2858       100.56     0.248     
2858.2     98.64      0.225     
2858.4     100.92     0.212     
2858.6     78.41      0.214     
2858.8     55.41      0.211     
2859       57.42      0.197     
2859.2     74.28001   0.206     
2859.4     88.14      0.235     
2859.6     86.92001   0.252     
2859.8     76.74      0.259     
2860       73.95      0.233     
2860.2     66.27      0.224     
2860.4     63.87      0.228     
2860.6     60.31      0.213     
2860.8     58.36      0.201     
2861       57.57      0.216     
2861.2     61.82999   0.237     
2861.4     64         0.213     
2861.6     60.43999   0.223     
2861.8     61.37      0.221     
2862       59.94      0.215     
2862.2     59.84      0.218     
2862.4     63.78      0.197     
2862.6     66.68999   0.186     
2862.8     70.13      0.206     
2863       63.63      0.246     
2863.2     57.64      0.264     
2863.4     62.5       0.232     
2863.6     68.66      0.201     
2863.8     69.31      0.189     
2864       61.36      0.203     
2864.2     58.07      0.222     
2864.4     56.18      0.202     
2864.6     58.64      0.171     
2864.8     59.41      0.186     
2865       63.43      0.175     
2865.2     68.54      0.188     
2865.4     68.88      0.192     
2865.6     74.37      0.218     
2865.8     84.92      0.252     
2866       87.39      0.228     
2866.2     88.98      0.216     
2866.4     88.64      0.221     
2866.6     84.09      0.21      
2866.8     68.44      0.214     
2867       68.05      0.207     
2867.2     77.91      0.218     
2867.4     72.95      0.227     
2867.6     75.87      0.251     
2867.8     88.57001   0.268     
2868       96.04      0.284     
2868.2     93.14      0.245     
2868.4     85.38      0.239     
2868.6     81.21001   0.22      
2868.8     75.92      0.207     
2869       64.15      0.196     
2869.2     57.92      0.203     
2869.4     55.73      0.206     
2869.6     61.35      0.203     
2869.8     69.32      0.207     
2870       72.61      0.239     
2870.2     71.62      0.24      
2870.4     67.38      0.245     
2870.6     59.41      0.232     
2870.8     63.38      0.232     
2871       71.5       0.23      
2871.2     77.31      0.265     
2871.4     79.72      0.308     
2871.6     77.97      0.329     
2871.8     76.87      0.293     
2872       81.73      0.267     
2872.2     83.52      0.254     
2872.4     82.02      0.264     
2872.6     84.25999   0.276     
2872.8     89.29      0.267     
2873       89.94      0.264     
2873.2     83.53      0.28      
2873.4     72.73      0.281     
2873.6     52.94      0.284     
2873.8     39.58      0.352     
2874       45.02      0.377     
2874.2     61.57      0.287     
2874.4     74.46      0.232     
2874.6     75.93001   0.18      
2874.8     78.72      0.164     
2875       76.65      0.179     
2875.2     72.55      0.194     
2875.4     69.71      0.221     
2875.6     65.13      0.219     
2875.8     62.48      0.205     
2876       68.76      0.211     
2876.2     84.35001   0.233     
2876.4     102.05     0.262     
2876.6     109.86     0.253     
2876.8     112.84     0.285     
2877       108.49     0.306     
2877.2     106.75     0.294     
2877.4     97.46001   0.293     
2877.6     86.08      0.308     
2877.8     71.11      0.27      
2878       57.66      0.268     
2878.2     49.72      0.235     
2878.4     49.35      0.217     
2878.6     55.93      0.208     
2878.8     60.35      0.205     
2879       60.57      0.192     
2879.2     62.16      0.199     
