~Version
 VERS              .         2.0                           : CWLS LOG ASCII STANDARD - VERSION 2.0
 WRAP              .         NO                            : ONE LINE PER DEPTH STEP
 DLM               .         SPACE                         : DELIMITING CHARACTER(SPACE TAB OR COMMA)
~Well Information
#_______________________________________________________________________________
#
#PARAMETER_NAME    .UNIT     VALUE                         : DESCRIPTION
#_______________________________________________________________________________
STRT               .m        2685                          : First reference value
STOP               .m        2885                          : Last reference value
STEP               .m        0.2                           : Step increment
NULL               .         -9999                         : Missing value
COMP               .                                       : Company
WELL               .         306                           : Well name
FLD                .                                       : Field
LOC                .                                       : Location
CNTY               .                                       : County
STAT               .                                       : State
CTRY               .                                       : Country
SRVC               .                                       : Service Company
DATE               .                                       : Date
API                .                                       : API number
EREF               .m        138.34                        : 
Pad                .         3                             : 
X                  .m        219750                        : 
Y                  .m        249950                        : 
group              .         Pad3                          : 
Интер-р            .         Ярышев                        : 
Куст               .         3                             : 
Статус             .         Не проверено                  : 
Тип                .         Разведка                      : 
~Parameter Information Block
#_______________________________________________________________________________
#
#PARAMETER_NAME    .UNIT     VALUE                         : DESCRIPTION
#_______________________________________________________________________________
SET                .         LAS1                          : 
REAL_CREATION_DATE .         Ср апр 11 2012-13_17_10       : 
TLFamily_DEPTH     .         Measured Depth                : 
TLFamily_KS        .         Potential Resistivity         : 
TLFamily_KS1       .         Extra Shallow Resistivity     : 
TLFamily_KS2       .         Shallow Resistivity           : 
TLFamily_KS3       .         Medium Resistivity            : 
TLFamily_KS4       .         Deep Resistivity              : 
TLFamily_KS5       .         Extra Deep Resistivity        : 
TLFamily_LLD       .         Lateral Log Resistivity       : 
TLFamily_OKS3      .         Medium Resistivity Inverted   : 
TLFamily_RM        .         Mud Resistivity               : 
group              .         INI                           : 
~Curve Information
#_______________________________________________________________________________
#
#LOGNAME           .UNIT     LOG_ID                        : DESCRIPTION
#_______________________________________________________________________________
DEPTH              .m                                      : Measured Depth 
KS                 .ohm.m                                  : Potential Resistivity 
KS1                .ohm.m                                  : Extra Shallow Resistivity 
KS2                .ohm.m                                  : Shallow Resistivity 
KS3                .ohm.m                                  : Medium Resistivity 
KS4                .ohm.m                                  : Deep Resistivity 
KS5                .ohm.m                                  : Extra Deep Resistivity 
LLD                .ohm.m                                  : Lateral Log Resistivity 
OKS3               .ohm.m                                  : Medium Resistivity Inverted 
RM                 .ohm.m                                  : Mud Resistivity 
~Ascii
# ...
2801.8     10.958     2.6262     11.8906    26.5777    38.5131    39.7775    33.4027    12.9756    0.098     
2802       10.7021    2.5448     11.746     26.6813    38.4475    38.992     15.1679    12.2884    0.095     
2802.2     10.3328    2.5039     11.5882    26.6878    38.4935    38.4814    11.5487    11.6271    0.095     
2802.4     9.9318     2.5176     11.5882    26.636     38.4935    37.4995    11.3373    11.2818    0.091     
2802.6     9.5173     2.4565     11.1741    26.5351    38.3422    36.3475    13.0952    10.8881    0.088     
2802.8     9.0824     2.4497     11.1277    26.1698    38.1118    35.1692    12.4206    10.4148    0.088     
2803       8.6814     2.3886     10.8651    25.8525    38.0723    33.0484    10.9515    9.961      0.088     
2803.2     8.2533     2.3886     10.6219    25.4123    38.023     31.6083    9.4861     9.5266     0.088     
2803.4     7.9993     2.3818     10.6022    24.8101    37.7235    30.4654    9.3885     9.0858     0.088     
2803.6     7.6688     2.3108     10.0501    23.8583    36.9075    29.3042    10.0689    8.7255     0.088     
2803.8     7.2951     2.2868     9.728      22.5569    35.5715    27.5499    8.2988     8.5282     0.091     
2804       6.9485     2.2053     9.2678     21.7213    34.0513    25.7433    7.5019     8.23       0.091     
2804.2     6.6223     2.117      8.9664     20.4073    32.0309    24.0152    6.7604     8.1198     0.091     
2804.4     6.3165     2.0491     8.5119     18.9958    29.9644    22.4704    6.6655     8.0355     0.091     
2804.6     6.0922     1.9201     8.1372     17.6231    28.8115    21.4043    5.8388     8.23       0.091     
2804.8     5.915      1.8386     7.5653     16.4771    27.5359    20.4019    5.2853     8.5671     0.091     
2805       5.8204     1.8249     7.3484     15.5318    26.0289    19.2498    4.3436     8.7681     0.091     
2805.2     5.7388     1.7979     6.9737     14.5347    24.5415    18.3596    5.3656     8.8203     0.095     
2805.4     5.6981     1.7028     6.507      13.9249    23.0344    17.4693    5.1267     9.0015     0.095     
2805.6     5.6641     1.6893     6.4045     13.1814    21.7709    16.7493    4.6154     9.1247     0.095     
2805.8     5.6641     1.6553     6.2835     12.6181    20.8298    16.2126    4.7463     9.2154     0.095     
2806       5.6437     1.7028     6.3098     12.2102    20.3608    15.7674    5.2154     9.0987     0.095     
2806.2     5.6164     1.7639     6.4544     11.9836    19.8886    15.4925    6.0618     8.8459     0.091     
2806.4     5.5418     1.8184     6.6582     11.6146    19.1121    15.0212    6.7758     8.5606     0.091     
2806.6     5.433      1.8251     6.5662     11.0383    17.8748    14.4583    6.491      8.4895     0.088     
2806.8     5.3243     1.7436     6.3361     10.4049    16.3085    13.8299    5.9784     8.5801     0.085     
2807       5.2427     1.6621     6.1845     10.0477    15.0054    13.136     4.3826     8.8394     0.085     
2807.2     5.2156     1.5942     6.014      9.6203     13.8866    12.6909    4.2222     9.1636     0.088     
2807.4     5.2088     1.5263     5.7774     9.2772     13.3781    12.3505    4.3368     9.6433     0.088     
2807.6     5.2055     1.5738     5.7314     9.1218     12.7876    12.2327    4.5064     9.9221     0.088     
2807.8     5.2224     1.5735     5.6525     9.1088     12.2611    11.984     4.3256     10.1587    0.091     
2808       5.2495     1.5467     5.5933     8.9599     11.6293    11.8138    4.8994     10.2138    0.091     
2808.2     5.2767     1.5806     5.4816     8.8789     11.0173    11.5912    4.9922     10.3629    0.091     
2808.4     5.2903     1.5467     5.4954     8.811      10.4842    11.4079    5.3636     10.4602    0.091     
2808.6     5.3243     1.5942     5.6196     8.6815     10.0696    11.2508    4.7394     10.4148    0.095     
2808.8     5.3651     1.5535     5.4947     8.4419     9.6833     11.2444    5.8443     10.4796    0.095     
2809       5.3684     1.5467     5.4422     8.2088     9.497      11.277     4.9292     10.8427    0.095     
2809.2     5.3923     1.547      5.475      8.0858     9.4181     11.565     4.7593     11.4391    0.091     
2809.4     5.4738     1.4788     5.2187     8.0211     9.4839     12.0625    4.8722     12.0129    0.088     
2809.6     5.5689     1.4177     5.2844     8.1159     9.7998     12.8742    4.7769     12.7487    0.085     
2809.8     5.7388     1.4516     5.3901     8.3319     10.4842    13.8953    4.2337     13.209     0.085     
2810       5.8815     1.4516     5.3633     8.9275     11.4056    14.5892    6.4229     13.3711    0.085     
2810.2     5.9359     1.6825     6.014      9.6074     11.8572    14.8785    6.4047     12.7357    0.085     
2810.4     6.0039     1.6757     6.1849     10.0023    12.0505    15.0212    8.3744     11.8151    0.088     
2810.6     6.0582     1.6723     6.1586     9.8923     11.7149    14.8772    8.5974     11.0564    0.088     
2810.8     6.0854     1.7096     6.2507     9.8081     11.3595    14.1703    6.0015     10.6871    0.088     
2811       6.1126     1.6621     6.1981     9.6661     10.9449    13.699     6.6252     10.2203    0.088     
2811.2     6.1194     1.6417     6.2014     9.6009     10.7409    13.3193    5.9099     10.0128    0.091     
2811.4     6.1398     1.6553     6.2901     9.6398     10.7474    13.1884    5.953      9.9221     0.091     
2811.6     6.1398     1.6553     6.3296     9.8987     10.9892    13.3179    6.1028     9.8702     0.091     
2811.8     6.1228     1.7028     6.5596     10.4426    11.3134    13.6073    6.1517     9.8443     0.091     
2812       6.099      1.7402     6.8028     11.4203    12.1887    13.9477    7.1438     9.9056     0.091     
2812.2     5.9563     1.8115     7.4602     12.5663    13.2088    14.0132    6.9567     9.6368     0.088     
2812.4     5.766      2.0355     7.9926     13.2203    13.709     13.6597    7.4737     8.9172     0.085     
2812.6     5.5282     2.0423     7.8283     13.5311    13.3207    12.8087    15.8898    8.1652     0.085     
2812.8     5.2292     1.9676     7.6705     13.1167    12.5507    11.4996    9.2297     7.841      0.088     
2813       4.9913     1.8454     7.3681     12.4433    11.8225    10.1904    5.0403     7.8086     0.088     
2813.2     4.8587     1.73       6.9869     11.7182    11.2937    9.6275     4.3398     7.9188     0.088     
2813.4     4.7195     1.6791     6.6385     11.0707    10.629     8.6718     4.0247     8.1263     0.088     
2813.6     4.6039     1.6146     6.1784     10.5009    10.0762    7.8339     3.9692     8.2754     0.088     
2813.8     4.5156     1.5738     5.9154     10.161     9.7208     7.1531     4.0642     8.4245     0.088     
2814       4.4816     1.5738     5.8267     9.9441     9.5563     6.5771     3.9077     8.4699     0.091     
2814.2     4.4544     1.5195     5.4947     9.5362     9.2601     6.1058     4.5061     8.6255     0.091     
2814.4     4.4273     1.4924     5.3173     9.0635     9.0495     5.8037     4.4793     8.9496     0.091     
2814.6     4.4273     1.4619     5.1726     8.6362     8.7797     5.5691     4.0421     9.3905     0.091     
2814.8     4.4476     1.4313     5.0412     8.1894     8.523      5.3072     4.0334     9.8841     0.088     
2815       4.4884     1.4109     5.028      7.8851     8.3387     5.1109     4.1217     10.2462    0.085     
2815.2     4.5428     1.4245     5.0478     7.7653     8.2598     4.9668     4.5366     10.7519    0.085     
2815.4     4.6243     1.4448     5.0609     7.6455     8.2005     4.8752     4.5475     11.1279    0.085     
2815.6     4.6855     1.4448     5.0149     7.5419     8.1347     4.7967     4.596      11.6271    0.088     
2815.8     4.7399     1.472      5.0872     7.4772     8.1084     4.705      4.7797     12.3597    0.085     
2816       4.7738     1.472      5.1332     7.4642     8.0821     4.6788     4.8497     13.1766    0.088     
2816.2     4.8282     1.4686     5.1529     7.406      7.9965     4.6134     5.2012     14.0713    0.088     
