~Version
 VERS              .         2.0                           : CWLS LOG ASCII STANDARD - VERSION 2.0
 WRAP              .         NO                            : ONE LINE PER DEPTH STEP
 DLM               .         SPACE                         : DELIMITING CHARACTER(SPACE TAB OR COMMA)
~Well Information
#_______________________________________________________________________________
#
#PARAMETER_NAME    .UNIT     VALUE                         : DESCRIPTION
#_______________________________________________________________________________
STRT               .m        2685                          : First reference value
STOP               .m        2885                          : Last reference value
STEP               .m        0.2                           : Step increment
NULL               .         -9999                         : Missing value
COMP               .                                       : Company
WELL               .         306                           : Well name
FLD                .                                       : Field
LOC                .                                       : Location
CNTY               .                                       : County
STAT               .                                       : State
CTRY               .                                       : Country
SRVC               .                                       : Service Company
DATE               .                                       : Date
API                .                                       : API number
EREF               .m        138.34                        : 
Pad                .         3                             : 
X                  .m        219750                        : 
Y                  .m        249950                        : 
group              .         Pad3                          : 
Интер-р            .         Ярышев                        : 
Куст               .         3                             : 
Статус             .         Не проверено                  : 
Тип                .         Разведка                      : 
~Parameter Information Block
#_______________________________________________________________________________
#
#PARAMETER_NAME    .UNIT     VALUE                         : DESCRIPTION
#_______________________________________________________________________________
SET                .         LAS1                          : 
REAL_CREATION_DATE .         Ср апр 11 2012-13_17_10       : 
TLFamily_DEPTH     .         Measured Depth                : 
TLFamily_KS        .         Potential Resistivity         : 
TLFamily_KS1       .         Extra Shallow Resistivity     : 
TLFamily_KS2       .         Shallow Resistivity           : 
TLFamily_KS3       .         Medium Resistivity            : 
TLFamily_KS4       .         Deep Resistivity              : 
TLFamily_KS5       .         Extra Deep Resistivity        : 
TLFamily_LLD       .         Lateral Log Resistivity       : 
TLFamily_OKS3      .         Medium Resistivity Inverted   : 
TLFamily_RM        .         Mud Resistivity               : 
group              .         INI                           : 
~Curve Information
#_______________________________________________________________________________
#
#LOGNAME           .UNIT     LOG_ID                        : DESCRIPTION
#_______________________________________________________________________________
DEPTH              .m                                      : Measured Depth 
KS                 .ohm.m                                  : Potential Resistivity 
KS1                .ohm.m                                  : Extra Shallow Resistivity 
KS2                .ohm.m                                  : Shallow Resistivity 
KS3                .ohm.m                                  : Medium Resistivity 
KS4                .ohm.m                                  : Deep Resistivity 
KS5                .ohm.m                                  : Extra Deep Resistivity 
LLD                .ohm.m                                  : Lateral Log Resistivity 
OKS3               .ohm.m                                  : Medium Resistivity Inverted 
RM                 .ohm.m                                  : Mud Resistivity 
~Ascii
# ...
2860.2     4.1282     1.7062     5.5736     9.6851     12.7547    11.984     4.4608     6.7454     0.085     
2860.4     4.0399     1.5195     5.3764     8.6815     10.7968    10.2559    4.0535     6.5833     0.085     
2860.6     3.9583     1.4584     5.2187     7.8204     8.9705     9.1823     3.95       6.6092     0.085     
2860.8     3.8938     1.438      5.0215     7.0045     8.0623     8.279      4.114      6.687      0.081     
2861       3.8836     1.3769     4.6665     6.4607     7.4503     7.3299     4.1168     6.8621     0.085     
2861.2     3.8904     1.3226     4.4167     6.0981     6.7988     6.5378     3.9523     7.1214     0.088     
2861.4     3.9312     1.3023     4.2721     5.8358     6.3183     6.0665     4.1743     7.2251     0.081     
2861.6     3.9855     1.214      4.1012     5.975      6.1538     5.7        4.2858     7.4844     0.081     
2861.8     3.9991     1.3362     4.3181     6.1434     6.1867     5.3727     4.7034     7.8086     0.088     
2862       4.0331     1.3362     4.2984     6.247      6.2328     5.2287     4.7945     8.2883     0.081     
2862.2     4.1248     1.3226     4.2787     6.1434     6.1933     5.1632     4.7819     8.5931     0.085     
2862.4     4.237      1.3294     4.2885     6.111      6.2657     5.0847     4.8579     9.1117     0.088     
2862.6     4.3593     1.3023     4.2392     6.1175     6.4006     5.0454     4.6727     9.9221     0.081     
2862.8     4.4986     1.3158     4.305      6.1725     6.4894     5.0716     6.1112     10.162     0.085     
2863       4.7331     1.3634     4.443      6.1693     6.4565     5.0978     5.3332     10.1814    0.088     
2863.2     4.8282     1.3634     4.4364     6.124      6.4236     5.0978     7.5258     10.1652    0.081     
2863.4     4.9098     1.438      4.7125     6.2535     6.7        5.1109     8.117      10.0906    0.083     
2863.6     4.9641     1.5263     5.0576     6.5675     7.0817     5.137      8.5186     9.8897     0.088     
2863.8     4.9369     1.5806     5.3896     6.7585     7.3253     5.1632     7.4283     9.6952     0.081     
2864       4.903      1.6485     5.5868     6.8686     7.3351     5.1894     6.0803     9.7146     0.081     
2864.2     4.869      1.5806     5.4684     6.9074     7.1476     5.2025     5.1325     10.0582    0.086     
2864.4     4.9199     1.5127     5.2975     6.6614     6.8777     5.2549     4.2368     10.8362    0.081     
2864.6     5.0661     1.3056     4.6402     6.4736     6.6671     5.3596     4.317      11.6336    0.085     
2864.8     5.2563     1.2819     4.7125     6.5934     6.756      5.6214     6.8161     12.1587    0.085     
2865       5.501      1.343      4.7717     7.0758     6.983      5.8963     7.3687     12.2106    0.085     
2865.2     5.766      1.3939     4.8341     7.3736     7.2134     6.3153     7.4771     12.256     0.091     
2865.4     5.9291     1.4584     4.9623     7.7038     7.5095     7.0288     7.8014     12.457     0.081     
2865.6     6.0582     1.4992     5.2121     8.1732     8.1611     7.6375     7.9761     12.9367    0.085     
2865.8     6.1602     1.567      5.6689     8.8498     8.602      8.0827     10.8788    13.0145    0.088     
2866       6.2825     1.6587     6.0403     9.0765     8.7665     8.5147     7.7845     12.632     0.085     
2866.2     6.3708     1.6282     5.9877     9.0311     8.7599     8.986      8.1267     11.8443    0.085     
2866.4     6.4116     1.6417     6.0732     8.934      8.7468     9.1823     7.6484     10.9853    0.085     
2866.6     6.466      1.6689     6.1126     8.9081     8.7665     9.3787     6.5604     10.5056    0.085     
2866.8     6.4728     1.6248     6.0798     9.07       8.931      9.5096     7.1183     10.1749    0.088     
2867       6.432      1.6893     6.3756     9.4326     9.3391     9.6406     8.6314     9.8119     0.083     
2867.2     6.4354     1.73       6.507      9.7628     9.4181     9.7977     7.3403     9.6303     0.085     
2867.4     6.4796     1.6689     6.2408     9.7693     9.4049     9.9024     6.0982     9.6044     0.088     
2867.6     6.5204     1.5603     5.9812     9.6527     9.4246     10.1184    7.7225     9.5979     0.081     
2867.8     6.5679     1.5467     5.922      9.8955     9.7932     10.5046    8.9784     9.5979     0.088     
2868       6.6291     1.6078     6.1882     10.4685    10.1946    10.8843    9.1489     9.5979     0.088     
2868.2     6.6359     1.7198     6.5399     11.0059    10.6158    11.2639    9.664      9.5914     0.081     
2868.4     6.5747     1.7979     6.7371     11.4527    11.06      11.853     8.7688     9.5979     0.088     
2868.6     6.466      1.8454     6.8751     11.9027    11.6096    12.1672    8.4132     9.5979     0.088     
2868.8     6.1806     1.8997     7.2695     12.1843    12.0834    12.4683    8.4075     9.5979     0.085     
2869       5.9971     1.8997     7.3353     12.1325    12.3434    12.9593    4.9227     9.5979     0.081     
2869.2     5.8883     1.7164     6.7963     11.5692    12.0571    13.6728    4.8967     9.5979     0.085     
2869.4     5.8917     1.5874     6.4807     10.5851    11.8202    14.2881    4.0005     9.5979     0.085     
2869.6     5.9291     1.4448     5.6262     9.9635     11.7083    15.0736    6.332      9.5979     0.088     
2869.8     5.9359     1.4584     5.4487     9.5685     11.8695    16.278     6.7182     9.5979     0.085     
2870       5.9495     1.4788     5.3896     9.5265     12.373     17.9145    7.3334     9.5979     0.085     
2870.2     5.9359     1.4788     5.5046     9.6462     12.939     20.0746    7.2482     -9999      0.085     
2870.4     5.9427     1.4788     5.8497     9.7304     13.4786    23.1118    3.7743     -9999      0.085     
2870.6     5.9495     1.4788     5.6459     9.4844     14.3802    28.1783    4.0371     -9999      0.085     
2870.8     5.9495     1.4788     5.5868     8.8596     15.2621    31.4381    11.2659    -9999      0.085     
2871       5.9495     1.4788     5.567      8.9793     16.2822    34.0172    29.2961    -9999      0.085     
2871.2     5.9495     1.4788     5.5539     9.439      17.1772    35.6274    28.8522    -9999      0.085     
2871.4     5.9495     1.4788     5.5079     9.7466     17.4339    35.0776    24.5751    -9999      0.085     
2871.6     5.9495     1.4788     5.5112     9.9246     17.1114    33.7422    20.927     -9999      0.085     
2871.8     5.9495     1.4788     5.5079     9.97       16.7429    32.0272    18.0289    -9999      0.085     
2872       5.9495     1.4788     5.5079     9.97       16.2295    29.5136    18.8989    -9999      0.085     
2872.2     5.9495     1.4788     5.5079     9.9829     15.8347    28.3092    20.5773    -9999      0.085     
2872.4     5.9495     1.4788     5.5079     9.9829     15.7623    27.1441    22.84      -9999      0.085     
2872.6     5.9495     1.4788     5.5079     10.0023    15.9071    26.1884    20.6535    -9999      -9999     
2872.8     -9999      1.4788     5.5079     10.0088    16.3052    25.3636    16.1463    -9999      -9999     
2873       -9999      -9999      5.5079     10.0088    16.914     25.2196    18.2079    -9999      -9999     
2873.2     -9999      -9999      5.5079     10.0088    18.0459    25.3636    19.2826    -9999      -9999     
2873.4     -9999      -9999      5.5167     10.0088    19.7142    26.28      20.7975    -9999      -9999     
2873.6     -9999      -9999      -9999      10.0088    21.5866    26.8822    13.2543    -9999      -9999     
2873.8     -9999      -9999      -9999      10.0088    22.2118    27.5237    48.653     -9999      -9999     
2874       -9999      -9999      -9999      10.0088    22.2908    27.3143    8.9934     -9999      -9999     
2874.2     -9999      -9999      -9999      10.0088    22.3171    25.9789    5.8236     -9999      -9999     
2874.4     -9999      -9999      -9999      10.0088    22.3566    24.2246    4.8425     -9999      -9999     
2874.6     -9999      -9999      -9999      10.0088    22.4355    22.3133    5.6305     -9999      -9999     
