~Version
 VERS              .         2.0                           : CWLS LOG ASCII STANDARD - VERSION 2.0
 WRAP              .         NO                            : ONE LINE PER DEPTH STEP
 DLM               .         SPACE                         : DELIMITING CHARACTER(SPACE TAB OR COMMA)
~Well Information
#_______________________________________________________________________________
#
#PARAMETER_NAME    .UNIT     VALUE                         : DESCRIPTION
#_______________________________________________________________________________
STRT               .m        2685                          : First reference value
STOP               .m        2885                          : Last reference value
STEP               .m        0.2                           : Step increment
NULL               .         -9999                         : Missing value
COMP               .                                       : Company
WELL               .         306                           : Well name
FLD                .                                       : Field
LOC                .                                       : Location
CNTY               .                                       : County
STAT               .                                       : State
CTRY               .                                       : Country
SRVC               .                                       : Service Company
DATE               .                                       : Date
API                .                                       : API number
EREF               .m        138.34                        : 
Pad                .         3                             : 
X                  .m        219750                        : 
Y                  .m        249950                        : 
group              .         Pad3                          : 
Интер-р            .         Ярышев                        : 
Куст               .         3                             : 
Статус             .         Не проверено                  : 
Тип                .         Разведка                      : 
~Parameter Information Block
#_______________________________________________________________________________
#
#PARAMETER_NAME    .UNIT     VALUE                         : DESCRIPTION
#_______________________________________________________________________________
SET                .         LAS1                          : 
REAL_CREATION_DATE .         Ср апр 11 2012-13_17_10       : 
TLFamily_DEPTH     .         Measured Depth                : 
TLFamily_KS        .         Potential Resistivity         : 
TLFamily_KS1       .         Extra Shallow Resistivity     : 
TLFamily_KS2       .         Shallow Resistivity           : 
TLFamily_KS3       .         Medium Resistivity            : 
TLFamily_KS4       .         Deep Resistivity              : 
TLFamily_KS5       .         Extra Deep Resistivity        : 
TLFamily_LLD       .         Lateral Log Resistivity       : 
TLFamily_OKS3      .         Medium Resistivity Inverted   : 
TLFamily_RM        .         Mud Resistivity               : 
group              .         INI                           : 
~Curve Information
#_______________________________________________________________________________
#
#LOGNAME           .UNIT     LOG_ID                        : DESCRIPTION
#_______________________________________________________________________________
DEPTH              .m                                      : Measured Depth 
KS                 .ohm.m                                  : Potential Resistivity 
KS1                .ohm.m                                  : Extra Shallow Resistivity 
KS2                .ohm.m                                  : Shallow Resistivity 
KS3                .ohm.m                                  : Medium Resistivity 
KS4                .ohm.m                                  : Deep Resistivity 
KS5                .ohm.m                                  : Extra Deep Resistivity 
LLD                .ohm.m                                  : Lateral Log Resistivity 
OKS3               .ohm.m                                  : Medium Resistivity Inverted 
RM                 .ohm.m                                  : Mud Resistivity 
~Ascii
# ...
2845.6     8.3042     1.4448     5.6689     10.1513    12.8139    11.5258    10.4034    20.2885    0.091     
2845.8     8.5999     1.4992     5.7248     10.2419    13.2943    11.8138    13.0493    20.3404    0.081     
2846       8.8649     1.5059     5.7511     10.2387    13.913     12.0887    10.6739    20.4927    0.085     
2846.2     9.0892     1.5399     5.9746     10.5203    14.5579    12.4553    12.3723    20.7812    0.085     
2846.4     9.3712     1.5738     6.3493     10.9153    15.216     12.848     13.1581    20.9822    0.091     
2846.6     9.5785     1.6349     6.6188     11.4074    15.9169    13.1887    14.5063    21.3615    0.081     
2846.8     9.7212     1.6893     6.8554     12.1455    16.8021    13.5288    15.6438    22.3437    0.085     
2847       9.8469     1.7436     7.0986     12.7994    17.4536    14.0263    15.8728    23.3615    0.088     
2847.2     9.9726     1.7673     7.3879     13.3304    18.2434    14.6939    15.6602    23.744     0.088     
2847.4     10.0406    1.8047     7.5785     13.9066    19.3062    15.4794    15.5858    24.1751    0.081     
2847.6     10.0881    1.8047     7.6837     14.7224    20.0663    16.4351    15.2895    24.6257    0.085     
2847.8     10.1255    1.8183     7.8184     15.357     20.8363    17.6395    14.5953    24.9563    0.091     
2848       10.1425    1.8318     7.9466     15.8231    21.7281    19.4855    14.663     25.4944    0.081     
2848.2     10.1697    1.8115     7.9071     16.1922    23.0476    20.5328    14.0489    26.6549    0.085     
2848.4     10.2376    1.7911     7.8677     16.3638    24.2848    21.7503    13.0439    28.0228    0.088     
2848.6     10.5163    1.6146     7.0395     16.0692    25.2786    20.4804    9.8001     29.5464    0.081     
2848.8     11.0192    1.4041     6.5925     14.1915    21.2575    21.6325    8.3995     26.9564    0.085     
2849       11.7735    0.8134     4.1406     11.2843    17.605     23.0595    15.3802    18.4733    0.075     
2849.2     12.0691    0.7115     3.3255     12.152     20.0203    24.133     40.445     17.7472    0.078     
2849.4     11.7123    1.8081     7.986      16.6908    27.299     26.5615    34.0326    21.3647    0.085     
2849.6     11.5628    1.8454     8.7748     20.1224    33.2187    32.6687    34.6299    24.522     0.086     
2849.8     11.6817    1.9065     9.3204     21.8511    35.5057    33.5459    33.2153    23.0503    0.091     
2850       11.9434    2.117      10.5924    21.2231    33.8867    35.418     39.9685    20.0875    0.085     
2850.2     11.9502    1.3701     6.8423     21.0936    33.7485    37.853     209.9574   16.4181    0.075     
2850.4     11.7191    2.2596     9.8989     21.89      36.6673    39.0051    89.5555    14.8492    0.083     
2850.6     11.2332    2.4497     11.2102    25.9497    41.8038    38.9527    51.784     16.0227    0.088     
2850.8     10.8221    2.2901     10.9046    26.5       41.3497    42.0947    15.992     16.0097    0.081     
2851       10.591     2.2053     10.7403    26.5389    40.6949    40.5237    13.3538    15.8346    0.088     
2851.2     10.36      2.1849     10.5825    26.3414    40.2573    39.4109    12.1794    15.8022    0.091     
2851.4     10.0915    2.1917     10.3327    25.2374    40.0467    38.4683    13.1949    15.8865    0.085     
2851.6     9.9114     2.1374     9.9054     24.7065    39.9611    37.9447    13.5391    16.2431    0.081     
2851.8     9.6872     2.117      9.9186     25.4446    41.1984    37.9054    10.5584    17.1507    0.086     
2852       9.3746     2.2392     10.4576    27.6784    44.0217    37.1853    9.8263     17.4165    0.091     
2852.2     9.0552     2.4497     11.414     28.3906    45.5222    36.2951    36.0331    16.9044    0.088     
2852.4     8.8989     2.2868     10.4182    27.3417    44.5219    34.2005    16.5488    16.3014    0.081     
2852.6     8.729      2.0899     9.5373     24.4151    40.1092    31.9487    11.01      16.0875    0.085     
2852.8     8.5319     1.9608     8.926      21.7087    37.5458    29.0554    7.0259     16.3922    0.088     
2853       8.4504     1.8726     8.4067     20.2584    36.1441    26.4568    7.2085     16.7488    0.081     
2853.2     8.4164     1.8115     8.0781     19.0282    33.7683    24.4472    7.8622     17.1572    0.085     
2853.4     8.396      1.7639     7.6902     17.8465    31.1753    23.0726    7.9943     17.2609    0.088     
2853.6     8.3892     1.7775     7.5193     17.0728    29.7143    21.8681    9.411      17.1507    0.085     
2853.8     8.4096     1.7606     7.2498     16.2246    28.3684    20.2775    7.81       17.1053    0.081     
2854       8.4504     1.6961     6.954      15.1174    25.634     18.8309    6.5859     17.3873    0.085     
2854.2     8.6542     1.5738     6.5465     13.5311    23.5083    17.8359    6.4555     17.5073    0.085     
2854.4     8.9668     1.3498     5.8201     12.8253    22.1197    16.9195    4.7581     17.1507    0.085     
2854.6     9.3338     1.5399     6.323      12.7865    21.4319    16.0685    21.2968    16.2269    0.085     
2854.8     9.6736     1.567      6.3098     12.7768    20.9021    16.0293    12.7281    15.303     0.085     
2855       10.0338    1.5195     6.0765     12.6181    20.3757    16.3173    9.7114     14.8427    0.081     
2855.2     10.2784    1.6485     6.5662     13.0261    20.6784    16.5791    15.132     14.0842    0.085     
2855.4     10.3939    1.8454     7.4207     13.9519    22.2579    17.8097    45.1795    12.4602    0.088     
2855.6     10.326     2.0627     8.3607     15.7357    23.9558    19.0927    147.8438   11.0307    0.081     
2855.8     9.8911     2.3479     9.8693     17.6426    26.0025    20.6899    305.7688   9.948      0.085     
2856       9.2726     2.762      11.4699    19.6756    28.76      22.0711    382.0663   8.995      0.088     
2856.2     8.4707     3.0472     12.824     22.0065    31.2938    22.8238    128.7301   7.9674     0.086     
2856.4     7.8353     3.1422     13.2874    22.1037    30.5304    23.0988    29.9489    8.0614     0.085     
2856.6     7.3358     2.28       9.7214     20.09      28.148     23.0857    3.4696     9.008      0.085     
2856.8     7.1388     1.6961     8.1635     18.1864    26.4138    22.7191    3.4696     9.9383     0.085     
2857       7.0844     1.7028     7.9926     17.7203    26.7594    23.2297    3.9601     10.2333    0.085     
2857.2     7.0742     1.7436     7.7691     18.167     27.8584    25.0887    10.3374    10.0258    0.085     
2857.4     6.9621     1.8183     7.6442     18.7044    29.5366    27.6939    8.9617     9.9351     0.088     
2857.6     6.7922     1.9337     7.9006     19.7177    32.3698    28.6496    10.4815    9.7859     0.083     
2857.8     6.5849     2.0559     8.5448     20.2648    33.505     29.3827    12.7737    9.2803     0.085     
2858       6.2893     2.0253     8.4659     19.9281    33.1562    31.0585    13.0072    8.7292     0.088     
2858.2     5.9223     2.1102     8.7288     19.5785    32.8996    31.8178    9.1627     8.2657     0.081     
2858.4     5.4126     2.3207     9.5308     19.9281    33.9986    30.6264    10.0726    7.841      0.086     
2858.6     4.8996     2.5108     10.1355    18.8792    32.5705    28.7282    7.8515     7.5363     0.091     
2858.8     4.5428     2.1577     8.249      16.3088    28.0953    26.0182    4.0645     7.3872     0.081     
2859       4.4069     1.5263     6.5268     13.3045    20.6981    21.1088    2.6771     7.8216     0.085     
2859.2     4.3661     1.3226     5.6591     11.0707    17.6971    17.8359    2.3599     8.7033     0.085     
2859.4     4.4069     1.3023     5.5309     10.6822    16.9403    16.0816    3.0286     8.8783     0.085     
2859.6     4.5088     1.5025     5.7248     10.7987    16.5388    14.9754    10.2197    8.3143     0.081     
2859.8     4.4408     1.6757     5.7708     10.9509    15.8347    14.0655    8.5009     7.4488     0.086     
2860       4.2947     1.8115     5.9286     10.6045    14.6369    13.0575    7.947      6.9917     0.085     
