~Version
 VERS              .         2.0                           : CWLS LOG ASCII STANDARD - VERSION 2.0
 WRAP              .         NO                            : ONE LINE PER DEPTH STEP
 DLM               .         SPACE                         : DELIMITING CHARACTER(SPACE TAB OR COMMA)
~Well Information
#_______________________________________________________________________________
#
#PARAMETER_NAME    .UNIT     VALUE                         : DESCRIPTION
#_______________________________________________________________________________
STRT               .m        2685                          : First reference value
STOP               .m        2885                          : Last reference value
STEP               .m        0.2                           : Step increment
NULL               .         -9999                         : Missing value
COMP               .                                       : Company
WELL               .         306                           : Well name
FLD                .                                       : Field
LOC                .                                       : Location
CNTY               .                                       : County
STAT               .                                       : State
CTRY               .                                       : Country
SRVC               .                                       : Service Company
DATE               .                                       : Date
API                .                                       : API number
EREF               .m        138.34                        : 
Pad                .         3                             : 
X                  .m        219750                        : 
Y                  .m        249950                        : 
group              .         Pad3                          : 
Интер-р            .         Ярышев                        : 
Куст               .         3                             : 
Статус             .         Не проверено                  : 
Тип                .         Разведка                      : 
~Parameter Information Block
#_______________________________________________________________________________
#
#PARAMETER_NAME    .UNIT     VALUE                         : DESCRIPTION
#_______________________________________________________________________________
SET                .         LAS1                          : 
REAL_CREATION_DATE .         Ср апр 11 2012-13_17_10       : 
TLFamily_DEPTH     .         Measured Depth                : 
TLFamily_KS        .         Potential Resistivity         : 
TLFamily_KS1       .         Extra Shallow Resistivity     : 
TLFamily_KS2       .         Shallow Resistivity           : 
TLFamily_KS3       .         Medium Resistivity            : 
TLFamily_KS4       .         Deep Resistivity              : 
TLFamily_KS5       .         Extra Deep Resistivity        : 
TLFamily_LLD       .         Lateral Log Resistivity       : 
TLFamily_OKS3      .         Medium Resistivity Inverted   : 
TLFamily_RM        .         Mud Resistivity               : 
group              .         INI                           : 
~Curve Information
#_______________________________________________________________________________
#
#LOGNAME           .UNIT     LOG_ID                        : DESCRIPTION
#_______________________________________________________________________________
DEPTH              .m                                      : Measured Depth 
KS                 .ohm.m                                  : Potential Resistivity 
KS1                .ohm.m                                  : Extra Shallow Resistivity 
KS2                .ohm.m                                  : Shallow Resistivity 
KS3                .ohm.m                                  : Medium Resistivity 
KS4                .ohm.m                                  : Deep Resistivity 
KS5                .ohm.m                                  : Extra Deep Resistivity 
LLD                .ohm.m                                  : Lateral Log Resistivity 
OKS3               .ohm.m                                  : Medium Resistivity Inverted 
RM                 .ohm.m                                  : Mud Resistivity 
~Ascii
# ...
2699.6     3.6593     0.96       0.3281     -9999      0          0.3717     -9999      14.0713    0.085     
2699.8     4.0739     1.0714     1.8465     -9999      0          0.3717     -9999      13.1636    0.085     
2700       4.3593     1.2072     2.9903     -9999      0          0.3717     -9999      12.431     0.085     
2700.2     4.5836     1.309      3.7551     -9999      0          0.3717     -9999      11.9578    0.085     
2700.4     4.767      1.3837     4.1538     -9999      0          0.3848     -9999      11.3224    0.085     
2700.6     4.9233     1.438      4.6271     -9999      0          0.3848     -9999      10.8427    0.088     
2700.8     5.0319     1.5059     4.9623     0.3426     0          0.3848     -9999      10.5315    0.088     
2701       5.0661     1.5533     5.2252     2.77       0          0.3848     -9999      10.2851    0.091     
2701.2     5.0796     1.5942     5.4684     4.6866     0          0.3848     -9999      10.149     0.091     
2701.4     5.0253     1.6621     5.7445     5.9824     0          0.3848     -9999      10.0647    0.091     
2701.6     4.9913     1.6621     5.935      6.6678     0          0.3848     -9999      10.0258    0.091     
2701.8     4.9709     1.6282     5.9483     7.3865     0          0.3848     4.1285     10.0128    0.091     
2702       4.9573     1.6078     5.8234     7.7815     0          0.3848     4.1704     10.0453    0.091     
2702.2     4.9505     1.5874     5.7248     8.0275     0          0.3848     4.2168     10.1879    0.091     
2702.4     4.9437     1.5806     5.6328     8.1959     0          0.3848     4.4765     10.3759    0.091     
2702.6     4.9539     1.5535     5.5473     8.2865     0          0.3848     4.4331     10.538     0.091     
2702.8     4.9981     1.5365     5.4553     8.2511     0.2865     0.3848     4.5765     10.6806    0.091     
2703       5.0593     1.5195     5.4224     8.1829     2.3433     0.3848     4.7509     10.8103    0.091     
2703.2     5.1476     1.5127     5.3501     8.0729     3.8899     0.3848     4.999      10.8394    0.091     
2703.4     5.236      1.4924     5.314      8.0988     4.9002     0.3848     5.4635     10.7584    0.091     
2703.6     5.3107     1.5195     5.3633     8.2153     5.476      0.3848     5.6121     10.6287    0.091     
2703.8     5.3651     1.567      5.521      8.2671     6.1933     0.3848     5.4886     10.5056    0.095     
2704       5.4126     1.5874     5.6131     8.2995     6.6803     0.3848     5.4457     10.3565    0.095     
2704.2     5.4502     1.5806     5.6854     8.3254     7.062      0.3848     5.6101     10.1749    0.095     
2704.4     5.467      1.5774     5.738      8.3707     7.3911     0.3848     5.8436     9.9869     0.095     
2704.6     5.5078     1.5942     5.7971     8.4484     7.707      0.3848     5.8175     9.76       0.095     
2704.8     5.5282     1.6078     5.8694     8.5973     8.0317     0.3848     5.7688     9.5752     0.095     
2705       5.5282     1.6214     5.9422     8.8045     8.2729     0.3848     5.7688     9.4812     0.095     
2705.2     5.5282     1.6282     5.9877     9.0182     8.6349     0.3848     5.744      9.4034     0.095     
2705.4     5.5282     1.6282     6.0403     9.2318     8.964      0.3848     5.6475     9.3581     0.098     
2705.6     5.5282     1.6417     6.0732     9.4326     9.3062     0.3848     5.5612     9.3905     0.095     
2705.8     5.5214     1.6383     6.1126     9.7045     9.6221     0.3848     7.0056     9.5201     0.098     
2706       5.4738     1.6553     6.3164     10.1254    9.8722     0.3848     7.7511     9.4553     0.095     
2706.2     5.4058     1.7639     6.5925     10.4434    10.0564    0.3848     6.4096     9.2799     0.098     
2706.4     5.3379     1.7843     6.5661     10.5074    10.0827    0.3848     5.3765     9.1247     0.098     
2706.6     5.2224     1.7707     6.5202     10.4167    10.0433    0.3848     4.9188     8.9885     0.098     
2706.8     5.1136     1.7368     6.4282     10.2678    9.9972     0.3848     4.6171     9.0274     0.095     
2707       5.0321     1.6825     6.3164     10.0412    9.8722     0.3979     4.4902     9.2154     0.095     
2707.2     4.9845     1.6282     6.1455     9.7434     9.6945     1.5107     4.5504     9.4942     0.095     
2707.4     4.9607     1.5806     5.922      9.452      9.5431     2.5056     4.656      9.8054     0.095     
2707.6     4.9437     1.5637     5.7708     9.2447     9.4181     3.2257     4.7462     10.0323    0.095     
2707.8     4.9573     1.5467     5.6459     9.1218     9.2864     3.5137     4.7615     10.162     0.095     
2708       4.9913     1.5331     5.5342     8.947      9.1548     3.9457     4.7951     10.2462    0.095     
2708.2     5.0253     1.5263     5.498      8.8175     9.049      4.2337     4.9448     10.35      0.095     
2708.4     5.0661     1.5195     5.4684     8.7074     8.9903     4.4694     5.0403     10.4472    0.091     
2708.6     5.1204     1.5195     5.429      8.552      8.8916     4.6788     5.3314     10.6028    0.095     
2708.8     5.1545     1.5331     5.4487     8.4225     8.7994     4.8752     5.3248     10.726     0.095     
2709       5.202      1.5229     5.4487     8.3189     8.727      5.0716     5.4156     10.8621    0.095     
2709.2     5.2699     1.5331     5.4882     8.2542     8.6546     5.1501     5.6052     10.9075    0.091     
2709.4     5.3515     1.5399     5.5079     8.238      8.6086     5.3072     5.7125     10.8945    0.095     
2709.6     5.4262     1.5535     5.5376     8.2606     8.6053     5.4251     5.9668     10.8881    0.095     
2709.8     5.4874     1.5806     5.6131     8.3707     8.6283     5.5298     6.0441     10.901     0.095     
2710       5.5214     1.5942     5.7117     8.5067     8.6744     5.5821     6.0441     10.901     0.091     
2710.2     5.5418     1.6146     5.8037     8.6621     8.7797     5.6345     5.8902     10.8945    0.095     
2710.4     5.5418     1.6214     5.9154     8.8045     8.885      5.6738     5.8825     10.9464    0.095     
2710.6     5.5554     1.6248     5.9614     8.934      8.9179     5.7523     5.8697     10.9594    0.095     
2710.8     5.5621     1.6214     5.9483     8.9892     8.9113     5.7851     6.0744     10.9205    0.095     
2711       5.5893     1.6146     5.968      9.07       8.8916     5.8178     6.1975     10.8006    0.095     
2711.2     5.6233     1.601      5.9384     9.1218     8.8521     5.8833     6.197      10.6223    0.091     
2711.4     5.6777     1.601      5.7971     9.2254     8.8981     5.9487     6.0872     10.4018    0.095     
2711.6     5.6913     1.6146     5.9154     9.4326     9.0166     6.0273     6.1596     10.2787    0.095     
2711.8     5.7151     1.6282     6.0535     9.6009     9.2206     6.1058     6.0484     10.2333    0.095     
2712       5.7185     1.6248     6.0798     9.711      9.3325     6.1975     6.1235     10.0647    0.095     
2712.2     5.7185     1.6553     6.0798     9.7887     9.4904     6.276      6.3804     9.9221     0.091     
2712.4     5.7185     1.6553     6.2112     9.8405     9.6813     6.3676     6.5307     9.8054     0.091     
2712.6     5.7185     1.6553     6.3866     9.9246     9.8919     6.42       6.4009     9.7729     0.091     
2712.8     5.6777     1.6621     6.6319     9.9894     10.0337    6.5378     6.736      9.7924     0.088     
2713       5.5961     1.7368     6.507      10.1448    10.3263    6.6033     6.2041     9.8637     0.088     
2713.2     5.5282     1.7639     6.4742     10.4944    10.6816    6.6557     5.667      9.9415     0.088     
2713.4     5.4602     1.7164     6.4413     10.611     10.7211    6.6688     5.3639     10.0193    0.088     
2713.6     5.4161     1.6825     6.3624     10.2937    10.629     6.6426     5.3156     10.1814    0.088     
2713.8     5.3515     1.6723     6.3033     10.1864    10.6092    6.6033     5.2798     10.4278    0.088     
2714       5.2903     1.6553     6.2441     9.9311     10.55      6.5902     5.2685     10.6385    0.088     
