~Version
 VERS              .         2.0                           : CWLS LOG ASCII STANDARD - VERSION 2.0
 WRAP              .         NO                            : ONE LINE PER DEPTH STEP
 DLM               .         SPACE                         : DELIMITING CHARACTER(SPACE TAB OR COMMA)
~Well Information
#_______________________________________________________________________________
#
#PARAMETER_NAME    .UNIT     VALUE                         : DESCRIPTION
#_______________________________________________________________________________
STRT               .m        2685                          : First reference value
STOP               .m        2885                          : Last reference value
STEP               .m        0.2                           : Step increment
NULL               .         -9999                         : Missing value
COMP               .                                       : Company
WELL               .         306                           : Well name
FLD                .                                       : Field
LOC                .                                       : Location
CNTY               .                                       : County
STAT               .                                       : State
CTRY               .                                       : Country
SRVC               .                                       : Service Company
DATE               .                                       : Date
API                .                                       : API number
EREF               .m        138.34                        : 
Pad                .         3                             : 
X                  .m        219750                        : 
Y                  .m        249950                        : 
group              .         Pad3                          : 
Интер-р            .         Ярышев                        : 
Куст               .         3                             : 
Статус             .         Не проверено                  : 
Тип                .         Разведка                      : 
~Parameter Information Block
#_______________________________________________________________________________
#
#PARAMETER_NAME    .UNIT     VALUE                         : DESCRIPTION
#_______________________________________________________________________________
SET                .         LAS3                          : 
REAL_CREATION_DATE .         Ср апр 11 2012-13_17_11       : 
TLFamily_DEPTH     .         Measured Depth                : 
TLFamily_GR        .         Gamma Ray                     : 
TLFamily_TNPH      .         Neutron Porosity              : 
group              .         INI                           : 
~Curve Information
#_______________________________________________________________________________
#
#LOGNAME           .UNIT     LOG_ID                        : DESCRIPTION
#_______________________________________________________________________________
DEPTH              .m                                      : Measured Depth 
GR                 .gAPI                                   :  
TNPH               .v/v                                    : Neutron Porosity 
~Ascii
# ...
2733.6     88.41      0.268     
2733.8     86.70999   0.267     
2734       86.68      0.254     
2734.2     86.3       0.24      
2734.4     81.95      0.248     
2734.6     89.14      0.243     
2734.8     89.03      0.246     
2735       88.7       0.259     
2735.2     87.81      0.25      
2735.4     86.27      0.278     
2735.6     87.06001   0.244     
2735.8     90.96      0.238     
2736       91.05      0.249     
2736.2     88.98      0.266     
2736.4     87.72      0.237     
2736.6     88.46      0.233     
2736.8     88.8       0.238     
2737       91.91      0.27      
2737.2     88.2       0.288     
2737.4     86.92001   0.274     
2737.6     83.39      0.293     
2737.8     85.87      0.263     
2738       89.16      0.272     
2738.2     94.38      0.268     
2738.4     98.56      0.246     
2738.6     94.08      0.249     
2738.8     94.96001   0.282     
2739       93.26      0.257     
2739.2     88.82      0.244     
2739.4     89.79      0.224     
2739.6     91.53      0.235     
2739.8     98.9       0.228     
2740       100.62     0.235     
2740.2     96.91      0.257     
2740.4     97.56      0.264     
2740.6     93.64999   0.243     
2740.8     93.81      0.226     
2741       95.26      0.211     
2741.2     89.79      0.221     
2741.4     91.89999   0.266     
2741.6     91.8       0.232     
2741.8     89.43      0.245     
2742       94.55      0.225     
2742.2     94.79      0.238     
2742.4     89.69      0.225     
2742.6     87.93999   0.209     
2742.8     91.03      0.224     
2743       99.87      0.252     
2743.2     97.49      0.266     
2743.4     97.04001   0.245     
2743.6     97.41      0.249     
2743.8     103.77     0.287     
2744       100.9      0.283     
2744.2     103.63     0.256     
2744.4     105.96     0.263     
2744.6     104.71     0.251     
2744.8     106.23     0.257     
2745       100.02     0.261     
2745.2     94.5       0.276     
2745.4     96.06      0.258     
2745.6     97.72      0.235     
2745.8     97.25      0.228     
2746       93.2       0.222     
2746.2     92.22      0.215     
2746.4     92.51      0.207     
2746.6     89.56001   0.225     
2746.8     75.38      0.226     
2747       66.22      0.2       
2747.2     59.34      0.171     
2747.4     57.51      0.165     
2747.6     48.05      0.164     
2747.8     48.73      0.154     
2748       57.51      0.17      
2748.2     68.87      0.206     
2748.4     73.92999   0.226     
2748.6     79.18999   0.229     
2748.8     80.36      0.233     
2749       78.85001   0.195     
2749.2     68.48      0.186     
2749.4     67.53999   0.192     
2749.6     68.82      0.203     
2749.8     67.39      0.19      
2750       55.11      0.191     
2750.2     51.46      0.176     
2750.4     57.29      0.199     
2750.6     65.62      0.208     
2750.8     70.29      0.196     
2751       81.18      0.221     
2751.2     87.18001   0.231     
2751.4     92.53      0.236     
2751.6     96.14      0.223     
2751.8     94.44      0.262     
2752       93.96      0.22      
2752.2     101.68     0.214     
2752.4     102.66     0.204     
2752.6     108.42     0.205     
2752.8     104.26     0.193     
2753       104.09     0.206     
2753.2     111.73     0.188     
2753.4     103.67     0.174     
2753.6     98.17001   0.186     
2753.8     92.27      0.188     
2754       76.38      0.181     
2754.2     61.07      0.171     
2754.4     56.64      0.145     
2754.6     60.43      0.155     
2754.8     70.88      0.176     
2755       70.77      0.177     
2755.2     73.21      0.169     
2755.4     80.74001   0.184     
2755.6     85.64      0.201     
2755.8     80.97      0.212     
2756       75.74001   0.195     
2756.2     73.55      0.198     
2756.4     71.02      0.186     
2756.6     67.32001   0.195     
2756.8     60.91      0.164     
2757       50.64      0.161     
2757.2     45.82      0.155     
2757.4     46.44      0.154     
2757.6     47.62      0.157     
2757.8     50.97      0.16      
2758       52.68      0.157     
2758.2     59.76      0.169     
2758.4     66.56      0.193     
2758.6     71.14      0.225     
2758.8     74.56001   0.235     
2759       79.42001   0.233     
2759.2     85.09      0.215     
2759.4     96.89999   0.226     
2759.6     104.09     0.244     
2759.8     99.77      0.241     
2760       92.93999   0.249     
2760.2     85.19      0.216     
2760.4     85.98      0.207     
2760.6     99.5       0.226     
2760.8     98.39      0.239     
2761       76.56999   0.232     
2761.2     61.47      0.194     
2761.4     58.46      0.18      
2761.6     59.64      0.178     
2761.8     60.25      0.203     
2762       64.14      0.216     
2762.2     70.8       0.221     
2762.4     84.09      0.226     
2762.6     86.05      0.219     
2762.8     86.64      0.204     
2763       96.33      0.217     
2763.2     104.24     0.231     
2763.4     107.76     0.262     
2763.6     111.91     0.271     
2763.8     114.19     0.26      
2764       119.4      0.25      
2764.2     115.08     0.232     
2764.4     121.73     0.25      
2764.6     126.64     0.246     
2764.8     127.41     0.238     
2765       113.38     0.25      
2765.2     108.26     0.258     
2765.4     110.65     0.255     
2765.6     116.03     0.252     
2765.8     115.58     0.261     
2766       119.5      0.266     
2766.2     130.93     0.292     
2766.4     142.98     0.296     
2766.6     151.75     0.308     
2766.8     154.36     0.321     
2767       147.43     0.296     
2767.2     138.12     0.298     
2767.4     132.24     0.312     
2767.6     131.77     0.289     
2767.8     118.42     0.236     
2768       106.4      0.225     
2768.2     111.81     0.248     
2768.4     111.12     0.247     
2768.6     109.14     0.252     
2768.8     110.7      0.244     
2769       110.32     0.242     
2769.2     112.36     0.259     
2769.4     127.27     0.25      
2769.6     147.08     0.261     
2769.8     174.89     0.262     
2770       204.18     0.268     
2770.2     210.89     0.288     
2770.4     185.13     0.245     
2770.6     163.08     0.248     
2770.8     170.41     0.261     
2771       170.62     0.275     
2771.2     158.7      0.314     
2771.4     187.5      0.328     
2771.6     223.81     0.313     
2771.8     220.52     0.318     
2772       214.92     0.287     
2772.2     207.7      0.252     
2772.4     205.79     0.283     
2772.6     191.69     0.278     
2772.8     186.58     0.272     
2773       198.57     0.285     
2773.2     208.37     0.285     
2773.4     217.41     0.255     
2773.6     234.48     0.271     
2773.8     236.95     0.281     
2774       243.53     0.277     
2774.2     238.6      0.269     
2774.4     223.77     0.297     
2774.6     211.04     0.321     
2774.8     204.13     0.297     
2775       194.93     0.302     
2775.2     176.52     0.275     
2775.4     164.07     0.231     
2775.6     164.96     0.259     
2775.8     173.05     0.304     
2776       183.82     0.309     
2776.2     195.83     0.324     
2776.4     223.63     0.33      
2776.6     246.1      0.33      
2776.8     250.49     0.33      
2777       268.12     0.342     
2777.2     303.55     0.347     
2777.4     341.64     0.316     
2777.6     342.34     0.295     
2777.8     329.04     0.287     
2778       333.02     0.277     
2778.2     348.46     0.289     
2778.4     356.41     0.313     
2778.6     358.92     0.327     
2778.8     361.15     0.315     
2779       385.45     0.294     
2779.2     385.68     0.322     
2779.4     380.89     0.367     
2779.6     367.55     0.368     
2779.8     346.83     0.301     
2780       336.45     0.302     
2780.2     310.6      0.353     
2780.4     287.33     0.292     
2780.6     295.36     0.271     
2780.8     308.65     0.304     
2781       320.02     0.341     
2781.2     331.11     0.413     
2781.4     343.66     0.381     
2781.6     342.58     0.346     
2781.8     343.14     0.342     
2782       338.08     0.305     
