~Version
 VERS              .         2.0                           : CWLS LOG ASCII STANDARD - VERSION 2.0
 WRAP              .         NO                            : ONE LINE PER DEPTH STEP
 DLM               .         SPACE                         : DELIMITING CHARACTER(SPACE TAB OR COMMA)
~Well Information
#_______________________________________________________________________________
#
#PARAMETER_NAME    .UNIT     VALUE                         : DESCRIPTION
#_______________________________________________________________________________
STRT               .m        2685                          : First reference value
STOP               .m        2885                          : Last reference value
STEP               .m        0.2                           : Step increment
NULL               .         -9999                         : Missing value
COMP               .                                       : Company
WELL               .         306                           : Well name
FLD                .                                       : Field
LOC                .                                       : Location
CNTY               .                                       : County
STAT               .                                       : State
CTRY               .                                       : Country
SRVC               .                                       : Service Company
DATE               .                                       : Date
API                .                                       : API number
EREF               .m        138.34                        : 
Pad                .         3                             : 
X                  .m        219750                        : 
Y                  .m        249950                        : 
group              .         Pad3                          : 
Интер-р            .         Ярышев                        : 
Куст               .         3                             : 
Статус             .         Не проверено                  : 
Тип                .         Разведка                      : 
~Parameter Information Block
#_______________________________________________________________________________
#
#PARAMETER_NAME    .UNIT     VALUE                         : DESCRIPTION
#_______________________________________________________________________________
SET                .         LAS1                          : 
REAL_CREATION_DATE .         Ср апр 11 2012-13_17_10       : 
TLFamily_DEPTH     .         Measured Depth                : 
TLFamily_KS        .         Potential Resistivity         : 
TLFamily_KS1       .         Extra Shallow Resistivity     : 
TLFamily_KS2       .         Shallow Resistivity           : 
TLFamily_KS3       .         Medium Resistivity            : 
TLFamily_KS4       .         Deep Resistivity              : 
TLFamily_KS5       .         Extra Deep Resistivity        : 
TLFamily_LLD       .         Lateral Log Resistivity       : 
TLFamily_OKS3      .         Medium Resistivity Inverted   : 
TLFamily_RM        .         Mud Resistivity               : 
group              .         INI                           : 
~Curve Information
#_______________________________________________________________________________
#
#LOGNAME           .UNIT     LOG_ID                        : DESCRIPTION
#_______________________________________________________________________________
DEPTH              .m                                      : Measured Depth 
KS                 .ohm.m                                  : Potential Resistivity 
KS1                .ohm.m                                  : Extra Shallow Resistivity 
KS2                .ohm.m                                  : Shallow Resistivity 
KS3                .ohm.m                                  : Medium Resistivity 
KS4                .ohm.m                                  : Deep Resistivity 
KS5                .ohm.m                                  : Extra Deep Resistivity 
LLD                .ohm.m                                  : Lateral Log Resistivity 
OKS3               .ohm.m                                  : Medium Resistivity Inverted 
RM                 .ohm.m                                  : Mud Resistivity 
~Ascii
# ...
2714.2     5.236      1.6485     6.1586     9.5685     10.3921    6.5509     5.1942     10.7843    0.088     
2714.4     5.2292     1.6214     6.0897     9.4908     10.2604    6.4986     4.8999     10.914     0.088     
2714.6     5.2699     1.5467     5.8103     9.4196     10.1091    6.4462     4.6347     11.0761    0.088     
2714.8     5.3447     1.4788     5.5473     9.0635     9.9116     6.3807     5.4064     11.3678    0.088     
2715       5.4466     1.4313     5.2975     8.7592     9.6747     6.3415     5.8477     11.6077    0.091     
2715.2     5.5246     1.4245     5.2844     8.6685     9.4444     6.3676     6.4968     11.692     0.088     
2715.4     5.6369     1.4583     5.3896     8.7398     9.5563     6.4331     6.7734     11.6595    0.088     
2715.6     5.7456     1.5127     5.5736     8.8271     9.9577     6.4986     7.0302     11.5429    0.091     
2715.8     5.8272     1.5738     5.7577     8.9793     10.1095    6.564      6.8907     11.4261    0.091     
2716       5.8815     1.6214     5.8658     9.1542     10.2539    6.6688     6.7639     11.2317    0.091     
2716.2     5.9223     1.6485     5.9812     9.2836     10.3855    6.7866     6.6358     11.0177    0.091     
2716.4     5.9223     1.6621     6.0995     9.4714     10.3921    6.852      6.6908     10.8945    0.091     
2716.6     5.9223     1.7164     6.3296     9.6786     10.4184    6.9175     6.4216     10.8427    0.095     
2716.8     5.9155     1.7028     6.3558     9.8016     10.4579    6.9699     6.4245     10.7065    0.091     
2717       5.9223     1.6825     6.3296     9.8599     10.4118    7.0093     6.2665     10.5315    0.091     
2717.2     5.9155     1.6893     6.3493     9.9374     10.4184    7.0353     6.291      10.4635    0.091     
2717.4     5.9155     1.6689     6.323      10.0606    10.4184    7.0746     6.3353     10.3889    0.091     
2717.6     5.8883     1.6757     6.3164     10.2354    10.4809    7.1793     6.4274     10.3889    0.091     
2717.8     5.8408     1.7232     6.4939     10.5009    10.6224    7.271      6.5048     10.4018    0.091     
2718       5.7932     1.7368     6.5728     10.7275    10.7869    7.3626     6.3386     10.324     0.091     
2718.2     5.7694     1.7368     6.5399     10.7858    10.8462    7.4019     5.9932     10.1814    0.091     
2718.4     5.7456     1.7232     6.507      10.7405    10.8527    7.415      5.8252     10.0712    0.091     
2718.6     5.7049     1.7096     6.4019     10.6822    10.8527    7.415      5.6782     10.0258    0.091     
2718.8     5.6709     1.6961     6.369      10.5915    10.8725    7.415      5.5633     10.0325    0.091     
2719       5.6437     1.6893     6.3492     10.5397    10.8988    7.415      5.5704     10.1036    0.091     
2719.2     5.6233     1.6621     6.2835     10.4232    10.9152    7.4281     5.647      10.2268    0.095     
2719.4     5.6165     1.6417     6.1915     10.3067    10.958     7.4673     5.8067     10.3694    0.095     
2719.6     5.6064     1.6553     6.1718     10.3002    11.1028    7.5197     6.1861     10.3889    0.095     
2719.8     5.5961     1.6825     6.2835     10.3455    11.2608    7.5852     6.1087     10.2981    0.095     
2720       5.5825     1.6825     6.2704     10.339     11.3332    7.5718     6.1048     10.243     0.095     
2720.2     5.5282     1.6961     6.3164     10.3455    11.3661    7.5459     5.724      10.2333    0.095     
2720.4     5.4738     1.7232     6.3559     10.3326    11.32      7.4804     5.1648     10.2527    0.098     
2720.6     5.433      1.6893     6.3033     10.2031    11.2081    7.4543     4.9193     10.3953    0.095     
2720.8     5.4194     1.6282     6.1389     9.9441     10.9844    7.4543     5.2371     10.6612    0.095     
2721       5.433      1.5874     5.9943     9.6786     10.7474    7.415      5.3348     10.8751    0.098     
2721.2     5.4808     1.5535     5.8366     9.5038     10.5566    7.3626     5.9772     10.8881    0.098     
2721.4     5.5214     1.5638     5.83       9.452      10.4579    7.3495     6.1085     10.8001    0.098     
2721.6     5.5757     1.5806     5.8366     9.4973     10.4513    7.3364     6.1707     10.726     0.095     
2721.8     5.6165     1.6146     5.9089     9.5297     10.425     7.3495     6.1008     10.6547    0.095     
2722       5.6437     1.6282     5.9388     9.5815     10.3855    7.3495     6.1317     10.538     0.095     
2722.2     5.6709     1.6214     5.9877     9.5491     10.3328    7.3495     5.8383     10.5315    0.095     
2722.4     5.6709     1.6349     5.9943     9.5232     10.2999    7.3364     6.0357     10.5639    0.095     
2722.6     5.6777     1.6485     6.0863     9.5556     10.2999    7.3626     6.4216     10.5185    0.095     
2722.8     5.6777     1.662      6.1981     9.6721     10.3723    7.3757     6.1631     10.5315    0.095     
2723       5.6913     1.6621     6.1784     9.7434     10.4381    7.4281     5.9198     10.6158    0.095     
2723.2     5.6845     1.6553     6.1915     9.7891     10.4447    7.4543     6.3089     10.6093    0.095     
2723.4     5.6369     1.6825     6.2767     9.847      10.4447    7.4543     6.2677     10.6158    0.095     
2723.6     5.6097     1.7028     6.3953     10.0153    10.4153    7.4673     5.7018     10.5834    0.095     
2723.8     5.5961     1.6553     6.2704     10.0736    10.3789    7.4804     5.7913     10.7065    0.091     
2724       5.5723     1.6621     6.1586     9.9959     10.425     7.4673     5.7823     10.8556    0.091     
2724.2     5.5146     1.6722     6.2441     10.0347    10.4974    7.415      5.4675     11.0501    0.095     
2724.4     5.5078     1.6553     6.2112     9.8664     10.3065    7.4281     4.9243     11.2706    0.091     
2724.6     5.535      1.5942     5.9812     9.7373     10.0959    7.3888     5.4059     11.4748    0.095     
2724.8     5.6301     1.5399     5.8358     9.5685     9.9248     7.3495     5.8808     11.6531    0.095     
2725       5.6913     1.5263     5.7511     9.452      9.8392     7.3233     6.0708     11.6595    0.091     
2725.2     5.7864     1.5433     5.7182     9.4002     9.8592     7.2972     6.5423     11.4845    0.091     
2725.4     5.8748     1.5738     5.7642     9.4067     9.9116     7.2841     6.8736     11.2446    0.091     
2725.6     5.9359     1.6078     5.922      9.5232     10.0564    7.2972     6.827      11.1215    0.091     
2725.8     5.9563     1.6553     6.0339     9.6657     10.2604    7.3102     6.6422     11.0048    0.091     
2726       5.9631     1.6621     6.1586     9.7372     10.425     7.3495     6.4501     10.9334    0.091     
2726.2     5.9699     1.6689     6.2507     9.7822     10.5368    7.3888     6.3747     10.901     0.088     
2726.4     5.9631     1.6757     6.3493     9.8858     10.6421    7.415      6.5799     10.8492    0.088     
2726.6     5.9495     1.6825     6.3953     10.0088    10.6979    7.4281     6.3336     10.8135    0.088     
2726.8     5.9291     1.6893     6.3986     10.229     10.7869    7.4673     6.5887     10.8038    0.088     
2727       5.8951     1.7164     6.4873     10.3586    10.9054    7.4935     6.5598     10.7973    0.088     
2727.2     5.8883     1.7062     6.4873     10.5203    10.9975    7.5066     6.2054     10.7714    0.088     
2727.4     5.8612     1.6961     6.4216     10.5851    11.0041    7.5328     5.9067     10.8232    0.088     
2727.6     5.834      1.6825     6.3756     10.5786    10.9909    7.5197     5.7863     10.9336    0.088     
2727.8     5.8272     1.6621     6.3        10.5074    10.958     7.5328     6.0195     10.9918    0.088     
2728       5.8408     1.6417     6.2638     10.4685    10.9349    7.5328     6.0195     10.9788    0.088     
2728.2     5.8476     1.6553     6.2441     10.4362    10.8988    7.559      6.224      10.9464    0.091     
2728.4     5.8612     1.6553     6.2244     10.4232    10.9383    7.5721     6.072      10.927     0.091     
2728.6     5.868      1.6621     6.2244     10.4038    11.0041    7.5983     6.1018     10.8913    0.091     
