~Version
 VERS              .         2.0                           : CWLS LOG ASCII STANDARD - VERSION 2.0
 WRAP              .         NO                            : ONE LINE PER DEPTH STEP
 DLM               .         SPACE                         : DELIMITING CHARACTER(SPACE TAB OR COMMA)
~Well Information
#_______________________________________________________________________________
#
#PARAMETER_NAME    .UNIT     VALUE                         : DESCRIPTION
#_______________________________________________________________________________
STRT               .m        2685                          : First reference value
STOP               .m        2885                          : Last reference value
STEP               .m        0.2                           : Step increment
NULL               .         -9999                         : Missing value
COMP               .                                       : Company
WELL               .         306                           : Well name
FLD                .                                       : Field
LOC                .                                       : Location
CNTY               .                                       : County
STAT               .                                       : State
CTRY               .                                       : Country
SRVC               .                                       : Service Company
DATE               .                                       : Date
API                .                                       : API number
EREF               .m        138.34                        : 
Pad                .         3                             : 
X                  .m        219750                        : 
Y                  .m        249950                        : 
group              .         Pad3                          : 
Интер-р            .         Ярышев                        : 
Куст               .         3                             : 
Статус             .         Не проверено                  : 
Тип                .         Разведка                      : 
~Parameter Information Block
#_______________________________________________________________________________
#
#PARAMETER_NAME    .UNIT     VALUE                         : DESCRIPTION
#_______________________________________________________________________________
SET                .         LAS3                          : 
REAL_CREATION_DATE .         Ср апр 11 2012-13_17_11       : 
TLFamily_DEPTH     .         Measured Depth                : 
TLFamily_GR        .         Gamma Ray                     : 
TLFamily_TNPH      .         Neutron Porosity              : 
group              .         INI                           : 
~Curve Information
#_______________________________________________________________________________
#
#LOGNAME           .UNIT     LOG_ID                        : DESCRIPTION
#_______________________________________________________________________________
DEPTH              .m                                      : Measured Depth 
GR                 .gAPI                                   :  
TNPH               .v/v                                    : Neutron Porosity 
~Ascii
# ...
2782.2     326.63     0.331     
2782.4     301.81     0.351     
2782.6     293.21     0.363     
2782.8     292.83     0.435     
2783       291.53     0.4       
2783.2     285.08     0.372     
2783.4     295.25     0.339     
2783.6     289.31     0.344     
2783.8     267.34     0.377     
2784       240.74     0.361     
2784.2     221.38     0.331     
2784.4     220.87     0.292     
2784.6     222.56     0.3       
2784.8     219.48     0.338     
2785       210.71     0.32      
2785.2     200.44     0.28      
2785.4     204.72     0.271     
2785.6     189.83     0.31      
2785.8     165.21     0.356     
2786       153.63     0.345     
2786.2     143.04     0.315     
2786.4     136.47     0.31      
2786.6     142.11     0.322     
2786.8     143.86     0.272     
2787       153.56     0.281     
2787.2     160.25     0.294     
2787.4     155.43     0.249     
2787.6     161.75     0.305     
2787.8     166.58     0.295     
2788       159.97     0.273     
2788.2     148.35     0.268     
2788.4     123.44     0.285     
2788.6     121.68     0.285     
2788.8     117.67     0.298     
2789       118.19     0.3       
2789.2     112.07     0.286     
2789.4     109.09     0.268     
2789.6     110.04     0.257     
2789.8     116.25     0.305     
2790       111.5      0.328     
2790.2     107.51     0.281     
2790.4     106.13     0.247     
2790.6     116.33     0.257     
2790.8     115.44     0.255     
2791       112.76     0.245     
2791.2     113.62     0.253     
2791.4     119.05     0.281     
2791.6     126.67     0.254     
2791.8     127.97     0.278     
2792       125.49     0.298     
2792.2     119.05     0.289     
2792.4     121.05     0.314     
2792.6     125.52     0.298     
2792.8     130.74     0.281     
2793       130.4      0.28      
2793.2     128.75     0.313     
2793.4     124.6      0.329     
2793.6     119.23     0.369     
2793.8     122.21     0.339     
2794       115.57     0.308     
2794.2     110.4      0.313     
2794.4     121.96     0.323     
2794.6     124.38     0.333     
2794.8     127.88     0.353     
2795       123.76     0.326     
2795.2     102.87     0.291     
2795.4     95.06      0.261     
2795.6     95.89      0.235     
2795.8     102.78     0.274     
2796       109.68     0.309     
2796.2     120.34     0.33      
2796.4     134.54     0.33      
2796.6     144.54     0.335     
2796.8     150.81     0.324     
2797       152.26     0.316     
2797.2     147.21     0.318     
2797.4     131.85     0.298     
2797.6     120.08     0.335     
2797.8     111.04     0.336     
2798       114.45     0.337     
2798.2     121.6      0.319     
2798.4     129.8      0.292     
2798.6     137.66     0.291     
2798.8     153.58     0.304     
2799       179.53     0.316     
2799.2     206.5      0.35      
2799.4     211.2      0.368     
2799.6     203.19     0.406     
2799.8     193.29     0.396     
2800       200.75     0.336     
2800.2     219.67     0.355     
2800.4     235.27     0.437     
2800.6     227.81     0.439     
2800.8     209.79     0.406     
2801       198.19     0.355     
2801.2     204.73     0.337     
2801.4     220.39     0.32      
2801.6     214.4      0.329     
2801.8     159.66     0.289     
2802       129.75     0.294     
2802.2     111.42     0.304     
2802.4     112.75     0.319     
2802.6     116.06     0.331     
2802.8     112.27     0.326     
2803       114.69     0.266     
2803.2     121.37     0.293     
2803.4     118.55     0.316     
2803.6     114.7      0.272     
2803.8     115.67     0.23      
2804       124.92     0.219     
2804.2     131.74     0.211     
2804.4     130.25     0.229     
2804.6     127.92     0.269     
2804.8     127.38     0.282     
2805       128.46     0.306     
2805.2     118.41     0.325     
2805.4     118.55     0.334     
2805.6     127.65     0.323     
2805.8     133.56     0.306     
2806       129.74     0.307     
2806.2     129.82     0.293     
2806.4     130.18     0.263     
2806.6     125.16     0.252     
2806.8     117.27     0.254     
2807       114.07     0.249     
2807.2     115.58     0.242     
2807.4     115.2      0.239     
2807.6     121.22     0.245     
2807.8     123.19     0.256     
2808       126.09     0.27      
2808.2     127.27     0.25      
2808.4     127.84     0.295     
2808.6     130.48     0.315     
2808.8     126.43     0.305     
2809       126.74     0.292     
2809.2     122.94     0.304     
2809.4     120.16     0.278     
2809.6     127.32     0.236     
2809.8     135        0.251     
2810       136.98     0.264     
2810.2     134.51     0.228     
2810.4     122.83     0.228     
2810.6     130.16     0.264     
2810.8     133.88     0.297     
2811       133.92     0.342     
2811.2     132.13     0.279     
2811.4     133.38     0.276     
2811.6     133.1      0.276     
2811.8     132.25     0.278     
2812       122.36     0.293     
2812.2     107.46     0.305     
2812.4     101.26     0.263     
2812.6     118.52     0.239     
2812.8     137.17     0.252     
2813       132.91     0.317     
2813.2     131.6      0.276     
2813.4     129.37     0.272     
2813.6     125.54     0.267     
2813.8     128.86     0.27      
2814       126.21     0.245     
2814.2     124.67     0.264     
2814.4     119.5      0.247     
2814.6     117.46     0.256     
2814.8     121.55     0.289     
2815       121.71     0.301     
2815.2     126.57     0.268     
2815.4     127.49     0.276     
2815.6     123.4      0.298     
2815.8     126.31     0.288     
2816       125.21     0.283     
2816.2     125.98     0.223     
2816.4     126.23     0.235     
2816.6     122.02     0.226     
2816.8     116.89     0.23      
2817       113.36     0.224     
2817.2     114.42     0.241     
2817.4     115.25     0.267     
2817.6     117.67     0.253     
2817.8     110.35     0.214     
2818       119.26     0.215     
2818.2     114.71     0.223     
2818.4     112.92     0.207     
2818.6     105.54     0.195     
2818.8     79.92      0.181     
2819       43.81      0.184     
2819.2     36.13      0.19      
2819.4     36.11      0.201     
2819.6     40.25      0.205     
2819.8     36.41      0.18      
2820       31.43      0.2       
2820.2     32.42      0.193     
2820.4     36.56      0.193     
2820.6     32.55      0.178     
2820.8     33.75      0.19      
2821       33.94      0.154     
2821.2     35.78      0.133     
2821.4     35.39      0.135     
2821.6     34.58      0.129     
2821.8     34.64      0.136     
2822       36.92      0.141     
2822.2     36.46      0.169     
2822.4     40.21      0.174     
2822.6     40.35      0.189     
2822.8     41.1       0.17      
2823       42.7       0.174     
2823.2     40.23      0.156     
2823.4     41.41      0.152     
2823.6     46.89      0.156     
2823.8     49.9       0.174     
2824       56.32      0.186     
2824.2     63.34      0.166     
2824.4     63.84      0.164     
2824.6     58.21      0.183     
2824.8     51.27      0.184     
2825       45.34      0.164     
2825.2     40.51      0.141     
2825.4     38.26      0.128     
2825.6     36.61      0.123     
2825.8     36.87      0.13      
2826       39.09      0.117     
2826.2     40.33      0.109     
2826.4     37.77      0.128     
2826.6     36.11      0.158     
2826.8     40.61      0.19      
2827       40.9       0.224     
2827.2     43.5       0.228     
2827.4     45.02      0.216     
2827.6     43.67      0.201     
2827.8     43.57      0.191     
2828       46.07      0.17      
2828.2     46.72      0.174     
2828.4     46.16      0.184     
2828.6     44.4       0.2       
2828.8     45.33      0.186     
2829       44.37      0.173     
2829.2     45.26      0.178     
2829.4     45.36      0.191     
2829.6     41.68      0.179     
2829.8     43.22      0.175     
2830       44.29      0.182     
2830.2     43.04      0.19      
2830.4     42.11      0.199     
2830.6     43.48      0.18      
