~Version
 VERS              .         2.0                           : CWLS LOG ASCII STANDARD - VERSION 2.0
 WRAP              .         NO                            : ONE LINE PER DEPTH STEP
 DLM               .         SPACE                         : DELIMITING CHARACTER(SPACE TAB OR COMMA)
~Well Information
#_______________________________________________________________________________
#
#PARAMETER_NAME    .UNIT     VALUE                         : DESCRIPTION
#_______________________________________________________________________________
STRT               .m        2685                          : First reference value
STOP               .m        2885                          : Last reference value
STEP               .m        0.2                           : Step increment
NULL               .         -9999                         : Missing value
COMP               .                                       : Company
WELL               .         306                           : Well name
FLD                .                                       : Field
LOC                .                                       : Location
CNTY               .                                       : County
STAT               .                                       : State
CTRY               .                                       : Country
SRVC               .                                       : Service Company
DATE               .                                       : Date
API                .                                       : API number
EREF               .m        138.34                        : 
Pad                .         3                             : 
X                  .m        219750                        : 
Y                  .m        249950                        : 
group              .         Pad3                          : 
Интер-р            .         Ярышев                        : 
Куст               .         3                             : 
Статус             .         Не проверено                  : 
Тип                .         Разведка                      : 
~Parameter Information Block
#_______________________________________________________________________________
#
#PARAMETER_NAME    .UNIT     VALUE                         : DESCRIPTION
#_______________________________________________________________________________
SET                .         LAS1                          : 
REAL_CREATION_DATE .         Ср апр 11 2012-13_17_10       : 
TLFamily_DEPTH     .         Measured Depth                : 
TLFamily_KS        .         Potential Resistivity         : 
TLFamily_KS1       .         Extra Shallow Resistivity     : 
TLFamily_KS2       .         Shallow Resistivity           : 
TLFamily_KS3       .         Medium Resistivity            : 
TLFamily_KS4       .         Deep Resistivity              : 
TLFamily_KS5       .         Extra Deep Resistivity        : 
TLFamily_LLD       .         Lateral Log Resistivity       : 
TLFamily_OKS3      .         Medium Resistivity Inverted   : 
TLFamily_RM        .         Mud Resistivity               : 
group              .         INI                           : 
~Curve Information
#_______________________________________________________________________________
#
#LOGNAME           .UNIT     LOG_ID                        : DESCRIPTION
#_______________________________________________________________________________
DEPTH              .m                                      : Measured Depth 
KS                 .ohm.m                                  : Potential Resistivity 
KS1                .ohm.m                                  : Extra Shallow Resistivity 
KS2                .ohm.m                                  : Shallow Resistivity 
KS3                .ohm.m                                  : Medium Resistivity 
KS4                .ohm.m                                  : Deep Resistivity 
KS5                .ohm.m                                  : Extra Deep Resistivity 
LLD                .ohm.m                                  : Lateral Log Resistivity 
OKS3               .ohm.m                                  : Medium Resistivity Inverted 
RM                 .ohm.m                                  : Mud Resistivity 
~Ascii
# ...
2787.2     9.7483     1.8183     7.8611     16.4637    23.9031    16.1602    10.9235    23.6986    0.098     
2787.4     9.9182     1.8183     7.8743     16.626     24.4099    16.841     11.0653    24.2626    0.095     
2787.6     10.0949    1.8318     7.9234     16.9627    25.0417    17.561     11.9126    24.4896    0.095     
2787.8     10.2308    1.8997     8.1569     17.5131    25.9236    18.1108    13.5405    24.6062    0.095     
2788       10.3559    1.9541     8.4199     17.9404    26.3683    18.556     14.7486    24.3923    0.095     
2788.2     10.4415    1.9508     8.4462     18.0116    26.4171    18.7392    16.4636    23.9904    0.091     
2788.4     10.557     1.9473     8.5513     18.0634    26.4171    18.9225    16.8883    23.595     0.088     
2788.6     10.6658    2.0016     8.7354     18.18      26.4632    18.8832    15.7604    23.3874    0.088     
2788.8     10.7745    1.988      8.6768     18.1768    26.2526    18.9094    15.0498    23.3096    0.088     
2789       10.89      1.9473     8.5908     17.9987    25.963     18.988     15.0389    23.5106    0.088     
2789.2     11.0056    1.9269     8.479      17.908     25.9429    19.0534    13.0255    23.5301    0.088     
2789.4     11.1143    1.9541     8.6039     18.1735    26.1605    19.1902    12.5816    23.3161    0.088     
2789.6     11.1823    1.9846     8.7222     18.6008    26.6541    19.3938    15.0355    23.0114    0.091     
2789.8     11.2638    2.0016     8.834      19.0282    27.2135    19.7735    16.5027    22.7814    0.091     
2790       11.3114    2.0491     9.0246     19.4624    27.7926    20.2055    17.3085    22.4992    0.091     
2790.2     11.3182    2.0899     9.1955     19.7986    28.3322    20.5982    18.3157    22.2464    0.095     
2790.4     11.3114    2.1238     9.2941     20.2066    28.7074    20.9648    18.7673    22.2205    0.095     
2790.6     11.3114    2.1034     9.3467     20.3425    28.839     21.2921    17.3291    22.415     0.095     
2790.8     11.3386    2.0559     9.1955     20.2454    28.8849    21.4623    15.7134    22.6808    0.091     
2791       11.3555    2.0491     9.1166     20.2195    29.0628    21.7896    13.9523    22.791     0.091     
2791.2     11.3793    2.0491     9.1758     20.4008    29.5366    22.1169    14.8734    22.7682    0.091     
2791.4     11.4133    2.0695     9.2087     20.6209    30.2079    22.5751    15.3615    22.7391    0.095     
2791.6     11.4405    2.0695     9.235      20.7634    30.9055    23.1249    16.4661    22.6289    0.095     
2791.8     11.4473    2.0831     9.2579     20.9382    31.5965    23.6748    16.0653    22.4474    0.098     
2792       11.4677    2.0966     9.3007     21.0612    32.1429    24.2115    16.2302    22.2853    0.098     
2792.2     11.4677    2.0966     9.2941     21.1454    32.5179    24.7614    16.3442    22.1103    0.098     
2792.4     11.4677    2.1034     9.3664     21.1648    33.0312    25.0232    15.7245    21.9806    0.098     
2792.6     11.4949    2.0899     9.2941     21.0612    33.3866    25.5338    15.5165    21.9124    0.095     
2792.8     11.5492    2.0491     9.1758     20.9382    33.6235    26.1229    15.0648    21.7407    0.095     
2793       11.5968    2.0355     9.1725     21.0288    34.1763    26.856     13.8812    21.2675    0.095     
2793.2     11.6104    2.1102     9.3138     21.4562    35.2227    27.7725    14.9099    20.5673    0.091     
2793.4     11.5628    2.2053     9.6688     22.1101    36.279     28.6758    17.9979    19.8542    0.091     
2793.6     11.4745    2.2664     9.9909     22.7188    36.9601    29.0947    22.6736    19.2447    0.088     
2793.8     11.4129    2.2664     10.1618    23.0296    37.6577    29.8933    22.2773    19.0179    0.091     
2794       11.3793    2.2493     10.0895    23.0619    37.7696    30.2599    18.9424    18.966     0.088     
2794.2     11.2774    2.2324     10.0501    22.9713    37.6709    30.9668    14.2794    18.9984    0.088     
2794.4     11.1347    2.2256     10.1881    23.0004    37.8091    31.5821    13.7031    18.9076    0.088     
2794.6     10.9716    2.2528     10.4191    23.4116    38.6186    32.1974    14.1652    18.4019    0.091     
2794.8     10.659     2.3275     10.5562    24.1173    39.5004    32.6556    16.5013    17.6564    0.091     
2795       10.4211    2.4158     10.7534    24.4993    39.6257    32.8913    21.2785    17.0405    0.091     
2795.2     10.2849    2.3071     10.7008    24.0655    39.1253    32.8127    18.2019    16.9562    0.091     
2795.4     10.1357    2.2391     10.1552    22.8094    37.48      32.42      15.0425    17.2616    0.095     
2795.6     10.027     2.0763     9.2678     21.6375    35.5583    31.7654    9.6526     18.0259    0.095     
2795.8     9.9998     1.9744     8.8734     20.9296    34.0907    31.3465    8.4354     18.9725    0.091     
2796       10.0406    1.9473     8.7582     20.608     33.3734    31.281     9.7291     19.6661    0.091     
2796.2     10.0949    1.9676     8.6959     20.3555    33.2089    31.6476    10.6095    19.9449    0.091     
2796.4     10.1289    2.022      8.7485     20.3037    33.2911    32.067     11.142     20.0097    0.095     
2796.6     10.1629    2.0457     8.8143     20.3879    33.5182    32.5116    13.6443    20.0162    0.095     
2796.8     10.1561    2.0899     8.9917     20.4267    33.709     32.9437    14.8172    20.0195    0.098     
2797       10.1221    2.117      9.0378     20.3555    33.7551    33.2186    14.7978    20.094     0.098     
2797.2     10.0406    2.1442     9.179      20.1736    33.5906    33.0877    13.0697    20.1135    0.095     
2797.4     10.0134    2.1238     9.2284     19.6627    32.7416    32.6164    13.0954    20.3858    0.095     
2797.6     10.0202    2.0152     8.8011     18.6332    31.0503    31.9749    13.2638    21.0081    0.091     
2797.8     10.0814    1.8726     8.3344     17.649     29.8349    31.5363    10.7693    22.201     0.091     
2798       10.1425    1.8047     7.9466     17.0728    29.1549    31.1108    8.8691     23.4132    0.088     
2798.2     10.2512    1.8115     8.0123     17.1116    28.6613    30.7443    8.9311     24.0746    0.088     
2798.4     10.4415    1.8522     7.9597     17.1213    28.477     30.6133    9.9751     24.7813    0.088     
2798.6     10.6998    1.7775     7.6112     16.9368    27.9966    30.9014    12.6878    25.475     0.088     
2798.8     10.9444    1.7639     7.5522     16.762     27.6281    31.1239    10.4167    25.9807    0.091     
2799       11.2094    1.8251     7.802      17.0275    28.0032    31.3203    12.724     25.7343    0.091     
2799.2     11.4269    1.8997     8.0255     17.4159    28.1514    31.8309    18.0394    24.8915    0.091     
2799.4     11.556     1.9303     8.2424     17.7397    28.3257    32.132     17.9004    24.2641    0.095     
2799.6     11.7327    1.9608     8.4922     17.9533    28.5165    32.5771    18.2805    23.8348    0.095     
2799.8     11.8958    1.9948     8.5908     18.1251    28.7469    33.0877    15.9938    23.3096    0.091     
2800       12.0453    1.988      8.7288     18.2577    29.1549    33.703     15.7355    22.7586    0.091     
2800.2     12.1744    2.0355     8.9063     18.7951    30.0565    34.279     15.7183    21.9417    0.095     
2800.4     12.2764    2.117      9.3138     19.5656    30.7406    35.0252    16.8228    20.859     0.095     
2800.6     12.307     2.1645     9.511      20.4785    31.7873    35.7577    21.7757    19.6013    0.095     
2800.8     12.3036    2.219      9.9054     21.4497    33.018     36.5569    19.1516    18.5147    0.098     
2801       12.2288    2.3003     10.3064    22.667     34.3803    37.8137    24.6538    17.7796    0.098     
2801.2     12.0249    2.3818     10.8651    24.0234    36.098     39.0967    24.2178    16.6061    0.098     
2801.4     11.7327    2.538      11.3964    24.9849    37.7893    39.8429    22.4457    15.2317    0.098     
2801.6     11.3793    2.5991     11.7657    26.1245    38.5922    40.0262    30.5674    13.9351    0.098     
