~Version
 VERS              .         2.0                           : CWLS LOG ASCII STANDARD - VERSION 2.0
 WRAP              .         NO                            : ONE LINE PER DEPTH STEP
 DLM               .         SPACE                         : DELIMITING CHARACTER(SPACE TAB OR COMMA)
~Well Information
#_______________________________________________________________________________
#
#PARAMETER_NAME    .UNIT     VALUE                         : DESCRIPTION
#_______________________________________________________________________________
STRT               .m        2685                          : First reference value
STOP               .m        2885                          : Last reference value
STEP               .m        0.2                           : Step increment
NULL               .         -9999                         : Missing value
COMP               .                                       : Company
WELL               .         306                           : Well name
FLD                .                                       : Field
LOC                .                                       : Location
CNTY               .                                       : County
STAT               .                                       : State
CTRY               .                                       : Country
SRVC               .                                       : Service Company
DATE               .                                       : Date
API                .                                       : API number
EREF               .m        138.34                        : 
Pad                .         3                             : 
X                  .m        219750                        : 
Y                  .m        249950                        : 
group              .         Pad3                          : 
Интер-р            .         Ярышев                        : 
Куст               .         3                             : 
Статус             .         Не проверено                  : 
Тип                .         Разведка                      : 
~Parameter Information Block
#_______________________________________________________________________________
#
#PARAMETER_NAME    .UNIT     VALUE                         : DESCRIPTION
#_______________________________________________________________________________
SET                .         LAS1                          : 
REAL_CREATION_DATE .         Ср апр 11 2012-13_17_10       : 
TLFamily_DEPTH     .         Measured Depth                : 
TLFamily_KS        .         Potential Resistivity         : 
TLFamily_KS1       .         Extra Shallow Resistivity     : 
TLFamily_KS2       .         Shallow Resistivity           : 
TLFamily_KS3       .         Medium Resistivity            : 
TLFamily_KS4       .         Deep Resistivity              : 
TLFamily_KS5       .         Extra Deep Resistivity        : 
TLFamily_LLD       .         Lateral Log Resistivity       : 
TLFamily_OKS3      .         Medium Resistivity Inverted   : 
TLFamily_RM        .         Mud Resistivity               : 
group              .         INI                           : 
~Curve Information
#_______________________________________________________________________________
#
#LOGNAME           .UNIT     LOG_ID                        : DESCRIPTION
#_______________________________________________________________________________
DEPTH              .m                                      : Measured Depth 
KS                 .ohm.m                                  : Potential Resistivity 
KS1                .ohm.m                                  : Extra Shallow Resistivity 
KS2                .ohm.m                                  : Shallow Resistivity 
KS3                .ohm.m                                  : Medium Resistivity 
KS4                .ohm.m                                  : Deep Resistivity 
KS5                .ohm.m                                  : Extra Deep Resistivity 
LLD                .ohm.m                                  : Lateral Log Resistivity 
OKS3               .ohm.m                                  : Medium Resistivity Inverted 
RM                 .ohm.m                                  : Mud Resistivity 
~Ascii
# ...
2743.4     5.3855     1.6587     6.2047     9.9829     10.5566    7.1401     5.2482     10.7195    0.098     
2743.6     5.3447     1.6689     6.1521     9.8923     10.4776    7.1076     5.3023     11.1798    0.098     
2743.8     5.3243     1.6282     6.0469     9.8213     10.3592    7.0877     5.2963     11.6466    0.098     
2744       5.3311     1.6146     6.0009     9.711      10.2275    7.0222     5.5231     12.0874    0.098     
2744.2     5.3447     1.6146     5.968      9.575      10.0498    6.9437     5.4012     12.5801    0.098     
2744.4     5.3718     1.5874     5.83       9.3484     9.8789     6.852      5.0398     13.196     0.098     
2744.6     5.4058     1.5399     5.6459     9.0182     9.6155     6.7994     4.8285     14.0259    0.095     
2744.8     5.4942     1.5059     5.4816     8.6944     9.3128     6.7473     4.9924     14.5816    0.095     
2745       5.6369     1.4584     5.337      8.4419     9.0627     6.6949     5.3163     15.3095    0.095     
2745.2     5.8068     1.4516     5.291      8.3221     8.9047     6.6818     5.602      16.0291    0.095     
2745.4     5.9971     1.4516     5.2647     8.2412     8.8521     6.708      6.0743     16.5997    0.095     
2745.6     6.1806     1.472      5.291      8.2153     8.8784     6.7997     6.5273     16.859     0.095     
2745.8     6.3059     1.4924     5.3698     8.2606     8.9112     6.9437     6.6977     16.8525    0.095     
2746       6.5068     1.4822     5.3961     8.3254     8.9705     7.0222     6.7693     16.8363    0.095     
2746.2     6.7446     1.472      5.4947     8.4743     9.1153     7.2186     7.1456     16.7552    0.095     
2746.4     6.9893     1.5127     5.6788     8.6814     9.3391     7.4543     8.5325     16.457     0.095     
2746.6     7.2407     1.5467     5.7771     8.8304     9.576      7.7423     8.3877     16.2755    0.095     
2746.8     7.4921     1.5263     5.8037     9.0635     9.8787     8.0827     8.4796     16.256     0.095     
2747       7.7368     1.5467     5.9154     9.4131     10.346     8.5147     9.7642     16.2171    0.093     
2747.2     7.9478     1.601      6.1718     10.0218    10.7343    9.0776     10.0523    16.0356    0.095     
2747.4     8.0698     1.6555     6.5399     10.9153    11.4516    9.5712     12.4678    15.8953    0.095     
2747.6     8.1445     1.7504     7.2564     12.2167    12.6823    10.0595    16.7341    15.6855    0.095     
2747.8     8.0426     2.0287     8.3804     13.3301    14.2486    10.5046    50.5686    14.8946    0.091     
2748       7.8659     2.2732     9.1325     14.703     15.2818    10.7403    11.7514    13.6304    0.091     
2748.2     7.6485     2.2121     9.0049     15.3893    15.3542    10.6748    8.9722     12.5477    0.091     
2748.4     7.4042     2.0899     8.6697     15.2922    15.1043    10.2951    7.7646     12.1652    0.091     
2748.6     7.2747     1.9987     8.4987     14.9232    14.8014    9.9945     6.4472     12.2041    0.091     
2748.8     7.1048     1.8522     7.8874     14.5606    14.5053    9.6929     6.8206     12.3143    0.088     
2749       6.9893     1.8251     7.848      14.3793    14.4       9.3394     6.937      12.3208    0.088     
2749.2     6.9485     1.7979     7.3593     14.0804    14.3078    8.986      5.7404     12.5023    0.088     
2749.4     6.9825     1.6417     6.9212     13.6153    13.8537    8.8289     5.2221     12.9237    0.088     
2749.6     7.064      1.5535     6.3821     13.0714    13.8011    8.7503     5.6937     13.2155    0.088     
2749.8     7.166      1.5806     6.3953     13.2268    14.1419    8.8158     8.1366     13.2674    0.088     
2750       7.1727     1.7707     6.8357     14.0102    15.1173    8.9591     19.3787    12.7781    0.091     
2750.2     7.1388     1.8969     7.3879     14.6836    16.3809    9.1169     19.3787    12.256     0.091     
2750.4     7.0368     1.988      7.6442     14.7362    17.2167    9.2347     9.2337     11.5882    0.091     
2750.6     6.8805     2.0016     7.539      14.4311    17.2759    9.1693     7.6456     11.5882    0.095     
2750.8     6.7854     1.8454     7.3145     13.6217    16.7297    9.0383     5.5333     12.0291    0.091     
2751       6.7446     1.6961     6.9606     12.9225    16.5059    8.9074     6.2157     12.3662    0.091     
2751.2     6.7378     1.7368     6.9935     12.6829    16.701     8.8681     7.7203     12.5283    0.091     
2751.4     6.7378     1.7538     6.9935     12.793     17.0193    8.9009     7.5016     12.6644    0.091     
2751.6     6.7242     1.7775     6.9737     12.8512    17.3483    8.9991     7.785      12.7786    0.095     
2751.8     6.7038     1.7979     6.9343     12.9807    17.5589    9.0907     7.201      12.9626    0.095     
2752       6.6699     1.8047     7.0198     13.0229    17.6511    9.1823     7.3575     13.1247    0.095     
2752.2     6.6359     1.8115     7.046      13.0908    17.5129    9.2478     7.3016     13.2544    0.095     
2752.4     6.6087     1.7911     6.9935     12.9807    17.1552    9.3133     6.7687     13.2738    0.095     
2752.6     6.6019     1.7639     6.9212     12.5599    16.7823    9.3525     6.5601     13.4554    0.095     
2752.8     6.6155     1.7097     6.6582     12.1649    16.2427    9.3787     6.4665     13.6661    0.091     
2753       6.6427     1.7096     6.7174     11.9253    15.8807    9.4311     6.9755     13.7795    0.091     
2753.2     6.7174     1.7028     6.5991     11.825     15.6043    9.5227     6.8277     13.8638    0.091     
2753.4     6.8058     1.6893     6.5498     11.7052    15.2226    9.6667     6.611      14.0518    0.091     
2753.6     6.9349     1.6485     6.4282     11.5045    14.966     9.8631     6.6319     14.2268    0.091     
2753.8     7.0776     1.6282     6.3164     11.4268    15.0449    10.1249    7.4743     14.3176    0.091     
2754       7.1596     1.7096     6.5202     11.6858    15.2801    10.3659    10.9284    14.2917    0.095     
2754.2     7.2135     1.7981     6.9277     12.1649    15.7359    10.6617    12.2423    14.0745    0.095     
2754.4     7.2203     1.8658     7.3024     12.7412    16.2493    11.0021    13.2486    13.4618    0.095     
2754.6     7.1524     2.0287     7.7625     12.9774    16.3151    11.2508    12.0015    12.9951    0.098     
2754.8     7.0232     1.9744     7.5507     13.1038    15.9465    11.3556    10.5633    12.7746    0.095     
2755       6.9077     1.9541     7.6837     12.8318    15.3082    11.3294    7.607      12.8395    0.098     
2755.2     6.799      1.8658     7.4404     12.6958    14.9166    11.2116    6.7645     13.3257    0.098     
2755.4     6.7684     1.7639     7.2761     12.3656    14.5842    11.3163    5.5596     13.7665    0.102     
2755.6     6.731      1.6961     6.8817     12.3462    14.4       11.3294    6.873      13.7715    0.098     
2755.8     6.7038     1.7639     7.2827     12.657     14.5711    11.3687    7.9965     13.5656    0.098     
2756       6.7446     1.8522     6.9343     12.519     14.3144    11.3948    7.7766     13.4748    0.098     
2756.2     6.8262     1.601      6.3427     12.1131    13.5839    11.5258    4.8222     13.2868    0.095     
2756.4     6.9689     1.5806     6.1521     11.6923    13.3799    11.4865    6.7992     12.9108    0.095     
2756.6     7.1252     1.6485     6.3493     11.7635    13.5115    11.5519    8.0935     12.9302    0.095     
2756.8     7.2339     1.5942     6.2047     11.6728    13.6761    11.6828    6.8892     13.2349    0.095     
2757       7.4174     1.5738     6.1586     11.6923    13.9459    11.9709    6.2667     13.1863    0.095     
2757.2     7.6145     1.6553     6.6911     12.262     14.8014    12.272     10.5502    12.5931    0.095     
2757.4     7.6824     1.8997     7.4076     12.7962    15.9334    12.5731    23.6468    11.6401    0.091     
2757.6     7.5873     2.0559     7.7231     13.5181    16.9008    12.9135    14.0526    10.8232    0.091     
2757.8     7.2883     2.1781     8.2095     14.3728    17.8748    13.0837    13.5033    10.0777    0.091     
