~Version
 VERS              .         2.0                           : CWLS LOG ASCII STANDARD - VERSION 2.0
 WRAP              .         NO                            : ONE LINE PER DEPTH STEP
 DLM               .         SPACE                         : DELIMITING CHARACTER(SPACE TAB OR COMMA)
~Well Information
#_______________________________________________________________________________
#
#PARAMETER_NAME    .UNIT     VALUE                         : DESCRIPTION
#_______________________________________________________________________________
STRT               .m        2685                          : First reference value
STOP               .m        2885                          : Last reference value
STEP               .m        0.2                           : Step increment
NULL               .         -9999                         : Missing value
COMP               .                                       : Company
WELL               .         306                           : Well name
FLD                .                                       : Field
LOC                .                                       : Location
CNTY               .                                       : County
STAT               .                                       : State
CTRY               .                                       : Country
SRVC               .                                       : Service Company
DATE               .                                       : Date
API                .                                       : API number
EREF               .m        138.34                        : 
Pad                .         3                             : 
X                  .m        219750                        : 
Y                  .m        249950                        : 
group              .         Pad3                          : 
Интер-р            .         Ярышев                        : 
Куст               .         3                             : 
Статус             .         Не проверено                  : 
Тип                .         Разведка                      : 
~Parameter Information Block
#_______________________________________________________________________________
#
#PARAMETER_NAME    .UNIT     VALUE                         : DESCRIPTION
#_______________________________________________________________________________
SET                .         LAS1                          : 
REAL_CREATION_DATE .         Ср апр 11 2012-13_17_10       : 
TLFamily_DEPTH     .         Measured Depth                : 
TLFamily_KS        .         Potential Resistivity         : 
TLFamily_KS1       .         Extra Shallow Resistivity     : 
TLFamily_KS2       .         Shallow Resistivity           : 
TLFamily_KS3       .         Medium Resistivity            : 
TLFamily_KS4       .         Deep Resistivity              : 
TLFamily_KS5       .         Extra Deep Resistivity        : 
TLFamily_LLD       .         Lateral Log Resistivity       : 
TLFamily_OKS3      .         Medium Resistivity Inverted   : 
TLFamily_RM        .         Mud Resistivity               : 
group              .         INI                           : 
~Curve Information
#_______________________________________________________________________________
#
#LOGNAME           .UNIT     LOG_ID                        : DESCRIPTION
#_______________________________________________________________________________
DEPTH              .m                                      : Measured Depth 
KS                 .ohm.m                                  : Potential Resistivity 
KS1                .ohm.m                                  : Extra Shallow Resistivity 
KS2                .ohm.m                                  : Shallow Resistivity 
KS3                .ohm.m                                  : Medium Resistivity 
KS4                .ohm.m                                  : Deep Resistivity 
KS5                .ohm.m                                  : Extra Deep Resistivity 
LLD                .ohm.m                                  : Lateral Log Resistivity 
OKS3               .ohm.m                                  : Medium Resistivity Inverted 
RM                 .ohm.m                                  : Mud Resistivity 
~Ascii
# ...
2728.8     5.8815     1.6553     6.2178     10.3714    11.0962    7.6375     6.1319     10.8621    0.091     
2729       5.8815     1.6553     6.2244     10.3552    11.1654    7.6506     6.1776     10.7649    0.091     
2729.2     5.8917     1.6689     6.2572     10.352     11.2871    7.6899     6.3675     10.6482    0.091     
2729.4     5.8883     1.6689     6.2835     10.3844    11.4319    7.7292     6.3157     10.5315    0.091     
2729.6     5.8815     1.6893     6.3493     10.3973    11.524     7.7423     6.3726     10.3855    0.091     
2729.8     5.868      1.6825     6.3361     10.3973    11.5372    7.7946     6.2048     10.3046    0.091     
2730       5.8408     1.6825     6.3361     10.4297    11.5569    7.847      6.0639     10.1879    0.091     
2730.2     5.8272     1.6961     6.3821     10.4621    11.5832    7.8863     6.3091     10.0777    0.091     
2730.4     5.8068     1.6961     6.4019     10.5268    11.603     7.9125     6.2334     9.9091     0.091     
2730.6     5.7796     1.7096     6.4282     10.5592    11.603     7.9256     6.2334     9.7341     0.091     
2730.8     5.7388     1.7096     6.4216     10.5915    11.5898    7.9256     6.1048     9.6301     0.091     
2731       5.6913     1.7096     6.4282     10.6174    11.5635    7.9386     6.0931     9.5007     0.091     
2731.2     5.6573     1.7096     6.4347     10.6174    11.5438    7.9386     5.898      9.3905     0.091     
2731.4     5.6097     1.6994     6.3953     10.5786    11.478     7.9517     5.5253     9.397      0.091     
2731.6     5.5486     1.6825     6.3493     10.5786    11.4845    7.9517     5.5189     9.4359     0.095     
2731.8     5.4806     1.7096     6.4676     10.611     11.4911    7.9386     6.1315     9.4294     0.095     
2732       5.433      1.6961     6.4051     10.5462    11.445     7.9386     5.6119     9.4099     0.095     
2732.2     5.3887     1.6893     6.323      10.4521    11.3792    7.9252     5.3762     9.4034     0.098     
2732.4     5.3379     1.6825     6.2704     10.3779    11.2937    7.8732     5.4072     9.4294     0.098     
2732.6     5.2767     1.6757     6.2244     10.2872    11.2213    7.8339     5.3886     9.5201     0.098     
2732.8     5.2224     1.6689     6.1981     10.1901    11.1357    7.7815     5.1396     9.6424     0.098     
2733       5.1884     1.6553     6.1453     9.9894     10.958     7.703      5.0991     9.747      0.098     
2733.2     5.1884     1.601      5.9614     9.8046     10.7738    7.6637     4.6756     9.9156     0.098     
2733.4     5.1884     1.5603     5.8037     9.5362     10.5434    7.6244     4.8217     10.1101    0.098     
2733.6     5.2224     1.5603     5.7511     9.329      10.3855    7.559      4.9666     10.2527    0.098     
2733.8     5.2699     1.5603     5.6788     9.193      10.2473    7.5721     5.1885     10.3209    0.098     
2734       5.3175     1.5603     5.6557     9.1218     10.188     7.559      5.2773     10.3694    0.095     
2734.2     5.3413     1.5942     5.6788     9.138      10.1946    7.5328     5.9513     10.3565    0.095     
2734.4     5.3583     1.6383     5.8826     9.1671     10.1946    7.5197     5.8773     10.3176    0.095     
2734.6     5.3855     1.6282     5.8431     9.1218     10.063     7.5066     5.5        10.3435    0.095     
2734.8     5.3855     1.6146     5.8366     9.0182     9.938      7.4412     5.2764     10.4667    0.095     
2735       5.3855     1.6078     5.9123     9.0052     9.859      7.3757     5.415      10.5315    0.095     
2735.2     5.3923     1.6146     5.9417     9.0376     9.8096     7.3233     5.5343     10.5541    0.095     
2735.4     5.3923     1.6214     5.9417     9.0441     9.7142     7.3102     5.6029     10.5769    0.095     
2735.6     5.4058     1.6282     5.9614     9.0635     9.5892     7.2448     5.5074     10.6741    0.095     
2735.8     5.399      1.6078     5.9089     9.0959     9.4904     7.1793     5.2091     10.8492    0.095     
2736       5.4262     1.6078     5.8891     9.1088     9.3917     7.1139     5.3132     10.9723    0.095     
2736.2     5.4738     1.5806     5.8337     9.0828     9.306      7.0353     5.4148     10.9983    0.095     
2736.4     5.5079     1.567      5.7905     9.0441     9.1548     7.0091     5.6156     10.8816    0.095     
2736.6     5.5757     1.55       5.6854     8.9923     9.0495     6.9699     5.7634     10.7684    0.091     
2736.8     5.6301     1.5603     5.7642     9.0182     9.0627     6.9306     5.8296     10.7325    0.088     
2737       5.6437     1.5942     5.8826     9.1606     9.1811     6.9306     6.023      10.739     0.088     
2737.2     5.6845     1.6078     5.932      9.2836     9.2602     6.9699     6.0077     10.6806    0.088     
2737.4     5.7117     1.6146     5.968      9.3382     9.3193     6.9895     6.0008     10.6093    0.088     
2737.6     5.7218     1.6146     6.0338     9.4067     9.4181     6.996      5.9853     10.525     0.088     
2737.8     5.732      1.6282     6.0666     9.5167     9.5694     7.0222     6.0952     10.457     0.088     
2738       5.732      1.6349     6.1389     9.6721     9.7734     7.0484     6.2593     10.4148    0.088     
2738.2     5.7252     1.6621     6.2441     9.8599     9.9416     7.0746     6.0993     10.35      0.088     
2738.4     5.6981     1.6689     6.2637     9.9637     10.0498    7.0943     5.9745     10.324     0.088     
2738.6     5.6641     1.6825     6.2967     10.0606    10.1815    7.1139     5.929      10.35      0.088     
2738.8     5.6301     1.6689     6.2967     10.1318    10.267     7.1139     5.6357     10.4602    0.088     
2739       5.6233     1.6485     6.2638     10.1189    10.2999    7.1139     5.5952     10.5315    0.091     
2739.2     5.6233     1.6417     6.1784     10.0995    10.346     7.1139     5.8016     10.5704    0.091     
2739.4     5.6165     1.6417     6.1849     10.1318    10.3949    7.1007     5.9038     10.5704    0.091     
2739.6     5.6097     1.6621     6.2112     10.1772    10.4908    7.0877     5.8964     10.5574    0.091     
2739.8     5.5961     1.6689     6.2047     10.1772    10.5237    7.0484     6.0329     10.4926    0.091     
2740       5.5825     1.6621     6.1851     10.1254    10.4776    6.996      5.6979     10.4472    0.091     
2740.2     5.5621     1.6485     6.1324     10.0218    10.4513    6.9437     5.6332     10.4213    0.091     
2740.4     5.5554     1.6417     6.1126     9.9246     10.4348    6.9043     5.6332     10.4018    0.091     
2740.6     5.5554     1.6316     6.1126     9.8793     10.4513    6.8651     5.5997     10.3694    0.091     
2740.8     5.5418     1.6417     6.1126     9.8275     10.4579    6.8389     5.6467     10.3305    0.095     
2741       5.5418     1.6282     6.0732     9.7887     10.4381    6.8259     5.6944     10.2787    0.091     
2741.2     5.5554     1.6349     6.0732     9.7757     10.4184    6.8128     5.705      10.2268    0.091     
2741.4     5.5689     1.6282     6.06       9.7757     10.4184    6.8128     5.705      10.1684    0.091     
2741.6     5.5757     1.6417     6.0732     9.7757     10.4151    6.8128     5.7924     10.0842    0.091     
2741.8     5.5927     1.6349     6.0666     9.7887     10.4052    6.8259     5.8099     9.9869     0.091     
2742       5.6097     1.6282     6.0535     9.7887     10.4118    6.8782     5.9975     9.9318     0.091     
2742.2     5.6097     1.6485     6.1126     9.847      10.4579    6.9437     6.0598     9.8897     0.091     
2742.4     5.5893     1.6689     6.2047     9.9149     10.5566    7.0222     6.0476     9.8962     0.095     
2742.6     5.5418     1.7028     6.2899     10.0412    10.6751    7.0615     6.0672     9.9675     0.095     
2742.8     5.4874     1.7164     6.369      10.1383    10.7145    7.127      5.7352     10.0906    0.095     
2743       5.4466     1.7028     6.3558     10.1383    10.6619    7.1531     5.4523     10.2592    0.095     
2743.2     5.4228     1.6757     6.277      10.0606    10.6128    7.1531     5.4005     10.4952    0.098     
