~Version
 VERS              .         2.0                           : CWLS LOG ASCII STANDARD - VERSION 2.0
 WRAP              .         NO                            : ONE LINE PER DEPTH STEP
 DLM               .         SPACE                         : DELIMITING CHARACTER(SPACE TAB OR COMMA)
~Well Information
#_______________________________________________________________________________
#
#PARAMETER_NAME    .UNIT     VALUE                         : DESCRIPTION
#_______________________________________________________________________________
STRT               .m        2685                          : First reference value
STOP               .m        2885                          : Last reference value
STEP               .m        0.2                           : Step increment
NULL               .         -9999                         : Missing value
COMP               .                                       : Company
WELL               .         306                           : Well name
FLD                .                                       : Field
LOC                .                                       : Location
CNTY               .                                       : County
STAT               .                                       : State
CTRY               .                                       : Country
SRVC               .                                       : Service Company
DATE               .                                       : Date
API                .                                       : API number
EREF               .m        138.34                        : 
Pad                .         3                             : 
X                  .m        219750                        : 
Y                  .m        249950                        : 
group              .         Pad3                          : 
Интер-р            .         Ярышев                        : 
Куст               .         3                             : 
Статус             .         Не проверено                  : 
Тип                .         Разведка                      : 
~Parameter Information Block
#_______________________________________________________________________________
#
#PARAMETER_NAME    .UNIT     VALUE                         : DESCRIPTION
#_______________________________________________________________________________
SET                .         LAS1                          : 
REAL_CREATION_DATE .         Ср апр 11 2012-13_17_10       : 
TLFamily_DEPTH     .         Measured Depth                : 
TLFamily_KS        .         Potential Resistivity         : 
TLFamily_KS1       .         Extra Shallow Resistivity     : 
TLFamily_KS2       .         Shallow Resistivity           : 
TLFamily_KS3       .         Medium Resistivity            : 
TLFamily_KS4       .         Deep Resistivity              : 
TLFamily_KS5       .         Extra Deep Resistivity        : 
TLFamily_LLD       .         Lateral Log Resistivity       : 
TLFamily_OKS3      .         Medium Resistivity Inverted   : 
TLFamily_RM        .         Mud Resistivity               : 
group              .         INI                           : 
~Curve Information
#_______________________________________________________________________________
#
#LOGNAME           .UNIT     LOG_ID                        : DESCRIPTION
#_______________________________________________________________________________
DEPTH              .m                                      : Measured Depth 
KS                 .ohm.m                                  : Potential Resistivity 
KS1                .ohm.m                                  : Extra Shallow Resistivity 
KS2                .ohm.m                                  : Shallow Resistivity 
KS3                .ohm.m                                  : Medium Resistivity 
KS4                .ohm.m                                  : Deep Resistivity 
KS5                .ohm.m                                  : Extra Deep Resistivity 
LLD                .ohm.m                                  : Lateral Log Resistivity 
OKS3               .ohm.m                                  : Medium Resistivity Inverted 
RM                 .ohm.m                                  : Mud Resistivity 
~Ascii
# ...
2772.6     6.3029     1.8318     7.2321     12.6052    12.3269    8.6063     6.2598     11.4715    0.091     
2772.8     6.2417     1.7572     7.0329     12.4045    12.011     8.3052     5.8781     11.6142    0.091     
2773       6.2213     1.7572     6.9606     12.3138    11.8994    8.0696     5.2626     11.7698    0.091     
2773.2     6.2111     1.7368     6.7765     12.3786    11.9123    7.9779     6.0433     11.8346    0.091     
2773.4     6.2077     1.7708     6.816      12.3268    11.8728    7.8732     5.9333     11.9124    0.095     
2773.6     6.2077     1.73       6.6319     12.1584    11.9452    7.7685     5.9743     12.1069    0.091     
2773.8     6.1942     1.7572     6.7174     12.019     12.0571    7.6637     6.2987     12.3662    0.095     
2774       6.1874     1.7639     6.7272     11.9448    12.2348    7.5459     6.0417     12.5477    0.095     
2774.2     6.201      1.7572     6.724      11.7376    12.3861    7.4412     6.1802     12.6644    0.093     
2774.4     6.1942     1.7572     6.6845     11.5628    12.5007    7.3233     6.1876     12.7682    0.091     
2774.6     6.1874     1.7877     6.7502     11.4333    12.6165    7.2448     6.103      12.8265    0.095     
2774.8     6.1602     1.7979     6.7765     11.3491    12.7349    7.1139     6.3439     12.833     0.095     
2775       6.1398     1.7843     6.7568     11.1484    12.6757    6.983      6.4854     13.008     0.095     
2775.2     6.1398     1.7368     6.6089     10.9897    12.4585    6.8389     6.2208     13.3646    0.095     
2775.4     6.1738     1.6961     6.4939     10.721     12.1756    6.6949     5.9366     13.8638    0.098     
2775.6     6.2553     1.6282     6.2244     10.4103    11.7675    6.6164     5.4386     14.4538    0.098     
2775.8     6.3471     1.601      6.0929     10.1383    11.4804    6.6164     5.5809     15.0294    0.098     
2776       6.4252     1.5772     6.0075     10.0282    11.3727    6.6557     5.4499     15.4521    0.095     
2776.2     6.5475     1.6078     6.1324     10.1513    11.4121    6.7866     6.2096     16.0875    0.095     
2776.4     6.6767     1.6621     6.2967     10.3811    11.603     6.983      6.2807     16.7812    0.095     
2776.6     6.8126     1.6621     6.2868     10.5721    11.8202    7.2186     7.0494     17.4943    0.095     
2776.8     6.9417     1.6689     6.3427     10.7923    12.0571    7.5197     7.1561     18.2075    0.095     
2777       7.0708     1.7232     6.5793     11.116     12.4585    7.7292     6.9041     18.6807    0.091     
2777.2     7.1456     1.7504     6.7765     11.3426    12.6923    7.8863     7.6265     18.7909    0.091     
2777.4     7.2747     1.7504     6.7634     11.3232    12.8139    7.9517     8.1092     18.8266    0.088     
2777.6     7.397      1.7368     6.7634     11.252     12.7152    8.0303     8.6936     18.8882    0.088     
2777.8     7.5601     1.73       6.7371     11.1775    12.5704    8.0172     7.8979     19.2447    0.088     
2778       7.7232     1.6757     6.599      11.1484    12.4585    8.0827     7.8054     19.7828    0.088     
2778.2     7.9203     1.6825     6.6648     11.1808    12.4651    8.2005     6.9372     20.2561    0.088     
2778.4     8.0659     1.6757     6.6845     11.3815    12.5967    8.423      7.0266     20.4636    0.091     
2778.6     8.2601     1.6926     6.7502     11.6405    12.7613    8.6436     7.9159     20.5966    0.091     
2778.8     8.4775     1.7164     6.908      12.003     13.0706    8.8681     8.447      20.5349    0.091     
2779       8.6882     1.7572     7.0723     12.521     13.4786    9.1693     9.7871     20.3793    0.091     
2779.2     8.8581     1.8183     7.2788     12.8773    13.9393    9.5096     11.2026    19.9838    0.095     
2779.4     8.9736     1.893      7.5456     13.4728    14.525     9.8762     11.1993    19.5819    0.095     
2779.6     9.0144     1.9608     7.8809     14.1527    15.1502    10.2559    13.061     19.2836    0.095     
2779.8     9.0246     2.0084     8.2161     14.7095    15.6109    10.5177    13.6173    19.1799    0.095     
2780       9.028      1.9948     8.2818     15.0591    15.8873    10.7272    13.0246    19.1605    0.091     
2780.2     9.0076     1.9948     8.387      15.3829    16.3414    10.7926    11.6069    19.2577    0.091     
2780.4     9.0008     1.9948     8.4593     15.6024    16.7823    10.8319    10.8143    19.4392    0.091     
2780.6     9.0212     1.9541     8.2721     15.7584    17.118     10.8712    10.7433    19.6661    0.091     
2780.8     9.0756     1.9133     8.1701     15.8426    17.4273    10.8974    10.1026    19.7375    0.095     
2781       9.1163     1.9133     8.1504     16.0498    17.9406    10.8974    9.505      19.7504    0.098     
2781.2     9.1502     1.9269     8.1635     16.3282    18.2995    10.9235    10.7928    19.7245    0.098     
2781.4     9.1911     1.937      8.1898     16.5354    18.8225    10.9825    10.8587    19.6921    0.098     
2781.6     9.2387     1.9337     8.1569     16.6519    19.3358    11.0545    11.1271    19.7181    0.098     
2781.8     9.293      1.9201     8.1898     16.7166    19.8623    11.1985    11.2273    19.718     0.095     
2782       9.3474     1.9405     8.265      16.7944    20.4744    11.3948    10.6044    19.7375    0.095     
2782.2     9.3678     1.9608     8.3081     17.008     21.2115    11.6043    11.796     19.7764    0.095     
2782.4     9.3643     2.0016     8.4725     17.2541    21.7002    11.853     12.0544    19.6921    0.095     
2782.6     9.3746     1.9913     8.5645     17.4742    22.3566    12.1018    11.8131    19.6143    0.091     
2782.8     9.3814     2.0016     8.5645     17.6361    23.0015    12.2327    12.6264    19.6725    0.091     
2783       9.3542     2.0016     8.6631     17.8174    23.6267    12.5338    11.8148    19.8412    0.091     
2783.2     9.3202     2.022      8.7386     17.9627    24.2322    12.7302    11.4082    19.8736    0.088     
2783.4     9.293      2.0152     8.742      18.1217    24.7258    12.8742    11.71      19.7893    0.088     
2783.6     9.259      2.0423     8.8143     18.2382    24.9232    12.8742    12.4286    19.7245    0.088     
2783.8     9.2455     2.0152     8.7485     18.1282    24.7819    12.848     11.9467    19.4328    0.091     
2784       9.2523     1.9405     8.479      17.7397    24.4099    12.8873    11.9797    19.0567    0.091     
2784.2     9.2387     1.9168     8.3081     17.5649    24.0808    12.9135    11.8815    18.9723    0.091     
2784.4     9.1775     1.9473     8.4725     17.7521    24.3178    13.0051    11.2354    19.1216    0.091     
2784.6     9.1231     1.9744     8.5973     17.908     24.6205    13.1491    11.4943    19.6986    0.095     
2784.8     9.1231     1.9405     8.4449     17.798     24.3704    13.424     11.4682    20.2042    0.091     
2785       9.1639     1.859      8.1964     17.39      24.015     13.7513    10.4892    20.684     0.093     
2785.2     9.1707     1.8726     8.0912     17.39      24.159     13.9608    10.1057    21.1637    0.091     
2785.4     9.1775     1.9541     8.433      17.7267    24.6402    14.1377    9.7629     21.436     0.091     
2785.6     9.2251     1.9473     8.3081     17.7462    24.8245    14.4059    10.7434    21.2566    0.091     
2785.8     9.2862     1.9133     8.1504     17.4418    24.4625    14.6808    13.8194    20.8525    0.091     
2786       9.327      1.8997     8.1372     17.2245    24.1993    14.7725    12.9853    20.6256    0.091     
2786.2     9.3338     1.8862     8.0978     17.1375    24.1532    14.8641    11.9811    21.0341    0.095     
2786.4     9.361      1.893      8.1438     16.9692    24.0545    15.0081    11.7721    21.6629    0.095     
2786.6     9.4357     1.8658     8.1109     16.7231    23.9755    15.1707    11.2867    22.0908    0.095     
2786.8     9.5205     1.7979     7.8611     16.367     23.6267    15.3878    10.8273    22.5381    0.098     
2787       9.626      1.7877     7.7757     16.2958    23.5017    15.7282    11.0252    22.992     0.098     
