~Version
 VERS              .         2.0                           : CWLS LOG ASCII STANDARD - VERSION 2.0
 WRAP              .         NO                            : ONE LINE PER DEPTH STEP
 DLM               .         SPACE                         : DELIMITING CHARACTER(SPACE TAB OR COMMA)
~Well Information
#_______________________________________________________________________________
#
#PARAMETER_NAME    .UNIT     VALUE                         : DESCRIPTION
#_______________________________________________________________________________
STRT               .m        2685                          : First reference value
STOP               .m        2885                          : Last reference value
STEP               .m        0.2                           : Step increment
NULL               .         -9999                         : Missing value
COMP               .                                       : Company
WELL               .         306                           : Well name
FLD                .                                       : Field
LOC                .                                       : Location
CNTY               .                                       : County
STAT               .                                       : State
CTRY               .                                       : Country
SRVC               .                                       : Service Company
DATE               .                                       : Date
API                .                                       : API number
EREF               .m        138.34                        : 
Pad                .         3                             : 
X                  .m        219750                        : 
Y                  .m        249950                        : 
group              .         Pad3                          : 
Интер-р            .         Ярышев                        : 
Куст               .         3                             : 
Статус             .         Не проверено                  : 
Тип                .         Разведка                      : 
~Parameter Information Block
#_______________________________________________________________________________
#
#PARAMETER_NAME    .UNIT     VALUE                         : DESCRIPTION
#_______________________________________________________________________________
SET                .         LAS1                          : 
REAL_CREATION_DATE .         Ср апр 11 2012-13_17_10       : 
TLFamily_DEPTH     .         Measured Depth                : 
TLFamily_KS        .         Potential Resistivity         : 
TLFamily_KS1       .         Extra Shallow Resistivity     : 
TLFamily_KS2       .         Shallow Resistivity           : 
TLFamily_KS3       .         Medium Resistivity            : 
TLFamily_KS4       .         Deep Resistivity              : 
TLFamily_KS5       .         Extra Deep Resistivity        : 
TLFamily_LLD       .         Lateral Log Resistivity       : 
TLFamily_OKS3      .         Medium Resistivity Inverted   : 
TLFamily_RM        .         Mud Resistivity               : 
group              .         INI                           : 
~Curve Information
#_______________________________________________________________________________
#
#LOGNAME           .UNIT     LOG_ID                        : DESCRIPTION
#_______________________________________________________________________________
DEPTH              .m                                      : Measured Depth 
KS                 .ohm.m                                  : Potential Resistivity 
KS1                .ohm.m                                  : Extra Shallow Resistivity 
KS2                .ohm.m                                  : Shallow Resistivity 
KS3                .ohm.m                                  : Medium Resistivity 
KS4                .ohm.m                                  : Deep Resistivity 
KS5                .ohm.m                                  : Extra Deep Resistivity 
LLD                .ohm.m                                  : Lateral Log Resistivity 
OKS3               .ohm.m                                  : Medium Resistivity Inverted 
RM                 .ohm.m                                  : Mud Resistivity 
~Ascii
# ...
2816.4     4.9098     1.4516     5.1464     7.3026     7.9307     4.5479     5.2028     14.6155    0.088     
2816.6     5.0117     1.438      5.1135     7.2506     7.8188     4.4955     5.7216     15.2836    0.091     
2816.8     5.1544     1.4313     5.1233     7.1729     7.6017     4.4825     5.8875     16.1977    0.088     
2817       5.2971     1.4041     5.0215     7.1535     7.4042     4.4825     5.7183     17.0794    0.085     
2817.2     5.4874     1.4109     5.0938     7.1599     7.2824     4.4825     5.7326     18.0972    0.085     
2817.4     5.6123     1.3837     4.982      7.1988     7.1081     4.4694     5.8103     18.8687    0.081     
2817.6     5.8068     1.4139     5.0938     7.1017     6.8514     4.4563     6.3851     19.5385    0.085     
2817.8     6.1466     1.3294     4.6665     6.7973     6.5092     4.4825     6.984      20.0422    0.085     
2818       6.4932     1.1936     4.443      6.6484     6.3118     4.6003     5.0831     20.8201    0.088     
2818.2     6.833      1.2683     4.6842     6.7973     6.5618     4.8228     6.416      21.0276    0.088     
2818.4     7.1116     1.4245     5.1003     7.4319     7.0049     5.1632     14.6721    21.0146    0.088     
2818.6     7.3019     1.6485     5.6788     8.1506     7.3384     5.4316     14.1907    21.1378    0.09      
2818.8     7.4931     1.5942     5.9417     8.6621     7.7464     5.7392     13.9475    21.2351    0.091     
2819       7.6552     1.5091     5.7577     8.7916     7.9899     6.1189     9.2587     21.2286    0.088     
2819.2     7.9203     1.4788     5.8103     9.0376     8.3453     6.4331     9.2468     21.0795    0.085     
2819.4     8.1853     1.4856     5.9549     9.3236     8.8192     6.7473     11.5749    20.8328    0.081     
2819.6     8.43       1.5059     6.021      9.7952     9.3983     7.0877     13.2104    20.3793    0.085     
2819.8     8.6678     1.5331     6.1192     10.4103    10.0827    7.415      13.4364    19.9125    0.085     
2820       8.8581     1.5874     6.369      11.1549    10.6092    7.7423     13.8741    19.5365    0.085     
2820.2     8.9692     1.6485     6.7042     12.0225    11.3727    7.9386     14.4008    19.0049    0.085     
2820.4     9.1299     1.6689     6.9014     12.8512    12.2743    8.3707     16.1985    18.4969    0.088     
2820.6     9.2794     1.6893     7.0658     13.5117    13.1825    8.8158     14.7949    18.1037    0.088     
2820.8     9.361      1.7164     7.263      14.1163    14.2025    9.2871     14.6603    17.598     0.085     
2821       9.395      1.7639     7.4227     14.6124    15.4003    9.6667     15.2653    17.222     0.081     
2821.2     9.4018     1.8115     7.6771     15.344     16.5586    9.9678     14.9069    16.8006    0.085     
2821.4     9.3814     1.8047     7.7297     15.998     17.3754    10.125     13.691     16.483     0.081     
2821.6     9.3406     1.8658     7.9663     16.4706    18.375     10.2559    15.1602    16.068     0.085     
2821.8     9.2994     1.8454     7.8874     16.7685    19.4345    10.4784    14.8399    15.841     0.085     
2822       9.259      1.8219     7.7691     16.9951    20.4217    10.701     13.1194    15.7504    0.085     
2822.2     9.1435     1.859      8.1241     17.2842    21.7248    10.8974    11.2141    16.0875    0.088     
2822.4     9.0688     1.8794     7.8874     17.5519    22.8962    11.2246    12.6042    16.3987    0.088     
2822.6     9.0008     1.8115     7.9028     17.6555    23.7123    11.4734    10.1349    16.7163    0.085     
2822.8     8.9125     1.8862     8.0715     17.8174    24.6233    11.5519    11.6127    16.9368    0.081     
2823       8.868      1.859      7.9466     17.8303    25.0943    11.7483    13.5862    17.1313    0.081     
2823.2     8.8105     1.8557     7.7954     17.4677    25.3839    11.9709    9.8107     17.3711    0.081     
2823.4     8.7562     1.8115     7.6048     17.0469    25.5089    12.1541    9.3146     17.7342    0.085     
2823.6     8.7494     1.7572     7.3353     16.5159    25.4234    12.416     9.036      18.4214    0.085     
2823.8     8.7901     1.6961     7.2265     15.9817    25.1404    12.7171    8.3201     19.0438    0.085     
2824       8.8921     1.6621     7.0132     15.7001    24.9495    13.1098    8.5785     19.4652    0.086     
2824.2     9.0179     1.6689     6.9014     15.3116    24.9164    13.5157    9.2824     19.4198    0.088     
2824.4     9.1367     1.6485     6.7897     14.9814    24.943     14.0524    9.2579     19.1929    0.085     
2824.6     9.3542     1.6214     6.6648     14.9361    25.2589    14.9165    9.21       19.1996    0.081     
2824.8     9.6124     1.6146     6.862      15.208     26.0486    15.8984    10.216     19.2188    0.081     
2825       9.9182     1.6689     7.0788     15.4655    26.9568    17.0897    14.357     18.5446    0.081     
2825.2     10.2308    1.7368     7.1512     15.9721    27.99      18.3203    21.677     17.2285    0.081     
2825.4     10.4415    1.8726     7.7231     16.5807    29.201     19.6426    25.2121    15.5559    0.081     
2825.6     10.5027    1.9133     7.9137     17.2735    30.2145    20.4281    49.0606    14.4602    0.083     
2825.8     10.4393    2.117      8.5929     18.2317    31.9386    21.3052    88.1737    13.2026    0.085     
2826       10.2852    2.3105     9.5965     19.7015    33.1885    23.0988    97.091     12.514     0.088     
2826.2     9.8571     2.4565     10.7994    21.7799    35.1306    25.56      92.7691    11.5169    0.085     
2826.4     9.1571     2.6873     12.193     23.4383    38.0592    27.1179    47.828     10.6287    0.081     
2826.6     8.3688     3.0336     13.6752    25.1079    39.0463    27.8248    21.3335    9.9415     0.085     
2826.8     7.7232     2.7417     12.7714    24.9331    36.1112    27.6546    9.6482     9.2803     0.085     
2827       7.2067     2.2935     10.898     22.7252    31.9395    26.1753    5.8632     8.7033     0.083     
2827.2     6.8453     2.022      9.6294     20.8217    29.8064    24.5258    5.8055     8.4245     0.085     
2827.4     6.6495     1.8923     8.7091     19.5461    27.1871    23.3082    5.9686     8.2754     0.088     
2827.6     6.4048     1.8183     7.894      18.4519    25.3905    22.13      5.8616     8.2297     0.085     
2827.8     6.1942     1.7707     7.3484     17.5972    23.9031    21.2659    5.8581     8.2041     0.081     
2828       6.0379     1.7028     6.8633     16.9498    22.6856    20.6244    5.7157     8.1781     0.081     
2828.2     5.9087     1.6485     6.6319     15.9267    21.7906    20.0877    5.7294     8.1457     0.081     
2828.4     5.8274     1.6282     6.4084     15.1045    21.4515    19.5509    5.6927     8.1652     0.081     
2828.6     5.766      1.6282     6.2572     14.3275    21.0864    19.3676    5.9529     8.1522     0.081     
2828.8     5.7185     1.6214     6.0798     13.5635    20.7771    19.0534    5.8707     8.1068     0.088     
2829       5.6777     1.6078     6.0009     12.8966    20.5994    18.7523    5.8616     8.0939     0.085     
2829.2     5.6437     1.6146     5.9614     12.435     20.685     18.4643    6.0062     8.0614     0.078     
2829.4     5.6233     1.6282     5.9812     12.152     20.7574    18.1894    6.3002     7.9836     0.085     
2829.6     5.5893     1.6417     5.9812     11.8153    20.5797    17.8883    6.3639     7.8864     0.085     
2829.8     5.5621     1.6689     6.0863     11.4397    20.3066    17.5741    6.3275     7.7114     0.085     
2830       5.521      1.6689     5.9943     11.129     20.0137    17.1813    6.3514     7.5493     0.085     
2830.2     5.4874     1.7268     6.1389     10.9088    19.5333    16.7812    6.4222     7.4092     0.085     
2830.4     5.4262     1.7232     6.1126     10.6633    18.8225    16.422     5.8597     7.3029     0.078     
2830.6     5.3447     1.6757     6.0272     10.4362    17.809     15.8853    5.6917     7.1279     0.081     
2830.8     5.2631     1.6621     5.9604     10.093     16.7823    15.2569    5.3814     7.0306     0.081     
