~Version
 VERS              .         2.0                           : CWLS LOG ASCII STANDARD - VERSION 2.0
 WRAP              .         NO                            : ONE LINE PER DEPTH STEP
 DLM               .         SPACE                         : DELIMITING CHARACTER(SPACE TAB OR COMMA)
~Well Information
#_______________________________________________________________________________
#
#PARAMETER_NAME    .UNIT     VALUE                         : DESCRIPTION
#_______________________________________________________________________________
STRT               .m        2685                          : First reference value
STOP               .m        2885                          : Last reference value
STEP               .m        0.2                           : Step increment
NULL               .         -9999                         : Missing value
COMP               .                                       : Company
WELL               .         306                           : Well name
FLD                .                                       : Field
LOC                .                                       : Location
CNTY               .                                       : County
STAT               .                                       : State
CTRY               .                                       : Country
SRVC               .                                       : Service Company
DATE               .                                       : Date
API                .                                       : API number
EREF               .m        138.34                        : 
Pad                .         3                             : 
X                  .m        219750                        : 
Y                  .m        249950                        : 
group              .         Pad3                          : 
Интер-р            .         Ярышев                        : 
Куст               .         3                             : 
Статус             .         Не проверено                  : 
Тип                .         Разведка                      : 
~Parameter Information Block
#_______________________________________________________________________________
#
#PARAMETER_NAME    .UNIT     VALUE                         : DESCRIPTION
#_______________________________________________________________________________
SET                .         LAS1                          : 
REAL_CREATION_DATE .         Ср апр 11 2012-13_17_10       : 
TLFamily_DEPTH     .         Measured Depth                : 
TLFamily_KS        .         Potential Resistivity         : 
TLFamily_KS1       .         Extra Shallow Resistivity     : 
TLFamily_KS2       .         Shallow Resistivity           : 
TLFamily_KS3       .         Medium Resistivity            : 
TLFamily_KS4       .         Deep Resistivity              : 
TLFamily_KS5       .         Extra Deep Resistivity        : 
TLFamily_LLD       .         Lateral Log Resistivity       : 
TLFamily_OKS3      .         Medium Resistivity Inverted   : 
TLFamily_RM        .         Mud Resistivity               : 
group              .         INI                           : 
~Curve Information
#_______________________________________________________________________________
#
#LOGNAME           .UNIT     LOG_ID                        : DESCRIPTION
#_______________________________________________________________________________
DEPTH              .m                                      : Measured Depth 
KS                 .ohm.m                                  : Potential Resistivity 
KS1                .ohm.m                                  : Extra Shallow Resistivity 
KS2                .ohm.m                                  : Shallow Resistivity 
KS3                .ohm.m                                  : Medium Resistivity 
KS4                .ohm.m                                  : Deep Resistivity 
KS5                .ohm.m                                  : Extra Deep Resistivity 
LLD                .ohm.m                                  : Lateral Log Resistivity 
OKS3               .ohm.m                                  : Medium Resistivity Inverted 
RM                 .ohm.m                                  : Mud Resistivity 
~Ascii
# ...
2758       6.8533     2.3411     9.018      15.3116    18.7289    12.9135    14.2808    9.3905     0.091     
2758.2     6.5937     2.4022     9.6688     15.5577    18.8225    12.6947    13.7202    9.196      0.091     
2758.4     6.2893     2.1903     8.788      14.7678    17.9077    12.4422    4.789      9.4726     0.088     
2758.6     6.0379     1.9133     7.6902     13.6314    16.3414    11.8923    3.8882     10.3176    0.088     
2758.8     5.9291     1.6961     7.0526     13.0261    15.2489    11.3032    3.8315     11.3808    0.088     
2759       5.9359     1.5806     6.5689     12.3592    14.6961    10.989     4.5992     11.854     0.085     
2759.2     6.0379     1.6146     6.3296     12.1131    14.2289    10.9497    5.8019     12.4505    0.09      
2759.4     6.1092     1.5399     5.9089     11.9966    14.1762    10.989     4.9163     13.0404    0.088     
2759.6     6.167      1.5467     5.784      11.8023    14.0841    11.1199    6.2198     13.222     0.091     
2759.8     6.2757     1.6078     6.0338     11.9577    14.479     11.2901    7.2416     13.1312    0.091     
2760       6.2893     1.7164     6.4019     12.0548    14.9133    11.3556    7.7444     12.9756    0.091     
2760.2     6.3165     1.8115     6.6056     11.8654    14.8212    11.3032    8.3095     13.1442    0.095     
2760.4     6.3776     1.6825     6.3493     11.1549    14.2157    11.2508    5.4234     13.0793    0.095     
2760.6     6.466      1.567      5.9483     10.3714    13.857     11.1199    6.2585     12.9886    0.09      
2760.8     6.4932     1.6893     6.3098     10.2549    13.9327    10.9499    6.6593     12.7228    0.095     
2761       6.5136     1.7265     6.4939     10.3714    14.1302    10.8712    7.5639     12.4829    0.091     
2761.2     6.6223     1.6757     6.1981     10.2484    13.8603    10.9366    7.4308     12.2904    0.095     
2761.4     6.6767     1.5874     6.1389     10.1092    13.6431    10.9366    6.1857     12.0745    0.095     
2761.6     6.7378     1.6349     6.3267     10.2678    13.7748    10.989     8.3006     11.679     0.095     
2761.8     6.7582     1.7164     6.4939     10.7987    13.959     11.1461    8.4869     11.2057    0.095     
2762       6.7582     1.7775     6.7502     11.1937    13.9327    11.3948    8.507      10.9594    0.096     
2762.2     6.7616     1.7232     6.6582     11.3361    13.8003    11.6959    6.6843     10.9659    0.098     
2762.4     6.7446     1.6859     6.5991     11.5045    13.7155    11.853     6.5083     10.9497    0.098     
2762.6     6.7446     1.7504     6.9409     12.016     13.8274    12.1541    8.1946     10.7973    0.098     
2762.8     6.7106     1.8047     7.1184     12.4537    14.0841    12.4553    8.4315     10.4148    0.098     
2763       6.5611     1.9201     7.3714     12.9484    14.6106    12.7302    8.6824     9.8119     0.098     
2763.2     6.4048     1.9405     7.4799     13.2138    14.8804    12.7825    8.6326     9.6044     0.095     
2763.4     6.2485     1.9065     7.4667     13.2397    14.9133    12.7302    6.5837     9.6044     0.095     
2763.6     6.1562     1.8522     7.3484     13.1102    14.9857    12.6909    5.8113     9.6563     0.095     
2763.8     6.0582     1.8351     7.2301     12.8836    14.9594    12.5469    5.7937     9.6952     0.095     
2764       5.9563     1.7979     7.0395     12.6117    14.8936    12.4553    5.6736     9.7859     0.095     
2764.2     5.8748     1.7639     6.8817     12.4369    14.8343    12.3636    5.5575     9.9026     0.091     
2764.4     5.7932     1.7572     6.799      12.2685    14.8014    12.272     5.5347     10.0258    0.091     
2764.6     5.7388     1.7572     6.7502     12.1196    14.6895    12.2065    5.5731     10.1101    0.09      
2764.8     5.7117     1.7164     6.5991     11.8865    14.5244    12.1607    5.5678     10.2073    0.088     
2765       5.6845     1.7028     6.4479     11.6081    14.3276    12.0625    5.2729     10.3402    0.088     
2765.2     5.6437     1.7028     6.4676     11.3361    14.1104    11.8923    5.1947     10.35      0.088     
2765.4     5.6301     1.7028     6.3361     11.0318    13.8208    11.7745    5.8479     10.3759    0.088     
2765.6     5.6165     1.6757     6.2704     10.7871    13.426     11.6043    5.1149     10.4148    0.088     
2765.8     5.6029     1.6825     6.2441     10.5009    13.0377    11.3817    5.0561     10.4537    0.091     
2766       5.6097     1.6349     6.0732     10.1966    12.6099    11.2116    5.2583     10.5769    0.091     
2766.2     5.6165     1.6214     6.0272     9.9764     12.4026    11.0414    4.9373     10.7843    0.091     
2766.4     5.6369     1.618      6.0338     9.8987     12.2611    10.9628    5.1204     10.9788    0.091     
2766.6     5.6641     1.6282     6.0338     9.8793     12.1492    10.8057    5.3578     11.0635    0.091     
2766.8     5.7049     1.6417     6.0535     9.8631     12.0044    10.6224    5.4958     11.1344    0.091     
2767       5.7456     1.6553     6.0666     9.834      11.7807    10.4261    5.5885     11.2122    0.091     
2767.2     5.8        1.6417     6.0338     9.7498     11.5043    10.2559    5.5371     11.3224    0.091     
2767.4     5.8476     1.6417     6.0338     9.711      11.241     10.1773    5.4786     11.5364    0.091     
2767.6     5.868      1.6349     6.0666     9.7822     11.2118    10.0464    5.5312     11.7179    0.091     
2767.8     5.8544     1.7059     6.4413     10.0023    11.2542    9.9417     5.6618     11.5337    0.095     
2768       5.8748     1.8047     6.4873     10.1189    11.1621    9.8107     7.0451     11.4197    0.091     
2768.2     5.8544     1.73       6.3098     9.9052     10.754     9.6144     6.6932     11.4197    0.091     
2768.4     5.8204     1.7164     6.336      9.7952     10.3986    9.3133     5.2525     11.666     0.091     
2768.6     5.8204     1.6689     6.2572     9.6851     10.1354    9.0645     5.2707     11.9772    0.095     
2768.8     5.834      1.6349     6.1915     9.5815     9.938      8.9074     5.3889     12.4051    0.095     
2769       5.8579     1.6146     6.0929     9.5167     9.8524     8.8285     5.1827     12.7422    0.095     
2769.2     5.8815     1.601      6.0075     9.4908     9.7866     8.8027     5.2661     13.0145    0.098     
2769.4     5.9563     1.5942     5.922      9.4714     9.7866     8.8943     5.3087     13.1938    0.098     
2769.6     6.0582     1.567      5.8234     9.4843     9.8853     9.1038     5.4388     13.5785    0.095     
2769.8     6.167      1.5467     5.837      9.6074     10.188     9.3525     5.3036     14.1166    0.095     
2770       6.3029     1.5874     5.9483     9.9182     10.6158    9.6013     5.5575     14.3889    0.095     
2770.2     6.4932     1.6146     6.0798     10.1383    10.8527    9.85       6.6428     14.2593    0.095     
2770.4     6.6082     1.6146     6.0666     10.1513    10.9383    9.9875     6.9601     14.0453    0.091     
2770.6     6.7582     1.6348     6.1455     10.216     11.1489    10.1249    6.7767     13.9513    0.095     
2770.8     6.9281     1.6553     6.2112     10.4103    11.5109    10.3737    6.864      13.9805    0.091     
2771       7.03       1.6621     6.5991     10.9318    12.2348    10.5701    7.1244     13.7925    0.091     
2771.2     7.0368     1.9133     7.2726     11.4721    13.0837    10.6617    7.7795     13.008     0.091     
2771.4     6.9961     2.0152     7.6837     12.2167    13.5247    10.6093    12.9097    12.1134    0.088     
2771.6     6.8601     2.0355     7.8283     12.4239    13.469     10.3606    16.5514    11.6595    0.088     
2771.8     6.7305     1.9541     7.7362     12.4563    13.3404    10.0428    8.0342     11.4391    0.088     
2772       6.6291     1.9471     7.7888     12.5146    13.189     9.7322     6.7519     11.3808    0.088     
2772.2     6.5        1.9269     7.7954     12.7153    13.064     9.3002     6.591      11.3289    0.088     
2772.4     6.3776     1.9065     7.5851     12.7412    12.7415    8.9467     6.819      11.3354    0.088     
