~Version
 VERS              .         2.0                           : CWLS LOG ASCII STANDARD - VERSION 2.0
 WRAP              .         NO                            : ONE LINE PER DEPTH STEP
 DLM               .         SPACE                         : DELIMITING CHARACTER(SPACE TAB OR COMMA)
~Well Information
#_______________________________________________________________________________
#
#PARAMETER_NAME    .UNIT     VALUE                         : DESCRIPTION
#_______________________________________________________________________________
STRT               .m        2622                          : First reference value
STOP               .m        2792                          : Last reference value
STEP               .m        0.2                           : Step increment
NULL               .         -9999                         : Missing value
COMP               .                                       : Company
WELL               .         307                           : Well name
FLD                .                                       : Field
LOC                .                                       : Location
CNTY               .                                       : County
STAT               .                                       : State
CTRY               .                                       : Country
SRVC               .                                       : Service Company
DATE               .                                       : Date
API                .                                       : API number
EREF               .m        138.34                        : 
Pad                .         3                             : 
X                  .m        219750                        : 
Y                  .m        249950                        : 
group              .         Pad3                          : 
Интер-р            .         Старостина                    : 
Куст               .         3                             : 
Статус             .         Не проверено                  : 
Тип                .         Разведка                      : 
~Parameter Information Block
#_______________________________________________________________________________
#
#PARAMETER_NAME    .UNIT     VALUE                         : DESCRIPTION
#_______________________________________________________________________________
SET                .         LAS1                          : 
REAL_CREATION_DATE .         Ср апр 11 2012-13_17_11       : 
TLFamily_DEPTH     .         Measured Depth                : 
TLFamily_KS        .         Potential Resistivity         : 
TLFamily_KS1       .         Extra Shallow Resistivity     : 
TLFamily_KS2       .         Shallow Resistivity           : 
TLFamily_KS3       .         Medium Resistivity            : 
TLFamily_KS4       .         Deep Resistivity              : 
TLFamily_KS5       .         Extra Deep Resistivity        : 
TLFamily_LLD       .         Lateral Log Resistivity       : 
TLFamily_OKS3      .         Medium Resistivity Inverted   : 
TLFamily_RM        .         Mud Resistivity               : 
TLFamily_SP        .         Spontaneous Potential         : 
group              .         INI                           : 
~Curve Information
#_______________________________________________________________________________
#
#LOGNAME           .UNIT     LOG_ID                        : DESCRIPTION
#_______________________________________________________________________________
DEPTH              .m                                      : Measured Depth 
KS                 .ohm.m                                  : Potential Resistivity 
KS1                .ohm.m                                  : Extra Shallow Resistivity 
KS2                .ohm.m                                  : Shallow Resistivity 
KS3                .ohm.m                                  : Medium Resistivity 
KS4                .ohm.m                                  : Deep Resistivity 
KS5                .ohm.m                                  : Extra Deep Resistivity 
LLD                .ohm.m                                  : Lateral Log Resistivity 
OKS3               .ohm.m                                  : Medium Resistivity Inverted 
RM                 .ohm.m                                  : Mud Resistivity 
SP                 .mV                                     : Spontaneous Potential 
~Ascii
# ...
2756       7.9455     2.0026     7.1586     13.6458    21.8697    16.7865    8.6136     14.9141    0.347      66.7244   
2756.2     7.9644     2.0436     7.3893     14.6458    24.7908    20.5154    8.5164     15.959     0.349      66.8958   
2756.4     7.9712     2.0301     7.648      16.1643    28.5375    23.4112    9.0174     17.4099    0.356      66.6709   
2756.6     7.8578     2.1527     8.5067     17.6334    30.9381    24.6331    12.8768    18.3841    0.35       66.6397   
2756.8     7.8916     2.2867     8.9271     18.1209    30.4512    25.8871    8.4553     18.1086    0.345      67.4318   
2757       7.8921     2.2198     8.5965     17.4483    28.0733    26.4858    8.2133     16.9597    0.355      68.6106   
2757.2     7.7515     2.2272     8.5841     17.2065    26.5244    25.5614    9.4057     15.968     0.358      69.4324   
2757.4     7.455      2.43       9.3687     17.5021    25.7306    24.2128    12.6933    14.8224    0.346      70.0796   
2757.6     7.137      2.545      9.7084     17.5094    24.3911    22.4528    5.2376     13.682     0.355      71.1933   
2757.8     6.9515     2.445      9.2299     16.1026    21.2363    20.3992    3.6626     13.1446    0.357      72.3864   
2758       6.8414     2.1045     7.7724     13.9703    17.581     18.0707    3.4852     13.7849    0.346      72.743    
2758.2     6.9094     1.7221     6.548      12.1697    14.8674    16.2767    3.7492     15.4547    0.34       72.2811   
2758.4     7.1399     1.6075     6.0851     11.4565    13.6957    15.4376    5.9178     16.4853    0.35       71.1198   
2758.6     7.5095     1.5888     6.1447     11.7992    13.7237    15.5071    12.7636    16.781     0.342      69.309    
2758.8     7.7896     1.796      6.6423     13.0338    14.6148    16.2618    19.269     16.1373    0.343      67.7174   
2759       7.9904     2.0339     7.2309     14.6776    15.7812    17.1242    21.5636    15.2432    0.355      67.1524   
2759.2     7.9132     2.32       8.1364     16.3993    17.0915    17.3679    21.5749    14.3246    0.35       67.2309   
2759.4     7.6646     2.6461     9.5557     17.4429    17.492     17.1678    11.1703    13.4654    0.358      66.9557   
2759.6     7.4083     2.5985     9.4039     17.2129    16.855     16.3386    5.9364     12.4299    0.354      66.1505   
2759.8     7.1611     2.4389     9.1726     15.7232    15.2733    14.8892    5.416      11.5035    0.348      65.5114   
2760       6.9776     2.2134     8.6628     14.7261    14.3896    13.0774    6.1808     10.8322    0.355      65.1241   
2760.2     6.7917     2.1755     8.642      14.0854    13.8991    11.6118    7.3041     10.3156    0.347      64.6157   
2760.4     6.5634     2.2191     8.5295     14.1763    13.8565    10.324     7.0416     9.8841     0.356      64.3696   
2760.6     6.3773     2.2878     8.5844     14.3241    13.5067    9.1411     5.643      9.4903     0.351      64.6008   
2760.8     6.1485     2.2399     8.0291     14.1398    12.8945    7.9996     4.9576     9.2891     0.356      64.5116   
2761       5.9782     2.1251     7.6142     13.6495    12.0941    6.9538     4.5467     9.2663     0.348      63.7054   
2761.2     5.8699     2.0085     7.1115     13.0032    11.2919    6.1373     4.4777     9.5799     0.352      62.9154   
2761.4     5.8144     1.8635     6.6321     12.406     10.7427    5.5275     4.9739     10.0414    0.346      62.7137   
2761.6     5.7239     1.8628     6.6408     12.346     10.6779    4.9937     6.9204     10.1958    0.354      62.6359   
2761.8     5.6494     2.0547     7.0371     12.2178    10.5241    4.6215     4.2838     10.1087    0.349      62.2651   
2762       5.6486     2.033      6.5749     11.5095    9.7698     4.3215     4.0807     10.2738    0.347      62.0738   
2762.2     5.6643     1.8393     5.8522     10.4222    8.8366     4.028      4.3614     10.8035    0.35       62.2112   
2762.4     5.7744     1.7185     5.5593     9.7127     8.4964     3.844      4.9159     11.251     0.341      61.8779   
2762.6     5.9776     1.7002     5.5054     9.4177     8.7112     3.8116     5.3935     11.7278    0.35       60.737    
2762.8     6.1705     1.7137     5.4825     9.3159     9.1602     3.9405     5.7502     12.2066    0.342      59.282    
2763       6.3843     1.7324     5.5099     9.3237     9.8278     4.2205     6.4798     12.7637    0.352      57.9843   
2763.2     6.5549     1.7389     5.6521     9.4964     10.6965    4.4521     8.1891     13.2234    0.346      56.8095   
2763.4     6.6809     1.7991     5.945      9.8833     11.5682    4.6574     8.5809     13.4109    0.352      55.3849   
2763.6     6.8006     1.9512     6.428      10.2001    12.0857    4.8567     7.3015     13.0601    0.347      53.9209   
2763.8     6.9191     2.0028     6.5589     10.2552    11.9832    4.994      6.2846     12.4767    0.356      52.6735   
2764       6.9914     2.0028     6.5448     10.1093    11.6572    5.1024     5.8313     12.1479    0.347      51.3787   
2764.2     7.0523     1.9634     6.5094     9.8039     11.1798    5.229      6.2765     12.1335    0.353      50.2448   
2764.4     7.1383     1.8936     6.3916     9.6236     10.8091    5.3699     6.8066     12.1866    0.344      50.041    
2764.6     7.2317     1.8857     6.4875     9.5946     10.5673    5.5553     7.2314     12.1394    0.347      50.7309   
2764.8     7.3469     1.8946     6.5653     9.8161     10.5168    5.7914     7.348      12.0232    0.353      51.1624   
2765       7.4021     1.986      6.7075     10.1472    10.4975    6.0888     7.5645     11.9728    0.345      50.7292   
2765.2     7.4113     2.0108     6.8392     10.5356    10.5079    6.5048     7.2404     11.9728    0.35       50.2362   
2765.4     7.4113     2.0569     7.0493     10.9224    10.4975    6.8884     6.8646     11.9335    0.351      50.5423   
2765.6     7.3613     2.0788     7.155      11.3151    10.4663    7.2674     6.1636     11.8738    0.347      51.1979   
2765.8     7.3579     2.0809     7.2338     11.4399    10.3754    7.6547     5.299      12.0343    0.357      51.642    
2766       7.3579     1.9665     6.9064     11.2599    10.154     8.1077     6.741      12.4765    0.345      52.3384   
2766.2     7.4035     1.9091     6.5855     10.8905    9.907      8.4743     7.9768     13.0047    0.35       53.7845   
2766.4     7.4589     1.8946     6.6159     10.8794    9.9716     9.0476     7.0045     13.3122    0.35       55.4133   
2766.6     7.4648     1.9606     6.7507     11.0519    10.228     9.877      5.713      13.4136    0.346      56.5385   
2766.8     7.4648     2.0221     6.766      11.2231    10.4848    11.0064    5.3874     13.8375    0.356      57.1971   
2767       7.3681     2.0181     6.7448     11.1094    10.7593    12.5955    5.4705     14.8144    0.348      57.894    
2767.2     7.3129     1.959      6.5617     10.9835    11.1556    14.5085    6.0585     16.4201    0.35       58.9398   
2767.4     7.3258     1.8533     6.4733     10.8979    11.7711    16.7461    6.4227     18.3582    0.35       59.7817   
2767.6     7.3889     1.8153     6.3669     10.9992    12.6979    19.6956    5.6928     20.4259    0.341      60.0737   
2767.8     7.4516     1.8883     6.5185     11.207     13.875     23.4735    6.1004     22.399     0.351      60.1692   
2768       7.6638     1.8075     6.2716     11.2745    15.0928    28.3525    5.467      24.682     0.35       59.9318   
2768.2     7.8606     1.6938     5.8378     11.2553    16.5487    34.0852    6.632      27.5785    0.343      59.4401   
2768.4     8.2486     1.6854     5.8632     11.5569    18.632     40.1185    12.3365    31.5085    0.348      59.4998   
2768.6     8.7453     1.5258     5.5182     12.1576    21.2862    45.3977    28.4757    35.398     0.337      59.6904   
2768.8     9.3929     1.5432     5.8012     12.9995    23.7726    48.8093    20.1303    37.7228    0.342      59.0162   
2769       10.0317    1.6894     6.4411     13.9337    25.0759    49.651     15.9063    37.0185    0.342      58.1537   
2769.2     10.6769    1.9157     7.0559     14.2674    24.8403    48.1254    14.4611    33.6738    0.344      58.0598   
