~Version
 VERS              .         2.0                           : CWLS LOG ASCII STANDARD - VERSION 2.0
 WRAP              .         NO                            : ONE LINE PER DEPTH STEP
 DLM               .         SPACE                         : DELIMITING CHARACTER(SPACE TAB OR COMMA)
~Well Information
#_______________________________________________________________________________
#
#PARAMETER_NAME    .UNIT     VALUE                         : DESCRIPTION
#_______________________________________________________________________________
STRT               .m        2622                          : First reference value
STOP               .m        2792                          : Last reference value
STEP               .m        0.2                           : Step increment
NULL               .         -9999                         : Missing value
COMP               .                                       : Company
WELL               .         307                           : Well name
FLD                .                                       : Field
LOC                .                                       : Location
CNTY               .                                       : County
STAT               .                                       : State
CTRY               .                                       : Country
SRVC               .                                       : Service Company
DATE               .                                       : Date
API                .                                       : API number
EREF               .m        138.34                        : 
Pad                .         3                             : 
X                  .m        219750                        : 
Y                  .m        249950                        : 
group              .         Pad3                          : 
Интер-р            .         Старостина                    : 
Куст               .         3                             : 
Статус             .         Не проверено                  : 
Тип                .         Разведка                      : 
~Parameter Information Block
#_______________________________________________________________________________
#
#PARAMETER_NAME    .UNIT     VALUE                         : DESCRIPTION
#_______________________________________________________________________________
SET                .         LAS1                          : 
REAL_CREATION_DATE .         Ср апр 11 2012-13_17_11       : 
TLFamily_DEPTH     .         Measured Depth                : 
TLFamily_KS        .         Potential Resistivity         : 
TLFamily_KS1       .         Extra Shallow Resistivity     : 
TLFamily_KS2       .         Shallow Resistivity           : 
TLFamily_KS3       .         Medium Resistivity            : 
TLFamily_KS4       .         Deep Resistivity              : 
TLFamily_KS5       .         Extra Deep Resistivity        : 
TLFamily_LLD       .         Lateral Log Resistivity       : 
TLFamily_OKS3      .         Medium Resistivity Inverted   : 
TLFamily_RM        .         Mud Resistivity               : 
TLFamily_SP        .         Spontaneous Potential         : 
group              .         INI                           : 
~Curve Information
#_______________________________________________________________________________
#
#LOGNAME           .UNIT     LOG_ID                        : DESCRIPTION
#_______________________________________________________________________________
DEPTH              .m                                      : Measured Depth 
KS                 .ohm.m                                  : Potential Resistivity 
KS1                .ohm.m                                  : Extra Shallow Resistivity 
KS2                .ohm.m                                  : Shallow Resistivity 
KS3                .ohm.m                                  : Medium Resistivity 
KS4                .ohm.m                                  : Deep Resistivity 
KS5                .ohm.m                                  : Extra Deep Resistivity 
LLD                .ohm.m                                  : Lateral Log Resistivity 
OKS3               .ohm.m                                  : Medium Resistivity Inverted 
RM                 .ohm.m                                  : Mud Resistivity 
SP                 .mV                                     : Spontaneous Potential 
~Ascii
# ...
2729.2     5.0951     1.9487     6.1421     9.8588     10.1863    7.2458     3.9782     7.267      0.343      86.2874   
2729.4     5.0611     1.9046     5.9594     9.5572     9.869      7.2229     3.808      7.109      0.345      86.1008   
2729.6     5.0301     1.8946     5.8583     9.2721     9.6448     7.1073     3.8211     6.9824     0.345      85.9425   
2729.8     5.0076     1.8672     5.7722     9.0281     9.4221     7.0042     3.7155     6.8687     0.344      86.1943   
2730       4.9542     1.8406     5.6887     8.8215     9.3075     6.8889     3.7756     6.8026     0.339      86.3525   
2730.2     4.9542     1.8406     5.679      8.6529     9.1951     6.801      3.6873     6.7263     0.336      86.3213   
2730.4     4.9089     1.8406     5.632      8.4848     9.0842     6.7354     3.5494     6.6805     0.336      86.4551   
2730.6     4.9008     1.8294     5.5732     8.3062     8.8386     6.6383     3.6057     6.4896     0.339      86.4252   
2730.8     4.9008     1.815      5.4306     8.1321     8.6183     6.5386     3.6315     6.2677     0.339      86.2161   
2731       4.9008     1.8406     5.4468     7.9594     8.3864     6.4342     3.5578     6.0546     0.344      86.1131   
2731.2     4.8631     1.8406     5.3326     7.8061     8.1969     6.3622     3.5294     5.9952     0.345      85.7182   
2731.4     4.8047     1.8072     5.3108     7.6925     8.036      6.2702     3.4274     6.0829     0.345      84.7813   
2731.6     4.7502     1.8397     5.3809     7.5768     7.8637     6.2199     3.4087     6.2659     0.344      84.1085   
2731.8     4.7406     1.8011     5.2621     7.4218     7.634      6.2199     3.2984     6.6218     0.339      84.0156   
2732       4.6932     1.7731     5.1405     7.1995     7.3803     6.1808     3.2378     6.8947     0.334      83.9437   
2732.2     4.6385     1.7773     5.1004     7.0715     7.1321     6.1666     3.41       7.1841     0.334      83.7799   
2732.4     4.6013     1.7865     5.1004     6.9576     6.9945     6.1269     3.5108     7.4715     0.34       83.5552   
2732.6     4.4883     1.7865     5.0873     6.8879     6.8846     6.1666     3.3186     7.8999     0.345      83.0339   
2732.8     4.3709     1.7865     5.0041     6.8782     6.8996     6.1666     3.0389     8.4693     0.347      82.1458   
2733       4.268      1.771      5.1087     6.7507     6.756      6.1966     3.0221     9.2258     0.347      81.0735   
2733.2     4.2598     1.6909     4.753      6.4416     6.4913     6.3922     2.7833     10.1946    0.338      80.1251   
2733.4     4.2927     1.5611     4.3196     5.8145     6.0611     6.8228     2.4074     11.6021    0.339      78.9506   
2733.6     4.4533     1.4214     3.873      5.4381     6.0001     7.3295     2.3179     14.0181    0.338      76.6933   
2733.8     4.7458     1.241      3.4656     5.2732     6.2382     8.0236     2.1902     16.0705    0.329      73.8471   
2734       5.1397     1.1569     3.4531     5.3572     6.6667     8.8868     4.2033     17.2628    0.328      71.7817   
2734.2     5.7289     1.3509     3.7981     5.6705     7.0571     9.7198     5.6871     17.3278    0.334      70.5834   
2734.4     6.1697     1.5257     4.0826     5.9852     7.3934     10.5441    6.3976     17.1867    0.343      69.6299   
2734.6     6.5247     1.7006     4.4094     6.259      7.7128     11.7281    6.3192     16.9838    0.341      68.9136   
2734.8     6.7171     1.8264     4.9864     6.706      8.3214     13.2041    6.6909     17.2687    0.345      68.5256   
2735       6.8964     1.9859     5.8333     7.1745     9.1035     14.9049    4.6918     18.592     0.345      68.2582   
2735.2     7.1032     1.7938     5.8231     7.5767     9.9831     16.6099    4.4784     20.1481    0.342      67.8672   
2735.4     7.49       1.7781     6.1718     7.9947     10.6719    18.1582    5.8742     20.4278    0.338      67.0563   
2735.6     7.8502     1.9181     6.855      8.7328     11.2763    19.3328    15.562     19.6137    0.337      65.9886   
2735.8     8.1908     2.2097     7.4404     9.4812     11.5802    20.4987    10.5488    18.8621    0.339      65.211    
2736       8.373      2.119      7.2285     10.1094    11.7377    21.5279    6.0894     19.0891    0.338      64.5633   
2736.2     8.45       2.0992     7.2814     11.0728    12.1388    22.2483    7.1002     20.1739    0.333      63.8139   
2736.4     8.4797     2.1984     8.0851     12.3846    12.7167    22.7076    9.1137     20.9948    0.342      63.5245   
2736.6     8.5726     2.2731     8.7468     13.4867    13.0331    22.5298    9.7991     20.8246    0.356      63.7542   
2736.8     8.5802     2.3095     9.0991     14.1629    12.834     21.4991    10.7414    19.9175    0.354      63.9588   
2737       8.4741     2.4742     9.3902     14.6567    12.3996    19.8359    10.3594    18.356     0.353      64.3823   
2737.2     8.337      2.4773     9.3862     14.8903    11.7991    17.7896    7.8727     16.5464    0.343      65.8063   
2737.4     8.1095     2.4353     9.2606     15.3846    11.3486    15.3811    6.7467     14.7734    0.333      67.9007   
2737.6     7.8713     2.504      9.6013     15.3286    10.5422    13.0951    5.2808     13.5269    0.347      69.6163   
2737.8     7.7955     2.1818     8.1498     14.1584    9.4404     11.0751    3.8538     12.8459    0.354      70.546    
2738       7.7853     1.9103     7.2151     12.8838    8.5095     9.1574     4.7262     12.5093    0.355      71.0822   
2738.2     7.7853     1.8946     7.0236     12.556     8.635      7.5954     7.6107     12.1738    0.349      71.8831   
2738.4     7.7495     2.0901     7.0823     12.6976    9.1167     6.3958     8.0553     11.4635    0.339      72.6628   
2738.6     7.5913     2.1831     6.9971     12.6411    9.1875     5.805      7.0091     11.3481    0.341      72.7349   
2738.8     7.4646     2.1251     6.6401     12.1848    9.0098     5.4168     5.3797     11.6498    0.348      72.3554   
2739       7.3494     1.9684     6.3903     11.8527    9.0206     5.2685     4.6827     12.5305    0.35       71.8454   
2739.2     7.2812     1.8804     6.3895     11.9853    9.6948     5.4284     4.5962     14.1715    0.349      70.9823   
2739.4     7.3007     1.7953     6.3677     12.9361    11.5886    5.8139     4.6338     16.7609    0.343      69.9052   
2739.6     7.4461     1.7383     6.6159     14.3524    14.5855    6.2152     5.1719     18.854     0.335      69.3036   
2739.8     7.6449     1.8138     6.944      15.59      17.0031    6.62       8.3552     19.4731    0.335      68.8125   
2740       7.9396     2.0006     7.2687     15.974     18.3918    6.9244     13.7818    18.7494    0.346      67.585    
2740.2     8.1287     2.0569     7.1414     15.9829    19.4552    7.2067     8.4951     18.1262    0.352      66.3328   
2740.4     8.1592     2.1283     7.4528     16.1486    21.0626    7.6124     10.0768    17.773     0.356      65.5861   
2740.6     8.1137     2.2477     8.0461     16.7602    23.8907    8.1238     10.2717    17.8833    0.353      64.7255   
2740.8     7.9437     2.3291     8.741      17.7519    27.6386    8.3984     8.9593     18.6236    0.335      63.7857   
2741       7.7132     2.4797     9.8339     18.4641    30.1052    8.2571     10.1171    19.0794    0.334      63.4942   
2741.2     7.5772     2.5399     10.0777    17.9613    29.4975    7.9068     6.6812     18.3391    0.347      63.983    
2741.4     7.5217     2.309      8.9835     16.2996    26.2668    7.2265     5.3717     16.512     0.35       64.3496   
2741.6     7.5182     2.1216     8.3404     14.9381    23.151     6.3614     5.8157     14.9961    0.347      64.2367   
2741.8     7.5182     2.1109     8.2005     14.5952    21.0548    5.6472     6.8117     13.957     0.335      64.3241   
2742       7.5182     2.0801     7.9526     14.79      19.3615    5.3205     7.1356     13.2619    0.341      64.8232   
2742.2     7.4924     2.1268     7.9171     15.0227    18.1266    5.1713     8.2373     12.8358    0.35       65.3829   
2742.4     7.2933     2.28       8.2923     15.5368    17.5491    5.0932     9.0967     12.4214    0.35       66.0582   
