~Version
 VERS              .         2.0                           : CWLS LOG ASCII STANDARD - VERSION 2.0
 WRAP              .         NO                            : ONE LINE PER DEPTH STEP
 DLM               .         SPACE                         : DELIMITING CHARACTER(SPACE TAB OR COMMA)
~Well Information
#_______________________________________________________________________________
#
#PARAMETER_NAME    .UNIT     VALUE                         : DESCRIPTION
#_______________________________________________________________________________
STRT               .m        2622                          : First reference value
STOP               .m        2792                          : Last reference value
STEP               .m        0.2                           : Step increment
NULL               .         -9999                         : Missing value
COMP               .                                       : Company
WELL               .         307                           : Well name
FLD                .                                       : Field
LOC                .                                       : Location
CNTY               .                                       : County
STAT               .                                       : State
CTRY               .                                       : Country
SRVC               .                                       : Service Company
DATE               .                                       : Date
API                .                                       : API number
EREF               .m        138.34                        : 
Pad                .         3                             : 
X                  .m        219750                        : 
Y                  .m        249950                        : 
group              .         Pad3                          : 
Интер-р            .         Старостина                    : 
Куст               .         3                             : 
Статус             .         Не проверено                  : 
Тип                .         Разведка                      : 
~Parameter Information Block
#_______________________________________________________________________________
#
#PARAMETER_NAME    .UNIT     VALUE                         : DESCRIPTION
#_______________________________________________________________________________
SET                .         LAS1                          : 
REAL_CREATION_DATE .         Ср апр 11 2012-13_17_11       : 
TLFamily_DEPTH     .         Measured Depth                : 
TLFamily_KS        .         Potential Resistivity         : 
TLFamily_KS1       .         Extra Shallow Resistivity     : 
TLFamily_KS2       .         Shallow Resistivity           : 
TLFamily_KS3       .         Medium Resistivity            : 
TLFamily_KS4       .         Deep Resistivity              : 
TLFamily_KS5       .         Extra Deep Resistivity        : 
TLFamily_LLD       .         Lateral Log Resistivity       : 
TLFamily_OKS3      .         Medium Resistivity Inverted   : 
TLFamily_RM        .         Mud Resistivity               : 
TLFamily_SP        .         Spontaneous Potential         : 
group              .         INI                           : 
~Curve Information
#_______________________________________________________________________________
#
#LOGNAME           .UNIT     LOG_ID                        : DESCRIPTION
#_______________________________________________________________________________
DEPTH              .m                                      : Measured Depth 
KS                 .ohm.m                                  : Potential Resistivity 
KS1                .ohm.m                                  : Extra Shallow Resistivity 
KS2                .ohm.m                                  : Shallow Resistivity 
KS3                .ohm.m                                  : Medium Resistivity 
KS4                .ohm.m                                  : Deep Resistivity 
KS5                .ohm.m                                  : Extra Deep Resistivity 
LLD                .ohm.m                                  : Lateral Log Resistivity 
OKS3               .ohm.m                                  : Medium Resistivity Inverted 
RM                 .ohm.m                                  : Mud Resistivity 
SP                 .mV                                     : Spontaneous Potential 
~Ascii
# ...
2635.4     5.7555     2.0691     6.8546     10.2954    9.1438     4.8287     4.4675     9.84       0.374      59.1192   
2635.6     5.7073     2.013      6.6606     10.1858    9.0809     4.8346     4.2055     9.9408     0.371      58.294    
2635.8     5.6523     2.0028     6.6717     10.0785    9.038      4.8346     4.3651     9.9701     0.374      57.4755   
2636       5.6486     1.9543     6.5216     10.0085    8.9557     4.8346     4.3327     9.8893     0.372      57.1667   
2636.2     5.6486     1.916      6.3888     9.8943     8.9307     4.8651     4.2735     9.833      0.366      57.5822   
2636.4     5.6486     1.9476     6.3941     9.804      8.8793     4.8879     4.3027     9.8889     0.368      58.2369   
2636.6     5.6486     1.9487     6.336      9.7972     8.8672     4.9296     4.4507     9.9375     0.368      58.5196   
2636.8     5.6486     1.9487     6.3597     9.7975     8.8701     4.9678     4.4995     10.0394    0.367      58.6005   
2637       5.6002     1.9656     6.5384     9.8966     8.9509     5.0477     4.4784     10.1863    0.366      58.8575   
2637.2     5.5633     1.9562     6.4913     9.9577     9.034      5.0891     4.4668     10.409     0.362      58.9774   
2637.4     5.5418     1.9694     6.5636     9.9415     9.038      5.101      4.4167     10.5888    0.362      58.711    
2637.6     5.5418     1.9487     6.4781     9.8153     8.8563     5.0903     4.317      10.9029    0.362      58.3849   
2637.8     5.5418     1.9487     6.3999     9.5932     8.6864     5.042      4.069      11.3381    0.359      58.3039   
2638       5.5283     1.9416     6.3628     9.4972     8.5592     4.9487     4.2407     11.8356    0.356      58.4234   
2638.2     5.4884     1.9366     6.3628     9.4761     8.4463     4.8818     4.3343     12.2831    0.356      58.769    
2638.4     5.5169     1.9487     6.4135     9.4337     8.3333     4.8342     4.3639     12.6052    0.356      59.4107   
2638.6     5.5418     1.9234     6.2717     9.2687     8.189      4.7547     4.1735     13.0834    0.356      60.293    
2638.8     5.5945     1.8946     6.0591     8.9747     7.8726     4.6666     3.9545     13.7912    0.356      61.0604   
2639       5.6484     1.8403     5.8927     8.6952     7.5862     4.5636     3.9108     14.681     0.356      61.5153   
2639.2     5.7775     1.7785     5.7209     8.4463     7.3462     4.5022     4.0154     15.5195    0.356      61.9247   
2639.4     5.9777     1.7324     5.5817     8.2718     7.1376     4.4454     4.2859     16.3714    0.356      62.4695   
2639.6     6.2029     1.7324     5.5725     8.1398     7.0143     4.4617     4.7558     17.1038    0.356      62.7662   
2639.8     6.4594     1.7324     5.5289     8.1382     6.975      4.4907     5.1976     17.8501    0.358      62.6349   
2640       6.7268     1.7629     5.6278     8.2151     7.0887     4.551      5.7558     18.5302    0.362      62.8499   
2640.2     6.9235     1.8218     5.831      8.5928     7.3467     4.6205     7.7548     18.8723    0.359      63.763    
2640.4     7.1396     1.9702     6.3696     8.9484     7.5306     4.6854     6.3227     18.8821    0.365      64.7905   
2640.6     7.3559     1.9632     6.3715     9.1469     7.6098     4.7432     5.917      18.9478    0.362      65.6803   
2640.8     7.5496     1.9487     6.3972     9.2326     7.6691     4.7813     6.3684     19.2502    0.362      66.6      
2641       7.7317     1.9487     6.5816     9.464      7.8071     4.8153     7.5198     19.4921    0.362      67.7718   
2641.2     7.9556     1.9962     6.808      9.7062     7.9775     4.9313     6.6078     19.9258    0.362      68.888    
2641.4     8.1837     1.9722     6.8404     9.9501     8.1481     5.0457     6.4698     20.7566    0.362      69.3329   
2641.6     8.41       1.8966     6.7252     10.3479    8.4624     5.1687     7.6449     21.286     0.363      69.731    
2641.8     8.6369     2.0251     7.1849     10.9496    8.8581     5.3777     11.8774    20.9081    0.368      70.6672   
2642       8.8394     2.067      7.392      11.8773    9.478      5.5099     9.6481     20.1982    0.369      71.2151   
2642.2     8.9011     2.2277     8.0979     12.6958    10.0824    5.6613     12.1237    19.2246    0.374      70.9059   
2642.4     8.9558     2.3081     8.2995     13.608     10.6184    5.7751     9.0639     18.1545    0.374      70.9063   
2642.6     8.9101     2.3441     8.5739     14.0134    10.9396    5.8889     8.7713     17.5005    0.374      71.8748   
2642.8     8.907      2.3017     8.4691     14.1764    11.1743    6.0446     6.5938     17.4722    0.374      72.7931   
2643       8.957      2.1686     8.2367     14.1386    11.3614    6.2939     6.5881     17.765     0.368      73.09     
2643.2     9.1295     2.0661     7.9667     14.0827    11.7546    6.6603     6.6403     18.3323    0.367      72.9694   
2643.4     9.4048     1.95       7.5743     14.3229    12.5315    7.1168     8.8191     18.8852    0.362      72.6359   
2643.6     9.5944     1.9716     7.8742     15.313     13.9099    7.5913     16.6752    18.5646    0.366      72.3686   
2643.8     9.7388     2.2642     8.8179     17.2172    15.7844    8.0186     36.6941    17.018     0.368      72.3347   
2644       9.7616     2.5889     9.8708     18.8672    17.3072    8.3677     24.4487    15.2487    0.374      72.2739   
2644.2     9.5758     2.6516     10.041     19.946     18.5327    8.4484     13.9941    13.9198    0.368      71.9794   
2644.4     9.1921     2.8714     10.8687    20.6071    19.338     8.3329     11.054     13.1028    0.371      71.4978   
2644.6     8.8235     2.8557     11.1395    20.7465    19.7688    8.0978     8.1579     12.5735    0.373      70.5585   
2644.8     8.4423     2.694      10.8427    20.0036    19.4289    7.8052     6.3383     12.375     0.368      69.3701   
2645       8.1046     2.5296     10.3676    19.0813    18.9618    7.4365     5.7687     12.6103    0.368      68.3148   
2645.2     7.8727     2.3629     9.7998     18.3362    18.588     7.2052     5.6417     13.1491    0.366      66.8605   
2645.4     7.645      2.242      9.2525     17.9894    18.421     7.0244     6.5298     13.7688    0.36       64.9657   
2645.6     7.466      2.3094     9.2167     17.9544    18.4384    6.8756     6.6384     14.0768    0.362      63.8091   
2645.8     7.3955     2.2335     8.7486     17.9261    18.3841    6.7971     5.8577     14.3185    0.362      63.8946   
2646       7.2889     2.1766     8.3593     17.6194    18.1135    6.6818     5.924      14.5604    0.362      64.3589   
2646.2     7.2024     2.165      8.1296     17.096     17.7451    6.5646     5.7281     14.8331    0.362      64.7093   
2646.4     7.1977     2.1181     7.8635     16.3798    17.3525    6.4014     5.6834     15.0932    0.359      65.5964   
2646.6     7.2722     2.0837     7.6345     15.4611    16.688     6.3193     5.5439     15.5496    0.356      67.1029   
2646.8     7.3502     1.9732     7.1991     14.3833    15.8832    6.2216     5.2033     16.2937    0.356      68.18     
2647       7.4772     1.933      6.9252     13.4673    15.1723    6.1559     6.3152     16.7092    0.356      68.4029   
2647.2     7.6517     1.9487     6.9415     12.8706    14.7954    6.1155     7.3798     16.5715    0.356      68.2318   
2647.4     7.8261     1.9487     6.828      12.469     14.5597    6.1965     7.2937     16.251     0.356      68.0287   
2647.6     7.9226     1.9693     6.9628     12.3806    14.7194    6.3937     7.3732     16.5106    0.353      67.7473   
2647.8     7.9455     2.0778     7.3543     12.6547    15.3802    6.63       7.6653     17.1418    0.355      67.367    
2648       7.9455     2.1109     7.5807     13.0005    15.9202    6.9648     7.4117     18.0555    0.356      67.3662   
2648.2     7.9893     2.1109     7.698      13.1082    16.1087    7.3518     6.483      18.9001    0.356      68.2692   
2648.4     8.0559     2.0715     7.6779     13.0403    16.0231    7.6378     5.9016     19.9807    0.356      69.6805   
2648.6     8.1899     2.005      7.3618     12.8427    15.7454    7.9774     5.9749     20.8768    0.356      70.7806   
