~Version
 VERS              .         2.0                           : CWLS LOG ASCII STANDARD - VERSION 2.0
 WRAP              .         NO                            : ONE LINE PER DEPTH STEP
 DLM               .         SPACE                         : DELIMITING CHARACTER(SPACE TAB OR COMMA)
~Well Information
#_______________________________________________________________________________
#
#PARAMETER_NAME    .UNIT     VALUE                         : DESCRIPTION
#_______________________________________________________________________________
STRT               .m        2622                          : First reference value
STOP               .m        2792                          : Last reference value
STEP               .m        0.2                           : Step increment
NULL               .         -9999                         : Missing value
COMP               .                                       : Company
WELL               .         307                           : Well name
FLD                .                                       : Field
LOC                .                                       : Location
CNTY               .                                       : County
STAT               .                                       : State
CTRY               .                                       : Country
SRVC               .                                       : Service Company
DATE               .                                       : Date
API                .                                       : API number
EREF               .m        138.34                        : 
Pad                .         3                             : 
X                  .m        219750                        : 
Y                  .m        249950                        : 
group              .         Pad3                          : 
Интер-р            .         Старостина                    : 
Куст               .         3                             : 
Статус             .         Не проверено                  : 
Тип                .         Разведка                      : 
~Parameter Information Block
#_______________________________________________________________________________
#
#PARAMETER_NAME    .UNIT     VALUE                         : DESCRIPTION
#_______________________________________________________________________________
SET                .         LAS1                          : 
REAL_CREATION_DATE .         Ср апр 11 2012-13_17_11       : 
TLFamily_DEPTH     .         Measured Depth                : 
TLFamily_KS        .         Potential Resistivity         : 
TLFamily_KS1       .         Extra Shallow Resistivity     : 
TLFamily_KS2       .         Shallow Resistivity           : 
TLFamily_KS3       .         Medium Resistivity            : 
TLFamily_KS4       .         Deep Resistivity              : 
TLFamily_KS5       .         Extra Deep Resistivity        : 
TLFamily_LLD       .         Lateral Log Resistivity       : 
TLFamily_OKS3      .         Medium Resistivity Inverted   : 
TLFamily_RM        .         Mud Resistivity               : 
TLFamily_SP        .         Spontaneous Potential         : 
group              .         INI                           : 
~Curve Information
#_______________________________________________________________________________
#
#LOGNAME           .UNIT     LOG_ID                        : DESCRIPTION
#_______________________________________________________________________________
DEPTH              .m                                      : Measured Depth 
KS                 .ohm.m                                  : Potential Resistivity 
KS1                .ohm.m                                  : Extra Shallow Resistivity 
KS2                .ohm.m                                  : Shallow Resistivity 
KS3                .ohm.m                                  : Medium Resistivity 
KS4                .ohm.m                                  : Deep Resistivity 
KS5                .ohm.m                                  : Extra Deep Resistivity 
LLD                .ohm.m                                  : Lateral Log Resistivity 
OKS3               .ohm.m                                  : Medium Resistivity Inverted 
RM                 .ohm.m                                  : Mud Resistivity 
SP                 .mV                                     : Spontaneous Potential 
~Ascii
# ...
2648.8     8.4158     1.8884     7.037      12.7464    15.4338    8.3926     6.9472     21.3672    0.356      71.6153   
2649       8.6477     1.8641     6.9745     13.0736    15.5657    8.7679     8.4895     21.554     0.358      72.6473   
2649.2     8.7973     2.0037     7.5981     13.9246    16.1       8.9802     16.8752    20.999     0.358      73.3735   
2649.4     8.9965     2.2476     8.1308     14.4929    16.2951    9.086      8.7323     20.1108    0.362      73.1846   
2649.6     9.1737     2.1814     7.8273     14.3045    15.6455    9.0768     7.2446     19.4548    0.362      73.0896   
2649.8     9.3363     2.1171     7.5575     13.5785    14.7067    8.8711     7.0614     19.392     0.362      73.9054   
2650       9.5298     2.0141     7.4696     13.192     14.2043    8.7801     7.5527     19.8011    0.362      74.627    
2650.2     9.707      1.9779     7.4185     13.5599    14.4878    8.885      14.2943    19.9284    0.362      74.5522   
2650.4     9.795      2.171      8.2825     14.3908    15.2701    9.0905     15.4262    19.6425    0.364      74.4626   
2650.6     9.8668     2.3476     8.8115     15.336     15.9214    9.416      13.565     18.8615    0.368      74.8183   
2650.8     9.7675     2.4491     9.1141     16.0224    16.2571    9.7285     10.7413    18.156     0.368      75.2271   
2651       9.6521     2.4894     9.2397     16.5328    16.4887    9.9609     9.5831     17.314     0.372      75.534    
2651.2     9.5798     2.4384     9.328      16.8362    16.7016    10.1964    7.6738     16.6703    0.374      75.8738   
2651.4     9.5208     2.3183     9.0891     16.9503    16.8056    10.5765    7.4731     16.5334    0.369      76.5997   
2651.6     9.4946     2.2491     8.8056     16.9072    16.914     11.0928    7.5855     16.3423    0.368      77.8709   
2651.8     9.5472     2.1696     8.5782     16.8339    17.2876    11.874     7.8044     15.8911    0.368      79.4387   
2652       9.652      2.1271     8.3871     16.9473    18.023     13.1215    7.8484     15.8134    0.368      81.1436   
2652.2     9.7657     2.1109     8.3092     17.3122    19.2016    14.8637    8.4367     16.075     0.368      83.1419   
2652.4     9.9257     2.1109     8.3756     18.1974    21.0387    16.7308    9.4572     16.6947    0.367      85.4121   
2652.6     10.0497    2.1455     8.779      19.8211    23.5503    19.0112    42.8922    17.1806    0.362      87.7848   
2652.8     9.9568     2.544      10.3886    23.3309    27.9393    21.0563    94.591     16.3675    0.37       90.112    
2653       9.5948     2.9798     11.7992    25.1502    30.8541    21.3101    50.9102    14.8366    0.376      91.6822   
2653.2     9.1853     3.3705     12.8508    24.9538    31.3539    20.9309    8.3813     13.9281    0.374      92.0765   
2653.4     8.7168     2.8866     11.3201    23.5031    30.1546    20.139     5.481      13.2638    0.369      91.9422   
2653.6     8.0766     2.7789     11.4964    23.053     29.1736    18.3647    14.1748    12.3531    0.372      91.831    
2653.8     7.6245     3.0366     12.8156    22.598     28.1881    16.1577    4.7539     11.3467    0.367      91.2844   
2654       7.2268     2.7032     10.9284    20.5965    25.0985    14.4478    3.9644     10.9637    0.368      89.7728   
2654.2     6.9193     2.3161     9.2067     17.8814    21.2049    12.3404    3.7664     11.2643    0.368      87.8921   
2654.4     6.7838     2.0545     8.0589     15.8971    18.4379    10.297     3.7539     12.3547    0.363      86.3739   
2654.6     6.7759     1.8776     7.2134     14.5188    16.44      9.2401     3.9678     13.8956    0.366      85.2885   
2654.8     6.8825     1.748      6.567      13.7748    15.2842    8.6083     5.4991     15.1481    0.361      84.8163   
2655       7.0157     1.7859     6.4429     13.6517    14.9468    8.3492     6.5138     15.6824    0.356      85.0953   
2655.2     7.1634     1.9016     6.6053     13.8917    15.0077    8.2799     7.1123     15.4451    0.356      86.3099   
2655.4     7.2286     2.0164     6.7828     13.9122    15.0361    8.2977     7.2885     14.868     0.356      88.1826   
2655.6     7.2511     2.1051     7.0222     13.7411    14.9493    8.2977     6.5311     14.1104    0.358      89.7565   
2655.8     7.2053     2.1446     7.2215     13.6697    14.8624    8.2566     6.1431     13.7102    0.354      90.7163   
2656       7.1443     2.216      7.6127     13.1894    14.5857    8.2652     5.1818     13.6354    0.356      91.4136   
2656.2     7.2186     2.0668     7.2047     12.2124    14.0249    8.5648     4.144      14.2425    0.355      92.1208   
2656.4     7.4593     1.7963     6.3711     11.2914    13.7571    8.9646     3.7668     15.7164    0.35       92.6884   
2656.6     7.8278     1.5717     5.8226     11.0952    14.4204    9.5213     7.3273     17.0722    0.345      93.2227   
2656.8     8.3389     1.6118     6.2324     11.862     16.0174    10.2242    42.4789    17.0411    0.35       94.0016   
2657       8.8542     1.9521     7.1726     13.2992    17.9308    11.0089    79.4832    15.6073    0.357      94.2321   
2657.2     8.953      2.4141     8.3618     15.1641    20.001     11.5395    91.7807    13.8463    0.362      93.4013   
2657.4     8.7331     2.8496     9.7671     16.7639    21.2535    11.7577    25.0474    12.477     0.365      92.9007   
2657.6     8.2442     2.9588     10.3402    17.6495    21.3191    11.6103    8.8917     11.462     0.362      93.6169   
2657.8     7.7231     3.0154     11.1583    17.2505    19.9296    11.1315    5.0199     10.7977    0.361      94.3087   
2658       7.2023     2.6512     10.4586    16.4862    18.2881    10.1635    5.4505     10.209     0.351      94.0633   
2658.2     6.8058     2.5435     10.4502    15.6365    16.5406    9.126      5.4313     9.8133     0.352      93.6281   
2658.4     6.4785     2.3713     9.6228     14.8864    14.979     8.1781     3.9866     9.8093     0.356      93.4992   
2658.6     6.1931     2.1797     8.5643     13.9203    13.2563    7.3409     3.8461     10.0944    0.356      92.5028   
2658.8     6.0673     2.0095     7.606      13.2809    11.9889    6.6083     3.7854     10.46      0.356      89.8953   
2659       6.0225     1.8917     6.7593     12.9557    11.1226    6.1019     3.7451     10.9058    0.353      86.7228   
2659.2     6.0715     1.8208     6.2271     12.4311    10.5026    5.799      3.7757     11.4521    0.356      83.9631   
2659.4     6.1925     1.7146     5.7512     11.9644    10.2392    5.6871     3.8992     12.1576    0.356      81.6356   
2659.6     6.3683     1.629      5.6017     11.7146    10.3176    5.6871     6.0608     12.5242    0.356      79.3271   
2659.8     6.5448     1.7631     5.83       11.695     10.6376    5.742      6.8792     12.3267    0.359      76.7372   
2660       6.7637     1.8485     5.9832     11.6642    10.924     5.8695     6.6104     11.7299    0.362      74.2426   
2660.2     6.8401     1.9895     6.2198     11.5656    11.1153    6.0266     6.3622     11.2119    0.362      72.2341   
2660.4     6.8772     2.0172     6.4462     11.4354    11.3991    6.1664     5.9587     10.9525    0.367      70.2891   
2660.6     6.8772     2.0793     6.9828     11.3492    12.1141    6.4869     6.6449     10.5544    0.37       68.4561   
2660.8     6.8375     2.0621     7.111      11.4097    12.9694    6.7483     6.2915     10.2279    0.364      67.1436   
2661       6.7784     2.1437     7.3989     11.5002    13.7058    7.0816     6.2454     9.9582     0.371      65.6061   
2661.2     6.6646     2.165      7.5201     11.7388    14.2724    7.4137     6.2395     9.6978     0.371      63.3799   
2661.4     6.5043     2.1723     7.6523     11.9624    14.5685    7.6777     5.7431     9.5143     0.368      61.617    
2661.6     6.3808     2.1769     7.6461     12.1732    14.5924    7.8432     4.9834     9.4555     0.368      60.9955   
2661.8     6.2167     2.101      7.4467     12.3517    14.3416    7.9587     4.9436     9.3936     0.368      60.5267   
2662       6.0991     2.0569     7.3619     12.4075    13.9784    7.9957     4.8656     9.3262     0.368      59.7533   
