~Version
 VERS              .         2.0                           : CWLS LOG ASCII STANDARD - VERSION 2.0
 WRAP              .         NO                            : ONE LINE PER DEPTH STEP
 DLM               .         SPACE                         : DELIMITING CHARACTER(SPACE TAB OR COMMA)
~Well Information
#_______________________________________________________________________________
#
#PARAMETER_NAME    .UNIT     VALUE                         : DESCRIPTION
#_______________________________________________________________________________
STRT               .m        2622                          : First reference value
STOP               .m        2792                          : Last reference value
STEP               .m        0.2                           : Step increment
NULL               .         -9999                         : Missing value
COMP               .                                       : Company
WELL               .         307                           : Well name
FLD                .                                       : Field
LOC                .                                       : Location
CNTY               .                                       : County
STAT               .                                       : State
CTRY               .                                       : Country
SRVC               .                                       : Service Company
DATE               .                                       : Date
API                .                                       : API number
EREF               .m        138.34                        : 
Pad                .         3                             : 
X                  .m        219750                        : 
Y                  .m        249950                        : 
group              .         Pad3                          : 
Интер-р            .         Старостина                    : 
Куст               .         3                             : 
Статус             .         Не проверено                  : 
Тип                .         Разведка                      : 
~Parameter Information Block
#_______________________________________________________________________________
#
#PARAMETER_NAME    .UNIT     VALUE                         : DESCRIPTION
#_______________________________________________________________________________
SET                .         LAS1                          : 
REAL_CREATION_DATE .         Ср апр 11 2012-13_17_11       : 
TLFamily_DEPTH     .         Measured Depth                : 
TLFamily_KS        .         Potential Resistivity         : 
TLFamily_KS1       .         Extra Shallow Resistivity     : 
TLFamily_KS2       .         Shallow Resistivity           : 
TLFamily_KS3       .         Medium Resistivity            : 
TLFamily_KS4       .         Deep Resistivity              : 
TLFamily_KS5       .         Extra Deep Resistivity        : 
TLFamily_LLD       .         Lateral Log Resistivity       : 
TLFamily_OKS3      .         Medium Resistivity Inverted   : 
TLFamily_RM        .         Mud Resistivity               : 
TLFamily_SP        .         Spontaneous Potential         : 
group              .         INI                           : 
~Curve Information
#_______________________________________________________________________________
#
#LOGNAME           .UNIT     LOG_ID                        : DESCRIPTION
#_______________________________________________________________________________
DEPTH              .m                                      : Measured Depth 
KS                 .ohm.m                                  : Potential Resistivity 
KS1                .ohm.m                                  : Extra Shallow Resistivity 
KS2                .ohm.m                                  : Shallow Resistivity 
KS3                .ohm.m                                  : Medium Resistivity 
KS4                .ohm.m                                  : Deep Resistivity 
KS5                .ohm.m                                  : Extra Deep Resistivity 
LLD                .ohm.m                                  : Lateral Log Resistivity 
OKS3               .ohm.m                                  : Medium Resistivity Inverted 
RM                 .ohm.m                                  : Mud Resistivity 
SP                 .mV                                     : Spontaneous Potential 
~Ascii
# ...
2675.6     7.5723     2.0477     7.0326     11.5556    11.0069    5.4157     6.7509     22.7387    0.367      49.6672   
2675.8     7.745      2.1046     7.3102     11.8258    11.2929    5.5211     7.2981     23.3474    0.362      49.4425   
2676       7.9651     2.128      7.403      11.8241    11.2783    5.568      6.5599     23.5222    0.362      49.181    
2676.2     8.1516     2.1109     7.3997     11.7002    11.061     5.4739     6.6062     23.7775    0.362      49.1047   
2676.4     8.366      2.0998     7.4349     11.5495    10.9162    5.4739     6.4743     24.4155    0.361      49.5129   
2676.6     8.6491     1.9867     7.1701     11.3748    10.7437    5.4801     5.9932     25.3849    0.356      49.8705   
2676.8     9.0123     1.9244     7.0844     11.2025    10.5541    5.5425     6.0762     26.3007    0.356      49.8505   
2677       9.4936     1.8747     6.9131     11.1778    10.4694    5.6955     6.9505     26.9229    0.355      49.9358   
2677.2     10.1048    1.8104     6.7074     11.1516    10.4152    5.9119     7.4567     27.4302    0.35       49.9891   
2677.4     10.6983    1.7347     6.568      11.5093    10.6673    6.2081     8.3321     27.1819    0.345      49.3409   
2677.6     11.261     1.9655     7.352      12.6487    11.4564    6.6116     17.6696    25.6736    0.351      48.5137   
2677.8     11.5981    2.3061     8.4859     14.5385    12.7053    7.0664     68.0496    23.2115    0.356      48.4752   
2678       11.6619    2.7086     10.0332    16.5239    14.0204    7.5452     72.2771    21.1313    0.367      48.611    
2678.2     11.4742    2.9133     10.9016    18.0721    15.0345    7.9624     18.1355    20.1884    0.368      48.287    
2678.4     11.2045    2.896      11.3622    18.846     15.652     8.2504     9.952      20.1042    0.372      48.2673   
2678.6     10.9157    2.7847     11.4847    19.302     16.0885    8.362      9.8134     20.3407    0.365      48.8992   
2678.8     10.7372    2.7213     11.4677    19.7015    16.4693    8.4043     9.4359     20.5666    0.366      49.3173   
2679       10.5703    2.6467     11.2674    20.1559    16.9552    8.4043     9.0576     20.8665    0.368      48.9634   
2679.2     10.4477    2.5887     10.914     20.6699    17.4633    8.3993     8.8871     21.3515    0.369      48.4009   
2679.4     10.3551    2.5295     10.5802    21.0571    17.9321    8.351      8.3339     21.9001    0.374      48.1863   
2679.6     10.3492    2.4442     10.1698    21.3923    18.4135    8.351      8.9163     22.2692    0.374      48.0135   
2679.8     10.3492    2.4353     9.9571     21.6764    18.9202    8.351      9.265      22.4405    0.374      47.6355   
2680       10.3887    2.4353     9.8321     21.7652    19.4778    8.4042     9.5699     22.4171    0.374      47.5344   
2680.2     10.4026    2.4353     9.7185     21.5345    20.041     8.4593     9.7362     22.4171    0.374      48.0007   
2680.4     10.4471    2.4353     9.6517     21.0486    20.5076    8.5349     9.4008     22.4707    0.368      48.7255   
2680.6     10.5024    2.4043     9.5758     20.6569    21.0355    8.65       9.9209     22.3896    0.368      49.1815   
2680.8     10.5573    2.4353     9.6561     20.4135    21.6451    8.7721     10.5219    22.2635    0.368      49.3006   
2681       10.6118    2.4608     9.7662     20.2866    22.417     8.932      10.5877    22.0734    0.368      49.4444   
2681.2     10.6163    2.4592     9.8399     20.3005    23.285     9.0893     10.5333    21.7979    0.368      49.6259   
2681.4     10.6163    2.4894     9.9973     20.3848    24.2889    9.2226     10.6843    21.5158    0.362      49.4908   
2681.6     10.613     2.4894     10.0647    20.4664    25.1007    9.3817     10.1483    21.3685    0.363      49.0736   
2681.8     10.5629    2.4894     10.1209    20.6096    25.8459    9.496      10.7364    21.389     0.365      48.9762   
2682       10.5629    2.4894     10.198     20.7471    26.244     9.6102     10.505     21.5157    0.362      49.4187   
2682.2     10.5158    2.4894     10.2369    20.9554    26.4037    9.6895     10.5958    21.5601    0.362      49.6684   
2682.4     10.4605    2.5338     10.3848    21.1882    26.3073    9.7761     10.8927    21.5412    0.362      49.336    
2682.6     10.3692    2.5435     10.4734    21.3892    26.1028    9.8364     10.5097    21.4598    0.364      49.4784   
2682.8     10.3065    2.562      10.4248    21.4556    25.7833    9.8969     9.9201     21.3224    0.362      50.4196   
2683       10.2437    2.5435     10.3355    21.3935    25.4582    9.9513     10.4044    21.2413    0.356      51.0186   
2683.2     10.0981    2.5435     10.3815    21.3857    25.2615    10.0265    10.1281    21.3335    0.356      50.8461   
2683.4     9.9686     2.5435     10.3607    21.3758    25.064     10.1353    9.4968     21.6047    0.356      50.4423   
2683.6     9.848      2.5435     10.3581    21.2328    24.8695    10.1952    8.9626     22.0958    0.361      50.011    
2683.8     9.8411     2.4721     9.9856     20.1826    23.7053    10.2748    6.1273     23.7734    0.359      49.4939   
2684       9.9069     2.1678     8.8687     19.1863    22.7384    10.4331    7.897      25.5514    0.356      49.4074   
2684.2     10.0106    2.2163     9.087      19.0416    22.6746    10.4935    11.3548    26.4558    0.359      49.7829   
2684.4     10.1813    2.2786     9.2763     19.3706    23.0448    10.6253    12.3561    26.3205    0.363      50.0673   
2684.6     10.2885    2.3813     9.3523     19.4813    23.109     10.772     11.9304    25.9403    0.365      50.2612   
2684.8     10.3433    2.3813     9.2755     19.2423    22.8169    10.7836    10.231     25.637     0.364      50.471    
2685       10.4246    2.3622     9.1328     18.833     22.3695    10.8018    9.4756     25.7599    0.364      50.7407   
2685.2     10.5386    2.3272     9.133      18.3595    21.8701    10.8557    9.496      26.0623    0.368      50.9393   
2685.4     10.6536    2.2782     8.962      17.9606    21.5199    10.9817    9.4785     26.5798    0.368      50.6718   
2685.6     10.8129    2.2217     8.878      17.6343    21.2869    11.2289    9.5812     27.3632    0.374      50.1665   
2685.8     11.0401    2.1812     8.7893     17.4792    21.2671    11.5791    9.925      28.4067    0.371      49.9313   
2686       11.2827    2.165      8.6626     17.4672    21.4247    12.0571    11.0808    29.398     0.368      49.8697   
2686.2     11.6446    2.165      8.6774     17.6702    21.7645    12.599     11.8164    30.0517    0.368      49.9853   
2686.4     11.9758    2.1205     8.6328     18.4679    22.6409    13.2052    14.0073    30.2313    0.367      50.4143   
2686.6     12.1951    2.2822     9.3209     19.9764    24.3268    13.6865    25.5781    29.4929    0.37       50.8858   
2686.8     12.3116    2.6435     10.6169    21.7526    26.0986    14.0876    31.4087    28.1398    0.374      51.0276   
2687       12.3256    2.7057     10.9641    22.5295    26.7273    14.3344    14.7741    26.9359    0.371      50.8054   
2687.2     12.3159    2.6486     10.7761    22.3518    26.4266    14.3238    13.0345    26.414     0.368      50.7389   
2687.4     12.2722    2.589      10.8263    22.0964    25.9939    14.0695    12.2902    26.2734    0.367      50.9645   
2687.6     12.2722    2.5296     10.7641    22.1789    25.8818    13.8125    12.1805    26.4705    0.365      50.8687   
2687.8     12.2978    2.5342     11.0085    22.035     25.5801    13.6312    11.6104    26.7886    0.362      50.3457   
2688       12.4062    2.4275     10.2931    21.8557    25.2891    13.5723    11.2881    26.9851    0.362      50.104    
2688.2     12.5216    2.3813     10.0966    21.7533    25.2374    13.5723    12.8632    26.9209    0.358      50.5362   
2688.4     12.6383    2.4321     10.2823    22.3503    26.0892    13.6033    15.0776    26.7806    0.356      51.2559   
2688.6     12.7436    2.4891     10.4061    23.0693    26.9266    13.8566    15.3444    26.5263    0.356      51.8393   
2688.8     12.7985    2.497      10.5137    23.6311    27.5928    14.1469    16.3217    26.0722    0.356      52.382    
