~Version
 VERS              .         2.0                           : CWLS LOG ASCII STANDARD - VERSION 2.0
 WRAP              .         NO                            : ONE LINE PER DEPTH STEP
 DLM               .         SPACE                         : DELIMITING CHARACTER(SPACE TAB OR COMMA)
~Well Information
#_______________________________________________________________________________
#
#PARAMETER_NAME    .UNIT     VALUE                         : DESCRIPTION
#_______________________________________________________________________________
STRT               .m        2622                          : First reference value
STOP               .m        2792                          : Last reference value
STEP               .m        0.2                           : Step increment
NULL               .         -9999                         : Missing value
COMP               .                                       : Company
WELL               .         307                           : Well name
FLD                .                                       : Field
LOC                .                                       : Location
CNTY               .                                       : County
STAT               .                                       : State
CTRY               .                                       : Country
SRVC               .                                       : Service Company
DATE               .                                       : Date
API                .                                       : API number
EREF               .m        138.34                        : 
Pad                .         3                             : 
X                  .m        219750                        : 
Y                  .m        249950                        : 
group              .         Pad3                          : 
Интер-р            .         Старостина                    : 
Куст               .         3                             : 
Статус             .         Не проверено                  : 
Тип                .         Разведка                      : 
~Parameter Information Block
#_______________________________________________________________________________
#
#PARAMETER_NAME    .UNIT     VALUE                         : DESCRIPTION
#_______________________________________________________________________________
SET                .         LAS1                          : 
REAL_CREATION_DATE .         Ср апр 11 2012-13_17_11       : 
TLFamily_DEPTH     .         Measured Depth                : 
TLFamily_KS        .         Potential Resistivity         : 
TLFamily_KS1       .         Extra Shallow Resistivity     : 
TLFamily_KS2       .         Shallow Resistivity           : 
TLFamily_KS3       .         Medium Resistivity            : 
TLFamily_KS4       .         Deep Resistivity              : 
TLFamily_KS5       .         Extra Deep Resistivity        : 
TLFamily_LLD       .         Lateral Log Resistivity       : 
TLFamily_OKS3      .         Medium Resistivity Inverted   : 
TLFamily_RM        .         Mud Resistivity               : 
TLFamily_SP        .         Spontaneous Potential         : 
group              .         INI                           : 
~Curve Information
#_______________________________________________________________________________
#
#LOGNAME           .UNIT     LOG_ID                        : DESCRIPTION
#_______________________________________________________________________________
DEPTH              .m                                      : Measured Depth 
KS                 .ohm.m                                  : Potential Resistivity 
KS1                .ohm.m                                  : Extra Shallow Resistivity 
KS2                .ohm.m                                  : Shallow Resistivity 
KS3                .ohm.m                                  : Medium Resistivity 
KS4                .ohm.m                                  : Deep Resistivity 
KS5                .ohm.m                                  : Extra Deep Resistivity 
LLD                .ohm.m                                  : Lateral Log Resistivity 
OKS3               .ohm.m                                  : Medium Resistivity Inverted 
RM                 .ohm.m                                  : Mud Resistivity 
SP                 .mV                                     : Spontaneous Potential 
~Ascii
2622.0     3.5337     0.9915     0          0          0          0          -9999      15.6922    0.341      53.3198   
2622.2     4.0364     1.3358     0.0342     0          0          0          -9999      14.3628    0.345      54.2265   
2622.4     4.4238     1.5359     1.6044     0          0          0          -9999      13.4405    0.346      55.0015   
2622.6     4.6715     1.6165     3.0254     0          0          0          -9999      12.8455    0.345      55.7611   
2622.8     4.8894     1.6652     3.9365     0          0          0          -9999      12.4931    0.345      56.3632   
2623       5.0929     1.7309     4.5788     0          0          0          -9999      12.1989    0.345      56.9577   
2623.2     5.2381     1.7801     4.9823     0          0          0          -9999      11.9468    0.351      57.323    
2623.4     5.3175     1.9046     5.4375     0.108      0          0          -9999      11.6992    0.353      57.0551   
2623.6     5.4145     1.9109     5.6185     2.1783     0          0          -9999      11.532     0.358      56.6855   
2623.8     5.435      1.8946     5.702      4.1479     0          0          -9999      11.3886    0.362      56.8039   
2624       5.4879     1.9365     5.9401     5.5247     0          0          -9999      11.3538    0.368      57.0564   
2624.2     5.5377     1.9109     5.9873     6.4255     0          0          -9999      11.2579    0.364      57.1822   
2624.4     5.5873     1.8946     5.9872     7.0112     0          0          -9999      11.223     0.365      57.8194   
2624.6     5.6379     1.8946     6.0573     7.4441     0          0          -9999      11.3015    0.368      58.7913   
2624.8     5.6903     1.9217     6.063      7.7995     0          0          -9999      11.4417    0.368      59.076    
2625       5.7309     1.8946     6.0938     8.089      0          0          -9999      11.5408    0.368      59.0002   
2625.2     5.8122     1.8946     6.1407     8.3183     0          0          -9999      11.4705    0.368      58.909    
2625.4     5.903      1.8946     6.0746     8.5398     0          0          -9999      11.4198    0.366      58.3243   
2625.6     5.9616     1.9428     6.2653     8.7783     1.5149     0          -9999      11.3462    0.368      57.9665   
2625.8     5.9844     1.9844     6.3102     9.0047     3.0992     0          -9999      11.3028    0.368      58.2932   
2626       6.0241     2.0028     6.3996     9.0962     4.2782     0          -9999      11.209     0.368      58.5775   
2626.2     6.076      2.0028     6.4506     9.2374     5.1234     0          -9999      11.1319    0.368      59.0577   
2626.4     6.1294     2.0028     6.5095     9.3571     5.7477     0          4.5811     11.0722    0.37       59.8511   
2626.6     6.1721     2.0028     6.5207     9.4321     6.2562     0          4.5854     11.0088    0.37       60.116    
2626.8     6.1828     2.0083     6.6068     9.5602     6.6867     0          4.6969     10.9622    0.372      59.8455   
2627       6.1828     2.0569     6.7211     9.7474     7.1137     0          4.9195     10.8911    0.374      59.6869   
2627.2     6.1828     2.0774     6.8354     9.9662     7.4588     0          4.9439     10.8179    0.374      59.5361   
2627.4     6.1828     2.1109     6.8889     10.1482    7.7478     0          4.8682     10.7174    0.374      58.9522   
2627.6     6.1106     2.0814     6.8889     10.2675    7.9854     0          4.7597     10.6407    0.373      58.3723   
2627.8     6.0703     2.1109     6.9941     10.3458    8.1489     0          4.6438     10.5803    0.374      58.4087   
2628       6.0225     2.0781     6.9437     10.4347    8.2916     0          4.3885     10.6251    0.372      58.7574   
2628.2     5.9787     2.0655     6.8972     10.396     8.3849     0          4.3595     10.7162    0.374      59.04     
2628.4     5.9691     2.0173     6.7431     10.3481    8.4443     0          4.3048     10.8314    0.374      59.4136   
2628.6     5.9994     2.0028     6.6736     10.2502    8.4561     0          4.3911     10.8158    0.374      59.7506   
2628.8     6.0225     1.976      6.5235     10.2788    8.5393     0          4.4884     10.8365    0.37       59.9178   
2629       6.0225     2.0028     6.6118     10.2788    8.6398     0          4.6255     10.854     0.378      60.0819   
2629.2     6.0225     2.0028     6.5907     10.3676    8.8226     0          4.6434     10.9016    0.38       59.9748   
2629.4     6.0225     2.0456     6.6686     10.4151    8.9618     0          4.6979     10.9016    0.384      59.5237   
2629.6     6.0456     2.0569     6.7311     10.4394    9.1034     0          4.8047     10.9016    0.384      59.3516   
2629.8     6.0246     2.0569     6.7679     10.4019    9.1438     0.2473     4.7203     10.8099    0.38       59.2789   
2630       6.0471     2.0569     6.742      10.341     9.192      1.2295     4.6457     10.7945    0.38       58.767    
2630.2     6.0245     2.0569     6.7325     10.2932    9.1967     1.9699     4.609      10.7945    0.38       58.5839   
2630.4     6.0225     2.0569     6.7424     10.2297    9.1967     2.5641     4.5524     10.8402    0.38       59.0779   
2630.6     6.0225     2.0148     6.7286     10.1988    9.1967     3.0334     4.4914     10.9729    0.38       59.7099   
2630.8     5.9815     2.0028     6.6785     10.2626    9.3048     3.3444     4.5198     11.1099    0.38       60.4391   
2631       5.9691     2.0911     6.9123     10.3814    9.3554     3.6318     5.0709     11.0418    0.38       60.8213   
2631.2     5.9691     2.0569     6.8135     10.3649    9.3428     3.8688     4.8636     10.9596    0.38       60.4953   
2631.4     5.9996     2.0569     6.6842     10.193     9.1027     4.0041     4.4144     10.8069    0.38       60.1008   
2631.6     5.9691     2.014      6.6077     10.098     8.9689     4.0858     4.4743     10.8109    0.38       59.9531   
2631.8     5.9895     2.0028     6.5781     10.0648    8.8779     4.1753     4.6233     10.8025    0.376      59.8348   
2632       5.9691     2.0503     6.7057     10.0648    8.8264     4.2163     4.7501     10.7198    0.378      59.7977   
2632.2     6.0223     2.0068     6.6342     10.0632    8.7579     4.2592     4.6079     10.6533    0.376      59.813    
2632.4     5.9787     2.0028     6.5922     9.9524     8.635      4.3018     4.5543     10.6338    0.375      59.852    
2632.6     6.0005     2.0028     6.6259     9.9042     8.5719     4.3551     4.6197     10.6338    0.376      60.358    
2632.8     5.9691     2.0028     6.5772     9.9556     8.6148     4.3551     4.6266     10.6338    0.374      61.2661   
2633       5.9691     2.0222     6.6991     10.0009    8.6148     4.3655     4.7021     10.5704    0.374      61.7513   
2633.2     5.9691     2.0312     6.6864     10.0648    8.6567     4.4084     4.6368     10.4554    0.376      61.4864   
2633.4     5.9691     2.0028     6.5851     10.0511    8.6663     4.4616     4.5986     10.4196    0.374      60.7351   
2633.6     5.9691     2.0028     6.6167     10.0306    8.6348     4.4995     4.6069     10.3682    0.374      59.8957   
2633.8     5.9691     2.0028     6.6259     10.0648    8.7175     4.5217     4.71       10.3127    0.374      59.5266   
2634       5.9691     2.0028     6.6559     10.0986    8.7628     4.5682     4.6783     10.3057    0.374      59.6905   
2634.2     5.9691     2.0314     6.7128     10.1183    8.7751     4.5789     4.6394     10.2589    0.374      59.8325   
2634.4     5.9691     2.0028     6.6396     10.1183    8.8264     4.6289     4.6646     10.2589    0.374      59.6602   
2634.6     5.9345     2.0028     6.6514     10.1183    8.8735     4.6748     4.7202     10.1857    0.374      59.5911   
2634.8     5.9157     2.0523     6.7063     10.1625    8.9301     4.7194     4.8327     10.072     0.374      59.815    
2635       5.8719     2.0421     6.7408     10.2189    9.0278     4.7599     4.806      10.0091    0.374      59.9172   
2635.2     5.8037     2.0638     6.8073     10.2748    9.131      4.7813     4.717      9.8952     0.374      59.6723   
