~Version
 VERS              .         2.0                           : CWLS LOG ASCII STANDARD - VERSION 2.0
 WRAP              .         NO                            : ONE LINE PER DEPTH STEP
 DLM               .         SPACE                         : DELIMITING CHARACTER(SPACE TAB OR COMMA)
~Well Information
#_______________________________________________________________________________
#
#PARAMETER_NAME    .UNIT     VALUE                         : DESCRIPTION
#_______________________________________________________________________________
STRT               .m        2622                          : First reference value
STOP               .m        2792                          : Last reference value
STEP               .m        0.2                           : Step increment
NULL               .         -9999                         : Missing value
COMP               .                                       : Company
WELL               .         307                           : Well name
FLD                .                                       : Field
LOC                .                                       : Location
CNTY               .                                       : County
STAT               .                                       : State
CTRY               .                                       : Country
SRVC               .                                       : Service Company
DATE               .                                       : Date
API                .                                       : API number
EREF               .m        138.34                        : 
Pad                .         3                             : 
X                  .m        219750                        : 
Y                  .m        249950                        : 
group              .         Pad3                          : 
Интер-р            .         Старостина                    : 
Куст               .         3                             : 
Статус             .         Не проверено                  : 
Тип                .         Разведка                      : 
~Parameter Information Block
#_______________________________________________________________________________
#
#PARAMETER_NAME    .UNIT     VALUE                         : DESCRIPTION
#_______________________________________________________________________________
SET                .         LAS3                          : 
REAL_CREATION_DATE .         Ср апр 11 2012-13_17_11       : 
TLFamily_DEPTH     .         Measured Depth                : 
TLFamily_GR        .         Gamma Ray                     : 
TLFamily_TNPH      .         Neutron Porosity              : 
group              .         INI                           : 
~Curve Information
#_______________________________________________________________________________
#
#LOGNAME           .UNIT     LOG_ID                        : DESCRIPTION
#_______________________________________________________________________________
DEPTH              .m                                      : Measured Depth 
GR                 .gAPI                                   :  
TNPH               .v/v                                    : Neutron Porosity 
~Ascii
2622.0     108.52     0.232     
2622.2     108.39     0.241     
2622.4     110.64     0.256     
2622.6     109.57     0.255     
2622.8     108.34     0.243     
2623       108.1      0.225     
2623.2     107.7      0.221     
2623.4     106.77     0.248     
2623.6     103.44     0.258     
2623.8     104.23     0.253     
2624       107.98     0.252     
2624.2     109.31     0.251     
2624.4     110.85     0.248     
2624.6     109.51     0.248     
2624.8     107.93     0.249     
2625       107.35     0.252     
2625.2     105.56     0.239     
2625.4     106.76     0.228     
2625.6     108.02     0.231     
2625.8     104.64     0.234     
2626       100        0.24      
2626.2     96.09      0.246     
2626.4     96.14999   0.255     
2626.6     96.86      0.26      
2626.8     98.39      0.262     
2627       103.4      0.258     
2627.2     103.81     0.252     
2627.4     103.14     0.258     
2627.6     102.82     0.251     
2627.8     102.48     0.242     
2628       102.23     0.238     
2628.2     102.13     0.24      
2628.4     103.33     0.245     
2628.6     103.48     0.25      
2628.8     102.34     0.254     
2629       100.07     0.256     
2629.2     98.91      0.256     
2629.4     100.32     0.246     
2629.6     102.33     0.239     
2629.8     102.1      0.24      
2630       99.81      0.244     
2630.2     100.88     0.243     
2630.4     103.86     0.244     
2630.6     102.24     0.245     
2630.8     99.91      0.244     
2631       101.72     0.238     
2631.2     103.57     0.239     
2631.4     103.33     0.242     
2631.6     102.11     0.247     
2631.8     102.87     0.255     
2632       102.33     0.254     
2632.2     103.62     0.253     
2632.4     106.37     0.258     
2632.6     106.05     0.252     
2632.8     104.76     0.242     
2633       105.09     0.233     
2633.2     103.69     0.231     
2633.4     101.52     0.226     
2633.6     102.65     0.224     
2633.8     107.13     0.229     
2634       110.47     0.228     
2634.2     110.78     0.228     
2634.4     111.55     0.246     
2634.6     109.79     0.26      
2634.8     111.71     0.26      
2635       113.87     0.256     
2635.2     115.19     0.252     
2635.4     114.82     0.245     
2635.6     110.1      0.239     
2635.8     105.42     0.231     
2636       103.29     0.222     
2636.2     101.82     0.225     
2636.4     98.7       0.231     
2636.6     96.89999   0.24      
2636.8     98.92      0.252     
2637       105.38     0.253     
2637.2     107.77     0.249     
2637.4     109.19     0.255     
2637.6     109.15     0.254     
2637.8     107.3      0.246     
2638       105.79     0.249     
2638.2     107.03     0.252     
2638.4     109.42     0.248     
2638.6     110.91     0.245     
2638.8     111.93     0.237     
2639       112.51     0.237     
2639.2     112.02     0.235     
2639.4     111.53     0.23      
2639.6     109.55     0.226     
2639.8     104.45     0.227     
2640       102.09     0.223     
2640.2     102.55     0.216     
2640.4     102.07     0.214     
2640.6     103.95     0.222     
2640.8     103.63     0.223     
2641       101.27     0.217     
2641.2     103.14     0.213     
2641.4     99.66      0.199     
2641.6     92.39999   0.179     
2641.8     85.71999   0.172     
2642       81.27      0.163     
2642.2     79.48      0.155     
2642.4     81.49001   0.156     
2642.6     86.56999   0.169     
2642.8     92.15      0.185     
2643       92.93999   0.183     
2643.2     86.95      0.177     
2643.4     78.3       0.167     
2643.6     69.11      0.16      
2643.8     61.38      0.159     
2644       59.83      0.16      
2644.2     65.17999   0.161     
2644.4     72.71      0.165     
2644.6     82.43      0.179     
2644.8     89.93      0.2       
2645       95.12      0.226     
2645.2     100.68     0.232     
2645.4     106.94     0.226     
2645.6     111.03     0.223     
2645.8     114.07     0.222     
2646       116.08     0.227     
2646.2     116.46     0.232     
2646.4     115.98     0.243     
2646.6     114.33     0.248     
2646.8     108.88     0.24      
2647       103.94     0.238     
2647.2     102.63     0.235     
2647.4     102.69     0.225     
2647.6     103.6      0.219     
2647.8     106.11     0.216     
2648       110.86     0.209     
2648.2     115.42     0.199     
2648.4     117.2      0.196     
2648.6     113.39     0.195     
2648.8     104.4      0.19      
2649       94.39      0.19      
2649.2     89.45      0.192     
2649.4     87.1       0.192     
2649.6     82.86      0.19      
2649.8     77.19      0.186     
2650       73.48      0.178     
2650.2     69.78      0.164     
2650.4     71.74      0.153     
2650.6     81.65      0.157     
2650.8     89.46      0.171     
2651       96.42999   0.187     
2651.2     103.58     0.199     
2651.4     104.78     0.191     
2651.6     102.9      0.181     
2651.8     98.33      0.18      
2652       93.44      0.175     
2652.2     84.86      0.161     
2652.4     72.48      0.146     
2652.6     58.62      0.132     
2652.8     53.22      0.127     
2653       54.78      0.136     
2653.2     56.74      0.153     
2653.4     61.01      0.174     
2653.6     64.23      0.181     
2653.8     70.26      0.19      
2654       78.76      0.203     
2654.2     81.53      0.21      
2654.4     83.21999   0.211     
2654.6     90.7       0.216     
2654.8     103.37     0.228     
2655       114.57     0.225     
2655.2     119.8      0.22      
2655.4     118.66     0.213     
2655.6     113.75     0.211     
2655.8     102.92     0.218     
2656       85.56      0.211     
2656.2     70.87      0.198     
2656.4     64.69      0.186     
2656.6     62.37      0.169     
2656.8     59.37      0.152     
2657       55.03      0.144     
2657.2     55.71      0.151     
2657.4     58.6       0.177     
2657.6     71.67      0.194     
2657.8     83         0.202     
2658       88.26      0.208     
2658.2     83.58      0.202     
2658.4     72.64      0.195     
2658.6     68         0.195     
2658.8     70.14      0.197     
2659       76.99001   0.201     
2659.2     85.50999   0.199     
2659.4     94.71      0.203     
2659.6     100.94     0.206     
2659.8     100.9      0.194     
2660       94.92      0.179     
2660.2     92.22      0.176     
2660.4     96.7       0.196     
2660.6     107.63     0.221     
2660.8     115.39     0.236     
2661       116.38     0.238     
2661.2     120.02     0.235     
2661.4     126.21     0.234     
2661.6     130.4      0.24      
2661.8     133.84     0.235     
2662       137.86     0.226     
2662.2     139.42     0.232     
2662.4     138.09     0.242     
2662.6     136.84     0.255     
2662.8     138.04     0.255     
2663       135.62     0.257     
2663.2     133.22     0.263     
2663.4     129.02     0.254     
2663.6     125.22     0.255     
2663.8     125.11     0.253     
2664       127.24     0.248     
2664.2     133.25     0.249     
2664.4     140.94     0.262     
2664.6     147.38     0.284     
2664.8     153.39     0.297     
2665       157.79     0.285     
2665.2     159.71     0.257     
2665.4     156.72     0.256     
2665.6     151.27     0.268     
2665.8     146.64     0.273     
2666       145.89     0.274     
2666.2     141.55     0.271     
2666.4     133.34     0.277     
2666.6     127.85     0.279     
2666.8     128.79     0.262     
2667       132.76     0.249     
2667.2     134.58     0.255     
2667.4     137.18     0.268     
2667.6     144.57     0.272     
2667.8     152.98     0.28      
2668       162.83     0.281     
2668.2     181.21     0.276     
2668.4     207.24     0.28      
2668.6     233.49     0.292     
2668.8     242.39     0.3       
2669       227.05     0.291     
2669.2     209.12     0.28      
2669.4     201.24     0.286     
2669.6     189.55     0.265     
2669.8     180.2      0.24      
2670       199.05     0.239     
2670.2     230.09     0.261     
2670.4     234.39     0.288     
