~Version
 VERS              .         2.0                           : CWLS LOG ASCII STANDARD - VERSION 2.0
 WRAP              .         NO                            : ONE LINE PER DEPTH STEP
 DLM               .         SPACE                         : DELIMITING CHARACTER(SPACE TAB OR COMMA)
~Well Information
#_______________________________________________________________________________
#
#PARAMETER_NAME    .UNIT     VALUE                         : DESCRIPTION
#_______________________________________________________________________________
STRT               .m        2622                          : First reference value
STOP               .m        2792                          : Last reference value
STEP               .m        0.2                           : Step increment
NULL               .         -9999                         : Missing value
COMP               .                                       : Company
WELL               .         307                           : Well name
FLD                .                                       : Field
LOC                .                                       : Location
CNTY               .                                       : County
STAT               .                                       : State
CTRY               .                                       : Country
SRVC               .                                       : Service Company
DATE               .                                       : Date
API                .                                       : API number
EREF               .m        138.34                        : 
Pad                .         3                             : 
X                  .m        219750                        : 
Y                  .m        249950                        : 
group              .         Pad3                          : 
Интер-р            .         Старостина                    : 
Куст               .         3                             : 
Статус             .         Не проверено                  : 
Тип                .         Разведка                      : 
~Parameter Information Block
#_______________________________________________________________________________
#
#PARAMETER_NAME    .UNIT     VALUE                         : DESCRIPTION
#_______________________________________________________________________________
SET                .         LAS1                          : 
REAL_CREATION_DATE .         Ср апр 11 2012-13_17_11       : 
TLFamily_DEPTH     .         Measured Depth                : 
TLFamily_KS        .         Potential Resistivity         : 
TLFamily_KS1       .         Extra Shallow Resistivity     : 
TLFamily_KS2       .         Shallow Resistivity           : 
TLFamily_KS3       .         Medium Resistivity            : 
TLFamily_KS4       .         Deep Resistivity              : 
TLFamily_KS5       .         Extra Deep Resistivity        : 
TLFamily_LLD       .         Lateral Log Resistivity       : 
TLFamily_OKS3      .         Medium Resistivity Inverted   : 
TLFamily_RM        .         Mud Resistivity               : 
TLFamily_SP        .         Spontaneous Potential         : 
group              .         INI                           : 
~Curve Information
#_______________________________________________________________________________
#
#LOGNAME           .UNIT     LOG_ID                        : DESCRIPTION
#_______________________________________________________________________________
DEPTH              .m                                      : Measured Depth 
KS                 .ohm.m                                  : Potential Resistivity 
KS1                .ohm.m                                  : Extra Shallow Resistivity 
KS2                .ohm.m                                  : Shallow Resistivity 
KS3                .ohm.m                                  : Medium Resistivity 
KS4                .ohm.m                                  : Deep Resistivity 
KS5                .ohm.m                                  : Extra Deep Resistivity 
LLD                .ohm.m                                  : Lateral Log Resistivity 
OKS3               .ohm.m                                  : Medium Resistivity Inverted 
RM                 .ohm.m                                  : Mud Resistivity 
SP                 .mV                                     : Spontaneous Potential 
~Ascii
# ...
2715.8     4.698      1.8106     5.4532     7.0954     6.8129     2.2772     3.615      11.3526    0.36       50.6724   
2716       4.6926     1.7865     5.4554     7.0978     6.6661     2.2772     3.5992     12.0183    0.356      51.5097   
2716.2     4.7517     1.7972     5.4494     6.9909     6.4267     2.2824     3.4903     12.7775    0.356      52.1467   
2716.4     4.8558     1.6817     5.1798     6.7851     6.0999     2.3305     3.1078     13.7608    0.35       52.7156   
2716.6     5.0382     1.6105     4.9131     6.5606     5.7838     2.3383     3.0897     14.7713    0.349      53.69     
2716.8     5.3474     1.5702     4.7951     6.4389     5.5791     2.393      3.4942     15.6785    0.345      54.7974   
2717       5.6586     1.5483     4.7401     6.5426     5.5467     2.4479     4.3796     16.1138    0.346      55.6839   
2717.2     5.9817     1.7336     5.2223     6.7251     5.4938     2.5602     6.8406     16.0033    0.35       56.7407   
2717.4     6.3168     1.7341     5.1393     6.9166     5.4407     2.677      5.7856     15.5577    0.353      58.6878   
2717.6     6.5109     1.8786     5.5063     6.9962     5.3351     2.8444     6.3564     15.0504    0.356      61.2645   
2717.8     6.717      1.9496     5.8551     7.2069     5.2917     3.0484     6.6562     14.446     0.357      64.0712   
2718       6.8178     2.0008     6.0613     7.4213     5.3514     3.3248     5.6015     14.49      0.352      67.4298   
2718.2     6.8238     1.968      6.3612     7.7001     5.4919     3.5552     5.4667     15.0089    0.347      71.317    
2718.4     6.8238     2.0267     6.7054     8.1247     5.7204     3.7227     7.0824     15.2858    0.35       74.6661   
2718.6     6.9117     2.0569     6.9427     8.5067     5.9049     3.8887     5.9207     15.0917    0.345      76.6646   
2718.8     6.9733     2.0062     6.7487     8.8424     5.9889     4.0023     5.6169     14.9102    0.345      77.9667   
2719       7.028      1.9649     6.5475     9.2145     6.1914     4.0928     5.7854     14.992     0.339      79.2554   
2719.2     7.0963     1.9487     6.5682     9.7022     6.481      4.2082     6.05       15.182     0.339      80.4347   
2719.4     7.1628     1.9368     6.5733     10.2225    6.816      4.3524     6.3675     15.2936    0.339      81.4931   
2719.6     7.2696     1.8946     6.5216     10.5408    7.1842     4.5201     6.4495     15.2761    0.339      82.4314   
2719.8     7.354      1.9158     6.5207     10.8735    7.5877     4.6882     6.6689     15.2186    0.344      83.2581   
2720       7.4093     1.9277     6.5553     11.2191    8.1348     4.911      6.9348     15.1616    0.346      84.3304   
2720.2     7.4651     1.9487     6.748      11.4431    8.6515     5.0887     7.2385     15.0045    0.35       85.379    
2720.4     7.5616     1.9487     6.7517     11.71      9.2241     5.3124     6.7526     14.8485    0.348      85.9275   
2720.6     7.5716     1.9487     6.8304     12.0566    9.9068     5.4844     6.9189     14.7646    0.349      86.2615   
2720.8     7.5936     1.9896     7.0011     12.4251    10.746     5.6294     7.4294     14.5377    0.345      86.4737   
2721       7.625      2.0223     7.1346     12.6801    11.5546    5.7985     7.4397     14.1111    0.341      86.3195   
2721.2     7.6758     1.9835     7.0235     12.8238    12.3073    5.9589     6.5746     13.5675    0.339      86.0844   
2721.4     7.6784     1.9487     7.0338     12.9995    13.1452    6.0736     7.3394     12.9528    0.339      86.1146   
2721.6     7.6784     2.0006     7.1699     13.4132    13.9653    6.2548     7.3993     12.3443    0.345      86.335    
2721.8     7.6784     2.0923     7.4424     13.6921    14.6965    6.4083     7.6312     11.9112    0.345      86.4882   
2722       7.6324     2.0569     7.3213     13.8918    15.1514    6.6055     6.6549     11.5897    0.346      86.5683   
2722.2     7.625      2.0569     7.3764     14.048     15.558     6.8004     7.2737     11.2916    0.35       86.9826   
2722.4     7.5762     2.0569     7.436      14.2923    16.0307    7.0173     7.3553     11.0598    0.35       87.7408   
2722.6     7.4907     2.0801     7.5315     14.6436    16.7174    7.3071     7.3954     10.9366    0.345      88.2201   
2722.8     7.3181     2.165      7.8617     15.2764    17.7935    8.0071     7.4001     11.0002    0.348      88.2418   
2723       7.1013     2.2014     8.0311     15.8817    18.7849    8.5582     6.4666     11.2852    0.344      88.051    
2723.2     6.8224     2.2665     8.4212     16.9389    20.2776    8.9511     6.8059     11.777     0.339      87.6146   
2723.4     6.4976     2.4863     9.293      17.7204    21.2131    9.1241     7.0666     11.9311    0.344      87.0638   
2723.6     6.3279     2.4097     8.9729     17.2536    20.5311    9.0434     5.0182     11.9005    0.337      86.7942   
2723.8     6.2122     2.1297     7.8518     15.6192    18.6242    8.6592     4.1947     11.5171    0.334      87.0277   
2724       6.1828     1.9844     7.1328     14.0301    16.7918    8.0884     4.4165     11.0765    0.339      87.4478   
2724.2     6.1828     1.9176     6.728      12.9811    15.6487    7.5689     4.6394     10.7136    0.339      87.4783   
2724.4     6.1813     1.9468     6.4864     12.2791    14.8134    7.3485     4.6959     10.5553    0.345      87.4671   
2724.6     6.1294     1.9487     6.3975     11.7626    14.2405    7.2592     4.9195     10.5267    0.342      88.0066   
2724.8     6.1294     1.9487     6.3143     11.3043    13.7933    7.2384     4.8062     10.5267    0.345      88.333    
2725       6.1294     1.9066     6.2255     10.9585    13.4128    7.341      4.7238     10.5366    0.34       87.9538   
2725.2     6.1294     1.8946     6.2218     10.7338    13.1588    7.547      4.6791     10.5803    0.339      87.4212   
2725.4     6.1794     1.8946     6.2192     10.7615    13.1998    7.7295     4.885      10.6484    0.333      86.865    
2725.6     6.2215     1.9514     6.4076     10.8769    13.0881    7.9543     5.3438     10.5843    0.333      86.2095   
2725.8     6.282      1.9515     6.3627     10.946     13.0354    8.1629     5.6071     10.4456    0.333      85.833    
2726       6.343      1.9003     6.3257     10.9867    12.9264    8.2977     4.9954     10.2448    0.336      86.054    
2726.2     6.343      2.0113     6.6135     11.2522    13.0431    8.3038     5.7963     10.0102    0.339      86.5057   
2726.4     6.343      2.0994     6.8614     11.3488    13.0338    8.3885     5.8655     9.64       0.343      86.4657   
2726.6     6.2949     2.1109     6.8915     11.3492    12.8786    8.4463     5.367      9.3555     0.345      85.8761   
2726.8     6.2092     2.1109     6.9581     11.3622    12.7957    8.4475     5.2887     9.1659     0.345      85.5078   
2727       6.0953     2.1592     7.1837     11.4213    12.7474    8.4031     5.4824     8.9853     0.344      85.5683   
2727.2     5.9767     2.165      7.2839     11.3867    12.5314    8.3294     5.5144     8.6807     0.339      85.5589   
2727.4     5.8716     2.1623     7.1676     11.2446    12.2502    8.2124     4.8084     8.381      0.339      85.5966   
2727.6     5.7567     2.1109     7.0049     11.0872    12.0255    8.0211     4.7365     8.1412     0.345      85.8844   
2727.8     5.6329     2.0816     6.9415     10.9375    11.8272    7.8835     4.6969     7.9724     0.345      86.0518   
2728       5.5172     2.0916     6.8625     10.8641    11.6262    7.7684     4.4737     7.8598     0.345      86.0374   
2728.2     5.4047     2.0093     6.6463     10.6923    11.4066    7.6529     4.148      7.804      0.339      85.8048   
2728.4     5.3299     2.0028     6.5608     10.5397    11.1299    7.5403     4.1647     7.7483     0.339      85.5389   
2728.6     5.2753     1.9691     6.4206     10.3138    10.7672    7.4824     4.0861     7.634      0.336      85.7345   
2728.8     5.2231     1.8955     6.0968     10.0758    10.4922    7.4198     3.9937     7.497      0.33       86.1695   
2729       5.154      1.9342     6.2165     9.9293     10.2984    7.3323     4.1164     7.3309     0.339      86.3147   
