~Version
 VERS              .         2.0                           : CWLS LOG ASCII STANDARD - VERSION 2.0
 WRAP              .         NO                            : ONE LINE PER DEPTH STEP
 DLM               .         SPACE                         : DELIMITING CHARACTER(SPACE TAB OR COMMA)
~Well Information
#_______________________________________________________________________________
#
#PARAMETER_NAME    .UNIT     VALUE                         : DESCRIPTION
#_______________________________________________________________________________
STRT               .m        2622                          : First reference value
STOP               .m        2792                          : Last reference value
STEP               .m        0.2                           : Step increment
NULL               .         -9999                         : Missing value
COMP               .                                       : Company
WELL               .         307                           : Well name
FLD                .                                       : Field
LOC                .                                       : Location
CNTY               .                                       : County
STAT               .                                       : State
CTRY               .                                       : Country
SRVC               .                                       : Service Company
DATE               .                                       : Date
API                .                                       : API number
EREF               .m        138.34                        : 
Pad                .         3                             : 
X                  .m        219750                        : 
Y                  .m        249950                        : 
group              .         Pad3                          : 
Интер-р            .         Старостина                    : 
Куст               .         3                             : 
Статус             .         Не проверено                  : 
Тип                .         Разведка                      : 
~Parameter Information Block
#_______________________________________________________________________________
#
#PARAMETER_NAME    .UNIT     VALUE                         : DESCRIPTION
#_______________________________________________________________________________
SET                .         LAS1                          : 
REAL_CREATION_DATE .         Ср апр 11 2012-13_17_11       : 
TLFamily_DEPTH     .         Measured Depth                : 
TLFamily_KS        .         Potential Resistivity         : 
TLFamily_KS1       .         Extra Shallow Resistivity     : 
TLFamily_KS2       .         Shallow Resistivity           : 
TLFamily_KS3       .         Medium Resistivity            : 
TLFamily_KS4       .         Deep Resistivity              : 
TLFamily_KS5       .         Extra Deep Resistivity        : 
TLFamily_LLD       .         Lateral Log Resistivity       : 
TLFamily_OKS3      .         Medium Resistivity Inverted   : 
TLFamily_RM        .         Mud Resistivity               : 
TLFamily_SP        .         Spontaneous Potential         : 
group              .         INI                           : 
~Curve Information
#_______________________________________________________________________________
#
#LOGNAME           .UNIT     LOG_ID                        : DESCRIPTION
#_______________________________________________________________________________
DEPTH              .m                                      : Measured Depth 
KS                 .ohm.m                                  : Potential Resistivity 
KS1                .ohm.m                                  : Extra Shallow Resistivity 
KS2                .ohm.m                                  : Shallow Resistivity 
KS3                .ohm.m                                  : Medium Resistivity 
KS4                .ohm.m                                  : Deep Resistivity 
KS5                .ohm.m                                  : Extra Deep Resistivity 
LLD                .ohm.m                                  : Lateral Log Resistivity 
OKS3               .ohm.m                                  : Medium Resistivity Inverted 
RM                 .ohm.m                                  : Mud Resistivity 
SP                 .mV                                     : Spontaneous Potential 
~Ascii
# ...
2662.2     5.9863     2.0274     7.2035     12.3593    13.608     7.9781     4.7758     9.3786     0.368      59.4232   
2662.4     5.9148     2.0541     7.1391     12.2223    13.1549    7.9221     4.7131     9.4019     0.374      59.5839   
2662.6     5.8184     2.0023     6.9301     12.0175    12.7355    7.8608     4.3487     9.4396     0.371      59.3884   
2662.8     5.7941     1.9413     6.7638     11.7497    12.3404    7.8021     4.0385     9.5603     0.368      58.9435   
2663       5.7083     1.9078     6.5643     11.5373    12.0855    7.7891     4.002      9.8789     0.364      58.9554   
2663.2     5.6764     1.931      6.624      11.3632    11.932     7.8425     4.3052     10.1217    0.362      58.9668   
2663.4     5.6486     1.9411     6.5805     11.2818    11.8353    7.8532     4.3774     10.2527    0.364      58.3823   
2663.6     5.6486     1.9487     6.5308     10.9985    11.647     7.8715     4.2735     10.3373    0.362      57.5482   
2663.8     5.702      1.9141     6.3469     10.6773    11.493     7.8715     4.1451     10.4171    0.363      56.9462   
2664       5.669      1.934      6.3481     10.3945    11.3129    7.8182     4.4205     10.4571    0.367      56.7915   
2664.2     5.7192     1.938      6.3075     10.1306    11.0713    7.8182     4.3828     10.4332    0.362      57.0405   
2664.4     5.7555     1.8946     6.1739     9.8289     10.7629    7.8182     4.0897     10.5296    0.362      57.248    
2664.6     5.7555     1.8946     6.2289     9.6509     10.5733    7.8241     4.2085     10.7582    0.357      57.147    
2664.8     5.793      1.8946     6.268      9.6237     10.4342    7.9175     4.4405     10.9171    0.356      57.1708   
2665       5.8516     1.8946     6.3102     9.5215     10.2795    8.0889     4.5184     10.9261    0.351      57.2007   
2665.2     5.9059     1.9479     6.3102     9.4761     10.0107    8.306      4.6296     10.9176    0.353      56.4692   
2665.4     5.9157     1.9487     6.337      9.4761     9.8294     8.4186     4.6912     10.9393    0.354      55.5574   
2665.6     5.9625     1.9789     6.4124     9.527      9.6004     8.4576     4.5533     10.9619    0.356      55.5737   
2665.8     5.9691     1.9664     6.4005     9.5237     9.3479     8.4576     4.515      11.0324    0.356      55.977    
2666       6.0002     1.9561     6.4154     9.4867     9.1436     8.4032     4.5043     11.1965    0.356      55.6902   
2666.2     6.0225     1.9487     6.4448     9.5876     9.0407     8.235      5.075      11.4168    0.361      55.1507   
2666.4     5.9701     2.0126     6.6641     9.7269     8.9105     8.0084     5.5748     11.3883    0.362      55.5088   
2666.6     6.0127     2.0192     6.6705     9.7165     8.7271     7.7246     4.4089     11.2991    0.36       56.3624   
2666.8     5.9775     2.0028     6.499      9.6069     8.4121     7.3591     4.3757     11.3529    0.363      56.3064   
2667       5.9691     2.0028     6.5351     9.5831     8.2191     6.9774     4.3147     11.5398    0.364      55.701    
2667.2     5.9691     1.9872     6.4328     9.5336     7.9578     6.6743     4.2631     11.8752    0.367      55.6304   
2667.4     5.9691     1.9487     6.3191     9.3703     7.7987     6.4172     4.3006     12.2817    0.368      55.5094   
2667.6     6.0201     1.901      6.207      9.298      7.7181     6.23       4.3693     12.7641    0.368      54.9122   
2667.8     6.0653     1.8946     6.1947     9.3082     7.754      6.1775     4.4827     13.1777    0.368      54.3924   
2668       6.1194     1.8946     6.185      9.3428     7.8299     6.3224     4.4052     13.529     0.368      54.1505   
2668.2     6.2437     1.8568     6.0871     9.4374     8.1763     6.6372     4.4891     14.2106    0.368      54.2083   
2668.4     6.411      1.8823     6.1321     9.6504     8.609      7.0414     4.7015     14.7512    0.368      54.3476   
2668.6     6.5543     1.8946     6.2468     9.9868     9.0386     7.3544     5.1366     15.0066    0.367      54.1997   
2668.8     6.7441     1.9418     6.4017     10.2023    9.4529     7.6466     5.5894     15.0258    0.362      54.1463   
2669       6.9504     1.9487     6.4966     10.2694    9.7        7.8867     5.3381     15.055     0.362      54.2278   
2669.2     7.2214     1.9148     6.4092     10.2561    9.9267     8.1686     5.3091     15.2169    0.362      53.6407   
2669.4     7.4989     1.8933     6.3915     10.3415    10.3094    8.4448     5.6798     15.4556    0.362      52.3933   
2669.6     7.6636     1.9441     6.8225     11.0282    11.0965    8.6147     7.8606     15.1092    0.36       51.5055   
2669.8     7.726      2.2682     7.9971     12.066     11.9676    8.632      19.2198    14.0341    0.366      51.545    
2670       7.7026     2.4909     8.6645     12.8377    12.3091    8.4634     8.9949     12.6949    0.366      51.9414   
2670.2     7.5405     2.5435     8.8056     12.9429    11.9976    8.0873     6.0268     11.9902    0.366      51.7924   
2670.4     7.2841     2.4108     8.6332     12.9451    11.6694    7.5285     5.4128     11.7124    0.363      51.3991   
2670.6     7.0498     2.4338     8.9662     13.0501    11.3763    7.0195     5.738      11.5182    0.365      52.042    
2670.8     6.8813     2.3357     8.8971     13.2131    11.0839    6.5994     5.2886     11.4007    0.362      53.3204   
2671       6.7601     2.2731     8.5771     13.1378    10.6617    6.2692     4.7871     11.3912    0.362      53.5826   
2671.2     6.6464     2.171      8.0404     12.9693    10.2691    5.9873     4.3846     11.5893    0.362      52.742    
2671.4     6.5608     2.1109     7.6862     12.8084    9.9475     5.7601     4.488      11.7675    0.362      51.9436   
2671.6     6.5567     2.0847     7.5124     12.8651    9.8338     5.5822     4.9873     11.9275    0.362      51.49     
2671.8     6.5462     2.0569     7.3498     13.0185    9.7967     5.5156     4.8477     12.0787    0.36       50.9365   
2672       6.5033     2.0724     7.356      13.1546    9.8381     5.4183     4.913      12.3567    0.36       50.2854   
2672.2     6.5033     2.0915     7.2781     12.9746    9.8844     5.3447     5.1183     12.59      0.356      50.0518   
2672.4     6.5033     2.0569     7.208      12.631     9.9459     5.2812     5.0033     12.7763    0.356      50.5964   
2672.6     6.5512     2.0717     7.2045     12.2904    10.0604    5.1658     5.1752     12.9355    0.356      51.5333   
2672.8     6.5567     2.0652     7.1669     12.0588    10.202     5.0508     5.1473     13.0502    0.358      52.2162   
2673       6.506      2.0832     7.1693     11.8751    10.3885    4.9363     5.3921     13.1664    0.362      52.4896   
2673.2     6.5033     2.1109     7.2698     11.7124    10.504     4.8227     5.4137     13.1767    0.362      52.4091   
2673.4     6.4976     2.1109     7.246      11.4979    10.5642    4.7065     5.3811     13.1186    0.363      51.8332   
2673.6     6.4499     2.1267     7.1861     11.238     10.5192    4.5366     4.8269     13.2615    0.365      51.1211   
2673.8     6.4034     2.0594     6.9725     10.973     10.412     4.4026     4.4854     13.669     0.362      50.9708   
2674       6.4198     2.0028     6.891      10.6724    10.264     4.3111     4.5804     14.2169    0.367      51.1111   
2674.2     6.5283     1.9364     6.6097     10.3861    10.0098    4.2485     4.413      14.8921    0.368      50.7914   
2674.4     6.6439     1.8688     6.378      10.1829    9.7452     4.3049     4.6713     15.6243    0.368      50.1747   
2674.6     6.8124     1.8406     6.3102     10.2592    9.7763     4.4205     5.2138     16.6455    0.368      50.1835   
2674.8     6.9266     1.932      6.4839     10.5534    9.9872     4.6073     5.5188     17.7702    0.368      50.783    
2675       7.049      2.0028     6.6913     10.9114    10.2384    4.8341     6.0416     18.9506    0.368      51.0453   
2675.2     7.2514     2.0028     6.78       11.0966    10.3915    5.0611     5.8729     20.1586    0.369      50.6878   
2675.4     7.4215     2.0028     6.8218     11.2743    10.6367    5.2817     5.9339     21.5605    0.37       50.0922   
