~Version
 VERS              .         2.0                           : CWLS LOG ASCII STANDARD - VERSION 2.0
 WRAP              .         NO                            : ONE LINE PER DEPTH STEP
 DLM               .         SPACE                         : DELIMITING CHARACTER(SPACE TAB OR COMMA)
~Well Information
#_______________________________________________________________________________
#
#PARAMETER_NAME    .UNIT     VALUE                         : DESCRIPTION
#_______________________________________________________________________________
STRT               .m        2622                          : First reference value
STOP               .m        2792                          : Last reference value
STEP               .m        0.2                           : Step increment
NULL               .         -9999                         : Missing value
COMP               .                                       : Company
WELL               .         307                           : Well name
FLD                .                                       : Field
LOC                .                                       : Location
CNTY               .                                       : County
STAT               .                                       : State
CTRY               .                                       : Country
SRVC               .                                       : Service Company
DATE               .                                       : Date
API                .                                       : API number
EREF               .m        138.34                        : 
Pad                .         3                             : 
X                  .m        219750                        : 
Y                  .m        249950                        : 
group              .         Pad3                          : 
Интер-р            .         Старостина                    : 
Куст               .         3                             : 
Статус             .         Не проверено                  : 
Тип                .         Разведка                      : 
~Parameter Information Block
#_______________________________________________________________________________
#
#PARAMETER_NAME    .UNIT     VALUE                         : DESCRIPTION
#_______________________________________________________________________________
SET                .         LAS1                          : 
REAL_CREATION_DATE .         Ср апр 11 2012-13_17_11       : 
TLFamily_DEPTH     .         Measured Depth                : 
TLFamily_KS        .         Potential Resistivity         : 
TLFamily_KS1       .         Extra Shallow Resistivity     : 
TLFamily_KS2       .         Shallow Resistivity           : 
TLFamily_KS3       .         Medium Resistivity            : 
TLFamily_KS4       .         Deep Resistivity              : 
TLFamily_KS5       .         Extra Deep Resistivity        : 
TLFamily_LLD       .         Lateral Log Resistivity       : 
TLFamily_OKS3      .         Medium Resistivity Inverted   : 
TLFamily_RM        .         Mud Resistivity               : 
TLFamily_SP        .         Spontaneous Potential         : 
group              .         INI                           : 
~Curve Information
#_______________________________________________________________________________
#
#LOGNAME           .UNIT     LOG_ID                        : DESCRIPTION
#_______________________________________________________________________________
DEPTH              .m                                      : Measured Depth 
KS                 .ohm.m                                  : Potential Resistivity 
KS1                .ohm.m                                  : Extra Shallow Resistivity 
KS2                .ohm.m                                  : Shallow Resistivity 
KS3                .ohm.m                                  : Medium Resistivity 
KS4                .ohm.m                                  : Deep Resistivity 
KS5                .ohm.m                                  : Extra Deep Resistivity 
LLD                .ohm.m                                  : Lateral Log Resistivity 
OKS3               .ohm.m                                  : Medium Resistivity Inverted 
RM                 .ohm.m                                  : Mud Resistivity 
SP                 .mV                                     : Spontaneous Potential 
~Ascii
# ...
2742.6     7.0587     2.5021     8.8929     15.5729    16.3835    4.9823     4.9238     12.4449    0.35       67.1494   
2742.8     6.8865     2.3374     8.2017     14.7835    14.6409    4.7536     4.1654     12.9387    0.345      68.4402   
2743       6.8077     2.1087     7.5151     13.2314    12.48      4.4444     4.5348     13.6974    0.346      69.1335   
2743.2     6.8412     1.9033     6.7776     12.1751    10.9289    4.1299     4.4107     14.6961    0.354      68.8837   
2743.4     6.9401     1.8612     6.4156     11.3231    9.8476     3.9478     4.6161     16.1032    0.349      68.5455   
2743.6     7.077      1.7703     5.9617     10.9032    9.473      3.9708     5.4807     17.5068    0.342      68.46     
2743.8     7.2562     1.7841     5.8007     10.6445    9.5076     4.046      5.4573     19.0372    0.342      67.8345   
2744       7.5094     1.8104     5.8843     10.393     9.6553     4.2195     5.5985     20.8461    0.35       66.4299   
2744.2     7.936      1.6739     5.2403     9.8309     9.4781     4.365      5.242      22.0447    0.35       64.9661   
2744.4     8.4085     1.5812     5.049      9.1527     9.2404     4.4686     8.5034     22.4581    0.343      63.9298   
2744.6     8.903      1.6243     5.225      9.1392     9.5819     4.6703     9.6763     22.4439    0.347      62.8483   
2744.8     9.3629     1.712      5.4845     9.2247     10.1336    5.0862     11.4118    22.7472    0.356      61.4583   
2745       9.7206     1.8298     5.9037     9.4563     10.8335    5.5686     12.3177    23.0884    0.352      60.1403   
2745.2     10.0467    1.9057     6.3901     9.9176     11.8002    6.0922     12.8226    23.4298    0.345      58.9614   
2745.4     10.2895    2.0095     7.013      10.4949    12.8481    6.6163     13.0336    23.846     0.352      57.9146   
2745.6     10.5279    2.1036     7.4209     11.0895    13.8339    7.1459     12.0699    24.5467    0.362      57.2761   
2745.8     10.7111    2.1109     7.6577     11.7809    14.6459    7.6856     12.2457    26.1284    0.356      57.3246   
2746       10.9029    2.1409     7.937      12.3697    15.325     8.2398     11.6095    28.0487    0.349      57.4784   
2746.2     11.0632    2.0832     7.8533     13.1376    16.1672    8.9112     11.8951    29.8201    0.346      57.0303   
2746.4     11.1813    2.1789     8.3148     14.1975    17.295     9.7542     13.1299    32.0874    0.358      56.4827   
2746.6     11.2476    2.2494     8.7146     15.6531    18.8719    10.9532    12.2129    34.3634    0.365      56.613    
2746.8     11.3732    2.3249     9.0387     16.8523    20.6518    12.5455    11.0488    36.0927    0.356      57.2211   
2747       11.6095    2.2649     8.9444     17.6559    22.6265    14.5314    10.543     37.5096    0.35       57.6186   
2747.2     11.9232    2.1625     8.5855     18.1123    24.7632    16.4201    10.4197    39.2779    0.353      57.7568   
2747.4     12.3322    2.0459     8.356      18.5376    27.0279    17.0094    10.8052    41.078     0.355      57.8758   
2747.6     12.8955    2.0028     8.2814     18.6965    27.7871    16.8866    30.1596    40.1805    0.354      58.1283   
2747.8     13.989     1.9666     7.8791     15.6653    22.9553    18.0873    38.6151    32.1561    0.341      58.4376   
2748       14.9518    0.9738     4.2331     14.2183    21.1112    19.154     27.8605    24.2094    0.312      58.5217   
2748.2     15.05      1.8308     8.0092     17.1972    25.2005    20.5778    31.3638    23.7056    0.339      58.4865   
2748.4     14.5853    2.397      10.2943    21.701     31.2591    23.3802    31.5622    27.2589    0.355      58.3184   
2748.6     14.6483    2.3539     10.8685    23.2607    32.9471    27.689     71.151     26.643     0.347      57.5853   
2748.8     14.7615    2.4657     11.7754    24.7113    34.2819    29.5731    149.4852   23.4098    0.351      56.7018   
2749       14.5167    2.6784     12.6186    27.3731    36.9061    31.6187    125.714    20.5425    0.361      56.4278   
2749.2     14.1441    3.0132     13.5997    29.9755    39.202     33.7931    40.9504    18.1509    0.366      56.4426   
2749.4     13.5018    2.9818     13.6313    32.9075    41.7753    35.8649    35.446     16.6481    0.356      56.1702   
2749.6     12.849     3.33       15.634     35.2707    43.481     37.1241    10.9203    15.6588    0.356      55.8661   
2749.8     12.2955    3.1011     14.5891    36.241     43.2114    37.7824    10.2064    15.2462    0.351      56.0384   
2750       11.7904    2.8809     13.6774    35.7108    41.4756    36.6886    10.9418    14.9709    0.357      56.3782   
2750.2     11.3642    2.8138     13.3038    35.043     41.0049    34.9774    11.8239    14.8259    0.364      56.27     
2750.4     10.9211    2.8138     13.1088    33.4207    41.1666    33.9475    11.2531    14.8305    0.361      56.0463   
2750.6     10.4316    2.8138     12.8261    33.8061    42.2689    33.1241    10.2825    15.4076    0.354      56.2225   
2750.8     9.8424     2.8645     13.2411    35.3587    44.657     31.7905    18.2063    15.9021    0.353      56.6641   
2751       9.2708     3.0558     13.9793    36.578     46.9369    30.0921    16.946     15.6164    0.361      57.1176   
2751.2     8.8255     3.0367     13.5168    34.9878    46.641     27.9363    7.1467     14.6164    0.367      57.7352   
2751.4     8.4173     2.7585     11.9528    31.1685    43.5622    25.113     5.8428     13.5491    0.355      58.7316   
2751.6     8.0936     2.51       10.8209    27.6295    40.2461    21.7607    6.1613     12.7052    0.35       59.9119   
2751.8     7.8008     2.3527     9.9388     24.8407    38.0447    18.7213    6.2263     11.9481    0.353      61.2446   
2752       7.6221     2.2706     9.3528     22.1335    35.4649    16.3194    5.6837     11.4011    0.359      62.8047   
2752.2     7.5018     2.087      8.199      19.7088    31.9693    14.3413    5.07       11.1873    0.35       64.1046   
2752.4     7.4153     2.0028     7.6433     17.642     27.6631    12.7788    6.0071     11.1159    0.345      64.7108   
2752.6     7.3596     1.9548     7.3029     16.3415    25.6875    11.5123    6.5041     11.0603    0.347      65.3108   
2752.8     7.2552     2.0362     7.225      15.4031    24.2267    10.4662    5.7663     11.0053    0.359      66.6902   
2753       7.2104     2.0668     7.1502     14.3656    22.1338    9.6435     4.7492     11.4269    0.353      67.9912   
2753.2     7.2511     1.8673     6.3591     13.2008    19.7718    8.96       4.8156     12.1317    0.345      68.0364   
2753.4     7.3286     1.7602     6.1219     12.2685    18.1132    8.3071     6.9878     12.5715    0.348      67.5633   
2753.6     7.4469     1.859      6.3583     12.0167    17.4122    7.8616     7.8337     12.5345    0.354      68.0131   
2753.8     7.4648     1.9787     6.5193     11.9481    16.6903    7.6584     8.09       12.4216    0.35       69.1751   
2754       7.4648     2.0149     6.4872     11.6793    15.8903    7.4828     6.6328     12.6076    0.348      69.669    
2754.2     7.4848     1.938      6.3065     11.2731    15.1398    7.3147     6.1417     13.1054    0.355      69.4379   
2754.4     7.5478     1.8507     6.2249     10.9651    14.668     7.2917     6.9942     13.4037    0.355      69.2635   
2754.6     7.623      1.8406     6.3507     10.9566    14.5428    7.3872     7.7656     13.4077    0.345      69.0661   
2754.8     7.6402     1.8916     6.5268     11.1253    14.6778    7.5885     8.0589     13.3654    0.353      68.8713   
2755       7.6784     1.9487     6.593      11.2296    15.0653    8.0733     7.3226     13.4645    0.355      68.8958   
2755.2     7.7251     1.9382     6.5274     11.2336    15.7336    8.8415     6.7046     13.6983    0.346      68.916    
2755.4     7.7598     1.8509     6.4892     11.5612    16.8886    9.9215     7.0757     14.0721    0.345      68.4448   
2755.6     7.8234     1.8874     6.7898     12.2064    18.3238    11.4558    9.1566     14.2199    0.353      67.4069   
2755.8     7.8956     1.9285     6.9467     12.9309    19.9123    13.6304    8.9456     14.4032    0.354      66.6706   
