~Version
 VERS              .         2.0                           : CWLS LOG ASCII STANDARD - VERSION 2.0
 WRAP              .         NO                            : ONE LINE PER DEPTH STEP
 DLM               .         SPACE                         : DELIMITING CHARACTER(SPACE TAB OR COMMA)
~Well Information
#_______________________________________________________________________________
#
#PARAMETER_NAME    .UNIT     VALUE                         : DESCRIPTION
#_______________________________________________________________________________
STRT               .m        2622                          : First reference value
STOP               .m        2792                          : Last reference value
STEP               .m        0.2                           : Step increment
NULL               .         -9999                         : Missing value
COMP               .                                       : Company
WELL               .         307                           : Well name
FLD                .                                       : Field
LOC                .                                       : Location
CNTY               .                                       : County
STAT               .                                       : State
CTRY               .                                       : Country
SRVC               .                                       : Service Company
DATE               .                                       : Date
API                .                                       : API number
EREF               .m        138.34                        : 
Pad                .         3                             : 
X                  .m        219750                        : 
Y                  .m        249950                        : 
group              .         Pad3                          : 
Интер-р            .         Старостина                    : 
Куст               .         3                             : 
Статус             .         Не проверено                  : 
Тип                .         Разведка                      : 
~Parameter Information Block
#_______________________________________________________________________________
#
#PARAMETER_NAME    .UNIT     VALUE                         : DESCRIPTION
#_______________________________________________________________________________
SET                .         LAS3                          : 
REAL_CREATION_DATE .         Ср апр 11 2012-13_17_11       : 
TLFamily_DEPTH     .         Measured Depth                : 
TLFamily_GR        .         Gamma Ray                     : 
TLFamily_TNPH      .         Neutron Porosity              : 
group              .         INI                           : 
~Curve Information
#_______________________________________________________________________________
#
#LOGNAME           .UNIT     LOG_ID                        : DESCRIPTION
#_______________________________________________________________________________
DEPTH              .m                                      : Measured Depth 
GR                 .gAPI                                   :  
TNPH               .v/v                                    : Neutron Porosity 
~Ascii
# ...
2767.8     86.25      0.235     
2768       82.11      0.252     
2768.2     79.29      0.264     
2768.4     75.01      0.265     
2768.6     73.48      0.275     
2768.8     74.23      0.305     
2769       77.39999   0.318     
2769.2     83.28      0.293     
2769.4     87.89      0.255     
2769.6     85.88      0.226     
2769.8     82.7       0.224     
2770       82.11      0.236     
2770.2     84.78      0.246     
2770.4     91.11      0.265     
2770.6     98.35      0.275     
2770.8     99.82001   0.295     
2771       91.13      0.331     
2771.2     75.05      0.357     
2771.4     56.74      0.381     
2771.6     50.22      0.371     
2771.8     61.39      0.323     
2772       79.20999   0.278     
2772.2     87.87      0.249     
2772.4     89.1       0.237     
2772.6     92.85      0.223     
2772.8     92.53999   0.211     
2773       89.86      0.216     
2773.2     87.01      0.228     
2773.4     86.84      0.236     
2773.6     93.63      0.246     
2773.8     98.97      0.248     
2774       107.77     0.263     
2774.2     119.62     0.288     
2774.4     125.2      0.308     
2774.6     125.41     0.312     
2774.8     126.38     0.293     
2775       118.08     0.283     
2775.2     103        0.294     
2775.4     89.23      0.299     
2775.6     73.07      0.278     
2775.8     60.3       0.262     
2776       54.21      0.244     
2776.2     52.4       0.217     
2776.4     53.06      0.203     
2776.6     54.91      0.204     
2776.8     56.63      0.203     
2777       56.16      0.198     
2777.2     60.53001   0.194     
2777.4     72.59      0.206     
2777.6     85.14      0.209     
2777.8     94.12      0.215     
2778       98.16      0.23      
2778.2     101.96     0.237     
2778.4     104.9      0.235     
2778.6     105.49     0.236     
2778.8     105.96     0.249     
2779       103.93     0.254     
2779.2     102.25     0.247     
2779.4     104.99     0.249     
2779.6     109.97     0.259     
2779.8     109.03     0.269     
2780       107.24     0.267     
2780.2     105.78     0.263     
2780.4     107.24     0.27      
2780.6     110.19     0.274     
2780.8     111.52     0.266     
2781       110.18     0.254     
2781.2     110.77     0.257     
2781.4     112.03     0.279     
2781.6     112.43     0.308     
2781.8     113.62     0.325     
2782       112.51     0.33      
2782.2     110.01     0.328     
2782.4     106.24     0.317     
2782.6     100.06     0.309     
2782.8     97.28      0.297     
2783       99.02      0.277     
2783.2     101.31     0.256     
2783.4     100.64     0.254     
2783.6     98.63      0.262     
2783.8     92.71      0.253     
2784       88.03001   0.249     
2784.2     88.64999   0.247     
2784.4     86.63      0.258     
2784.6     81.87      0.263     
2784.8     76.32      0.253     
2785       76.22      0.24      
2785.2     83.96      0.236     
2785.4     91.42      0.239     
2785.6     93.45      0.236     
2785.8     91.88      0.235     
2786       88.25      0.245     
2786.2     86.87      0.268     
2786.4     86.81      0.292     
2786.6     87.51      0.3       
2786.8     90.5       0.282     
2787       88.89      0.26      
2787.2     81.42999   0.249     
2787.4     75.97      0.238     
2787.6     76.3       0.224     
2787.8     78.18      0.213     
2788       80.9       0.215     
2788.2     85.3       0.215     
2788.4     86.26      0.224     
2788.6     89.1       0.237     
2788.8     91.73      0.245     
2789       94.65      0.26      
2789.2     96.86      0.269     
2789.4     91.8       0.255     
2789.6     78.76      0.248     
2789.8     70.24001   0.242     
2790       67.45      0.234     
2790.2     68.45      0.233     
2790.4     72.51      0.236     
2790.6     73.06      0.247     
2790.8     70.78      0.259     
2791       68.35      0.249     
2791.2     67.23      0.228     
2791.4     67.67      0.224     
2791.6     66.04      0.229     
2791.8     65.4       0.227     
2792       66.09      0.225     
