~Version
 VERS              .         2.0                           : CWLS LOG ASCII STANDARD - VERSION 2.0
 WRAP              .         NO                            : ONE LINE PER DEPTH STEP
 DLM               .         SPACE                         : DELIMITING CHARACTER(SPACE TAB OR COMMA)
~Well Information
#_______________________________________________________________________________
#
#PARAMETER_NAME    .UNIT     VALUE                         : DESCRIPTION
#_______________________________________________________________________________
STRT               .m        2622                          : First reference value
STOP               .m        2792                          : Last reference value
STEP               .m        0.2                           : Step increment
NULL               .         -9999                         : Missing value
COMP               .                                       : Company
WELL               .         307                           : Well name
FLD                .                                       : Field
LOC                .                                       : Location
CNTY               .                                       : County
STAT               .                                       : State
CTRY               .                                       : Country
SRVC               .                                       : Service Company
DATE               .                                       : Date
API                .                                       : API number
EREF               .m        138.34                        : 
Pad                .         3                             : 
X                  .m        219750                        : 
Y                  .m        249950                        : 
group              .         Pad3                          : 
Интер-р            .         Старостина                    : 
Куст               .         3                             : 
Статус             .         Не проверено                  : 
Тип                .         Разведка                      : 
~Parameter Information Block
#_______________________________________________________________________________
#
#PARAMETER_NAME    .UNIT     VALUE                         : DESCRIPTION
#_______________________________________________________________________________
SET                .         LAS1                          : 
REAL_CREATION_DATE .         Ср апр 11 2012-13_17_11       : 
TLFamily_DEPTH     .         Measured Depth                : 
TLFamily_KS        .         Potential Resistivity         : 
TLFamily_KS1       .         Extra Shallow Resistivity     : 
TLFamily_KS2       .         Shallow Resistivity           : 
TLFamily_KS3       .         Medium Resistivity            : 
TLFamily_KS4       .         Deep Resistivity              : 
TLFamily_KS5       .         Extra Deep Resistivity        : 
TLFamily_LLD       .         Lateral Log Resistivity       : 
TLFamily_OKS3      .         Medium Resistivity Inverted   : 
TLFamily_RM        .         Mud Resistivity               : 
TLFamily_SP        .         Spontaneous Potential         : 
group              .         INI                           : 
~Curve Information
#_______________________________________________________________________________
#
#LOGNAME           .UNIT     LOG_ID                        : DESCRIPTION
#_______________________________________________________________________________
DEPTH              .m                                      : Measured Depth 
KS                 .ohm.m                                  : Potential Resistivity 
KS1                .ohm.m                                  : Extra Shallow Resistivity 
KS2                .ohm.m                                  : Shallow Resistivity 
KS3                .ohm.m                                  : Medium Resistivity 
KS4                .ohm.m                                  : Deep Resistivity 
KS5                .ohm.m                                  : Extra Deep Resistivity 
LLD                .ohm.m                                  : Lateral Log Resistivity 
OKS3               .ohm.m                                  : Medium Resistivity Inverted 
RM                 .ohm.m                                  : Mud Resistivity 
SP                 .mV                                     : Spontaneous Potential 
~Ascii
# ...
2702.4     8.6664     2.7925     11.5769    27.7094    36.2141    22.1828    8.45       9.6384     0.374      51.8311   
2702.6     8.2873     2.7067     11.0743    26.443     35.4221    20.9161    7.8659     9.2115     0.37       52.4816   
2702.8     7.8724     2.6236     10.7695    24.8123    34.3003    19.6573    6.3994     8.8072     0.368      52.5306   
2703       7.4902     2.6305     10.4864    23.4776    33.1445    18.3112    7.0981     8.4662     0.368      52.5359   
2703.2     7.0909     2.5494     10.1015    21.891     31.5688    16.9771    5.7052     8.1947     0.368      52.7515   
2703.4     6.7474     2.4585     9.6265     20.3017    29.7248    15.6042    5.0017     7.9667     0.366      52.7205   
2703.6     6.5039     2.3049     8.9716     18.9246    27.6125    14.4042    4.1932     7.8519     0.362      52.2677   
2703.8     6.2416     2.1742     8.3484     17.546     25.6207    13.4029    3.7184     7.9824     0.362      52.0168   
2704       6.0712     2.0595     7.7111     16.4137    24.0598    12.5494    3.5819     8.3918     0.359      52.1936   
2704.2     5.9484     2.0028     7.4295     15.5327    22.7641    11.8698    3.9738     8.6473     0.358      52.3892   
2704.4     5.8657     2.0028     7.1842     14.7586    21.4324    11.3298    4.2571     8.7592     0.356      52.3656   
2704.6     5.8984     1.975      6.7868     13.8393    19.8582    10.872     3.6346     8.8718     0.351      52.0839   
2704.8     5.8738     1.8981     6.3834     12.9823    18.46      10.4771    4.1949     9.0494     0.356      51.8137   
2705       5.9216     1.9101     6.3183     12.3671    17.6987    10.1552    4.3425     9.1638     0.356      51.5449   
2705.2     5.9691     1.8662     6.2372     11.9562    17.1442    9.9724     4.3681     9.1504     0.36       51.1053   
2705.4     5.9691     2.0009     6.4987     11.6493    16.7833    9.8246     5.2999     9.0372     0.362      50.942    
2705.6     5.8987     2.0726     6.6605     11.469     16.3308    9.6442     5.2018     8.8132     0.364      51.3176   
2705.8     5.7854     2.1765     6.9117     11.0821    15.502     9.3681     4.6185     8.4954     0.368      51.7222   
2706       5.6709     2.147      6.7893     10.5008    14.3559    9.0296     3.8593     8.4157     0.368      51.7116   
2706.2     5.503      2.0312     6.541      9.8371     13.1056    8.6754     3.5181     8.5759     0.368      51.5404   
2706.4     5.4307     1.9298     6.3487     9.3882     12.1138    8.3089     3.48       8.9115     0.368      51.627    
2706.6     5.426      1.8908     6.1635     9.0202     11.2501    8.0825     3.4939     9.3983     0.365      51.8095   
2706.8     5.4204     1.8002     5.8671     8.8521     10.6605    7.9416     3.6053     10.013     0.361      51.6901   
2707       5.4034     1.8417     5.9061     8.7804     10.1231    7.8642     4.0612     10.4941    0.36       51.5669   
2707.2     5.4777     1.7944     5.6222     8.7117     9.4115     7.8182     3.9218     11.1105    0.356      51.7806   
2707.4     5.5257     1.8352     5.7067     8.5579     8.878      7.7762     3.9146     11.3638    0.355      51.9626   
2707.6     5.5843     1.7566     5.4627     8.4687     8.4871     7.8203     3.7014     11.3235    0.351      51.847    
2707.8     5.6009     1.823      5.647      8.3099     8.1477     7.9215     4.5599     11.1875    0.356      51.9791   
2708       5.6629     1.8355     5.6499     8.1315     7.9066     8.1847     4.6429     11.0315    0.356      52.6223   
2708.2     5.702      1.7865     5.4747     7.9024     7.7998     8.7123     4.0212     11.2804    0.361      52.8471   
2708.4     5.7308     1.7865     5.5933     7.778      7.9573     9.755      3.9081     11.8717    0.367      52.2905   
2708.6     5.8735     1.7355     5.3885     7.7738     8.4534     11.3639    3.5935     12.9557    0.366      52.0171   
2708.8     6.0596     1.5988     5.1373     7.9503     9.2495     13.9332    3.5144     14.2345    0.362      52.3951   
2709       6.3239     1.6057     5.38       8.5144     10.5642    16.9176    4.214      15.3845    0.362      52.6341   
2709.2     6.6668     1.6243     5.4469     9.4912     12.3908    19.1653    5.1662     16.4065    0.356      52.1131   
2709.4     6.9307     1.7726     6.0591     10.7944    14.249     20.2428    6.0087     16.4605    0.355      51.4855   
2709.6     7.0512     2.1302     7.196      12.3518    15.6641    20.4352    29.8376    15.0048    0.367      51.5869   
2709.8     7.1393     2.5051     8.3151     12.9828    15.5129    19.7157    16.3137    12.8855    0.368      51.6679   
2710       7.0275     2.4037     7.8827     12.8517    14.3419    18.184     7.3315     11.3398    0.363      51.2919   
2710.2     6.8019     2.3518     8.092      12.1264    12.8208    16.0051    4.6791     10.3054    0.36       51.1478   
2710.4     6.7156     2.2408     8.0029     11.5749    11.6818    13.9576    4.8253     9.6502     0.356      51.4602   
2710.6     6.576      2.1274     7.8803     11.0679    10.6664    12.3696    4.3573     9.1943     0.354      51.8625   
2710.8     6.5436     2.0715     7.6971     10.7856    9.9219     11.0596    4.4923     8.8533     0.354      52.0318   
2711       6.5033     2.0452     7.4234     10.7591    9.4263     10.0594    4.5315     8.6122     0.356      51.7784   
2711.2     6.4548     2.0202     7.1761     11.2192    9.2549     9.387      4.6822     8.4252     0.358      51.3384   
2711.4     6.3379     2.1263     7.5886     12.0485    9.4287     8.8651     5.1496     8.3307     0.362      51.0063   
2711.6     6.1509     2.22       7.9015     13.3111    9.8835     8.3517     5.513      8.1207     0.364      50.7853   
2711.8     5.8852     2.4067     8.4548     14.2951    10.081     7.8269     7.1872     7.6529     0.365      50.8458   
2712       5.6462     2.4349     8.2946     14.39      9.9377     7.1579     5.7188     7.1757     0.374      51.034    
2712.2     5.3129     2.3748     8.0505     13.6252    9.4314     6.3203     3.9829     6.9126     0.371      51.0651   
2712.4     5.0373     2.2203     7.6396     12.751     8.8129     5.4951     3.6342     6.8407     0.37       51.5858   
2712.6     4.8571     2.0506     7.0632     11.6982    8.2255     4.8073     2.9761     6.9003     0.363      52.8223   
2712.8     4.7138     1.9351     6.7027     10.8605    7.779      4.1961     3.0387     7.0236     0.357      53.5897   
2713       4.598      1.8464     6.2428     10.1886    7.5315     3.7379     2.9999     7.1946     0.356      52.9659   
2713.2     4.5376     1.7898     5.8711     9.6594     7.4597     3.3563     2.953      7.3084     0.351      51.6343   
2713.4     4.4833     1.7865     5.7105     9.2554     7.5588     3.0534     3.1988     7.3492     0.356      50.9084   
2713.6     4.4735     1.7865     5.5323     8.9088     7.6533     2.8248     3.0371     7.4097     0.35       50.8354   
2713.8     4.4735     1.7767     5.3538     8.4736     7.6627     2.6577     2.9748     7.5338     0.35       50.675    
2714       4.4735     1.7172     5.1332     8.1029     7.5857     2.4975     2.948      7.7472     0.352      50.5068   
2714.2     4.4735     1.6784     5.1004     7.7532     7.4723     2.3923     3.0638     7.975      0.356      50.7555   
2714.4     4.5243     1.7264     5.1306     7.4998     7.3614     2.3316     3.2497     8.2322     0.356      51.0536   
2714.6     4.5696     1.7324     5.1004     7.3299     7.2681     2.2772     3.3829     8.5237     0.356      50.9808   
2714.8     4.5877     1.7324     5.1004     7.2073     7.1873     2.2743     3.3931     8.9138     0.356      50.908    
2715       4.6516     1.7865     5.2008     7.0854     7.0808     2.2239     3.443      9.4837     0.359      51.1808   
2715.2     4.6872     1.7865     5.241      7.0678     7.0341     2.2311     3.561      9.9683     0.362      51.2639   
2715.4     4.6872     1.8068     5.3851     7.1075     6.9793     2.2436     3.5663     10.4012    0.367      50.7721   
2715.6     4.6872     1.8178     5.3953     7.1213     6.8902     2.2772     3.6996     10.8492    0.362      50.3579   
