~Version
 VERS              .         2.0                           : CWLS LOG ASCII STANDARD - VERSION 2.0
 WRAP              .         NO                            : ONE LINE PER DEPTH STEP
 DLM               .         SPACE                         : DELIMITING CHARACTER(SPACE TAB OR COMMA)
~Well Information
#_______________________________________________________________________________
#
#PARAMETER_NAME    .UNIT     VALUE                         : DESCRIPTION
#_______________________________________________________________________________
STRT               .m        2622                          : First reference value
STOP               .m        2792                          : Last reference value
STEP               .m        0.2                           : Step increment
NULL               .         -9999                         : Missing value
COMP               .                                       : Company
WELL               .         307                           : Well name
FLD                .                                       : Field
LOC                .                                       : Location
CNTY               .                                       : County
STAT               .                                       : State
CTRY               .                                       : Country
SRVC               .                                       : Service Company
DATE               .                                       : Date
API                .                                       : API number
EREF               .m        138.34                        : 
Pad                .         3                             : 
X                  .m        219750                        : 
Y                  .m        249950                        : 
group              .         Pad3                          : 
Интер-р            .         Старостина                    : 
Куст               .         3                             : 
Статус             .         Не проверено                  : 
Тип                .         Разведка                      : 
~Parameter Information Block
#_______________________________________________________________________________
#
#PARAMETER_NAME    .UNIT     VALUE                         : DESCRIPTION
#_______________________________________________________________________________
SET                .         LAS1                          : 
REAL_CREATION_DATE .         Ср апр 11 2012-13_17_11       : 
TLFamily_DEPTH     .         Measured Depth                : 
TLFamily_KS        .         Potential Resistivity         : 
TLFamily_KS1       .         Extra Shallow Resistivity     : 
TLFamily_KS2       .         Shallow Resistivity           : 
TLFamily_KS3       .         Medium Resistivity            : 
TLFamily_KS4       .         Deep Resistivity              : 
TLFamily_KS5       .         Extra Deep Resistivity        : 
TLFamily_LLD       .         Lateral Log Resistivity       : 
TLFamily_OKS3      .         Medium Resistivity Inverted   : 
TLFamily_RM        .         Mud Resistivity               : 
TLFamily_SP        .         Spontaneous Potential         : 
group              .         INI                           : 
~Curve Information
#_______________________________________________________________________________
#
#LOGNAME           .UNIT     LOG_ID                        : DESCRIPTION
#_______________________________________________________________________________
DEPTH              .m                                      : Measured Depth 
KS                 .ohm.m                                  : Potential Resistivity 
KS1                .ohm.m                                  : Extra Shallow Resistivity 
KS2                .ohm.m                                  : Shallow Resistivity 
KS3                .ohm.m                                  : Medium Resistivity 
KS4                .ohm.m                                  : Deep Resistivity 
KS5                .ohm.m                                  : Extra Deep Resistivity 
LLD                .ohm.m                                  : Lateral Log Resistivity 
OKS3               .ohm.m                                  : Medium Resistivity Inverted 
RM                 .ohm.m                                  : Mud Resistivity 
SP                 .mV                                     : Spontaneous Potential 
~Ascii
# ...
2689       12.8063    2.5435     10.6701    24.0293    28.2314    14.4368    15.969     25.6385    0.356      52.9903   
2689.2     12.8063    2.563      10.8444    24.2986    28.8604    14.7351    15.5       25.4526    0.36       53.2556   
2689.4     12.7552    2.6457     11.0698    24.5455    29.5049    15.009     14.738     25.6036    0.36       52.7304   
2689.6     12.7529    2.6192     11.0733    24.469     29.8494    15.289     13.1706    25.8611    0.362      52.033    
2689.8     12.7424    2.5449     10.8489    24.148     29.9462    15.5073    12.4756    26.1705    0.36       51.9587   
2690       12.7529    2.4894     10.6558    23.9849    30.2504    15.7137    13.4787    26.4559    0.357      52.0693   
2690.2     12.7988    2.5296     10.7539    24.0961    30.8467    16.0071    14.1995    26.4297    0.361      52.0558   
2690.4     12.8302    2.5154     10.6435    24.4145    31.8411    16.4403    14.2703    26.4641    0.359      52.283    
2690.6     12.8597    2.5435     10.8341    24.6315    32.797     16.8997    14.1152    26.4074    0.368      52.7933   
2690.8     12.8597    2.5701     10.8501    24.955     33.7764    17.3228    14.8118    26.343     0.368      53.1576   
2691       12.8597    2.5975     10.9525    25.0689    34.2856    17.8413    14.4352    26.0679    0.368      53.0192   
2691.2     12.8597    2.5604     10.8425    25.0287    34.5384    18.2932    13.9419    25.8423    0.369      52.6661   
2691.4     12.8597    2.5975     10.8811    24.964     34.7098    18.7481    13.4434    25.6165    0.374      52.4533   
2691.6     12.9253    2.5597     10.7798    24.7386    34.8064    19.303     12.6063    25.5465    0.373      52.1358   
2691.8     12.9907    2.4992     10.5402    24.5199    34.8963    20.1832    12.5537    25.4813    0.368      51.642    
2692       13.02      2.5108     10.7658    24.809     35.5505    20.8572    14.7229    24.9729    0.374      51.5146   
2692.2     13.0713    2.6191     11.1569    25.5855    36.7804    21.6077    20.3635    24.0837    0.374      52.0108   
2692.4     13.0715    2.7025     11.4628    26.3747    37.8327    22.5393    18.5745    23.052     0.374      52.4515   
2692.6     12.9607    2.7452     11.7148    26.8339    38.6271    23.3619    18.0249    22.1469    0.371      52.3728   
2692.8     12.8341    2.8138     11.9338    27.0243    38.8474    24.0136    16.4513    21.6063    0.368      52.4075   
2693       12.6872    2.7722     11.7769    26.934     38.6586    24.5465    12.834     21.5724    0.368      52.6159   
2693.2     12.4973    2.7159     11.73      26.8407    38.4395    25.053     12.601     21.6413    0.368      52.4322   
2693.4     12.351     2.7057     11.8074    27.266     38.8207    25.564     15.239     21.3977    0.368      52.1543   
2693.6     12.1514    2.7824     12.146     27.962     39.5568    26.1555    17.8003    20.7114    0.368      52.1617   
2693.8     11.8856    2.8963     12.5269    28.7178    40.3348    26.4383    18.3792    19.8533    0.363      52.3926   
2694       11.5439    2.9743     12.8332    28.8487    40.3163    26.4929    15.4728    19.087     0.368      52.6665   
2694.2     11.2397    2.9125     12.3634    28.2084    38.9517    26.1907    8.6734     18.7075    0.365      53.0057   
2694.4     11.0131    2.7114     11.637     26.5741    36.2593    25.6879    7.5669     19.0698    0.361      53.5105   
2694.6     10.8886    2.4936     10.7114    24.9464    34.0171    25.1655    7.157      20.0766    0.356      53.7573   
2694.8     10.8834    2.3432     10.1376    23.7017    32.6934    24.9379    7.8696     21.1546    0.353      53.161    
2695       10.9203    2.3272     9.8929     23.1301    32.4222    25.0579    9.206      21.847     0.358      52.0723   
2695.2     10.9813    2.3272     9.7982     22.97      32.5755    25.4615    11.6911    22.1681    0.362      51.4122   
2695.4     11.0555    2.4183     9.8795     23.0591    32.8459    25.8233    12.5882    22.2897    0.362      51.2179   
2695.6     11.097     2.4755     9.9133     23.1511    32.9914    26.075     12.4115    22.3669    0.362      50.9594   
2695.8     11.0763    2.5326     10.102     23.1928    32.9769    26.2192    12.5203    22.4673    0.364      50.6187   
2696       11.0166    2.5882     10.2587    23.1354    33.1222    26.0529    11.9388    22.6104    0.368      50.5586   
2696.2     10.8708    2.6215     10.5612    22.8971    32.9773    25.7212    11.7365    22.6711    0.374      51.009    
2696.4     10.7889    2.6211     10.5345    22.1912    32.2257    25.2607    8.8064     23.0074    0.378      51.4566   
2696.6     10.7765    2.5091     9.993      21.0039    30.6464    24.6878    7.8241     23.7686    0.374      51.4013   
2696.8     10.7851    2.3561     9.497      19.8596    29.0466    24.2492    7.6822     25.4194    0.371      51.1919   
2697       10.8905    2.2331     9.0751     19.1433    27.9633    23.9086    7.65       27.1884    0.364      51.0378   
2697.2     11.0282    2.2323     8.9776     19.0948    27.6057    23.8087    10.188     28.5219    0.364      50.4544   
2697.4     11.2999    2.2536     9.1151     19.1022    27.2745    23.9457    10.4076    29.2993    0.367      49.6248   
2697.6     11.6123    2.1469     8.6111     18.7324    26.6486    24.176     9.1133     30.1766    0.362      49.6184   
2697.8     11.8995    2.1109     8.3465     18.4944    26.3409    24.4072    10.1451    30.8893    0.362      50.3009   
2698       12.2297    2.1619     8.6899     18.7783    26.5707    24.7569    14.8956    30.7512    0.362      50.4732   
2698.2     12.5253    2.2566     9.1159     19.3144    27.0551    25.226     16.3458    29.7859    0.356      50.1195   
2698.4     12.7668    2.3665     9.496      19.7447    27.3368    25.6662    14.9046    28.8638    0.36       50.5388   
2698.6     12.9944    2.3813     9.6156     20.054     27.4176    26.1926    13.7724    27.9549    0.361      51.5818   
2698.8     13.2211    2.408      9.7944     20.034     27.3988    26.7713    14.1017    27.2898    0.36       51.8949   
2699       13.4199    2.3348     9.7688     20.3303    27.8047    27.4489    13.1725    26.7824    0.353      51.5626   
2699.2     13.5911    2.4052     10.2601    21.2455    28.8553    28.1824    17.2168    26.0719    0.356      51.052    
2699.4     13.7956    2.5249     10.7371    22.6758    30.5507    29.532     18.9026    24.618     0.357      50.4416   
2699.6     13.8746    2.6216     11.2095    23.8741    31.874     30.4619    17.5859    23.1982    0.362      50.0557   
2699.8     13.8746    2.7122     11.7309    25.1295    33.1588    31.3529    21.405     21.848     0.362      50.0835   
2700       13.781     2.8138     12.044     26.6303    34.6187    32.143     21.2783    20.4754    0.364      50.5904   
2700.2     13.4964    2.8999     12.7064    28.3709    36.2199    32.6278    23.8787    18.9144    0.368      51.4645   
2700.4     13.0999    3.1247     13.6105    29.9983    37.6374    32.8015    30.8762    17.2078    0.368      51.9917   
2700.6     12.5753    3.1731     13.8776    30.9368    38.242     32.5871    22.4712    15.7595    0.372      51.6523   
2700.8     11.9959    3.1404     13.8256    31.0716    37.8584    31.8914    14.1454    14.6453    0.368      51.0217   
2701       11.4767    2.9928     13.5642    30.8942    37.4387    30.8534    11.5058    13.9207    0.368      50.7166   
2701.2     10.9785    2.9849     13.3254    30.884     37.5785    29.5937    10.0744    13.2323    0.372      50.2948   
2701.4     10.574     2.9729     13.3582    30.9846    37.782     28.336     11.6269    12.5003    0.374      49.8108   
2701.6     10.2287    2.8769     12.6681    30.7159    37.6382    27.1865    10.4103    11.8477    0.374      50.0661   
2701.8     9.8749     2.8679     12.2789    30.0321    37.1704    26.0003    8.3984     11.2601    0.38       50.6962   
2702       9.4764     2.8178     11.8384    29.3738    36.9555    24.73      9.0416     10.7715    0.378      50.8569   
2702.2     9.0761     2.7611     11.6407    28.5959    36.661     23.4585    8.0324     10.2422    0.374      51.0437   
