~Version
 VERS              .         2.0                           : CWLS LOG ASCII STANDARD - VERSION 2.0
 WRAP              .         NO                            : ONE LINE PER DEPTH STEP
 DLM               .         SPACE                         : DELIMITING CHARACTER(SPACE TAB OR COMMA)
~Well Information
#_______________________________________________________________________________
#
#PARAMETER_NAME    .UNIT     VALUE                         : DESCRIPTION
#_______________________________________________________________________________
STRT               .m        2622                          : First reference value
STOP               .m        2792                          : Last reference value
STEP               .m        0.2                           : Step increment
NULL               .         -9999                         : Missing value
COMP               .                                       : Company
WELL               .         307                           : Well name
FLD                .                                       : Field
LOC                .                                       : Location
CNTY               .                                       : County
STAT               .                                       : State
CTRY               .                                       : Country
SRVC               .                                       : Service Company
DATE               .                                       : Date
API                .                                       : API number
EREF               .m        138.34                        : 
Pad                .         3                             : 
X                  .m        219750                        : 
Y                  .m        249950                        : 
group              .         Pad3                          : 
Интер-р            .         Старостина                    : 
Куст               .         3                             : 
Статус             .         Не проверено                  : 
Тип                .         Разведка                      : 
~Parameter Information Block
#_______________________________________________________________________________
#
#PARAMETER_NAME    .UNIT     VALUE                         : DESCRIPTION
#_______________________________________________________________________________
SET                .         LAS1                          : 
REAL_CREATION_DATE .         Ср апр 11 2012-13_17_11       : 
TLFamily_DEPTH     .         Measured Depth                : 
TLFamily_KS        .         Potential Resistivity         : 
TLFamily_KS1       .         Extra Shallow Resistivity     : 
TLFamily_KS2       .         Shallow Resistivity           : 
TLFamily_KS3       .         Medium Resistivity            : 
TLFamily_KS4       .         Deep Resistivity              : 
TLFamily_KS5       .         Extra Deep Resistivity        : 
TLFamily_LLD       .         Lateral Log Resistivity       : 
TLFamily_OKS3      .         Medium Resistivity Inverted   : 
TLFamily_RM        .         Mud Resistivity               : 
TLFamily_SP        .         Spontaneous Potential         : 
group              .         INI                           : 
~Curve Information
#_______________________________________________________________________________
#
#LOGNAME           .UNIT     LOG_ID                        : DESCRIPTION
#_______________________________________________________________________________
DEPTH              .m                                      : Measured Depth 
KS                 .ohm.m                                  : Potential Resistivity 
KS1                .ohm.m                                  : Extra Shallow Resistivity 
KS2                .ohm.m                                  : Shallow Resistivity 
KS3                .ohm.m                                  : Medium Resistivity 
KS4                .ohm.m                                  : Deep Resistivity 
KS5                .ohm.m                                  : Extra Deep Resistivity 
LLD                .ohm.m                                  : Lateral Log Resistivity 
OKS3               .ohm.m                                  : Medium Resistivity Inverted 
RM                 .ohm.m                                  : Mud Resistivity 
SP                 .mV                                     : Spontaneous Potential 
~Ascii
# ...
2769.4     11.259     1.9966     7.3237     14.193     23.5527    44.6815    14.2185    29.2034    0.349      58.1174   
2769.6     11.7434    2.0142     7.4977     13.8553    21.8624    40.4413    14.397     24.9426    0.344      57.712    
2769.8     12.0667    2.049      7.7742     13.6555    20.414     36.8254    14.5044    21.4294    0.347      57.2494   
2770       12.3119    2.0569     8.0589     13.9021    19.5378    33.9387    18.186     18.9081    0.347      57.0688   
2770.2     12.372     2.185      8.6832     14.6908    19.4088    31.9398    16.8436    17.3974    0.348      56.8833   
2770.4     12.3098    2.3967     9.5575     16.0498    19.8347    30.7651    14.9797    16.223     0.358      56.2116   
2770.6     12.2004    2.5176     10.1188    17.5357    20.3934    30.1842    13.8318    15.2966    0.351      55.3445   
2770.8     12.0805    2.4894     10.2908    19.1279    20.8131    29.906     15.1781    14.838     0.356      55.0062   
2771       11.8678    2.5378     10.6865    21.4304    21.6002    30.2333    20.7628    14.7405    0.349      55.1468   
2771.2     11.4756    2.6342     11.4827    24.7324    23.2407    30.8488    30.6436    14.7564    0.353      55.1719   
2771.4     10.9606    2.8155     12.5614    28.9716    26.052     31.3493    59.7874    14.8393    0.349      54.9541   
2771.6     10.2996    3.0968     14.026     33.1585    29.1275    31.4336    52.8687    14.4885    0.362      54.8417   
2771.8     9.4774     3.3569     14.9669    36.0832    31.6218    30.4493    12.1427    13.6049    0.36       54.9479   
2772       8.5918     3.5046     15.6156    36.7102    32.5812    28.1698    4.37       12.585     0.358      55.1478   
2772.2     7.7756     3.3226     14.459     34.4435    31.2644    25.0768    4.3575     11.5574    0.35       55.3818   
2772.4     7.0743     2.7721     12.3368    29.9759    28.52      21.5045    4.4531     10.7081    0.353      55.5497   
2772.6     6.5592     2.3875     10.8705    26.2285    26.5342    17.8869    4.7361     9.841      0.345      55.4683   
2772.8     6.1725     2.2639     10.0393    23.5672    25.5785    14.9269    4.3365     8.9857     0.348      55.1131   
2773       5.8932     2.1331     8.9576     21.5575    25.2698    12.5076    3.7236     8.2745     0.345      54.8009   
2773.2     5.6879     2.0929     8.0717     19.211     24.093     10.6144    3.342      8.1165     0.346      54.6192   
2773.4     5.5991     1.8995     7.0349     16.9136    22.2926    8.9903     3.4089     8.1165     0.348      54.3204   
2773.6     5.5952     1.711      6.1336     14.8034    20.1216    7.7233     4.0604     8.1165     0.336      53.7164   
2773.8     5.6575     1.6918     5.8457     13.6482    18.7115    6.7429     5.1516     8.0307     0.351      52.7668   
2774       5.7448     1.6808     5.9298     13.2254    18.2786    6.1507     6.8249     7.8201     0.339      51.9375   
2774.2     5.8039     1.8226     6.1942     13.0813    18.2684    5.8658     6.8175     7.7588     0.343      51.4532   
2774.4     5.8575     1.9411     6.432      12.9671    18.217     5.6614     6.8421     7.7951     0.349      51.1867   
2774.6     5.8219     2.0019     6.723      12.8921    18.1686    5.5152     6.8226     7.7951     0.345      51.3615   
2774.8     5.7047     2.0947     7.0517     12.8618    18.0892    5.3816     7.0351     7.7951     0.349      51.9629   
2775       5.4502     2.1721     7.5401     12.9813    18.0689    5.2409     4.3313     7.7951     0.354      52.6236   
2775.2     4.8318     2.311      7.9445     13.1108    18.089     4.9371     3.0221     7.7951     0.353      53.2424   
2775.4     4.1348     2.5194     8.4509     12.5589    17.147     4.4768     2.5418     7.7951     0.356      54.2751   
2775.6     3.7911     2.1658     8.7087     11.312     15.0491    4.0122     2.6025     7.7951     0.355      55.9997   
2775.8     3.7791     1.8608     7.1833     9.8193     12.6214    3.4861     2.8747     7.7951     0.35       57.5741   
2776       3.7867     1.8406     5.8387     8.9653     10.9679    2.9033     2.817      7.7951     0.35       58.1365   
2776.2     3.7791     1.8406     5.2812     8.2857     9.466      2.4899     2.2838     7.7951     0.339      58.1733   
2776.4     3.6613     1.8373     4.3508     7.6572     7.655      2.1548     2.0058     7.776      0.338      58.3364   
2776.6     3.5654     1.7278     4.2587     6.5857     5.7941     1.8098     1.945      7.7908     0.339      58.2738   
2776.8     3.5654     1.6784     4.2587     5.4126     4.5944     1.5644     1.9359     7.7951     0.339      57.7657   
2777       3.5654     1.6784     4.2555     4.4664     4.0312     1.5409     2.0259     7.7951     0.337      57.2292   
2777.2     3.5654     1.6784     3.9293     3.7395     4.0926     1.7135     2.6877     7.7917     0.335      56.6092   
2777.4     3.5654     1.6784     3.6865     3.7322     4.4402     2.0684     7.4859     7.7509     0.334      55.4288   
2777.6     3.5654     1.6784     3.6801     3.8942     4.8178     2.4937     7.9092     7.7887     0.339      53.6551   
2777.8     3.5757     1.6784     3.6801     3.9103     5.1155     2.9275     8.4796     0          0.339      51.7974   
2778       3.5654     1.6784     3.7061     3.9103     5.4167     3.3224     9.2987     0          0.335      50.1225   
2778.2     3.5654     1.6784     3.6863     3.9103     5.7572     3.6332     9.2309     0          0.336      48.4989   
2778.4     3.5654     1.6784     3.7155     3.9804     5.9902     3.9211     8.815      0          0.333      47.3378   
2778.6     3.5654     1.6784     3.7296     4.0173     6.1478     4.2153     8.1661     0          0.335      46.8838   
2778.8     3.5654     1.6784     3.6929     4.0173     6.3012     4.5182     7.7662     0          0.333      46.601    
2779       3.5654     1.6784     3.6958     4.0173     6.5363     4.8697     7.5918     0          0.333      46.1184   
2779.2     3.5654     1.6784     3.6861     4.0173     6.8696     5.241      8.2299     0          0.335      45.7297   
2779.4     3.5654     1.6784     3.6815     4.0173     7.1367     5.6549     7.9526     0          0.336      45.8733   
2779.6     3.5654     1.6784     3.6801     4.0173     7.2395     6.1569     7.9096     0          0.333      46.3515   
2779.8     3.5654     1.6784     3.7069     4.0173     7.2876     6.627      7.8107     0          0.333      46.6638   
2780       3.5654     1.6784     3.7155     4.0173     7.2461     7.129      7.7029     0          0          46.8233   
2780.2     0.7131     1.6784     3.6908     4.0173     7.2427     7.6435     7.627      0          0          47.1001   
2780.4     0          0.5035     3.6882     4.0173     7.3294     8.1554     7.4317     0          0          47.4603   
2780.6     0          0          3.6801     4.0173     7.3721     8.6127     7.4489     0          0          47.7264   
2780.8     0          0          3.7022     4.0173     7.3493     8.9963     7.055      0          0          48.1841   
2781       0          0          1.1198     4.0173     7.3982     9.28       7.0237     0          0          49.5784   
2781.2     0          0          0          4.0173     7.3873     9.4455     6.9683     0          0          51.7876   
2781.4     0          0          0          4.0173     7.3982     9.5028     6.4275     0          0          53.8162   
2781.6     0          0          0          4.0173     7.3915     9.5154     6.2676     0          0          55.3357   
2781.8     0          0          0          4.0173     7.3982     9.4126     5.5551     0          0          56.8155   
2782       0          0          0          4.0173     7.3982     9.2636     5.2956     0          0          58.3479   
2782.2     0          0          0          1.2052     7.3453     8.9946     5.2277     0          0          59.2029   
2782.4     0          0          0          0          7.3728     8.7427     5.2099     0          0          59.0828   
2782.6     0          0          0          0          7.3596     8.5174     5.38       0          0          58.7906   
