~Version
 VERS              .         2.0                           : CWLS LOG ASCII STANDARD - VERSION 2.0
 WRAP              .         NO                            : ONE LINE PER DEPTH STEP
 DLM               .         SPACE                         : DELIMITING CHARACTER(SPACE TAB OR COMMA)
~Well Information
#_______________________________________________________________________________
#
#PARAMETER_NAME    .UNIT     VALUE                         : DESCRIPTION
#_______________________________________________________________________________
STRT               .m        2622                          : First reference value
STOP               .m        2792                          : Last reference value
STEP               .m        0.2                           : Step increment
NULL               .         -9999                         : Missing value
COMP               .                                       : Company
WELL               .         307                           : Well name
FLD                .                                       : Field
LOC                .                                       : Location
CNTY               .                                       : County
STAT               .                                       : State
CTRY               .                                       : Country
SRVC               .                                       : Service Company
DATE               .                                       : Date
API                .                                       : API number
EREF               .m        138.34                        : 
Pad                .         3                             : 
X                  .m        219750                        : 
Y                  .m        249950                        : 
group              .         Pad3                          : 
Интер-р            .         Старостина                    : 
Куст               .         3                             : 
Статус             .         Не проверено                  : 
Тип                .         Разведка                      : 
~Parameter Information Block
#_______________________________________________________________________________
#
#PARAMETER_NAME    .UNIT     VALUE                         : DESCRIPTION
#_______________________________________________________________________________
SET                .         LAS1                          : 
REAL_CREATION_DATE .         Ср апр 11 2012-13_17_11       : 
TLFamily_DEPTH     .         Measured Depth                : 
TLFamily_KS        .         Potential Resistivity         : 
TLFamily_KS1       .         Extra Shallow Resistivity     : 
TLFamily_KS2       .         Shallow Resistivity           : 
TLFamily_KS3       .         Medium Resistivity            : 
TLFamily_KS4       .         Deep Resistivity              : 
TLFamily_KS5       .         Extra Deep Resistivity        : 
TLFamily_LLD       .         Lateral Log Resistivity       : 
TLFamily_OKS3      .         Medium Resistivity Inverted   : 
TLFamily_RM        .         Mud Resistivity               : 
TLFamily_SP        .         Spontaneous Potential         : 
group              .         INI                           : 
~Curve Information
#_______________________________________________________________________________
#
#LOGNAME           .UNIT     LOG_ID                        : DESCRIPTION
#_______________________________________________________________________________
DEPTH              .m                                      : Measured Depth 
KS                 .ohm.m                                  : Potential Resistivity 
KS1                .ohm.m                                  : Extra Shallow Resistivity 
KS2                .ohm.m                                  : Shallow Resistivity 
KS3                .ohm.m                                  : Medium Resistivity 
KS4                .ohm.m                                  : Deep Resistivity 
KS5                .ohm.m                                  : Extra Deep Resistivity 
LLD                .ohm.m                                  : Lateral Log Resistivity 
OKS3               .ohm.m                                  : Medium Resistivity Inverted 
RM                 .ohm.m                                  : Mud Resistivity 
SP                 .mV                                     : Spontaneous Potential 
~Ascii
# ...
2782.8     0          0          0          0          7.3453     8.3442     6.1829     0          0          58.7086   
2783       0          0          0          0          7.3723     8.2444     6.1262     0          0          58.6802   
2783.2     0          0          0          0          7.3585     8.248      6.0922     0          0          58.6931   
2783.4     0          0          0          0          7.3453     8.3461     6.4522     0          0          58.5062   
2783.6     0          0          0          0          7.3453     8.7234     6.7668     0          0          57.8976   
2783.8     0          0          0          0          7.3453     9.1022     7.468      0          0          57.1006   
2784       0          0          0          0          7.3453     9.1502     7.5052     0          0          56.3818   
2784.2     0          0          0          0          2.2036     9.1502     6.3868     0          0          56.1528   
2784.4     0          0          0          0          0          9.1608     5.2553     0          0          56.6272   
2784.6     0          0          0          0          0          9.1502     4.3119     0          0          57.1825   
2784.8     0          0          0          0          0          9.2035     5.0005     0          0          57.4434   
2785       0          0          0          0          0          9.2035     8.5445     0          0          57.8128   
2785.2     0          0          0          0          0          9.2035     9.063      0          0          58.8662   
2785.4     0          0          0          0          0          9.2035     8.5093     0          0          57.5333   
2785.6     0          0          0          0          0          9.2035     8.1605     0          0          20.9316   
2785.8     0          0          0          0          0          9.2035     10.5139    0          0          0         
2786       0          0          0          0          0          9.2035     12.0781    0          0          0         
2786.2     0          0          0          0          0          9.2035     12.9162    0          0          0         
2786.4     0          0          0          0          0          9.2035     10.1495    0          0          0         
2786.6     0          0          0          0          0          9.2035     7.5961     0          0          0         
2786.8     0          0          0          0          0          9.1987     5.881      0          0          0         
2787       0          0          0          0          0          9.1928     5.0923     0          0          0         
2787.2     0          0          0          0          0          9.158      4.9126     0          0          0         
2787.4     0          0          0          0          0          9.2035     5.1001     0          0          0         
2787.6     0          0          0          0          0          9.166      5.0378     0          0          0         
2787.8     0          0          0          0          0          9.1783     4.9784     0          0          0         
2788       0          0          0          0          0          9.1502     4.7723     0          0          0         
2788.2     0          0          0          0          0          9.2035     4.6004     0          0          0         
2788.4     0          0          0          0          0          7.3628     4.5911     0          0          0         
2788.6     0          0          0          0          0          0          5.1231     0          0          0         
2788.8     0          0          0          0          0          0          11.5693    0          0          0         
2789       0          0          0          0          0          0          12.0506    0          0          0         
2789.2     0          0          0          0          0          0          8.841      0          0          0         
2789.4     0          0          0          0          0          0          5.8108     0          0          0         
2789.6     0          0          0          0          0          0          4.561      0          0          0         
2789.8     0          0          0          0          0          0          4.627      0          0          0         
2790       0          0          0          0          0          0          5.5839     0          0          0         
2790.2     0          0          0          0          0          0          6.5969     0          0          0         
2790.4     0          0          0          0          0          0          8.1773     0          0          0         
2790.6     0          0          0          0          0          0          7.0044     0          0          0         
2790.8     0          0          0          0          0          0          7.3872     0          0          0         
2791       0          0          0          0          0          0          8.1167     0          0          0         
2791.2     0          0          0          0          0          0          8.117      0          0          0         
2791.4     0          0          0          0          0          0          8.1196     0          0          0         
2791.6     0          0          0          0          0          0          8.1167     0          0          0         
2791.8     0          0          0          0          0          0          8.1207     0          0          0         
2792       0          0          0          0          0          0          8.0096     0          0          0         
