~Version
 VERS              .         2.0                           : CWLS LOG ASCII STANDARD - VERSION 2.0
 WRAP              .         NO                            : ONE LINE PER DEPTH STEP
 DLM               .         SPACE                         : DELIMITING CHARACTER(SPACE TAB OR COMMA)
~Well Information
#_______________________________________________________________________________
#
#PARAMETER_NAME    .UNIT     VALUE                         : DESCRIPTION
#_______________________________________________________________________________
STRT               .m        2622                          : First reference value
STOP               .m        2792                          : Last reference value
STEP               .m        0.2                           : Step increment
NULL               .         -9999                         : Missing value
COMP               .                                       : Company
WELL               .         307                           : Well name
FLD                .                                       : Field
LOC                .                                       : Location
CNTY               .                                       : County
STAT               .                                       : State
CTRY               .                                       : Country
SRVC               .                                       : Service Company
DATE               .                                       : Date
API                .                                       : API number
EREF               .m        138.34                        : 
Pad                .         3                             : 
X                  .m        219750                        : 
Y                  .m        249950                        : 
group              .         Pad3                          : 
Интер-р            .         Старостина                    : 
Куст               .         3                             : 
Статус             .         Не проверено                  : 
Тип                .         Разведка                      : 
~Parameter Information Block
#_______________________________________________________________________________
#
#PARAMETER_NAME    .UNIT     VALUE                         : DESCRIPTION
#_______________________________________________________________________________
SET                .         LAS3                          : 
REAL_CREATION_DATE .         Ср апр 11 2012-13_17_11       : 
TLFamily_DEPTH     .         Measured Depth                : 
TLFamily_GR        .         Gamma Ray                     : 
TLFamily_TNPH      .         Neutron Porosity              : 
group              .         INI                           : 
~Curve Information
#_______________________________________________________________________________
#
#LOGNAME           .UNIT     LOG_ID                        : DESCRIPTION
#_______________________________________________________________________________
DEPTH              .m                                      : Measured Depth 
GR                 .gAPI                                   :  
TNPH               .v/v                                    : Neutron Porosity 
~Ascii
# ...
2670.6     231.02     0.295     
2670.8     232.79     0.298     
2671       229.02     0.309     
2671.2     224.39     0.314     
2671.4     225        0.323     
2671.6     233.39     0.334     
2671.8     249.74     0.32      
2672       266.54     0.305     
2672.2     274.38     0.303     
2672.4     273.19     0.314     
2672.6     268.49     0.322     
2672.8     256.95     0.314     
2673       240.98     0.296     
2673.2     225.69     0.282     
2673.4     210.29     0.28      
2673.6     195.54     0.282     
2673.8     191.64     0.278     
2674       194.96     0.271     
2674.2     197.51     0.276     
2674.4     206.11     0.283     
2674.6     223.68     0.302     
2674.8     244.8      0.314     
2675       267.62     0.318     
2675.2     284.44     0.336     
2675.4     306.64     0.337     
2675.6     336.96     0.316     
2675.8     361.55     0.303     
2676       371.4      0.302     
2676.2     372.05     0.312     
2676.4     373.99     0.324     
2676.6     382.03     0.325     
2676.8     386.12     0.329     
2677       379.89     0.324     
2677.2     359.58     0.3       
2677.4     321.61     0.272     
2677.6     271.5      0.255     
2677.8     238.87     0.242     
2678       265.08     0.258     
2678.2     337.94     0.297     
2678.4     397.76     0.316     
2678.6     403.47     0.32      
2678.8     383.36     0.333     
2679       356.27     0.35      
2679.2     340.47     0.357     
2679.4     344.83     0.359     
2679.6     355.39     0.357     
2679.8     364.05     0.363     
2680       375.45     0.355     
2680.2     390.97     0.351     
2680.4     393.09     0.368     
2680.6     380.37     0.379     
2680.8     365.47     0.363     
2681       351.42     0.356     
2681.2     344.05     0.363     
2681.4     339.17     0.38      
2681.6     327.13     0.381     
2681.8     316.67     0.362     
2682       315.73     0.351     
2682.2     314.84     0.343     
2682.4     305.04     0.334     
2682.6     282.59     0.332     
2682.8     252.11     0.338     
2683       239.07     0.334     
2683.2     241.45     0.347     
2683.4     246.94     0.354     
2683.6     245.22     0.339     
2683.8     235.56     0.334     
2684       226.73     0.326     
2684.2     214.27     0.307     
2684.4     195.02     0.305     
2684.6     179.56     0.317     
2684.8     171.92     0.324     
2685       166.51     0.319     
2685.2     164.76     0.304     
2685.4     169.21     0.294     
2685.6     173.3      0.291     
2685.8     178.04     0.284     
2686       176.81     0.283     
2686.2     167.4      0.285     
2686.4     151.62     0.278     
2686.6     136.02     0.267     
2686.8     139.73     0.258     
2687       154.82     0.259     
2687.2     153.88     0.255     
2687.4     144.12     0.257     
2687.6     140.76     0.252     
2687.8     136.98     0.24      
2688       131.56     0.241     
2688.2     125.87     0.258     
2688.4     120.69     0.265     
2688.6     118.05     0.258     
2688.8     119.46     0.266     
2689       123.02     0.275     
2689.2     124.49     0.268     
2689.4     124.86     0.259     
2689.6     123.98     0.258     
2689.8     125.17     0.261     
2690       126.29     0.26      
2690.2     130.83     0.254     
2690.4     137.49     0.262     
2690.6     143.37     0.272     
2690.8     142.75     0.271     
2691       137.67     0.269     
2691.2     133.12     0.268     
2691.4     133.94     0.274     
2691.6     139.59     0.277     
2691.8     143.75     0.275     
2692       148.6      0.285     
2692.2     152.89     0.292     
2692.4     153.63     0.305     
2692.6     151.88     0.31      
2692.8     146.39     0.304     
2693       136.05     0.306     
2693.2     127.39     0.321     
2693.4     131.28     0.332     
2693.6     139.31     0.325     
2693.8     143.16     0.308     
2694       139.59     0.285     
2694.2     130.36     0.273     
2694.4     121.97     0.268     
2694.6     122.38     0.272     
2694.8     126.23     0.277     
2695       131.21     0.284     
2695.2     141.04     0.296     
2695.4     158.51     0.322     
2695.6     166.06     0.317     
2695.8     165.33     0.306     
2696       161.92     0.3       
2696.2     156.84     0.3       
2696.4     143.87     0.302     
2696.6     132.52     0.299     
2696.8     129.48     0.299     
2697       130.42     0.311     
2697.2     137.95     0.323     
2697.4     152.97     0.322     
2697.6     171.52     0.314     
2697.8     189.92     0.312     
2698       209.42     0.324     
2698.2     218.14     0.351     
2698.4     218.02     0.343     
2698.6     216.59     0.338     
2698.8     217.99     0.352     
2699       223.55     0.347     
2699.2     237.36     0.321     
2699.4     246.61     0.313     
2699.6     240.15     0.311     
2699.8     229.75     0.314     
2700       223.96     0.32      
2700.2     231.72     0.327     
2700.4     238.13     0.341     
2700.6     219.63     0.33      
2700.8     177.32     0.313     
2701       143.32     0.315     
2701.2     129.75     0.315     
2701.4     126.89     0.299     
2701.6     127.37     0.286     
2701.8     128.84     0.283     
2702       130.79     0.287     
2702.2     134.44     0.283     
2702.4     135.34     0.264     
2702.6     133.05     0.25      
2702.8     134.56     0.251     
2703       133.74     0.259     
2703.2     137.9      0.267     
2703.4     146.98     0.281     
2703.6     155.99     0.307     
2703.8     162.2      0.308     
2704       159.26     0.296     
2704.2     151.53     0.295     
2704.4     146.84     0.283     
2704.6     144.6      0.268     
2704.8     143.42     0.269     
2705       145.48     0.278     
2705.2     148.68     0.286     
2705.4     145.88     0.284     
2705.6     144.77     0.282     
2705.8     144.23     0.28      
2706       144.59     0.276     
2706.2     142.4      0.275     
2706.4     139.29     0.265     
2706.6     140.71     0.268     
2706.8     142.37     0.277     
2707       142.28     0.286     
2707.2     142.91     0.298     
2707.4     141.68     0.295     
2707.6     143.1      0.276     
2707.8     147.95     0.266     
2708       146.17     0.267     
2708.2     142.1      0.258     
2708.4     143.13     0.261     
2708.6     145.31     0.271     
2708.8     143.23     0.279     
2709       140.71     0.277     
2709.2     137.23     0.261     
2709.4     118.8      0.242     
2709.6     97.07      0.22      
2709.8     97.59      0.213     
2710       121.96     0.239     
2710.2     143.11     0.277     
2710.4     149.44     0.29      
2710.6     149.44     0.283     
2710.8     148.31     0.286     
2711       149.96     0.294     
2711.2     151.9      0.299     
2711.4     151.09     0.296     
2711.6     145.03     0.292     
2711.8     143.59     0.289     
2712       147.64     0.287     
2712.2     145.81     0.287     
2712.4     140.72     0.282     
2712.6     136.37     0.281     
2712.8     135.9      0.294     
2713       136.57     0.307     
2713.2     136.04     0.301     
2713.4     135.44     0.276     
2713.6     133.88     0.247     
2713.8     133.41     0.238     
2714       137.28     0.266     
2714.2     140.29     0.29      
2714.4     140.57     0.284     
2714.6     142.61     0.27      
2714.8     145.25     0.269     
2715       143.37     0.285     
2715.2     139.98     0.291     
2715.4     138.63     0.293     
2715.6     142.45     0.31      
2715.8     147.15     0.311     
2716       148.01     0.293     
2716.2     145.24     0.277     
2716.4     141.06     0.274     
2716.6     136.21     0.273     
2716.8     133.08     0.263     
2717       126.54     0.241     
2717.2     117.27     0.225     
2717.4     117.12     0.219     
2717.6     122.86     0.204     
2717.8     129.8      0.19      
2718       141.04     0.179     
2718.2     140.52     0.168     
2718.4     110.66     0.166     
2718.6     72.95999   0.179     
2718.8     56.75      0.192     
2719       53.84      0.196     
