~Version
 VERS              .         2.0                           : CWLS LOG ASCII STANDARD - VERSION 2.0
 WRAP              .         NO                            : ONE LINE PER DEPTH STEP
 DLM               .         SPACE                         : DELIMITING CHARACTER(SPACE TAB OR COMMA)
~Well Information
#_______________________________________________________________________________
#
#PARAMETER_NAME    .UNIT     VALUE                         : DESCRIPTION
#_______________________________________________________________________________
STRT               .m        2622                          : First reference value
STOP               .m        2792                          : Last reference value
STEP               .m        0.2                           : Step increment
NULL               .         -9999                         : Missing value
COMP               .                                       : Company
WELL               .         307                           : Well name
FLD                .                                       : Field
LOC                .                                       : Location
CNTY               .                                       : County
STAT               .                                       : State
CTRY               .                                       : Country
SRVC               .                                       : Service Company
DATE               .                                       : Date
API                .                                       : API number
EREF               .m        138.34                        : 
Pad                .         3                             : 
X                  .m        219750                        : 
Y                  .m        249950                        : 
group              .         Pad3                          : 
Интер-р            .         Старостина                    : 
Куст               .         3                             : 
Статус             .         Не проверено                  : 
Тип                .         Разведка                      : 
~Parameter Information Block
#_______________________________________________________________________________
#
#PARAMETER_NAME    .UNIT     VALUE                         : DESCRIPTION
#_______________________________________________________________________________
SET                .         LAS3                          : 
REAL_CREATION_DATE .         Ср апр 11 2012-13_17_11       : 
TLFamily_DEPTH     .         Measured Depth                : 
TLFamily_GR        .         Gamma Ray                     : 
TLFamily_TNPH      .         Neutron Porosity              : 
group              .         INI                           : 
~Curve Information
#_______________________________________________________________________________
#
#LOGNAME           .UNIT     LOG_ID                        : DESCRIPTION
#_______________________________________________________________________________
DEPTH              .m                                      : Measured Depth 
GR                 .gAPI                                   :  
TNPH               .v/v                                    : Neutron Porosity 
~Ascii
# ...
2719.2     54.08      0.196     
2719.4     54.84      0.192     
2719.6     54.29      0.187     
2719.8     55.08      0.18      
2720       56.09      0.174     
2720.2     54.15      0.173     
2720.4     50.45      0.177     
2720.6     47.19      0.18      
2720.8     46.08      0.185     
2721       45.97      0.192     
2721.2     46.26      0.193     
2721.4     49.42      0.186     
2721.6     53.06      0.186     
2721.8     52.38      0.194     
2722       51.18      0.2       
2722.2     51.88      0.203     
2722.4     52.47      0.198     
2722.6     51.33      0.196     
2722.8     52.17      0.198     
2723       54.13      0.21      
2723.2     55.95      0.222     
2723.4     60.28      0.228     
2723.6     64.97      0.229     
2723.8     67.36      0.229     
2724       67.95999   0.226     
2724.2     68.66      0.221     
2724.4     70.78      0.217     
2724.6     71.21001   0.22      
2724.8     67.38      0.219     
2725       64.69      0.203     
2725.2     66.28999   0.196     
2725.4     67.22      0.186     
2725.6     65.77      0.172     
2725.8     62.55      0.168     
2726       60.50999   0.174     
2726.2     59.09      0.182     
2726.4     58.65      0.185     
2726.6     59.57      0.188     
2726.8     58.9       0.192     
2727       56.4       0.197     
2727.2     54.64      0.203     
2727.4     54.9       0.189     
2727.6     54.84      0.182     
2727.8     54.17      0.188     
2728       56.1       0.191     
2728.2     55.79      0.197     
2728.4     52.64      0.197     
2728.6     51.83      0.194     
2728.8     52.74      0.192     
2729       52.85      0.197     
2729.2     53.62      0.211     
2729.4     53.58      0.223     
2729.6     52.64      0.223     
2729.8     53.04      0.216     
2730       54.28      0.215     
2730.2     52.26      0.22      
2730.4     51.09      0.222     
2730.6     54.28      0.216     
2730.8     55.73      0.212     
2731       57.11      0.211     
2731.2     57.55      0.211     
2731.4     59.64      0.211     
2731.6     61.55      0.219     
2731.8     62.2       0.222     
2732       63.63      0.218     
2732.2     64.89999   0.216     
2732.4     64.38      0.217     
2732.6     63.41      0.227     
2732.8     64.95      0.23      
2733       65.39      0.227     
2733.2     66.94      0.236     
2733.4     69.66      0.241     
2733.6     74.16      0.233     
2733.8     79.93      0.244     
2734       89.14      0.25      
2734.2     97.1       0.249     
2734.4     100.57     0.255     
2734.6     99.99      0.265     
2734.8     93.21999   0.259     
2735       80         0.244     
2735.2     65.88      0.232     
2735.4     60.27      0.221     
2735.6     64.55      0.218     
2735.8     78.96      0.243     
2736       100.05     0.283     
2736.2     110.38     0.316     
2736.4     105.57     0.323     
2736.6     97.89      0.302     
2736.8     104        0.289     
2737       117.01     0.287     
2737.2     116.52     0.272     
2737.4     105.31     0.252     
2737.6     91.17      0.231     
2737.8     77.38      0.228     
2738       69.18999   0.217     
2738.2     65.49      0.205     
2738.4     65.24001   0.204     
2738.6     66.02      0.198     
2738.8     68.32      0.197     
2739       71.44      0.203     
2739.2     74.20999   0.208     
2739.4     77.24      0.224     
2739.6     83.11      0.244     
2739.8     90.63      0.276     
2740       97.1       0.299     
2740.2     98.62      0.291     
2740.4     99.04      0.272     
2740.6     102.79     0.259     
2740.8     103.48     0.264     
2741       105.14     0.274     
2741.2     106.48     0.265     
2741.4     102.73     0.249     
2741.6     99.73      0.236     
2741.8     100.21     0.246     
2742       104.99     0.261     
2742.2     110.93     0.274     
2742.4     113.82     0.283     
2742.6     106.91     0.271     
2742.8     92.5       0.257     
2743       81.1       0.253     
2743.2     76.84      0.238     
2743.4     76.21001   0.223     
2743.6     79.06999   0.227     
2743.8     83.19      0.239     
2744       86.44      0.244     
2744.2     89.73      0.244     
2744.4     94.25999   0.256     
2744.6     101.52     0.265     
2744.8     109.91     0.268     
2745       115.76     0.274     
2745.2     116.6      0.281     
2745.4     119.85     0.285     
2745.6     122.77     0.284     
2745.8     119.79     0.282     
2746       119.52     0.292     
2746.2     117.73     0.306     
2746.4     111.59     0.307     
2746.6     106.23     0.305     
2746.8     103.1      0.307     
2747       100.52     0.319     
2747.2     93.00999   0.323     
2747.4     76.98      0.336     
2747.6     51.55      0.363     
2747.8     28.7       0.426     
2748       19.85      0.47      
2748.2     16         0.437     
2748.4     13.5       0.435     
2748.6     16.49      0.455     
2748.8     25.08      0.455     
2749       39.28      0.427     
2749.2     58.44      0.398     
2749.4     77.18001   0.372     
2749.6     91.26      0.341     
2749.8     105.09     0.312     
2750       112.34     0.297     
2750.2     111.46     0.298     
2750.4     105.67     0.308     
2750.6     98.74      0.332     
2750.8     94.28001   0.361     
2751       95.45      0.354     
2751.2     101.46     0.307     
2751.4     105.9      0.272     
2751.6     106.26     0.251     
2751.8     102.89     0.24      
2752       98.29001   0.242     
2752.2     91.79      0.255     
2752.4     89.95      0.256     
2752.6     94.32      0.25      
2752.8     95.59      0.251     
2753       92.65      0.249     
2753.2     92.7       0.243     
2753.4     100.79     0.239     
2753.6     109.94     0.236     
2753.8     106.21     0.245     
2754       96.07001   0.246     
2754.2     88.32      0.234     
2754.4     84.32999   0.238     
2754.6     86.75999   0.241     
2754.8     90.16      0.238     
2755       90.73      0.242     
2755.2     90.38      0.249     
2755.4     93.91      0.256     
2755.6     102.33     0.252     
2755.8     106.66     0.245     
2756       103.91     0.238     
2756.2     101.33     0.234     
2756.4     100.52     0.243     
2756.6     102.46     0.266     
2756.8     104.62     0.265     
2757       105.41     0.254     
2757.2     107.05     0.251     
2757.4     103.4      0.25      
2757.6     89.59      0.233     
2757.8     75.94      0.219     
2758       69.81      0.224     
2758.2     73.06      0.229     
2758.4     80.56      0.232     
2758.6     86.34      0.25      
2758.8     91.26      0.27      
2759       90.06      0.28      
2759.2     88.7       0.269     
2759.4     88.78999   0.246     
2759.6     93.58      0.236     
2759.8     102.82     0.251     
2760       103.33     0.259     
2760.2     97.91      0.255     
2760.4     87.75      0.241     
2760.6     73.66      0.228     
2760.8     67.52      0.212     
2761       68.57001   0.205     
2761.2     68         0.199     
2761.4     65.64      0.205     
2761.6     62.36      0.212     
2761.8     59.96      0.21      
2762       62.36      0.201     
2762.2     66.77      0.206     
2762.4     71.07001   0.216     
2762.6     75.06      0.211     
2762.8     80.60001   0.21      
2763       86.5       0.22      
2763.2     91.53      0.221     
2763.4     97.86      0.221     
2763.6     106.23     0.228     
2763.8     111.36     0.241     
2764       116.31     0.251     
2764.2     120.77     0.255     
2764.4     114.6      0.255     
2764.6     109.05     0.259     
2764.8     109.51     0.265     
2765       115.65     0.258     
2765.2     124.4      0.253     
2765.4     128.31     0.248     
2765.6     126.24     0.243     
2765.8     124.62     0.246     
2766       121.62     0.249     
2766.2     116.72     0.248     
2766.4     108.46     0.251     
2766.6     95.76      0.24      
2766.8     82.98      0.234     
2767       76.66      0.238     
2767.2     76.08      0.225     
2767.4     78.54      0.219     
2767.6     83.83      0.226     
