~Version
 VERS              .         2.0                           : CWLS LOG ASCII STANDARD - VERSION 2.0
 WRAP              .         NO                            : ONE LINE PER DEPTH STEP
 DLM               .         SPACE                         : DELIMITING CHARACTER(SPACE TAB OR COMMA)
~Well Information
#_______________________________________________________________________________
#
#PARAMETER_NAME    .UNIT     VALUE                         : DESCRIPTION
#_______________________________________________________________________________
STRT               .m        2596                          : First reference value
STOP               .m        2813                          : Last reference value
STEP               .m        0.2                           : Step increment
NULL               .         -9999                         : Missing value
COMP               .                                       : Company
WELL               .         308                           : Well name
FLD                .                                       : Field
LOC                .                                       : Location
CNTY               .                                       : County
STAT               .                                       : State
CTRY               .                                       : Country
SRVC               .                                       : Service Company
DATE               .                                       : Date
API                .                                       : API number
EREF               .m        138.34                        : 
Pad                .         3                             : 
X                  .m        219750                        : 
Y                  .m        249950                        : 
group              .         Pad3                          : 
Интер-р            .         Зайцев                        : 
Куст               .         3                             : 
Статус             .         Не проверено                  : 
Тип                .         Разведка                      : 
~Parameter Information Block
#_______________________________________________________________________________
#
#PARAMETER_NAME    .UNIT     VALUE                         : DESCRIPTION
#_______________________________________________________________________________
SET                .         LAS1                          : 
REAL_CREATION_DATE .         Ср апр 11 2012-13_17_11       : 
TLFamily_DEPTH     .         Measured Depth                : 
TLFamily_KS        .         Potential Resistivity         : 
TLFamily_KS1       .         Extra Shallow Resistivity     : 
TLFamily_KS2       .         Shallow Resistivity           : 
TLFamily_KS3       .         Medium Resistivity            : 
TLFamily_KS4       .         Deep Resistivity              : 
TLFamily_KS5       .         Extra Deep Resistivity        : 
TLFamily_LLD       .         Lateral Log Resistivity       : 
TLFamily_OKS3      .         Medium Resistivity Inverted   : 
TLFamily_RM        .         Mud Resistivity               : 
TLFamily_SP        .         Spontaneous Potential         : 
group              .         INI                           : 
~Curve Information
#_______________________________________________________________________________
#
#LOGNAME           .UNIT     LOG_ID                        : DESCRIPTION
#_______________________________________________________________________________
DEPTH              .m                                      : Measured Depth 
KS                 .ohm.m                                  : Potential Resistivity 
KS1                .ohm.m                                  : Extra Shallow Resistivity 
KS2                .ohm.m                                  : Shallow Resistivity 
KS3                .ohm.m                                  : Medium Resistivity 
KS4                .ohm.m                                  : Deep Resistivity 
KS5                .ohm.m                                  : Extra Deep Resistivity 
LLD                .ohm.m                                  : Lateral Log Resistivity 
OKS3               .ohm.m                                  : Medium Resistivity Inverted 
RM                 .ohm.m                                  : Mud Resistivity 
SP                 .mV                                     : Spontaneous Potential 
~Ascii
# ...
2703.2     6.0425     2.012      6.6629     10.1537    9.3018     4.1458     4.0311     12.5108    0.351      53.8003   
2703.4     6.0386     1.9539     6.4856     9.8537     9.0494     4.0281     4.157      13.0565    0.351      47.8018   
2703.6     6.1043     1.9047     6.2901     9.5968     8.7959     3.988      4.0872     13.7132    0.351      49.9031   
2703.8     6.2192     1.8244     6.0623     9.393      8.6339     3.996      4.4595     14.4217    0.351      47.6772   
2704       6.3927     1.8368     6.0525     9.3542     8.6373     4.1007     4.934      15.2751    0.354      48.1344   
2704.2     6.5137     1.8439     6.0477     9.5254     8.799      4.2237     5.2713     16.1455    0.357      46.0167   
2704.4     6.6565     1.9071     6.2104     9.7588     9.0569     4.4243     5.6181     16.9222    0.357      46.8133   
2704.6     6.8441     1.9511     6.3409     9.9979     9.2897     4.6643     5.4988     17.7717    0.357      48.4693   
2704.8     6.9855     1.9511     6.4102     10.1954    9.5845     4.9074     5.5462     18.6584    0.357      51.6146   
2705       7.1102     1.989      6.6275     10.5109    10.0242    5.094      6.3982     19.4563    0.357      50.9036   
2705.2     7.2786     2.0479     6.9077     10.8364    10.3793    5.2508     6.8714     19.7687    0.359      50.5134   
2705.4     7.443      2.0844     7.0804     10.9109    10.4889    5.3306     6.315      19.7882    0.362      48.9161   
2705.6     7.5793     2.0629     7.0568     10.8617    10.3869    5.3751     6.0187     19.8735    0.359      47.2329   
2705.8     7.7685     2.0594     7.0717     10.7927    10.308     5.3751     5.8883     20.0561    0.361      46.1091   
2706       7.8908     2.0465     7.0487     10.7056    10.2056    5.4082     5.6314     20.4852    0.357      46.7193   
2706.2     8.1329     1.9595     6.7799     10.6121    10.1043    5.53       6.9199     21.0475    0.357      47.301    
2706.4     8.3794     1.9511     6.8355     10.7252    10.15      5.7118     8.1991     21.4186    0.357      47.8347   
2706.6     8.6886     2.0052     7.0685     11.1093    10.3283    5.9525     8.4891     21.4775    0.357      50.0883   
2706.8     8.969      2.0052     7.1317     11.5843    10.6725    6.2238     10.4879    21.416     0.357      49.4064   
2707       9.1707     2.126      7.6175     12.2247    11.099     6.501      10.6542    21.1398    0.359      49.9733   
2707.2     9.346      2.2193     7.9771     13.0266    11.5752    6.8439     10.4669    20.8347    0.361      48.2849   
2707.4     9.4195     2.324      8.4561     13.8333    11.9967    7.0977     10.0893    20.545     0.363      48.6703   
2707.6     9.4529     2.4019     8.878      14.5886    12.4367    7.3766     8.8        20.4345    0.363      47.2532   
2707.8     9.4529     2.4383     9.0889     15.1527    12.8169    7.5618     8.8316     20.485     0.366      45.8914   
2708       9.4529     2.4004     9.1711     15.533     13.1147    7.6724     8.6924     20.5069    0.369      44.3565   
2708.2     9.4529     2.3841     9.2155     15.8638    13.3629    7.7165     8.103      20.4893    0.369      43.6507   
2708.4     9.4529     2.3589     9.1458     16.1937    13.7315    7.6692     7.7929     20.4925    0.367      45.158    
2708.6     9.4965     2.33       9.0078     16.4314    14.0861    7.6561     8.2771     20.7759    0.369      46.3958   
2708.8     9.5272     2.2759     8.8736     16.6182    14.4495    7.6209     8.8065     21.0752    0.369      47.5136   
2709       9.5913     2.2759     8.854      16.8441    14.8934    7.6401     9.3151     21.2733    0.369      47.0109   
2709.2     9.6546     2.2759     8.8468     17.1494    15.4754    7.6798     9.4299     21.2468    0.369      47.1532   
2709.4     9.7303     2.3276     8.9522     17.3466    16.1204    7.7384     9.0406     21.2088    0.373      43.1914   
2709.6     9.7951     2.33       8.9946     17.4995    16.6818    7.7813     10.0664    21.2478    0.372      43.7922   
2709.8     9.8769     2.33       8.9583     17.5236    17.1236    7.8771     9.9991     21.1347    0.373      44.5258   
2710       9.9356     2.33       8.9669     17.6244    17.5956    7.9996     9.9827     20.8444    0.375      44.2378   
2710.2     9.9877     2.3319     9.1285     17.8268    18.2504    8.1208     10.3423    20.5997    0.375      42.0222   
2710.4     10.0103    2.3841     9.3193     18.2042    19.0687    8.2478     9.7082     20.4491    0.373      43.3942   
2710.6     9.9877     2.4291     9.4964     18.4664    19.8538    8.4148     9.4446     20.332     0.369      49.4033   
2710.8     9.9877     2.4383     9.5804     18.5605    20.2509    8.475      9.7659     20.1965    0.369      49.6344   
2711       9.9877     2.4004     9.5466     18.6634    20.6973    8.5942     10.2123    20.072     0.364      46.2528   
2711.2     9.9877     2.3959     9.5638     18.8648    21.1902    8.6657     9.9172     20.1408    0.361      46.0474   
2711.4     9.9369     2.4383     9.729      19.1456    21.6826    8.7361     10.1354    20.1634    0.36       47.1918   
2711.6     9.8912     2.4383     9.7797     19.4554    22.0979    8.7871     9.7029     20.1465    0.357      44.1664   
2711.8     9.8348     2.4924     9.8755     19.653     22.3444    8.7361     9.5022     20.0837    0.36       40.7245   
2712       9.7783     2.4924     9.9154     19.7204    22.4315    8.7361     9.5738     19.9178    0.357      42.3125   
2712.2     9.7221     2.4451     9.7904     19.7204    22.4114    8.7266     9.5003     19.8559    0.354      43.4779   
2712.4     9.6144     2.4383     9.8321     19.6944    22.4079    8.6844     9.2232     19.8625    0.351      44.5529   
2712.6     9.5134     2.461      9.8799     19.7672    22.4834    8.7361     8.5108     19.9737    0.351      41.1951   
2712.8     9.3742     2.4489     9.8085     19.7727    22.4714    8.7361     7.8389     20.3295    0.349      44.1904   
2713       9.2517     2.4865     9.8571     19.5287    22.2286    8.7463     6.0121     20.8742    0.344      44.7827   
2713.2     9.3037     2.4356     9.5222     18.8088    21.5264    8.7895     5.8981     22.2462    0.341      44.1424   
2713.4     9.3459     2.1373     8.6447     18.0458    20.8928    8.8182     10.737     23.3145    0.338      43.4737   
2713.6     9.4621     2.2117     8.7884     17.8036    20.7823    8.8817     11.2986    23.7868    0.339      44.8517   
2713.8     9.6874     2.2946     8.831      17.941     20.986     9.069      10.8302    23.0984    0.345      44.7924   
2714       9.7668     2.33       8.861      17.9211    20.9611    9.1348     9.8025     22.5371    0.345      46.9564   
2714.2     9.8226     2.33       8.8759     17.7121    20.7693    9.1629     9.1443     22.4191    0.345      44.5219   
2714.4     9.879      2.3036     8.8317     17.3881    20.4346    9.2222     9.3954     22.6177    0.345      45.4974   
2714.6     9.9459     2.2759     8.8468     17.1412    20.1837    9.3423     9.4945     22.9955    0.345      46.017    
2714.8     10.0112    2.2759     8.8468     16.9614    20.0961    9.4987     9.3179     23.5676    0.345      45.8224   
2715       10.1253    2.255      8.801      16.8374    20.0488    9.7924     9.8821     24.2386    0.345      46.7648   
2715.2     10.2451    2.1916     8.636      16.844     20.226     10.1572    11.1809    24.9401    0.345      47.8603   
2715.4     10.4102    2.2583     8.8118     17.0976    20.6186    10.6126    11.6181    25.4972    0.349      47.5332   
2715.6     10.5422    2.2759     8.9319     17.7942    21.3137    11.1564    12.5025    26.0376    0.345      47.0787   
2715.8     10.6038    2.2759     8.9564     18.224     21.7836    11.4226    15.4732    26.1546    0.347      48.3921   
2716       10.6723    2.3519     9.3714     19.146     22.8199    11.8001    13.7888    26.177     0.351      49.5792   
2716.2     10.7389    2.4375     9.8137     19.8348    23.4771    12.0294    10.8581    25.7278    0.355      49.1138   
2716.4     10.8124    2.412      9.671      19.7923    23.2991    12.1505    10.0507    25.302     0.357      46.6602   
