~Version
 VERS              .         2.0                           : CWLS LOG ASCII STANDARD - VERSION 2.0
 WRAP              .         NO                            : ONE LINE PER DEPTH STEP
 DLM               .         SPACE                         : DELIMITING CHARACTER(SPACE TAB OR COMMA)
~Well Information
#_______________________________________________________________________________
#
#PARAMETER_NAME    .UNIT     VALUE                         : DESCRIPTION
#_______________________________________________________________________________
STRT               .m        2596                          : First reference value
STOP               .m        2813                          : Last reference value
STEP               .m        0.2                           : Step increment
NULL               .         -9999                         : Missing value
COMP               .                                       : Company
WELL               .         308                           : Well name
FLD                .                                       : Field
LOC                .                                       : Location
CNTY               .                                       : County
STAT               .                                       : State
CTRY               .                                       : Country
SRVC               .                                       : Service Company
DATE               .                                       : Date
API                .                                       : API number
EREF               .m        138.34                        : 
Pad                .         3                             : 
X                  .m        219750                        : 
Y                  .m        249950                        : 
group              .         Pad3                          : 
Интер-р            .         Зайцев                        : 
Куст               .         3                             : 
Статус             .         Не проверено                  : 
Тип                .         Разведка                      : 
~Parameter Information Block
#_______________________________________________________________________________
#
#PARAMETER_NAME    .UNIT     VALUE                         : DESCRIPTION
#_______________________________________________________________________________
SET                .         LAS1                          : 
REAL_CREATION_DATE .         Ср апр 11 2012-13_17_11       : 
TLFamily_DEPTH     .         Measured Depth                : 
TLFamily_KS        .         Potential Resistivity         : 
TLFamily_KS1       .         Extra Shallow Resistivity     : 
TLFamily_KS2       .         Shallow Resistivity           : 
TLFamily_KS3       .         Medium Resistivity            : 
TLFamily_KS4       .         Deep Resistivity              : 
TLFamily_KS5       .         Extra Deep Resistivity        : 
TLFamily_LLD       .         Lateral Log Resistivity       : 
TLFamily_OKS3      .         Medium Resistivity Inverted   : 
TLFamily_RM        .         Mud Resistivity               : 
TLFamily_SP        .         Spontaneous Potential         : 
group              .         INI                           : 
~Curve Information
#_______________________________________________________________________________
#
#LOGNAME           .UNIT     LOG_ID                        : DESCRIPTION
#_______________________________________________________________________________
DEPTH              .m                                      : Measured Depth 
KS                 .ohm.m                                  : Potential Resistivity 
KS1                .ohm.m                                  : Extra Shallow Resistivity 
KS2                .ohm.m                                  : Shallow Resistivity 
KS3                .ohm.m                                  : Medium Resistivity 
KS4                .ohm.m                                  : Deep Resistivity 
KS5                .ohm.m                                  : Extra Deep Resistivity 
LLD                .ohm.m                                  : Lateral Log Resistivity 
OKS3               .ohm.m                                  : Medium Resistivity Inverted 
RM                 .ohm.m                                  : Mud Resistivity 
SP                 .mV                                     : Spontaneous Potential 
~Ascii
# ...
2663       5.4632     1.9329     6.3011     9.5566     8.2806     5.1617     3.8823     9.8662     0.351      65.9593   
2663.2     5.4417     1.897      6.2659     9.5275     8.2166     5.1234     3.5695     9.9434     0.351      64.6767   
2663.4     5.396      1.897      6.1749     9.4184     8.1532     5.0977     3.5919     10.006     0.351      63.376    
2663.6     5.3882     1.8546     6.0828     9.2647     8.0744     5.0509     3.9867     10.2091    0.351      63.7598   
2663.8     5.4396     1.8173     5.9286     9.0856     7.9699     5.0017     4.285      10.4548    0.351      65.305    
2664       5.5036     1.7887     5.8027     8.9485     7.8967     4.9581     4.7381     10.6341    0.351      64.9206   
2664.2     5.6157     1.7887     5.7392     8.8722     7.9075     4.9483     4.7317     10.5985    0.351      69.4478   
2664.4     5.7052     1.832      5.7888     8.844      7.974      4.9483     4.7014     10.4777    0.351      65.695    
2664.6     5.8045     1.8909     5.8791     8.8911     8.0938     4.9483     4.5359     10.3138    0.351      65.0159   
2664.8     5.8282     1.9349     6.0023     8.9692     8.2126     4.9483     4.5948     10.1778    0.351      66.3663   
2665       5.8696     1.9511     6.1501     9.052      8.2782     4.9483     4.5434     10.0902    0.351      64.4614   
2665.2     5.8696     1.972      6.2829     9.117      8.3472     4.9483     4.5173     9.9894     0.351      61.0235   
2665.4     5.8268     2.0052     6.4083     9.2228     8.3999     4.9483     4.5162     9.9107     0.351      61.4745   
2665.6     5.801      1.971      6.487      9.3441     8.4813     4.9483     4.1842     9.8722     0.351      64.7131   
2665.8     5.7626     2.0052     6.5957     9.4149     8.5105     4.9483     4.0553     9.7838     0.351      65.7483   
2666       5.7122     2.0052     6.5216     9.4994     8.4981     4.9483     4.1612     9.6739     0.351      64.0206   
2666.2     5.6556     1.9536     6.4155     9.5405     8.4225     4.9471     4.1658     9.6338     0.351      65.0945   
2666.4     5.6556     1.9406     6.354      9.575      8.3476     4.895      4.1237     9.57       0.351      64.3183   
2666.6     5.6556     1.897      6.2925     9.5941     8.3342     4.9025     4.1687     9.4859     0.353      65.9157   
2666.8     5.6556     1.897      6.2296     9.5941     8.294      4.9483     4.2838     9.4434     0.357      62.8515   
2667       5.6556     1.897      6.2386     9.5941     8.294      4.9483     4.3322     9.4434     0.357      65.673    
2667.2     5.6075     1.9103     6.2659     9.6304     8.3862     4.9483     4.3005     9.3536     0.362      65.8172   
2667.4     5.6022     1.9511     6.2948     9.6563     8.4435     4.9872     4.1996     9.2961     0.363      68.2493   
2667.6     5.6022     1.9511     6.3186     9.6581     8.4529     5.0017     4.2241     9.238      0.363      62.3706   
2667.8     5.6022     1.9511     6.2787     9.6211     8.49       5.0017     4.2301     9.1465     0.361      64.6175   
2668       5.5536     1.9511     6.2896     9.5941     8.5182     5.0017     4.1856     9.063      0.359      64.6798   
2668.2     5.5062     1.9511     6.3677     9.5941     8.6035     5.0017     4.0423     8.9996     0.363      64.2362   
2668.4     5.451      1.9511     6.3713     9.5732     8.6612     5.0017     3.8199     8.936      0.362      63.6511   
2668.6     5.3948     1.9511     6.3564     9.5111     8.6589     5.0017     3.7485     8.9074     0.358      69.947    
2668.8     5.3552     1.9511     6.2934     9.4478     8.5965     5.0017     3.7202     9.0088     0.363      65.4459   
2669       5.2822     1.9028     6.2293     9.3666     8.5588     4.9918     3.6494     9.1482     0.363      65.3033   
2669.2     5.2353     1.897      6.2034     9.2806     8.4726     4.9483     3.4779     9.33       0.364      65.0497   
2669.4     5.2278     1.897      6.08       9.1888     8.3672     4.9483     3.6396     9.5655     0.363      63.3262   
2669.6     5.2278     1.8498     5.8517     8.9768     8.234      4.9483     4.2659     9.8114     0.363      65.244    
2669.8     5.2813     1.7918     5.7429     8.8976     8.1681     4.9483     4.1886     10.0359    0.364      62.3334   
2670       5.3001     1.8656     5.9165     8.9232     8.1881     4.9483     3.9323     10.0866    0.369      65.9303   
2670.2     5.3347     1.897      5.9244     8.9139     8.1675     4.9427     3.9236     10.0491    0.368      64.3408   
2670.4     5.3442     1.897      5.8476     8.7942     8.0179     4.8862     3.7622     10.0742    0.366      62.8169   
2670.6     5.3347     1.897      5.882      8.674      7.8996     4.8406     3.7718     10.1367    0.369      65.5483   
2670.8     5.3575     1.8568     5.8557     8.5529     7.8318     4.7883     3.9018     10.28      0.369      64.652    
2671       5.3882     1.8428     5.8717     8.4305     7.7114     4.7571     3.9979     10.4322    0.369      63.6528   
2671.2     5.431      1.8428     5.8464     8.3453     7.6349     4.7349     4.1661     10.4618    0.369      62.5428   
2671.4     5.4952     1.8282     5.8065     8.3082     7.5543     4.6816     4.2243     10.4618    0.37       65.8647   
2671.6     5.5751     1.8428     5.8238     8.347      7.5528     4.6816     4.2855     10.4057    0.369      69.5493   
2671.8     5.6022     1.8428     5.8795     8.4264     7.5292     4.6716     4.2952     10.2998    0.369      63.6893   
2672       5.6463     1.8428     5.8972     8.5356     7.5214     4.6415     4.3313     10.2244    0.369      70.5609   
2672.2     5.703      1.8428     5.9579     8.6254     7.4998     4.6816     4.4561     10.1444    0.363      69.1347   
2672.4     5.7091     1.8645     6.0026     8.7261     7.5411     4.6899     4.525      10.0926    0.363      63.5012   
2672.6     5.7623     1.897      6.1391     8.8471     7.6216     4.7349     4.6254     10.0969    0.363      61.6069   
2672.8     5.7626     1.9349     6.2235     9.0146     7.6924     4.7523     4.5485     10.0866    0.358      61.1378   
2673       5.734      1.9511     6.3531     9.1798     7.7496     4.7883     4.428      10.0325    0.357      57.2188   
2673.2     5.7091     1.9511     6.3713     9.3204     7.8086     4.7883     4.4021     9.9687     0.357      62.5452   
2673.4     5.7009     1.9511     6.42       9.3981     7.8475     4.7893     4.2322     9.8815     0.357      61.0452   
2673.6     5.6377     1.9511     6.4257     9.5074     7.9605     4.8416     4.1664     9.9043     0.357      60.7153   
2673.8     5.5741     1.9511     6.4766     9.6283     8.0798     4.8416     4.1016     9.9308     0.357      60.7167   
2674       5.5487     1.9511     6.4766     9.6768     8.157      4.8416     3.9861     9.9794     0.357      61.0748   
2674.2     5.5386     1.9002     6.3787     9.6263     8.1881     4.7875     4.0521     9.9794     0.357      63.9982   
2674.4     5.516      1.8881     6.2615     9.5136     8.1301     4.7349     4.1268     9.9434     0.352      62.7174   
2674.6     5.5487     1.8428     6.1196     9.3396     8.041      4.7005     4.1494     9.8233     0.351      59.2084   
2674.8     5.5487     1.795      5.9563     9.2314     7.9838     4.6816     4.1639     9.7408     0.351      59.8792   
2675       5.5487     1.8408     6.0409     9.2899     8.0613     4.6816     4.2851     9.8128     0.351      61.7044   
2675.2     5.5487     1.8428     6.0978     9.3768     8.2354     4.6869     4.3028     9.9064     0.345      61.5193   
2675.4     5.5487     1.869      6.1545     9.4333     8.337      4.7349     4.257      9.9171     0.345      60.5769   
2675.6     5.5847     1.897      6.2113     9.4333     8.3936     4.7352     4.222      9.8915     0.345      58.9647   
2675.8     5.5487     1.897      6.2264     9.4333     8.4504     4.7711     4.1583     10.0032    0.345      59.7898   
2676       5.5183     1.9395     6.3116     9.4837     8.5449     4.7349     4.1208     10.0721    0.345      56.0321   
2676.2     5.4952     1.9511     6.3186     9.5317     8.5588     4.7349     4.0934     10.1515    0.342      59.4129   
