~Version
 VERS              .         2.0                           : CWLS LOG ASCII STANDARD - VERSION 2.0
 WRAP              .         NO                            : ONE LINE PER DEPTH STEP
 DLM               .         SPACE                         : DELIMITING CHARACTER(SPACE TAB OR COMMA)
~Well Information
#_______________________________________________________________________________
#
#PARAMETER_NAME    .UNIT     VALUE                         : DESCRIPTION
#_______________________________________________________________________________
STRT               .m        2596                          : First reference value
STOP               .m        2813                          : Last reference value
STEP               .m        0.2                           : Step increment
NULL               .         -9999                         : Missing value
COMP               .                                       : Company
WELL               .         308                           : Well name
FLD                .                                       : Field
LOC                .                                       : Location
CNTY               .                                       : County
STAT               .                                       : State
CTRY               .                                       : Country
SRVC               .                                       : Service Company
DATE               .                                       : Date
API                .                                       : API number
EREF               .m        138.34                        : 
Pad                .         3                             : 
X                  .m        219750                        : 
Y                  .m        249950                        : 
group              .         Pad3                          : 
Интер-р            .         Зайцев                        : 
Куст               .         3                             : 
Статус             .         Не проверено                  : 
Тип                .         Разведка                      : 
~Parameter Information Block
#_______________________________________________________________________________
#
#PARAMETER_NAME    .UNIT     VALUE                         : DESCRIPTION
#_______________________________________________________________________________
SET                .         LAS1                          : 
REAL_CREATION_DATE .         Ср апр 11 2012-13_17_11       : 
TLFamily_DEPTH     .         Measured Depth                : 
TLFamily_KS        .         Potential Resistivity         : 
TLFamily_KS1       .         Extra Shallow Resistivity     : 
TLFamily_KS2       .         Shallow Resistivity           : 
TLFamily_KS3       .         Medium Resistivity            : 
TLFamily_KS4       .         Deep Resistivity              : 
TLFamily_KS5       .         Extra Deep Resistivity        : 
TLFamily_LLD       .         Lateral Log Resistivity       : 
TLFamily_OKS3      .         Medium Resistivity Inverted   : 
TLFamily_RM        .         Mud Resistivity               : 
TLFamily_SP        .         Spontaneous Potential         : 
group              .         INI                           : 
~Curve Information
#_______________________________________________________________________________
#
#LOGNAME           .UNIT     LOG_ID                        : DESCRIPTION
#_______________________________________________________________________________
DEPTH              .m                                      : Measured Depth 
KS                 .ohm.m                                  : Potential Resistivity 
KS1                .ohm.m                                  : Extra Shallow Resistivity 
KS2                .ohm.m                                  : Shallow Resistivity 
KS3                .ohm.m                                  : Medium Resistivity 
KS4                .ohm.m                                  : Deep Resistivity 
KS5                .ohm.m                                  : Extra Deep Resistivity 
LLD                .ohm.m                                  : Lateral Log Resistivity 
OKS3               .ohm.m                                  : Medium Resistivity Inverted 
RM                 .ohm.m                                  : Mud Resistivity 
SP                 .mV                                     : Spontaneous Potential 
~Ascii
# ...
2797       5.6556     1.6263     5.738      6.8217     7.3854     6.1217     6.2601     6.2274     0.309      62.0239   
2797.2     5.6556     1.6263     5.7392     7.2077     7.4684     6.2318     6.2202     6.2274     0.309      60.3611   
2797.4     5.6556     1.6263     5.7392     7.8999     7.5637     6.2821     7.3888     6.2274     0.309      64.8999   
2797.6     5.6556     1.6263     5.7761     8.9753     7.5641     6.2718     7.6757     6.2274     0.309      60.9407   
2797.8     5.6556     1.6263     5.7417     9.8057     7.3662     6.2287     6.897      1.8682     0.309      68.4863   
2798       5.6556     1.6263     5.7424     10.0763    7.1025     6.2605     5.8311     0          0.309      65.9761   
2798.2     5.6556     1.6263     5.7838     10.0228    6.8296     6.3543     4.2268     0          0.309      69.231    
2798.4     5.6556     1.6263     5.7392     9.9691     6.6413     6.613      3.7577     0          0.309      68.2247   
2798.6     5.6556     1.6263     5.7392     9.9691     6.6423     7.0099     4.0474     0          0.309      66.4038   
2798.8     5.6556     1.6263     5.748      9.8845     6.7168     7.4101     4.2629     0          0.309      67.7917   
2799       5.6556     1.6263     5.7392     9.7574     6.9294     7.8537     4.188      0          0.309      63.8523   
2799.2     5.6556     1.6263     5.7392     9.7548     7.0074     8.2904     4.1721     0          0.309      66.1833   
2799.4     5.6556     1.6263     5.7867     9.7548     7.2418     8.6468     4.9608     0          0.309      61.0225   
2799.6     5.6556     1.6263     5.7642     9.7548     7.7113     8.9063     7.4741     0          0.309      61.2863   
2799.8     5.6556     1.6263     5.7456     9.7548     8.4864     9.216      9.8506     0          0.309      59.9351   
2800       5.6556     1.6263     5.7392     9.7548     9.2442     9.6386     10.6954    0          0.217      60.1849   
2800.2     5.6556     1.6263     5.7392     9.7548     9.6377     10.0541    12.6132    0          0          56.0054   
2800.4     0          1.6263     5.7392     9.7548     9.6707     10.6159    13.4102    0          0          57.7738   
2800.6     0          0          5.7686     9.7548     9.6892     11.2294    10.9783    0          0          54.2844   
2800.8     0          0          5.7392     9.7548     9.8868     11.8128    7.9736     0          0          56.0448   
2801       0          0          5.7619     9.7548     10.0759    12.539     11.1316    0          0          55.7344   
2801.2     0          0          0          9.7548     10.0943    13.4017    12.4762    0          0          55.3305   
2801.4     0          0          0          9.7548     10.0943    14.2009    11.1344    0          0          57.8668   
2801.6     0          0          0          9.7548     10.1191    14.9446    7.0231     0          0          64.8551   
2801.8     0          0          0          9.7548     10.1039    15.829     4.9345     0          0          66.0774   
2802       0          0          0          9.7548     10.1014    16.747     7.3809     0          0          70.4071   
2802.2     0          0          0          9.7548     10.0996    17.6608    9.6572     0          0          69.6195   
2802.4     0          0          0          0          10.0943    18.9651    11.6876    0          0          77.1743   
2802.6     0          0          0          0          10.0943    20.9226    11.0889    0          0          84.764    
2802.8     0          0          0          0          10.1066    23.4759    9.2695     0          0          86.7051   
2803       0          0          0          0          10.0943    26.4523    9.4273     0          0          88.0836   
2803.2     0          0          0          0          10.0943    30.5082    10.16      0          0          86.995    
2803.4     0          0          0          0          10.0943    34.2101    10.0638    0          0          86.8848   
2803.6     0          0          0          0          10.0943    37.0951    5.9294     0          0          87.3037   
2803.8     0          0          0          0          10.1135    39.1493    25.3971    0          0          87.4885   
2804       0          0          0          0          10.0943    38.7385    22.4906    0          0          86.891    
2804.2     0          0          0          0          10.0943    33.3378    6.9303     0          0          86.6743   
2804.4     0          0          0          0          0          29.2301    4.2776     0          0          85.2045   
2804.6     0          0          0          0          0          28.7423    3.3718     0          0          86.1454   
2804.8     0          0          0          0          0          28.6983    4.079      0          0          83.4464   
2805       0          0          0          0          0          27.9326    3.8794     0          0          85.8539   
2805.2     0          0          0          0          0          27.0518    4.3425     0          0          83.6936   
2805.4     0          0          0          0          0          27.0787    3.5733     0          0          82.2875   
2805.6     0          0          0          0          0          27.0885    3.4369     0          0          78.7816   
2805.8     0          0          0          0          0          27.0885    3.4405     0          0          81.6689   
2806       0          0          0          0          0          27.0885    4.0064     0          0          61.2763   
2806.2     0          0          0          0          0          27.0885    4.4288     0          0          0         
2806.4     0          0          0          0          0          27.0885    4.1449     0          0          0         
2806.6     0          0          0          0          0          27.099     5.088      0          0          0         
2806.8     0          0          0          0          0          27.0885    5.9156     0          0          0         
2807       0          0          0          0          0          27.0885    5.7318     0          0          0         
2807.2     0          0          0          0          0          27.0885    5.5047     0          0          0         
2807.4     0          0          0          0          0          27.0885    5.5238     0          0          0         
2807.6     0          0          0          0          0          27.0885    5.6513     0          0          0         
2807.8     0          0          0          0          0          27.0885    6.2975     0          0          0         
2808       0          0          0          0          0          27.094     7.4918     0          0          0         
2808.2     0          0          0          0          0          27.0885    6.7949     0          0          0         
2808.4     0          0          0          0          0          27.097     5.3613     0          0          0         
2808.6     0          0          0          0          0          0          5.2483     0          0          0         
2808.8     0          0          0          0          0          0          4.652      0          0          0         
2809       0          0          0          0          0          0          4.0015     0          0          0         
2809.2     0          0          0          0          0          0          7.4105     0          0          0         
2809.4     0          0          0          0          0          0          7.9771     0          0          0         
2809.6     0          0          0          0          0          0          6.5967     0          0          0         
2809.8     0          0          0          0          0          0          4.5571     0          0          0         
2810       0          0          0          0          0          0          3.1316     0          0          0         
2810.2     0          0          0          0          0          0          2.7791     0          0          0         
