~Version
 VERS              .         2.0                           : CWLS LOG ASCII STANDARD - VERSION 2.0
 WRAP              .         NO                            : ONE LINE PER DEPTH STEP
 DLM               .         SPACE                         : DELIMITING CHARACTER(SPACE TAB OR COMMA)
~Well Information
#_______________________________________________________________________________
#
#PARAMETER_NAME    .UNIT     VALUE                         : DESCRIPTION
#_______________________________________________________________________________
STRT               .m        2596                          : First reference value
STOP               .m        2813                          : Last reference value
STEP               .m        0.2                           : Step increment
NULL               .         -9999                         : Missing value
COMP               .                                       : Company
WELL               .         308                           : Well name
FLD                .                                       : Field
LOC                .                                       : Location
CNTY               .                                       : County
STAT               .                                       : State
CTRY               .                                       : Country
SRVC               .                                       : Service Company
DATE               .                                       : Date
API                .                                       : API number
EREF               .m        138.34                        : 
Pad                .         3                             : 
X                  .m        219750                        : 
Y                  .m        249950                        : 
group              .         Pad3                          : 
Интер-р            .         Зайцев                        : 
Куст               .         3                             : 
Статус             .         Не проверено                  : 
Тип                .         Разведка                      : 
~Parameter Information Block
#_______________________________________________________________________________
#
#PARAMETER_NAME    .UNIT     VALUE                         : DESCRIPTION
#_______________________________________________________________________________
SET                .         LAS1                          : 
REAL_CREATION_DATE .         Ср апр 11 2012-13_17_11       : 
TLFamily_DEPTH     .         Measured Depth                : 
TLFamily_KS        .         Potential Resistivity         : 
TLFamily_KS1       .         Extra Shallow Resistivity     : 
TLFamily_KS2       .         Shallow Resistivity           : 
TLFamily_KS3       .         Medium Resistivity            : 
TLFamily_KS4       .         Deep Resistivity              : 
TLFamily_KS5       .         Extra Deep Resistivity        : 
TLFamily_LLD       .         Lateral Log Resistivity       : 
TLFamily_OKS3      .         Medium Resistivity Inverted   : 
TLFamily_RM        .         Mud Resistivity               : 
TLFamily_SP        .         Spontaneous Potential         : 
group              .         INI                           : 
~Curve Information
#_______________________________________________________________________________
#
#LOGNAME           .UNIT     LOG_ID                        : DESCRIPTION
#_______________________________________________________________________________
DEPTH              .m                                      : Measured Depth 
KS                 .ohm.m                                  : Potential Resistivity 
KS1                .ohm.m                                  : Extra Shallow Resistivity 
KS2                .ohm.m                                  : Shallow Resistivity 
KS3                .ohm.m                                  : Medium Resistivity 
KS4                .ohm.m                                  : Deep Resistivity 
KS5                .ohm.m                                  : Extra Deep Resistivity 
LLD                .ohm.m                                  : Lateral Log Resistivity 
OKS3               .ohm.m                                  : Medium Resistivity Inverted 
RM                 .ohm.m                                  : Mud Resistivity 
SP                 .mV                                     : Spontaneous Potential 
~Ascii
# ...
2783.6     6.9928     1.7421     6.0099     11.2172    13.9164    6.3389     5.4065     10.8967    0.334      80.5661   
2783.8     7.0595     1.7346     6.092      11.2385    13.8218    6.4022     6.6881     10.8227    0.341      83.0257   
2784       7.1274     1.8292     6.3059     11.441     13.97      6.5593     8.2323     10.2401    0.327      80.007    
2784.2     7.152      1.8674     6.4668     11.6762    14.2842    6.8708     8.5007     9.414      0.335      82.4198   
2784.4     7.0997     1.9999     6.7329     11.8718    15.1445    7.3308     7.6064     8.5999     0.343      81.6528   
2784.6     6.9942     1.9779     6.7218     12.1704    16.3335    8.125      7.2176     8.1164     0.326      81.716    
2784.8     6.803      2.0515     7.1184     12.5669    17.9355    9.3735     7.5005     7.9541     0.331      79.1263   
2785       6.6525     2.0453     7.3802     13.3436    20.2137    11.3723    5.8683     8.2715     0.336      85.3626   
2785.2     6.46       2.0479     7.4895     14.4005    23.6638    14.0371    4.8856     9.2096     0.322      81.8471   
2785.4     6.2175     2.0204     7.9114     16.5462    29.2587    16.9534    6.6213     10.9111    0.333      79.7556   
2785.6     6.0709     2.2372     8.7155     17.7273    31.2933    20.0057    8.796      11.4692    0.329      79.866    
2785.8     5.9805     2.2217     8.3074     17.4367    29.5488    21.089     7.4223     10.7712    0.339      86.4728   
2786       5.7564     2.2518     8.1453     16.9033    27.3384    20.4712    6.6063     9.7584     0.338      82.3322   
2786.2     5.2958     2.4179     8.5828     16.8296    25.6669    19.063     7.4097     8.9897     0.333      88.7654   
2786.4     4.8771     2.5306     8.8009     16.121     23.189     17.2729    4.9054     8.2033     0.341      89.1018   
2786.6     4.5167     2.3734     8.2617     14.154     19.1769    14.9118    3.4449     7.6326     0.333      90.7394   
2786.8     4.2981     2.0312     7.0368     11.7498    15.0511    12.2062    2.4046     7.5438     0.335      86.7617   
2787       4.2139     1.6913     5.8121     9.5156     11.6966    9.4834     2.1612     7.8978     0.331      91.7572   
2787.2     4.4047     1.4209     4.6511     7.4683     8.6864     7.111      2.4891     8.7824     0.33       86.8531   
2787.4     4.7263     1.3557     4.3011     7.1029     7.8072     6.2411     2.9985     8.8692     0.334      85.2877   
2787.6     5.0394     1.4621     4.2462     7.168      7.4224     5.7489     4.6904     8.2491     0.322      83.5275   
2787.8     5.2377     1.6897     4.6038     7.6349     7.3615     5.3925     7.9266     7.4268     0.337      87.1343   
2788       5.2813     1.9006     5.038      7.8661     7.2526     5.207      7.2298     6.9306     0.325      81.1259   
2788.2     5.1709     1.9511     5.3729     7.9514     7.1286     4.9527     5.2961     6.588      0.326      85.4772   
2788.4     4.9305     2.0509     6.016      7.9859     6.9362     4.6987     5.6254     6.4047     0.327      84.481    
2788.6     4.7717     2.0919     6.5011     7.7562     6.5533     4.5214     4.9207     6.4562     0.325      87.5093   
2788.8     4.5938     1.9        6.0591     7.3038     6.0744     4.2653     3.4115     6.68       0.334      83.6941   
2789       4.4867     1.8389     5.8961     6.8913     5.6743     3.9043     3.8897     7.0522     0.322      88.9507   
2789.2     4.4448     1.7714     5.4978     6.7904     5.4562     3.6074     3.7497     7.5235     0.331      86.7718   
2789.4     4.3767     1.6865     5.179      6.9073     5.4859     3.3034     3.6455     8.0912     0.324      87.4572   
2789.6     4.2974     1.7616     5.2481     7.191      5.6317     3.0553     4.3063     8.6247     0.324      88.389    
2789.8     4.2651     1.7998     5.0961     7.3381     5.7492     2.8538     4.0827     9.1009     0.332      88.2644   
2790       4.2116     1.706      4.7728     6.9791     5.5545     2.6686     3.4713     9.8326     0.319      87.7616   
2790.2     4.2116     1.5868     4.4608     6.5405     5.3714     2.5066     3.3722     10.8699    0.333      86.5574   
2790.4     4.2168     1.5722     4.3967     6.1667     5.3289     2.4416     3.418      12.1786    0.322      87.1694   
2790.6     4.3103     1.4815     4.1561     5.8497     5.3039     2.5191     3.0503     13.6721    0.327      88.7411   
2790.8     4.5057     1.4239     3.9426     5.5488     5.4049     2.642      3.1687     14.8993    0.323      87.2139   
2791       4.873      1.3189     3.6475     5.3729     5.718      2.8123     3.1164     15.7271    0.322      83.1272   
2791.2     5.3944     1.2063     3.4356     5.3438     6.1065     3.0206     3.4066     15.8041    0.323      84.5259   
2791.4     6.0955     1.2256     3.5112     5.5208     6.5555     3.2699     5.4826     14.752     0.322      85.2504   
2791.6     6.8466     1.39       3.8852     5.8849     7.0623     3.506      10.3025    13.3737    0.333      84.5352   
2791.8     7.4187     1.6102     4.4547     6.4338     7.7826     3.7661     11.5832    11.8977    0.327      84.1902   
2792       7.9303     1.8706     5.229      6.9457     8.4057     4.0706     15.9925    10.8041    0.336      81.7933   
2792.2     8.1376     1.8147     5.2818     7.2675     8.8097     4.3885     8.9389     10.1796    0.316      81.3496   
2792.4     8.4034     1.8835     6.1002     7.8004     9.3458     4.6282     21.8301    9.4216     0.337      81.6071   
2792.6     8.5437     2.1969     7.595      8.9537     10.1333    5.0431     93.6249    8.5314     0.336      79.9106   
2792.8     8.2854     2.6152     9.3907     10.6726    11.1141    5.3841     191.9425   7.6536     0.343      83.4896   
2793       7.5183     3.0416     11.1569    12.7679    11.9857    5.4796     120.2345   6.8888     0.34       81.6397   
2793.2     6.5031     3.5045     12.9828    14.8767    12.21      5.3931     22.8231    5.9459     0.353      82.9166   
2793.4     5.5491     3.4363     13.3278    15.9628    11.417     5.1728     4.377      5.3189     0.339      82.8995   
2793.6     4.8879     2.9889     11.7638    15.3602    9.709      4.9237     2.621      5.4258     0.344      85.1585   
2793.8     4.3983     2.193      8.9108     13.7988    8.2418     4.7299     2.2988     5.5627     0.326      86.5577   
2794       4.1202     1.767      7.3768     12.6016    7.5487     4.7275     2.6303     5.5458     0.335      84.9543   
2794.2     3.9378     1.6804     6.7323     12.2458    7.3328     4.9181     3.4048     5.6664     0.324      83.4806   
2794.4     3.8472     1.6972     6.1748     11.7102    7.0063     5.1702     3.3204     6.0033     0.338      84.6286   
2794.6     3.8383     1.6956     5.2099     10.6223    6.3984     5.3711     2.7329     6.2263     0.324      80.9794   
2794.8     3.9335     1.506      4.2544     9.0705     5.9593     5.4849     2.1944     6.2274     0.334      75.1759   
2795       4.0484     1.3225     3.7117     7.9427     5.8662     5.5417     2.5447     6.2274     0.328      72.9005   
2795.2     4.2569     1.2474     3.723      7.329      5.955      5.643      5.0139     6.2274     0.317      67.3865   
2795.4     4.6081     1.2883     3.7801     6.7865     6.0543     5.6221     5.5948     6.2274     0.324      71.1515   
2795.6     5.0559     1.3706     3.9067     6.3743     6.3025     5.5045     6.3332     6.2274     0.318      63.0279   
2795.8     5.3449     1.5662     4.1726     6.093      6.6227     5.4818     6.2861     6.2274     0.304      66.6671   
2796       5.5155     1.7183     4.4657     5.8542     6.6935     5.5487     5.2668     6.2274     0.304      61.6387   
2796.2     5.5915     1.6122     4.7043     5.6481     6.7056     5.6235     4.4039     6.2274     0.304      62.2379   
2796.4     5.6006     1.6101     4.8764     5.7206     6.8058     5.7389     5.5604     6.2274     0.306      58.1963   
2796.6     5.6022     1.6263     5.3752     6.1044     7.0994     5.8738     6.7396     6.2274     0.304      65.3697   
2796.8     5.6022     1.6197     5.6769     6.5306     7.3168     6.0207     6.421      6.2274     0.309      63.2917   
