~Version
 VERS              .         2.0                           : CWLS LOG ASCII STANDARD - VERSION 2.0
 WRAP              .         NO                            : ONE LINE PER DEPTH STEP
 DLM               .         SPACE                         : DELIMITING CHARACTER(SPACE TAB OR COMMA)
~Well Information
#_______________________________________________________________________________
#
#PARAMETER_NAME    .UNIT     VALUE                         : DESCRIPTION
#_______________________________________________________________________________
STRT               .m        2596                          : First reference value
STOP               .m        2813                          : Last reference value
STEP               .m        0.2                           : Step increment
NULL               .         -9999                         : Missing value
COMP               .                                       : Company
WELL               .         308                           : Well name
FLD                .                                       : Field
LOC                .                                       : Location
CNTY               .                                       : County
STAT               .                                       : State
CTRY               .                                       : Country
SRVC               .                                       : Service Company
DATE               .                                       : Date
API                .                                       : API number
EREF               .m        138.34                        : 
Pad                .         3                             : 
X                  .m        219750                        : 
Y                  .m        249950                        : 
group              .         Pad3                          : 
Интер-р            .         Зайцев                        : 
Куст               .         3                             : 
Статус             .         Не проверено                  : 
Тип                .         Разведка                      : 
~Parameter Information Block
#_______________________________________________________________________________
#
#PARAMETER_NAME    .UNIT     VALUE                         : DESCRIPTION
#_______________________________________________________________________________
SET                .         LAS1                          : 
REAL_CREATION_DATE .         Ср апр 11 2012-13_17_11       : 
TLFamily_DEPTH     .         Measured Depth                : 
TLFamily_KS        .         Potential Resistivity         : 
TLFamily_KS1       .         Extra Shallow Resistivity     : 
TLFamily_KS2       .         Shallow Resistivity           : 
TLFamily_KS3       .         Medium Resistivity            : 
TLFamily_KS4       .         Deep Resistivity              : 
TLFamily_KS5       .         Extra Deep Resistivity        : 
TLFamily_LLD       .         Lateral Log Resistivity       : 
TLFamily_OKS3      .         Medium Resistivity Inverted   : 
TLFamily_RM        .         Mud Resistivity               : 
TLFamily_SP        .         Spontaneous Potential         : 
group              .         INI                           : 
~Curve Information
#_______________________________________________________________________________
#
#LOGNAME           .UNIT     LOG_ID                        : DESCRIPTION
#_______________________________________________________________________________
DEPTH              .m                                      : Measured Depth 
KS                 .ohm.m                                  : Potential Resistivity 
KS1                .ohm.m                                  : Extra Shallow Resistivity 
KS2                .ohm.m                                  : Shallow Resistivity 
KS3                .ohm.m                                  : Medium Resistivity 
KS4                .ohm.m                                  : Deep Resistivity 
KS5                .ohm.m                                  : Extra Deep Resistivity 
LLD                .ohm.m                                  : Lateral Log Resistivity 
OKS3               .ohm.m                                  : Medium Resistivity Inverted 
RM                 .ohm.m                                  : Mud Resistivity 
SP                 .mV                                     : Spontaneous Potential 
~Ascii
# ...
2756.8     3.7757     1.6263     4.5535     6.5047     6.1972     5.1208     2.6253     5.3119     0.319      93.6362   
2757       3.7303     1.6263     4.4751     6.3846     6.1761     4.9966     2.8903     5.2152     0.321      93.41     
2757.2     3.7303     1.5828     4.3055     6.2597     6.1761     4.8167     2.9216     5.1684     0.324      96.1361   
2757.4     3.6871     1.6046     4.3459     6.2186     6.1761     4.6354     2.6        5.0606     0.333      95.6209   
2757.6     3.6768     1.6648     4.4973     6.1553     6.0529     4.4051     2.5406     4.9494     0.339      95.5599   
2757.8     3.6265     1.6363     4.4243     6.0262     5.9034     4.2084     2.5021     4.8474     0.331      99.0814   
2758       3.5805     1.6434     4.3858     5.821      5.717      3.9624     2.543      4.7544     0.327      98.916    
2758.2     3.5553     1.5909     4.2983     5.7527     5.6707     3.8396     2.4263     4.7708     0.325      101.9526  
2758.4     3.5164     1.5851     4.3449     5.5476     5.4681     3.6553     2.3648     4.7307     0.321      99.9658   
2758.6     3.4184     1.6096     4.3171     5.4392     5.2895     3.4154     2.4175     4.7265     0.318      99.1852   
2758.8     3.4094     1.5859     4.2218     5.3769     5.1529     3.2799     2.4409     4.7531     0.316      96.8748   
2759       3.3697     1.5722     4.1168     5.2992     5.0256     3.1139     2.3897     4.7801     0.321      99.2182   
2759.2     3.3559     1.5722     4.1064     5.2058     4.9458     3.0213     2.4547     4.7801     0.326      93.8912   
2759.4     3.3559     1.5574     4.0421     5.101      4.8706     2.9211     2.4845     4.7801     0.334      91.5779   
2759.6     3.3559     1.5273     3.9568     5.0193     4.7511     2.8487     2.3612     4.8172     0.336      91.8769   
2759.8     3.3559     1.5332     3.9484     4.9864     4.6935     2.7546     2.3702     4.7801     0.338      91.776    
2760       3.333      1.5572     3.9962     4.9269     4.6135     2.665      2.311      4.8267     0.333      88.0137   
2760.2     3.3151     1.5519     3.9875     4.8362     4.4817     2.6009     2.2578     4.8713     0.326      91.9339   
2760.4     3.3024     1.5181     3.9454     4.696      4.2679     2.5476     2.2365     4.9283     0.317      98.943    
2760.6     3.2714     1.5181     3.8839     4.6113     4.1697     2.5476     2.2797     4.9776     0.316      98.584    
2760.8     3.2489     1.4734     3.843      4.5663     4.1264     2.5441     2.0477     5.1224     0.321      97.3881   
2761       3.2489     1.4977     3.9079     4.5078     4.0685     2.5257     2.0295     5.3189     0.325      96.5556   
2761.2     3.2489     1.4727     3.8315     4.4555     3.9785     2.5476     2.3601     5.5671     0.333      96.9912   
2761.4     3.3452     1.3633     3.513      4.2961     3.8731     2.6247     2.9326     6.0331     0.337      97.0749   
2761.6     3.4562     1.4487     3.6391     4.3434     3.8677     2.6648     2.5044     6.0213     0.339      96.8407   
2761.8     3.5487     1.5079     3.6656     4.3234     3.7563     2.7076     2.1559     6.0056     0.331      96.2834   
2762       3.5781     1.4863     3.5665     4.241      3.6785     2.7376     2.3821     6.2523     0.332      90.4471   
2762.2     3.6978     1.4098     3.5639     4.1983     3.6402     2.8264     2.6534     6.6277     0.325      92.8913   
2762.4     3.8281     1.4379     3.7398     4.2363     3.7047     2.9502     2.7543     6.8804     0.322      91.1934   
2762.6     3.9513     1.4662     3.7913     4.3256     3.7872     3.0362     2.8121     7.141      0.327      87.9337   
2762.8     4.0753     1.5181     3.8957     4.4102     3.8855     3.1331     3.0306     7.5324     0.33       87.4005   
2763       4.1994     1.544      4.0235     4.5573     3.9681     3.1922     3.5172     7.7217     0.342      87.1143   
2763.2     4.2228     1.6187     4.1064     4.6592     4.0051     3.2411     3.4168     7.7818     0.345      83.8603   
2763.4     4.3119     1.6342     4.2652     4.7657     4.0051     3.2411     3.1334     7.7621     0.348      81.8145   
2763.6     4.3186     1.7244     4.4316     4.8887     3.9522     3.2561     2.9744     7.8222     0.339      83.1376   
2763.8     4.3132     1.6856     4.5068     5.0126     3.9324     3.2722     3.0298     8.0471     0.332      82.2278   
2764       4.2684     1.6804     4.6028     5.0024     3.8622     3.2948     2.927      8.3856     0.331      82.4156   
2764.2     4.3135     1.6347     4.6078     5.0329     3.8054     3.3758     2.8138     8.9475     0.321      84.8642   
2764.4     4.2651     1.6111     4.6022     5.1317     3.8207     3.5589     2.7114     9.9236     0.331      86.7158   
2764.6     4.2965     1.6263     4.5692     5.228      3.8845     3.7982     2.3232     11.5564    0.335      86.9534   
2764.8     4.4612     1.5233     4.2595     5.1548     4.0052     4.1049     2.2304     13.8699    0.34       88.4161   
2765       4.7557     1.2712     3.7489     5.1486     4.1298     4.4275     4.0517     15.5455    0.347      87.9773   
2765.2     5.1463     1.3582     3.9571     5.3389     4.3453     4.8025     5.2436     16.1236    0.343      87.0707   
2765.4     5.5204     1.5143     4.181      5.7376     4.6318     5.1266     5.4196     16.2399    0.339      79.1113   
2765.6     5.7332     1.6657     4.4949     6.0184     4.9574     5.4732     4.9056     16.7308    0.333      77.7151   
2765.8     5.845      1.7346     4.6448     6.1853     5.1529     5.9219     5.1803     17.1014    0.327      76.7774   
2766       5.9579     1.7551     4.966      6.4044     5.3648     6.3685     4.3558     17.5642    0.327      77.2553   
2766.2     6.0524     1.8381     5.5202     6.6201     5.7005     7.2502     2.6769     18.9073    0.331      78.9615   
2766.4     6.3097     1.7833     5.504      6.6906     6.1879     8.2402     3.4844     23.0667    0.335      79.4208   
2766.6     6.624      1.4721     4.9819     6.6473     6.7231     9.2709     7.0323     27.1258    0.339      79.7365   
2766.8     7.5241     1.5575     5.3422     7.1755     7.5708     10.4559    9.1596     29.5086    0.337      78.2753   
2767       8.3063     1.7096     5.6105     7.8558     8.1194     10.9606    18.4506    28.5424    0.339      78.7356   
2767.2     8.8826     1.9139     6.0345     8.9057     8.6437     11.4507    20.119     26.6756    0.332      78.8575   
2767.4     9.2657     2.2216     6.9046     9.879      9.0821     11.8222    6.4557     25.4068    0.327      73.2545   
2767.6     9.5261     2.1229     7.0193     10.4423    9.3812     12.103     13.8361    25.7918    0.329      72.1417   
2767.8     9.655      2.106      7.5495     10.9025    9.6099     12.196     11.2589    26.1414    0.337      69.2022   
2768       9.8255     2.2409     8.5314     11.6445    9.8661     12.0412    9.785      25.6407    0.351      64.5282   
2768.2     9.9601     2.2759     8.8614     12.2466    9.8898     11.6443    9.4758     24.7016    0.355      73.3558   
2768.4     10.0305    2.2759     8.9194     12.6075    9.7511     10.9807    11.0584    24.0663    0.347      70.7459   
2768.6     10.0412    2.2616     9.0115     13.2598    9.8229     10.1478    9.3627     23.1215    0.336      73.3713   
2768.8     10.0701    2.3038     9.3081     14.5763    9.8828     9.3812     8.4322     21.8144    0.331      72.983    
2769       10.0947    2.2503     9.1433     15.5728    9.9503     8.6598     9.1281     20.4392    0.33       80.4347   
2769.2     10.1395    2.1839     8.8822     16.2772    10.2112    7.966      9.946      19.1977    0.339      78.4758   
2769.4     10.1482    2.1676     8.8595     16.9482    10.7636    7.3759     9.8383     18.4948    0.349      71.7925   
2769.6     10.1482    2.2396     9.0391     17.4647    11.3596    6.9593     9.827      18.1367    0.357      74.4768   
2769.8     10.1482    2.2759     9.1212     17.8444    11.9363    6.6893     11.2807    17.8196    0.35       77.2152   
2770       10.1151    2.2217     8.9251     18.3168    12.599     6.545      9.2408     17.4467    0.342      71.7622   
