~Version
 VERS              .         2.0                           : CWLS LOG ASCII STANDARD - VERSION 2.0
 WRAP              .         NO                            : ONE LINE PER DEPTH STEP
 DLM               .         SPACE                         : DELIMITING CHARACTER(SPACE TAB OR COMMA)
~Well Information
#_______________________________________________________________________________
#
#PARAMETER_NAME    .UNIT     VALUE                         : DESCRIPTION
#_______________________________________________________________________________
STRT               .m        2596                          : First reference value
STOP               .m        2813                          : Last reference value
STEP               .m        0.2                           : Step increment
NULL               .         -9999                         : Missing value
COMP               .                                       : Company
WELL               .         308                           : Well name
FLD                .                                       : Field
LOC                .                                       : Location
CNTY               .                                       : County
STAT               .                                       : State
CTRY               .                                       : Country
SRVC               .                                       : Service Company
DATE               .                                       : Date
API                .                                       : API number
EREF               .m        138.34                        : 
Pad                .         3                             : 
X                  .m        219750                        : 
Y                  .m        249950                        : 
group              .         Pad3                          : 
Интер-р            .         Зайцев                        : 
Куст               .         3                             : 
Статус             .         Не проверено                  : 
Тип                .         Разведка                      : 
~Parameter Information Block
#_______________________________________________________________________________
#
#PARAMETER_NAME    .UNIT     VALUE                         : DESCRIPTION
#_______________________________________________________________________________
SET                .         LAS3                          : 
REAL_CREATION_DATE .         Ср апр 11 2012-13_17_12       : 
TLFamily_DEPTH     .         Measured Depth                : 
TLFamily_GR        .         Gamma Ray                     : 
TLFamily_TNPH      .         Neutron Porosity              : 
group              .         INI                           : 
~Curve Information
#_______________________________________________________________________________
#
#LOGNAME           .UNIT     LOG_ID                        : DESCRIPTION
#_______________________________________________________________________________
DEPTH              .m                                      : Measured Depth 
GR                 .gAPI                                   :  
TNPH               .v/v                                    : Neutron Porosity 
~Ascii
2596.0     58.89      0.24      
2596.2     74.61      0.222     
2596.4     81.39      0.215     
2596.6     84.69      0.224     
2596.8     84.43      0.229     
2597       84.54001   0.232     
2597.2     86.32      0.22      
2597.4     85.43999   0.21      
2597.6     82.47      0.204     
2597.8     81.07001   0.201     
2598       83.97      0.2       
2598.2     90.48      0.206     
2598.4     94.25      0.221     
2598.6     96.47      0.239     
2598.8     97.22      0.248     
2599       95.47      0.246     
2599.2     95.33      0.247     
2599.4     94.67      0.254     
2599.6     92.25999   0.248     
2599.8     91.78001   0.238     
2600       90.64999   0.237     
2600.2     89.86      0.24      
2600.4     88.96      0.23      
2600.6     86.74      0.211     
2600.8     84.93      0.204     
2601       84.12      0.195     
2601.2     87.07      0.197     
2601.4     92.60001   0.21      
2601.6     95.98      0.232     
2601.8     102.75     0.249     
2602       111.48     0.254     
2602.2     111.45     0.229     
2602.4     100.71     0.222     
2602.6     85.17      0.21      
2602.8     72.15      0.195     
2603       67.29      0.188     
2603.2     67.62      0.189     
2603.4     75.45      0.2       
2603.6     83.92999   0.215     
2603.8     90.52      0.227     
2604       93.66      0.237     
2604.2     92.34      0.234     
2604.4     90.71999   0.237     
2604.6     89.85      0.232     
2604.8     93.59      0.233     
2605       96.28999   0.241     
2605.2     95.99      0.25      
2605.4     91.5       0.249     
2605.6     93.78      0.247     
2605.8     97.52      0.245     
2606       99.51      0.258     
2606.2     99.79      0.272     
2606.4     97.95999   0.266     
2606.6     94.77      0.254     
2606.8     94.01      0.251     
2607       95.02      0.252     
2607.2     99.1       0.255     
2607.4     101.48     0.252     
2607.6     100.65     0.25      
2607.8     103.9      0.259     
2608       105.48     0.268     
2608.2     103.3      0.246     
2608.4     98.61      0.233     
2608.6     94.13      0.225     
2608.8     94.71      0.222     
2609       98.25      0.221     
2609.2     96.58      0.215     
2609.4     93.91      0.217     
2609.6     92.27      0.215     
2609.8     90.28      0.205     
2610       87.87      0.198     
2610.2     84.96001   0.205     
2610.4     86.96999   0.207     
2610.6     90.88      0.208     
2610.8     89.41      0.224     
2611       88.17001   0.239     
2611.2     91.5       0.26      
2611.4     92.01      0.267     
2611.6     91.47      0.254     
2611.8     91.88      0.239     
2612       91.7       0.232     
2612.2     91.07001   0.238     
2612.4     91.28999   0.244     
2612.6     90.91      0.251     
2612.8     90.75      0.248     
2613       88.8       0.235     
2613.2     86.56      0.224     
2613.4     89.37      0.227     
2613.6     91.2       0.228     
2613.8     94.18999   0.229     
2614       96.55      0.233     
2614.2     96.41      0.24      
2614.4     95.96      0.239     
2614.6     98.68      0.223     
2614.8     98.25      0.225     
2615       98.35      0.239     
2615.2     102.36     0.25      
2615.4     103.81     0.255     
2615.6     102.16     0.256     
2615.8     101.88     0.258     
2616       103.2      0.254     
2616.2     103.27     0.256     
2616.4     104.06     0.259     
2616.6     105.22     0.256     
2616.8     105.67     0.261     
2617       103.93     0.257     
2617.2     103.08     0.246     
2617.4     100.08     0.244     
2617.6     97.60001   0.24      
2617.8     98.07999   0.23      
2618       98.95      0.229     
2618.2     100.28     0.24      
2618.4     102.53     0.256     
2618.6     104.07     0.255     
2618.8     100.62     0.245     
2619       96.86      0.239     
2619.2     95.5       0.229     
2619.4     95.03999   0.216     
2619.6     94.87      0.213     
2619.8     96.87      0.21      
2620       102.22     0.2       
2620.2     101.76     0.201     
2620.4     99.25999   0.213     
2620.6     100.42     0.221     
2620.8     99.48      0.226     
2621       96.19      0.231     
2621.2     95.42      0.239     
2621.4     97.52      0.244     
2621.6     98.18      0.239     
2621.8     96.3       0.241     
2622       95.94      0.237     
2622.2     99.11      0.236     
2622.4     99.78      0.242     
2622.6     99.45      0.234     
2622.8     101.46     0.228     
2623       103.41     0.231     
2623.2     102.95     0.233     
2623.4     104.15     0.24      
2623.6     105.84     0.256     
2623.8     106.2      0.262     
2624       102.27     0.266     
2624.2     99.43      0.262     
2624.4     99.15      0.248     
2624.6     98.36      0.239     
2624.8     100.43     0.248     
2625       103.17     0.249     
2625.2     102.09     0.234     
2625.4     101.91     0.24      
2625.6     101.99     0.267     
2625.8     101.16     0.271     
2626       101.4      0.269     
2626.2     100.55     0.273     
2626.4     102.95     0.266     
2626.6     103.26     0.261     
2626.8     103.75     0.266     
2627       105.29     0.262     
2627.2     107.66     0.253     
2627.4     108.98     0.254     
2627.6     109.65     0.25      
2627.8     111.36     0.24      
2628       110.17     0.233     
2628.2     102.98     0.241     
2628.4     103.04     0.238     
2628.6     103.22     0.234     
2628.8     103.71     0.237     
2629       101.68     0.242     
2629.2     97.67999   0.243     
2629.4     96.03      0.239     
2629.6     97         0.255     
2629.8     98         0.268     
2630       97.36      0.272     
2630.2     98.07      0.276     
2630.4     101.04     0.276     
2630.6     102.66     0.268     
2630.8     101.9      0.254     
2631       101.2      0.242     
2631.2     98.5       0.232     
2631.4     92.02      0.234     
2631.6     92.29      0.231     
2631.8     95.45      0.225     
2632       94.35001   0.227     
2632.2     92.39      0.237     
2632.4     91.68999   0.234     
2632.6     95.5       0.231     
2632.8     98.75      0.235     
2633       99.78      0.236     
2633.2     98.26      0.236     
2633.4     96.13      0.237     
2633.6     93.69      0.229     
2633.8     92.76      0.216     
2634       95.01      0.217     
2634.2     100.71     0.242     
2634.4     104.27     0.253     
2634.6     105.39     0.25      
2634.8     106.7      0.231     
2635       107.2      0.228     
2635.2     107.41     0.233     
2635.4     105.23     0.239     
2635.6     104.49     0.244     
2635.8     102.97     0.242     
2636       100.18     0.236     
2636.2     100.59     0.228     
2636.4     99.49001   0.234     
2636.6     98.28      0.235     
2636.8     97.63      0.226     
2637       96.41      0.226     
2637.2     93.53      0.227     
2637.4     92.44      0.225     
2637.6     96.1       0.228     
2637.8     101.8      0.224     
2638       104.85     0.231     
2638.2     105.4      0.239     
2638.4     104.89     0.233     
2638.6     101.09     0.239     
2638.8     99.23      0.247     
2639       99.86      0.24      
2639.2     99.35001   0.23      
2639.4     99.8       0.229     
2639.6     103.63     0.237     
2639.8     104.43     0.246     
2640       101.24     0.237     
2640.2     102.82     0.235     
2640.4     107.38     0.251     
2640.6     109.61     0.266     
2640.8     112.08     0.272     
2641       114.28     0.266     
2641.2     114.27     0.249     
2641.4     109.93     0.239     
2641.6     103.1      0.233     
2641.8     98.91      0.226     
2642       96.68999   0.22      
2642.2     98.29001   0.233     
2642.4     97.97      0.251     
2642.6     97.27      0.263     
2642.8     95.02      0.258     
2643       94.58      0.249     
2643.2     96.17      0.242     
2643.4     98.21999   0.241     
2643.6     100.62     0.257     
2643.8     106.22     0.271     
2644       112.16     0.276     
2644.2     115.4      0.284     
2644.4     115.87     0.282     
