~Version
 VERS              .         2.0                           : CWLS LOG ASCII STANDARD - VERSION 2.0
 WRAP              .         NO                            : ONE LINE PER DEPTH STEP
 DLM               .         SPACE                         : DELIMITING CHARACTER(SPACE TAB OR COMMA)
~Well Information
#_______________________________________________________________________________
#
#PARAMETER_NAME    .UNIT     VALUE                         : DESCRIPTION
#_______________________________________________________________________________
STRT               .m        2596                          : First reference value
STOP               .m        2813                          : Last reference value
STEP               .m        0.2                           : Step increment
NULL               .         -9999                         : Missing value
COMP               .                                       : Company
WELL               .         308                           : Well name
FLD                .                                       : Field
LOC                .                                       : Location
CNTY               .                                       : County
STAT               .                                       : State
CTRY               .                                       : Country
SRVC               .                                       : Service Company
DATE               .                                       : Date
API                .                                       : API number
EREF               .m        138.34                        : 
Pad                .         3                             : 
X                  .m        219750                        : 
Y                  .m        249950                        : 
group              .         Pad3                          : 
Интер-р            .         Зайцев                        : 
Куст               .         3                             : 
Статус             .         Не проверено                  : 
Тип                .         Разведка                      : 
~Parameter Information Block
#_______________________________________________________________________________
#
#PARAMETER_NAME    .UNIT     VALUE                         : DESCRIPTION
#_______________________________________________________________________________
SET                .         LAS1                          : 
REAL_CREATION_DATE .         Ср апр 11 2012-13_17_11       : 
TLFamily_DEPTH     .         Measured Depth                : 
TLFamily_KS        .         Potential Resistivity         : 
TLFamily_KS1       .         Extra Shallow Resistivity     : 
TLFamily_KS2       .         Shallow Resistivity           : 
TLFamily_KS3       .         Medium Resistivity            : 
TLFamily_KS4       .         Deep Resistivity              : 
TLFamily_KS5       .         Extra Deep Resistivity        : 
TLFamily_LLD       .         Lateral Log Resistivity       : 
TLFamily_OKS3      .         Medium Resistivity Inverted   : 
TLFamily_RM        .         Mud Resistivity               : 
TLFamily_SP        .         Spontaneous Potential         : 
group              .         INI                           : 
~Curve Information
#_______________________________________________________________________________
#
#LOGNAME           .UNIT     LOG_ID                        : DESCRIPTION
#_______________________________________________________________________________
DEPTH              .m                                      : Measured Depth 
KS                 .ohm.m                                  : Potential Resistivity 
KS1                .ohm.m                                  : Extra Shallow Resistivity 
KS2                .ohm.m                                  : Shallow Resistivity 
KS3                .ohm.m                                  : Medium Resistivity 
KS4                .ohm.m                                  : Deep Resistivity 
KS5                .ohm.m                                  : Extra Deep Resistivity 
LLD                .ohm.m                                  : Lateral Log Resistivity 
OKS3               .ohm.m                                  : Medium Resistivity Inverted 
RM                 .ohm.m                                  : Mud Resistivity 
SP                 .mV                                     : Spontaneous Potential 
~Ascii
2596.0     0.04       0          0          0          0          0          -9999      0          0.264      39.0315   
2596.2     0.04       0          0          0          0          0          -9999      0          0.268      42.0268   
2596.4     0.04       0          0          0          0          0          -9999      0          0.267      43.5404   
2596.6     0.04       0          0          0          0          0          -9999      0          0.236      47.4238   
2596.8     0.04       0          0          0          0          0          -9999      0.0876     0.238      51.4785   
2597       0.04       0          0          0          0          0          -9999      8.0528     0.244      50.7512   
2597.2     0.04       0          0          0          0          0          -9999      19.6457    0.286      72.8305   
2597.4     0.2958     0          0          0          0          0          -9999      26.7897    0.316      74.7547   
2597.6     2.0523     0.0392     0          0          0          0          -9999      24.6256    0.328      72.1417   
2597.8     3.2719     0.5815     0          0          0          0          -9999      21.8306    0.333      70.0889   
2598       4.185      1.0106     0          0          0          0          -9999      19.752     0.338      74.5945   
2598.2     4.8961     1.3136     0.2188     0          0          0          -9999      18.2662    0.339      73.1601   
2598.4     5.3672     1.4825     2.036      0          0          0          -9999      17.2403    0.333      70.2177   
2598.6     5.7943     1.684      3.4808     0          0          0          -9999      16.4071    0.333      72.8649   
2598.8     6.094      1.7725     4.4181     0          0          0          -9999      15.8745    0.335      74.133    
2599       6.3037     1.868      5.2833     0          0          0          -9999      15.3049    0.339      72.6081   
2599.2     6.4462     1.9923     5.9325     0          0          0          -9999      14.5972    0.341      73.7017   
2599.4     6.5135     2.0431     6.3321     0.4882     0          0          -9999      14.037     0.345      71.0525   
2599.6     6.5648     2.0594     6.5989     3.4638     0          0          -9999      13.8116    0.345      70.2359   
2599.8     6.5648     2.0594     6.7475     5.6781     0          0          -9999      13.6351    0.353      71.6637   
2600       6.5648     2.0789     6.948      7.2569     0          0          -9999      13.404     0.362      74.2804   
2600.2     6.6034     2.0756     7.0236     8.4086     0          0          -9999      13.1171    0.364      70.947    
2600.4     6.6183     2.0594     6.9724     9.1655     0          0          -9999      12.9173    0.37       72.3817   
2600.6     6.6183     2.0171     6.898      9.7095     0          0          -9999      12.7507    0.369      72.9887   
2600.8     6.6685     1.9928     6.804      10.0189    0          0          -9999      12.5881    0.376      70.6706   
2601       6.754      1.9132     6.6161     10.2524    0          0          -9999      12.5128    0.375      69.5377   
2601.2     6.7952     1.9656     6.8161     10.6438    0          0          -9999      12.4611    0.38       71.3999   
2601.4     6.875      2.0052     6.9386     10.962     0.3187     0          -9999      12.399     0.38       70.3154   
2601.6     6.9337     2.0052     6.7296     11.0325    2.8071     0          -9999      12.359     0.377      69.2364   
2601.8     6.9713     2.0368     6.9331     11.2137    4.823      0          -9999      12.3914    0.38       71.1277   
2602       6.9392     2.119      7.2348     11.6396    6.4936     0          -9999      12.2483    0.381      72.3423   
2602.2     6.8909     2.1676     7.4579     11.9168    7.804      0          -9999      11.9011    0.386      68.9193   
2602.4     6.8061     2.2139     7.6053     12.0051    8.6823     0          -9999      11.5855    0.38       69.4798   
2602.6     6.6704     2.1568     7.4667     12.0051    9.3865     0          -9999      11.5837    0.379      70.16     
2602.8     6.4863     2.1514     7.539      12.043     9.9279     0          -9999      11.5106    0.378      65.4662   
2603       6.3311     2.1676     7.6677     12.2087    10.4674    0          -9999      11.5097    0.378      70.5434   
2603.2     6.2439     2.1306     7.5664     11.9931    10.6594    0          -9999      12.04      0.378      69.2784   
2603.4     6.249      1.9394     6.8315     11.4038    10.5451    0          -9999      12.9485    0.373      67.2755   
2603.6     6.4179     1.746      6.1701     10.8051    10.3983    0          -9999      13.9984    0.369      68.9004   
2603.8     6.6545     1.6584     5.9041     10.7032    10.695     0          -9999      14.4482    0.369      69.9625   
2604       6.9331     1.8364     6.3513     11.1014    11.3452    0          4.7521     14.1114    0.369      69.7777   
2604.2     7.1832     1.9868     6.5621     11.7098    12.1232    0          4.502      13.5363    0.373      71.3972   
2604.4     7.2601     2.1221     6.979      12.2516    12.7654    0          5.2577     12.8563    0.374      69.4611   
2604.6     7.2601     2.3184     7.5431     12.5831    13.1785    0          4.9666     12.2526    0.374      67.3408   
2604.8     7.1188     2.2928     7.7154     12.7854    13.409     0          5.2385     11.6286    0.371      66.9185   
2605       6.9184     2.4778     8.6082     12.8399    13.4301    0          4.8173     11.0062    0.38       67.6392   
2605.2     6.7678     2.3642     8.4328     12.5358    13.1029    0          4.7136     10.59      0.375      67.6441   
2605.4     6.579      2.218      8.0358     12.0032    12.5692    0          5.0269     10.5679    0.371      66.8225   
2605.6     6.4236     2.1676     7.948      11.8444    12.2279    0          5.0262     10.569     0.375      68.3192   
2605.8     6.3589     2.1457     7.8094     11.9581    12.0613    1.0317     4.722      10.4663    0.375      65.1947   
2606       6.2873     2.1135     7.6178     12.1534    11.7823    2.2822     4.679      10.2656    0.374      64.4094   
2606.2     6.203      2.1135     7.4065     12.3471    11.54      3.1598     4.647      10.1426    0.375      66.4563   
2606.4     6.1444     2.1135     7.1996     12.3112    11.1971    3.7998     4.5906     9.9786     0.373      65.7839   
2606.6     6.0686     2.0594     7.0152     12.2171    10.8628    4.2479     4.5292     9.7706     0.37       65.8994   
2606.8     6.03       2.0594     7.0966     12.0702    10.517     4.5376     4.4324     9.4765     0.375      66.2282   
2607       5.9765     2.0594     6.9631     11.8048    10.2281    4.7239     4.3811     9.3356     0.373      67.5634   
2607.2     5.8807     2.0594     6.9396     11.6085    9.9906     4.8609     4.3816     9.2826     0.374      66.0571   
2607.4     5.7781     2.0594     6.9379     11.3223    9.8081     4.8979     4.3825     9.2826     0.369      65.4087   
2607.6     5.7169     2.0594     6.8136     10.9865    9.6788     4.9483     4.3186     9.1903     0.369      65.0478   
2607.8     5.6584     2.0052     6.7163     10.741     9.6178     4.9168     4.2764     9.1322     0.369      64.0157   
2608       5.6085     2.0052     6.6125     10.5384    9.7202     4.8338     4.2781     9.1601     0.369      63.821    
2608.2     5.5546     1.9884     6.4877     10.2802    9.8137     4.7776     4.1716     9.27       0.369      64.8082   
2608.4     5.4948     1.9511     6.4239     10.0601    9.8259     4.6829     4.2052     9.4343     0.369      61.8966   
2608.6     5.4417     1.9511     6.3829     9.9437     9.7766     4.5907     4.2814     9.5682     0.369      62.8983   
2608.8     5.4192     1.9511     6.3022     9.7749     9.6688     4.5215     4.2088     9.726      0.369      63.7162   
2609       5.3882     1.9511     6.2197     9.6174     9.4821     4.4646     4.0208     9.8744     0.369      63.7993   
2609.2     5.3484     1.9026     6.1751     9.4494     9.3518     4.4042     4.206      10.1024    0.369      65.5143   
