~Version
 VERS              .         2.0                           : CWLS LOG ASCII STANDARD - VERSION 2.0
 WRAP              .         NO                            : ONE LINE PER DEPTH STEP
 DLM               .         SPACE                         : DELIMITING CHARACTER(SPACE TAB OR COMMA)
~Well Information
#_______________________________________________________________________________
#
#PARAMETER_NAME    .UNIT     VALUE                         : DESCRIPTION
#_______________________________________________________________________________
STRT               .m        2596                          : First reference value
STOP               .m        2813                          : Last reference value
STEP               .m        0.2                           : Step increment
NULL               .         -9999                         : Missing value
COMP               .                                       : Company
WELL               .         308                           : Well name
FLD                .                                       : Field
LOC                .                                       : Location
CNTY               .                                       : County
STAT               .                                       : State
CTRY               .                                       : Country
SRVC               .                                       : Service Company
DATE               .                                       : Date
API                .                                       : API number
EREF               .m        138.34                        : 
Pad                .         3                             : 
X                  .m        219750                        : 
Y                  .m        249950                        : 
group              .         Pad3                          : 
Интер-р            .         Зайцев                        : 
Куст               .         3                             : 
Статус             .         Не проверено                  : 
Тип                .         Разведка                      : 
~Parameter Information Block
#_______________________________________________________________________________
#
#PARAMETER_NAME    .UNIT     VALUE                         : DESCRIPTION
#_______________________________________________________________________________
SET                .         LAS1                          : 
REAL_CREATION_DATE .         Ср апр 11 2012-13_17_11       : 
TLFamily_DEPTH     .         Measured Depth                : 
TLFamily_KS        .         Potential Resistivity         : 
TLFamily_KS1       .         Extra Shallow Resistivity     : 
TLFamily_KS2       .         Shallow Resistivity           : 
TLFamily_KS3       .         Medium Resistivity            : 
TLFamily_KS4       .         Deep Resistivity              : 
TLFamily_KS5       .         Extra Deep Resistivity        : 
TLFamily_LLD       .         Lateral Log Resistivity       : 
TLFamily_OKS3      .         Medium Resistivity Inverted   : 
TLFamily_RM        .         Mud Resistivity               : 
TLFamily_SP        .         Spontaneous Potential         : 
group              .         INI                           : 
~Curve Information
#_______________________________________________________________________________
#
#LOGNAME           .UNIT     LOG_ID                        : DESCRIPTION
#_______________________________________________________________________________
DEPTH              .m                                      : Measured Depth 
KS                 .ohm.m                                  : Potential Resistivity 
KS1                .ohm.m                                  : Extra Shallow Resistivity 
KS2                .ohm.m                                  : Shallow Resistivity 
KS3                .ohm.m                                  : Medium Resistivity 
KS4                .ohm.m                                  : Deep Resistivity 
KS5                .ohm.m                                  : Extra Deep Resistivity 
LLD                .ohm.m                                  : Lateral Log Resistivity 
OKS3               .ohm.m                                  : Medium Resistivity Inverted 
RM                 .ohm.m                                  : Mud Resistivity 
SP                 .mV                                     : Spontaneous Potential 
~Ascii
# ...
2676.4     5.4952     1.8993     6.2811     9.4687     8.5104     4.6804     4.0462     10.1938    0.339      59.3333   
2676.6     5.5487     1.897      6.149      9.2976     8.3528     4.601      4.0419     10.2859    0.339      64.0413   
2676.8     5.5487     1.897      6.0914     9.1754     8.2318     4.5666     4.0931     10.4055    0.339      61.8848   
2677       5.5487     1.897      6.0552     9.0686     8.1579     4.5109     4.2153     10.5691    0.34       61.9216   
2677.2     5.5957     1.8873     6.0552     9.0097     8.0831     4.4682     4.2169     10.7739    0.345      61.1482   
2677.4     5.6022     1.8872     6.0552     9.0047     8.0421     4.4332     4.2094     11.1084    0.345      61.9427   
2677.6     5.6022     1.897      6.0906     9.0047     8.0094     4.4148     4.2432     11.4868    0.345      59.8209   
2677.8     5.6556     1.897      6.0985     9.0047     7.9763     4.4148     4.3695     11.8941    0.345      59.9766   
2678       5.6777     1.897      6.1177     8.9726     7.973      4.4148     4.3198     12.3055    0.345      55.9812   
2678.2     5.7091     1.897      6.1136     8.9997     7.9101     4.4227     4.2513     12.7738    0.345      65.2009   
2678.4     5.7109     1.897      6.072      8.9363     7.8477     4.4682     4.2386     13.3671    0.345      63.4857   
2678.6     5.7626     1.8954     6.0026     8.8726     7.8175     4.4682     4.3144     14.0923    0.345      61.7799   
2678.8     5.8101     1.8834     6.0216     8.844      7.7586     4.4682     4.1444     14.9597    0.345      62.8164   
2679       5.9047     1.8519     5.9791     8.7952     7.6909     4.4767     4.0603     15.9328    0.345      64.265    
2679.2     6.0266     1.7929     5.8089     8.6536     7.5804     4.5322     4.314      16.8499    0.345      64.9795   
2679.4     6.2097     1.7504     5.6885     8.5002     7.5528     4.5955     4.7234     17.4758    0.345      63.617    
2679.6     6.4475     1.7346     5.6556     8.4689     7.5236     4.6661     5.0134     17.8758    0.345      67.6809   
2679.8     6.6889     1.7346     5.638      8.4689     7.5736     4.7852     5.4284     18.2758    0.345      66.9026   
2680       6.9866     1.7346     5.6306     8.5511     7.6858     4.9062     6.5096     18.5292    0.345      61.8924   
2680.2     7.2302     1.7952     5.8517     8.7845     7.9016     5.0513     6.8376     18.5276    0.35       68.7741   
2680.4     7.521      1.8598     6.041      9.0249     8.1412     5.2469     6.4139     18.3885    0.351      67.8902   
2680.6     7.819      1.8702     6.1893     9.2036     8.3813     5.4891     6.1936     18.4004    0.351      72.3944   
2680.8     8.1303     1.8428     6.2133     9.4281     8.7091     5.7976     7.1994     18.6156    0.351      71.2824   
2681       8.4578     1.8527     6.4046     9.9377     9.2718     6.112      12.9906    18.469     0.355      69.6797   
2681.2     8.6873     1.9731     7.0926     11.0057    10.1397    6.4312     26.9812    17.493     0.354      72.9612   
2681.4     8.7576     2.2848     8.1438     12.3401    11.0433    6.6106     10.7922    15.8663    0.363      73.6901   
2681.6     8.739      2.5315     8.8957     13.4384    11.6211    6.6523     6.938      14.3466    0.363      72.9036   
2681.8     8.4929     2.4873     8.9964     14.0303    11.6849    6.5559     6.0365     13.3284    0.363      73.3873   
2682       8.337      2.3578     8.8709     14.0946    11.5604    6.3873     5.9253     13.1029    0.363      75.7933   
2682.2     8.2615     2.1852     8.6203     14.1829    11.5577    6.2821     7.1863     13.1159    0.364      75.0095   
2682.4     8.172      2.1807     8.6569     14.6384    11.8707    6.2821     9.5637     12.8747    0.369      72.7442   
2682.6     8.0791     2.2667     8.9198     15.4648    12.5038    6.29       9.7514     12.2625    0.369      72.4022   
2682.8     7.916      2.4122     9.0996     16.1656    13.0835    6.3354     6.5317     11.7265    0.37       74.9733   
2683       7.7178     2.4002     8.939      16.5992    13.3978    6.3491     6.0892     11.4913    0.373      73.8326   
2683.2     7.4757     2.3841     8.8468     16.8997    13.6896    6.3354     5.6026     11.5177    0.373      73.6747   
2683.4     7.2765     2.3099     8.7669     16.9632    13.9885    6.3354     5.463      11.5338    0.369      71.2661   
2683.6     7.1008     2.2398     8.593      16.7374    14.3149    6.3354     5.695      11.4892    0.369      70.2361   
2683.8     6.9802     2.2217     8.3976     16.2454    14.5979    6.3126     5.2271     11.5103    0.369      66.6353   
2684       6.8588     2.2043     8.1229     15.6204    14.7124    6.2821     4.8761     11.6129    0.368      64.7412   
2684.2     6.7895     2.1202     7.7166     14.9626    14.7754    6.2821     5.0977     11.8555    0.363      67.1031   
2684.4     6.7346     2.0614     7.5225     14.4908    14.8377    6.2792     5.4107     12.0349    0.363      68.6635   
2684.6     6.7253     2.0594     7.4183     14.1507    14.9493    6.2287     5.5426     11.9799    0.361      71.801    
2684.8     6.7253     2.0594     7.3259     13.8876    14.9657    6.2287     5.5383     11.8492    0.357      74.9051   
2685       6.7253     2.0594     7.2456     13.5049    15.0913    6.1772     6.1398     11.6013    0.357      78.4558   
2685.2     6.6796     2.0484     7.2381     13.2042    15.2193    6.1711     6.7265     11.1384    0.357      83.0026   
2685.4     6.5953     2.1558     7.5341     13.1302    15.4168    6.0821     5.0399     10.7622    0.351      82.5389   
2685.6     6.4234     2.2142     7.6733     12.8986    15.2059    5.9634     4.4345     10.6999    0.351      90.0064   
2685.8     6.2644     2.1524     7.4633     12.3669    14.4059    5.8458     4.2883     10.8934    0.353      91.9414   
2686       6.2439     2.014      6.9366     11.6121    13.3468    5.7979     4.392      11.0543    0.351      92.2938   
2686.2     6.2734     1.9511     6.6917     11.0077    12.6316    5.7555     4.1322     11.3464    0.353      94.3852   
2686.4     6.2974     1.8779     6.4167     10.88      12.4326    5.8116     5.0148     11.8401    0.351      94.8753   
2686.6     6.2623     1.9288     6.4971     11.0078    12.5045    5.9762     6.4768     11.9829    0.357      98.4899   
2686.8     6.3187     2.0125     6.6764     11.2715    12.6298    6.0923     5.6076     11.7888    0.357      98.1424   
2687       6.3509     2.0782     6.6873     11.261     12.3904    6.1578     5.188      11.4308    0.356      95.0782   
2687.2     6.2974     2.0215     6.3886     10.8927    11.6842    6.2287     4.6639     11.113     0.347      98.4028   
2687.4     6.2974     1.9651     6.3585     10.6182    11.2912    6.2559     4.2242     11.343     0.345      98.0892   
2687.6     6.2816     1.9311     6.3713     10.3741    11.1537    6.3814     4.2139     11.8613    0.339      90.5615   
2687.8     6.3961     1.8668     6.2081     10.0794    11.0342    6.6091     4.5702     12.2485    0.336      89.4226   
2688       6.5747     1.7897     6.0124     9.9905     11.0594    6.9517     5.3267     12.5963    0.333      91.875    
2688.2     6.6718     1.8127     6.1092     10.3974    11.5629    7.2464     6.684      12.677     0.331      88.5051   
2688.4     6.6718     2.0953     6.8318     11.0515    12.1968    7.4959     10.9192    12.4469    0.341      86.8307   
2688.6     6.6718     2.2708     7.2674     11.3898    12.3656    7.7361     5.1486     12.1972    0.345      88.9453   
2688.8     6.6081     2.1419     6.8612     11.1987    12.0202    7.8978     4.2708     12.3086    0.343      86.8434   
2689       6.5648     2.0011     6.6899     10.8123    11.7205    7.9502     4.792      12.5319    0.343      83.9703   
2689.2     6.5648     1.9511     6.7253     10.8225    11.799     8.1437     5.8411     12.4364    0.342      83.7071   
2689.4     6.5648     2.0025     7.0272     10.9873    12.013     8.3414     5.7252     12.1172    0.345      80.2666   
2689.6     6.5648     2.0902     7.062      10.981     11.9615    8.5803     4.8205     11.986     0.345      75.6523   
