~Version
 VERS              .         2.0                           : CWLS LOG ASCII STANDARD - VERSION 2.0
 WRAP              .         NO                            : ONE LINE PER DEPTH STEP
 DLM               .         SPACE                         : DELIMITING CHARACTER(SPACE TAB OR COMMA)
~Well Information
#_______________________________________________________________________________
#
#PARAMETER_NAME    .UNIT     VALUE                         : DESCRIPTION
#_______________________________________________________________________________
STRT               .m        2596                          : First reference value
STOP               .m        2813                          : Last reference value
STEP               .m        0.2                           : Step increment
NULL               .         -9999                         : Missing value
COMP               .                                       : Company
WELL               .         308                           : Well name
FLD                .                                       : Field
LOC                .                                       : Location
CNTY               .                                       : County
STAT               .                                       : State
CTRY               .                                       : Country
SRVC               .                                       : Service Company
DATE               .                                       : Date
API                .                                       : API number
EREF               .m        138.34                        : 
Pad                .         3                             : 
X                  .m        219750                        : 
Y                  .m        249950                        : 
group              .         Pad3                          : 
Интер-р            .         Зайцев                        : 
Куст               .         3                             : 
Статус             .         Не проверено                  : 
Тип                .         Разведка                      : 
~Parameter Information Block
#_______________________________________________________________________________
#
#PARAMETER_NAME    .UNIT     VALUE                         : DESCRIPTION
#_______________________________________________________________________________
SET                .         LAS3                          : 
REAL_CREATION_DATE .         Ср апр 11 2012-13_17_12       : 
TLFamily_DEPTH     .         Measured Depth                : 
TLFamily_GR        .         Gamma Ray                     : 
TLFamily_TNPH      .         Neutron Porosity              : 
group              .         INI                           : 
~Curve Information
#_______________________________________________________________________________
#
#LOGNAME           .UNIT     LOG_ID                        : DESCRIPTION
#_______________________________________________________________________________
DEPTH              .m                                      : Measured Depth 
GR                 .gAPI                                   :  
TNPH               .v/v                                    : Neutron Porosity 
~Ascii
# ...
2741.8     149.3      0.283     
2742       148.45     0.291     
2742.2     142.3      0.285     
2742.4     136.21     0.265     
2742.6     132.7      0.254     
2742.8     133.26     0.267     
2743       135.69     0.279     
2743.2     134.49     0.295     
2743.4     131.72     0.303     
2743.6     131.43     0.302     
2743.8     136.52     0.279     
2744       139.69     0.257     
2744.2     135.94     0.249     
2744.4     132.59     0.254     
2744.6     132.31     0.268     
2744.8     138.09     0.283     
2745       137.61     0.289     
2745.2     136.96     0.28      
2745.4     139.89     0.275     
2745.6     139.2      0.274     
2745.8     133.65     0.253     
2746       130.52     0.225     
2746.2     133.3      0.237     
2746.4     136.83     0.261     
2746.6     140.5      0.275     
2746.8     139.44     0.279     
2747       135.62     0.271     
2747.2     128.16     0.238     
2747.4     119.11     0.221     
2747.6     115.69     0.207     
2747.8     126.78     0.192     
2748       143.68     0.179     
2748.2     153.64     0.175     
2748.4     126.75     0.179     
2748.6     81.05      0.19      
2748.8     55.71      0.198     
2749       47.57      0.197     
2749.2     45.41      0.2       
2749.4     46.97      0.197     
2749.6     49.26      0.193     
2749.8     50.95      0.19      
2750       52.08      0.195     
2750.2     52.72      0.196     
2750.4     53.72      0.197     
2750.6     55.52      0.187     
2750.8     54.8       0.179     
2751       52.56      0.185     
2751.2     52.64      0.19      
2751.4     52.45      0.196     
2751.6     51.57      0.196     
2751.8     53.8       0.197     
2752       55.25      0.195     
2752.2     52.71      0.182     
2752.4     48.17      0.168     
2752.6     48.96      0.168     
2752.8     53.89      0.198     
2753       58         0.201     
2753.2     58.53      0.185     
2753.4     56.34      0.188     
2753.6     56.19      0.199     
2753.8     56.84      0.203     
2754       55.8       0.204     
2754.2     53.46      0.206     
2754.4     53.75      0.213     
2754.6     54.65      0.21      
2754.8     55.8       0.207     
2755       57.91      0.214     
2755.2     60.07      0.215     
2755.4     61.11      0.211     
2755.6     58         0.205     
2755.8     56.01      0.199     
2756       56.33      0.201     
2756.2     57.53      0.208     
2756.4     58.66      0.206     
2756.6     58.84      0.203     
2756.8     56.96      0.209     
2757       55.91      0.201     
2757.2     56.74      0.191     
2757.4     57.41      0.185     
2757.6     56.13      0.185     
2757.8     54.96      0.195     
2758       54.44      0.194     
2758.2     54.2       0.191     
2758.4     53.17      0.188     
2758.6     48.55      0.192     
2758.8     49.54      0.196     
2759       50.92      0.195     
2759.2     51.78      0.204     
2759.4     53.01      0.214     
2759.6     53.46      0.22      
2759.8     50.71      0.207     
2760       49.31      0.193     
2760.2     50.5       0.191     
2760.4     51.58      0.193     
2760.6     50.63      0.196     
2760.8     49.76      0.198     
2761       50.35      0.212     
2761.2     51.08      0.214     
2761.4     54.05      0.219     
2761.6     55.77      0.22      
2761.8     53.58      0.209     
2762       51.2       0.191     
2762.2     52.16      0.184     
2762.4     54.51      0.179     
2762.6     60.81001   0.178     
2762.8     64.06999   0.181     
2763       66.3       0.189     
2763.2     67.65      0.199     
2763.4     68.36      0.201     
2763.6     69.98      0.2       
2763.8     69.92      0.192     
2764       71.09      0.178     
2764.2     72.67999   0.185     
2764.4     75.15      0.204     
2764.6     78.03001   0.217     
2764.8     79.86      0.23      
2765       82.89      0.244     
2765.2     86.19      0.243     
2765.4     86.04      0.255     
2765.6     90.03      0.274     
2765.8     94.74      0.26      
2766       91.51      0.238     
2766.2     80.63      0.216     
2766.4     65.17      0.193     
2766.6     51.73      0.184     
2766.8     45.99      0.177     
2767       45.43      0.167     
2767.2     52.64      0.18      
2767.4     72.46001   0.218     
2767.6     102.37     0.279     
2767.8     128.3      0.32      
2768       133.34     0.311     
2768.2     125.37     0.312     
2768.4     119.41     0.307     
2768.6     118.03     0.291     
2768.8     115.6      0.258     
2769       113.11     0.244     
2769.2     110.78     0.248     
2769.4     109.79     0.263     
2769.6     113.06     0.267     
2769.8     111.88     0.252     
2770       102.87     0.241     
2770.2     89.99      0.232     
2770.4     76.24      0.214     
2770.6     68.75      0.197     
2770.8     71.89999   0.199     
2771       85.68      0.244     
2771.2     98.17001   0.273     
2771.4     90.92      0.267     
2771.6     88.45      0.257     
2771.8     92.18001   0.243     
2772       94.39      0.234     
2772.2     98.21      0.232     
2772.4     105.61     0.228     
2772.6     109.59     0.235     
2772.8     105.39     0.242     
2773       96.14      0.238     
2773.2     84.37      0.225     
2773.4     74.46      0.217     
2773.6     67.81      0.216     
2773.8     68.94      0.215     
2774       75.10001   0.216     
2774.2     78.03001   0.214     
2774.4     83.45      0.215     
2774.6     93.72      0.22      
2774.8     101.93     0.235     
2775       106.57     0.26      
2775.2     112.16     0.273     
2775.4     115.15     0.267     
2775.6     115.23     0.257     
2775.8     114.22     0.266     
2776       119.46     0.283     
2776.2     118.76     0.287     
2776.4     112.85     0.275     
2776.6     107.3      0.279     
2776.8     104.65     0.301     
2777       74.62      0.315     
2777.2     61.03      0.326     
2777.4     30.06      0.358     
2777.6     15.04      0.383     
2777.8     7.539999   0.383     
2778       5.63       0.379     
2778.2     6.55       0.371     
2778.4     11.71      0.369     
2778.6     18.93      0.385     
2778.8     36.21      0.384     
2779       70.83      0.317     
2779.2     92.71      0.278     
2779.4     90.12      0.236     
2779.6     86.14      0.221     
2779.8     88.34      0.231     
2780       86.73      0.263     
2780.2     80.09      0.279     
2780.4     75.03999   0.292     
2780.6     82.60001   0.297     
2780.8     94.54001   0.26      
2781       100.69     0.239     
2781.2     105.61     0.235     
2781.4     110.38     0.223     
2781.6     110.79     0.212     
2781.8     109.48     0.211     
2782       107.13     0.218     
2782.2     103.03     0.219     
2782.4     101.69     0.219     
2782.6     101.62     0.219     
2782.8     100.04     0.224     
2783       98.24001   0.218     
2783.2     91.48      0.215     
2783.4     88.26      0.225     
2783.6     91.91      0.241     
2783.8     99.18      0.241     
2784       106.45     0.243     
2784.2     105.78     0.238     
2784.4     100.24     0.236     
2784.6     93.57001   0.246     
2784.8     90.47      0.251     
2785       89.81      0.256     
2785.2     88.98      0.251     
2785.4     88.75      0.243     
2785.6     91.3       0.244     
2785.8     94.05      0.258     
2786       96.37      0.255     
2786.2     100.53     0.24      
2786.4     99.84      0.23      
2786.6     84.56001   0.211     
2786.8     71.6       0.194     
2787       71.94      0.192     
2787.2     76.17      0.199     
2787.4     83.21999   0.206     
2787.6     93.2       0.223     
2787.8     100.23     0.237     
2788       100.44     0.23      
2788.2     97.44      0.215     
2788.4     98.02      0.206     
2788.6     102.2      0.197     
2788.8     100.26     0.199     
2789       94.75      0.206     
2789.2     87.74001   0.209     
2789.4     79.28001   0.213     
2789.6     71.22      0.218     
2789.8     65.17999   0.22      
2790       65.84      0.222     
2790.2     69.52      0.215     
