~Version
 VERS              .         2.0                           : CWLS LOG ASCII STANDARD - VERSION 2.0
 WRAP              .         NO                            : ONE LINE PER DEPTH STEP
 DLM               .         SPACE                         : DELIMITING CHARACTER(SPACE TAB OR COMMA)
~Well Information
#_______________________________________________________________________________
#
#PARAMETER_NAME    .UNIT     VALUE                         : DESCRIPTION
#_______________________________________________________________________________
STRT               .m        2596                          : First reference value
STOP               .m        2813                          : Last reference value
STEP               .m        0.2                           : Step increment
NULL               .         -9999                         : Missing value
COMP               .                                       : Company
WELL               .         308                           : Well name
FLD                .                                       : Field
LOC                .                                       : Location
CNTY               .                                       : County
STAT               .                                       : State
CTRY               .                                       : Country
SRVC               .                                       : Service Company
DATE               .                                       : Date
API                .                                       : API number
EREF               .m        138.34                        : 
Pad                .         3                             : 
X                  .m        219750                        : 
Y                  .m        249950                        : 
group              .         Pad3                          : 
Интер-р            .         Зайцев                        : 
Куст               .         3                             : 
Статус             .         Не проверено                  : 
Тип                .         Разведка                      : 
~Parameter Information Block
#_______________________________________________________________________________
#
#PARAMETER_NAME    .UNIT     VALUE                         : DESCRIPTION
#_______________________________________________________________________________
SET                .         LAS1                          : 
REAL_CREATION_DATE .         Ср апр 11 2012-13_17_11       : 
TLFamily_DEPTH     .         Measured Depth                : 
TLFamily_KS        .         Potential Resistivity         : 
TLFamily_KS1       .         Extra Shallow Resistivity     : 
TLFamily_KS2       .         Shallow Resistivity           : 
TLFamily_KS3       .         Medium Resistivity            : 
TLFamily_KS4       .         Deep Resistivity              : 
TLFamily_KS5       .         Extra Deep Resistivity        : 
TLFamily_LLD       .         Lateral Log Resistivity       : 
TLFamily_OKS3      .         Medium Resistivity Inverted   : 
TLFamily_RM        .         Mud Resistivity               : 
TLFamily_SP        .         Spontaneous Potential         : 
group              .         INI                           : 
~Curve Information
#_______________________________________________________________________________
#
#LOGNAME           .UNIT     LOG_ID                        : DESCRIPTION
#_______________________________________________________________________________
DEPTH              .m                                      : Measured Depth 
KS                 .ohm.m                                  : Potential Resistivity 
KS1                .ohm.m                                  : Extra Shallow Resistivity 
KS2                .ohm.m                                  : Shallow Resistivity 
KS3                .ohm.m                                  : Medium Resistivity 
KS4                .ohm.m                                  : Deep Resistivity 
KS5                .ohm.m                                  : Extra Deep Resistivity 
LLD                .ohm.m                                  : Lateral Log Resistivity 
OKS3               .ohm.m                                  : Medium Resistivity Inverted 
RM                 .ohm.m                                  : Mud Resistivity 
SP                 .mV                                     : Spontaneous Potential 
~Ascii
# ...
2716.6     10.8933    2.3398     9.4576     19.4011    22.7466    12.0555    11.3252    25.1403    0.359      48.4048   
2716.8     10.9582    2.33       9.4763     19.1963    22.4389    11.8143    11.6372    24.9925    0.357      47.6811   
2717       11.1174    2.33       9.4262     19.0876    22.2135    11.6505    11.2124    24.8612    0.361      47.3844   
2717.2     11.2415    2.3168     9.3012     18.8889    21.9097    11.5856    11.9011    25.0035    0.363      47.3114   
2717.4     11.3615    2.2552     9.1031     18.7775    21.815     11.5728    14.0124    25.1588    0.365      46.7851   
2717.6     11.5361    2.2759     9.2062     19.0029    22.1925    11.6806    14.3045    25.0928    0.37       49.7455   
2717.8     11.6587    2.3144     9.4145     19.4856    22.9265    11.8263    14.8265    24.8362    0.37       45.9931   
2718       11.7804    2.3732     9.5737     19.9755    23.6105    12.068     15.4543    24.4919    0.369      47.0809   
2718.2     11.8061    2.432      9.8028     20.5494    24.2847    12.3561    14.5613    24.0733    0.374      48.0288   
2718.4     11.8061    2.476      9.9971     21.0023    24.8607    12.6067    13.8425    23.7307    0.367      47.848    
2718.6     11.8061    2.4924     10.1773    21.3414    25.3089    12.8474    12.2814    23.5144    0.363      44.7161   
2718.8     11.7913    2.4924     10.2881    21.5243    25.6164    13.0553    11.6054    23.5365    0.357      49.1881   
2719       11.7531    2.4612     10.1956    21.5009    25.7394    13.282     12.711     23.9177    0.357      48.8723   
2719.2     11.7526    2.3841     10.0583    21.5664    26.183     13.6548    13.6839    24.6172    0.357      51.0157   
2719.4     11.8014    2.4273     10.1285    21.7632    26.8009    13.9643    13.1781    24.718     0.351      47.6793   
2719.6     11.8579    2.4383     10.1491    22.0102    27.4005    14.3557    13.316     24.6686    0.348      51.2676   
2719.8     11.9038    2.4383     10.0279    22.2142    28.0607    14.7727    13.8955    24.5032    0.345      48.835    
2720       11.9131    2.4383     10.0909    22.4068    28.6714    15.1673    13.5716    24.29      0.34       47.6809   
2720.2     11.9131    2.4591     10.2094    22.5813    29.3452    15.6042    12.9694    24.0485    0.339      48.9143   
2720.4     11.9658    2.4436     10.1796    22.6136    29.8423    16.0309    12.7499    23.9114    0.339      48.8968   
2720.6     11.9666    2.4383     10.2313    22.5882    30.1702    16.3982    12.3174    23.8349    0.339      43.6379   
2720.8     11.9666    2.4383     10.2276    22.5034    30.2949    16.6732    11.3144    23.8128    0.339      46.1469   
2721       12.0162    2.4192     10.0754    22.2279    30.4804    17.1974    11.9656    23.6983    0.343      49.1077   
2721.2     12.1148    2.3549     9.8875     22.0491    30.7436    17.7968    16.389     23.5207    0.345      47.8958   
2721.4     12.171     2.3676     9.9478     22.3171    31.4679    18.5133    19.5426    23.0674    0.345      45.4253   
2721.6     12.227     2.4322     10.3555    23.0689    32.7067    19.3132    18.9608    22.2983    0.345      46.8668   
2721.8     12.2009    2.5795     10.7585    24.0205    34.1277    20.1188    16.3527    21.5486    0.349      45.2764   
2722       12.0835    2.678      11.1983    24.7878    35.1695    20.9335    13.6039    20.8766    0.351      47.8233   
2722.2     11.9633    2.7601     11.3751    25.0637    35.453     21.5274    11.2849    20.349     0.351      45.2452   
2722.4     11.8423    2.6684     11.1876    24.8071    35.0533    21.9979    12.3601    20.1432    0.353      48.2542   
2722.6     11.7194    2.6102     11.0466    24.5736    34.7745    22.3816    15.397     20.098     0.353      46.6705   
2722.8     11.5358    2.6331     11.1883    24.9361    35.1789    22.7577    18.162     19.8415    0.358      47.8553   
2723       11.3045    2.6989     11.5645    25.6455    35.9592    23.1586    15.9394    19.2065    0.363      47.3641   
2723.2     10.98      2.8213     11.9147    26.4139    36.5473    23.2521    11.414     18.3044    0.363      46.6008   
2723.4     10.6688    2.8906     12.119     26.4026    36.0753    22.9773    7.7597     17.4071    0.369      46.9447   
2723.6     10.414     2.7096     11.3324    25.3992    34.3694    22.4964    6.8225     16.9741    0.369      48.6676   
2723.8     10.2385    2.5032     10.4928    23.6727    31.9251    21.9152    6.8767     17.3104    0.369      49.465    
2724       10.117     2.3195     9.7859     22.298     30.2508    21.3872    8.3386     18.2741    0.369      48.7191   
2724.2     10.0419    2.227      9.4142     21.5128    29.3888    21.3337    9.5373     19.3646    0.369      51.176    
2724.4     10.1006    2.1687     9.1823     21.1002    29.1281    21.65      11.3798    20.095     0.364      48.9747   
2724.6     10.2016    2.2293     9.1253     21.0437    29.3565    22.2874    11.7615    20.4649    0.359      48.7642   
2724.8     10.2543    2.324      9.1964     21.1615    29.6721    22.7086    11.5875    20.5227    0.362      47.5017   
2725       10.2551    2.3529     9.2692     21.3183    29.8901    23.066     11.639     20.6128    0.357      46.1363   
2725.2     10.1845    2.4253     9.5878     21.409     30.1753    23.1629    10.704     20.8051    0.357      47.0868   
2725.4     10.065     2.4588     9.7644     21.3446    30.3228    23.0309    10.8154    20.9698    0.357      45.3394   
2725.6     10.0412    2.5278     9.9939     21.0354    30.0863    22.9159    7.6299     21.0451    0.357      44.2047   
2725.8     9.9444     2.4776     9.8388     20.3235    29.3923    22.552     7.395      21.3488    0.352      46.7838   
2726       9.9342     2.3455     9.3895     19.1222    27.9663    22.1393    6.9951     22.1987    0.345      45.6266   
2726.2     9.9641     2.2269     8.9205     18.1493    26.6916    21.7704    8.2605     23.8047    0.345      47.1442   
2726.4     10.0803    2.1205     8.5267     17.5624    25.8473    21.5884    10.1896    25.395     0.339      45.8343   
2726.6     10.2121    2.1135     8.4921     17.5153    25.5184    21.5609    8.9734     26.3655    0.339      45.6843   
2726.8     10.471     2.1587     8.5013     17.4542    25.1498    21.7926    8.6508     27.0847    0.334      46.3587   
2727       10.7952    2.0491     8.0134     17.1324    24.6546    22.0724    12.6277    27.9196    0.333      43.4836   
2727.2     11.0416    2.0358     7.9693     17.1163    24.5766    22.3503    14.7648    28.648     0.339      42.767    
2727.4     11.3433    2.1504     8.3556     17.5559    25.0375    22.6467    15.2445    28.511     0.339      43.6139   
2727.6     11.6736    2.2084     8.6758     17.9564    25.2765    23.1168    13.1634    27.5768    0.339      41.5031   
2727.8     11.9237    2.2663     8.8595     18.2573    25.3541    23.4932    13.781     26.7951    0.343      42.4482   
2728       12.1235    2.3072     9.1533     18.4403    25.3189    23.8165    12.3832    26.0609    0.345      45.0564   
2728.2     12.3093    2.33       9.2916     18.6338    25.3848    24.2093    14.0705    25.5382    0.345      44.6397   
2728.4     12.4687    2.33       9.448      18.9116    25.7264    24.6103    15.5679    24.9509    0.347      43.994    
2728.6     12.6296    2.3533     9.8273     19.6202    26.5233    24.9494    18.439     24.1098    0.351      43.026    
2728.8     12.7142    2.4685     10.3122    20.6053    27.4131    25.3764    15.8927    22.974     0.351      46.1427   
2729       12.7688    2.5004     10.466     21.6305    28.3105    25.7371    19.7873    21.865     0.353      48.5528   
2729.2     12.7353    2.6336     11.0102    22.6064    29.1124    25.9988    16.9969    20.6629    0.357      43.0778   
2729.4     12.6591    2.7038     11.3033    23.8919    30.0599    26.2055    18.3331    19.3664    0.358      43.2362   
2729.6     12.483     2.7997     11.7447    24.94      30.7178    26.2349    16.2489    18.1833    0.363      45.8095   
2729.8     12.2014    2.8551     12.1824    26.2138    31.4666    26.1786    15.762     16.5742    0.363      45.5842   
