~Version
 VERS              .         2.0                           : CWLS LOG ASCII STANDARD - VERSION 2.0
 WRAP              .         NO                            : ONE LINE PER DEPTH STEP
 DLM               .         SPACE                         : DELIMITING CHARACTER(SPACE TAB OR COMMA)
~Well Information
#_______________________________________________________________________________
#
#PARAMETER_NAME    .UNIT     VALUE                         : DESCRIPTION
#_______________________________________________________________________________
STRT               .m        2596                          : First reference value
STOP               .m        2813                          : Last reference value
STEP               .m        0.2                           : Step increment
NULL               .         -9999                         : Missing value
COMP               .                                       : Company
WELL               .         308                           : Well name
FLD                .                                       : Field
LOC                .                                       : Location
CNTY               .                                       : County
STAT               .                                       : State
CTRY               .                                       : Country
SRVC               .                                       : Service Company
DATE               .                                       : Date
API                .                                       : API number
EREF               .m        138.34                        : 
Pad                .         3                             : 
X                  .m        219750                        : 
Y                  .m        249950                        : 
group              .         Pad3                          : 
Интер-р            .         Зайцев                        : 
Куст               .         3                             : 
Статус             .         Не проверено                  : 
Тип                .         Разведка                      : 
~Parameter Information Block
#_______________________________________________________________________________
#
#PARAMETER_NAME    .UNIT     VALUE                         : DESCRIPTION
#_______________________________________________________________________________
SET                .         LAS3                          : 
REAL_CREATION_DATE .         Ср апр 11 2012-13_17_12       : 
TLFamily_DEPTH     .         Measured Depth                : 
TLFamily_GR        .         Gamma Ray                     : 
TLFamily_TNPH      .         Neutron Porosity              : 
group              .         INI                           : 
~Curve Information
#_______________________________________________________________________________
#
#LOGNAME           .UNIT     LOG_ID                        : DESCRIPTION
#_______________________________________________________________________________
DEPTH              .m                                      : Measured Depth 
GR                 .gAPI                                   :  
TNPH               .v/v                                    : Neutron Porosity 
~Ascii
# ...
2693.2     135.65     0.266     
2693.4     135.3      0.275     
2693.6     141.07     0.285     
2693.8     152.61     0.29      
2694       165.06     0.295     
2694.2     168.07     0.287     
2694.4     166.99     0.268     
2694.6     161.53     0.258     
2694.8     152.64     0.257     
2695       144.93     0.263     
2695.2     136.07     0.263     
2695.4     132.86     0.254     
2695.6     135.14     0.254     
2695.8     136.67     0.248     
2696       132.16     0.244     
2696.2     131.26     0.239     
2696.4     134.79     0.235     
2696.6     137.75     0.237     
2696.8     141.36     0.248     
2697       149.56     0.262     
2697.2     164.63     0.253     
2697.4     186.15     0.246     
2697.6     213.62     0.269     
2697.8     239.24     0.29      
2698       243.51     0.283     
2698.2     242.52     0.281     
2698.4     234.33     0.283     
2698.6     226.38     0.283     
2698.8     230.68     0.277     
2699       238.55     0.269     
2699.2     247.19     0.27      
2699.4     257.31     0.264     
2699.6     262.47     0.255     
2699.8     253.33     0.255     
2700       245.82     0.263     
2700.2     239.52     0.269     
2700.4     233.86     0.257     
2700.6     224.98     0.255     
2700.8     217.3      0.283     
2701       221.55     0.305     
2701.2     231.06     0.324     
2701.4     240.58     0.331     
2701.6     254.34     0.324     
2701.8     266.25     0.298     
2702       267.48     0.27      
2702.2     261.07     0.265     
2702.4     248.23     0.279     
2702.6     232.42     0.296     
2702.8     218.25     0.286     
2703       207.81     0.261     
2703.2     199.96     0.259     
2703.4     191.13     0.275     
2703.6     188.41     0.281     
2703.8     193.88     0.283     
2704       207.46     0.288     
2704.2     226.94     0.283     
2704.4     245.83     0.3       
2704.6     261.91     0.307     
2704.8     278.12     0.299     
2705       295.93     0.284     
2705.2     322.38     0.281     
2705.4     359.7      0.303     
2705.6     380.16     0.324     
2705.8     378.64     0.319     
2706       376.23     0.301     
2706.2     378.96     0.301     
2706.4     386.92     0.302     
2706.6     388.99     0.286     
2706.8     401.22     0.281     
2707       422.8      0.281     
2707.2     442.43     0.288     
2707.4     455.89     0.281     
2707.6     452.49     0.275     
2707.8     430.99     0.276     
2708       408.16     0.275     
2708.2     378.26     0.295     
2708.4     350.32     0.305     
2708.6     343.31     0.301     
2708.8     356.87     0.298     
2709       366.51     0.301     
2709.2     371.61     0.299     
2709.4     381.49     0.302     
2709.6     389.87     0.304     
2709.8     392.39     0.287     
2710       392.52     0.293     
2710.2     383.85     0.299     
2710.4     362.92     0.304     
2710.6     346.53     0.308     
2710.8     330.38     0.312     
2711       318.57     0.334     
2711.2     316.85     0.34      
2711.4     315.89     0.341     
2711.6     309.47     0.332     
2711.8     297.81     0.327     
2712       278.8      0.339     
2712.2     256.54     0.349     
2712.4     242.95     0.343     
2712.6     241.6      0.311     
2712.8     249.99     0.291     
2713       240.11     0.298     
2713.2     226.1      0.292     
2713.4     212.25     0.284     
2713.6     193.09     0.278     
2713.8     171.63     0.279     
2714       157.91     0.277     
2714.2     153.7      0.266     
2714.4     154.33     0.265     
2714.6     157.82     0.266     
2714.8     161.49     0.263     
2715       164.5      0.262     
2715.2     164.18     0.271     
2715.4     161.94     0.28      
2715.6     161.27     0.274     
2715.8     160.9      0.271     
2716       163.67     0.269     
2716.2     160.52     0.27      
2716.4     144.68     0.273     
2716.6     133.48     0.274     
2716.8     133.65     0.265     
2717       130.28     0.267     
2717.2     126.48     0.261     
2717.4     121.93     0.243     
2717.6     120.22     0.229     
2717.8     120.87     0.235     
2718       117.82     0.248     
2718.2     115.8      0.246     
2718.4     120.1      0.241     
2718.6     126.84     0.25      
2718.8     129.02     0.266     
2719       127.64     0.282     
2719.2     125.71     0.285     
2719.4     130.78     0.279     
2719.6     137.88     0.28      
2719.8     137.75     0.29      
2720       132.77     0.302     
2720.2     127.84     0.309     
2720.4     129.08     0.307     
2720.6     135.6      0.299     
2720.8     139.62     0.284     
2721       140.89     0.272     
2721.2     143        0.269     
2721.4     144.33     0.279     
2721.6     142.05     0.302     
2721.8     140.22     0.309     
2722       135.03     0.301     
2722.2     126.55     0.283     
2722.4     123.38     0.28      
2722.6     129.91     0.295     
2722.8     138.93     0.289     
2723       141.47     0.287     
2723.2     132.13     0.299     
2723.4     121.65     0.287     
2723.6     115.41     0.26      
2723.8     115.75     0.264     
2724       119.37     0.292     
2724.2     127.39     0.301     
2724.4     136.18     0.302     
2724.6     144.16     0.299     
2724.8     152.78     0.295     
2725       157.3      0.283     
2725.2     155.23     0.281     
2725.4     146.79     0.282     
2725.6     136.72     0.276     
2725.8     129.98     0.269     
2726       125.71     0.263     
2726.2     124.69     0.263     
2726.4     129.79     0.281     
2726.6     138.77     0.295     
2726.8     151.28     0.291     
2727       171.71     0.288     
2727.2     196.17     0.294     
2727.4     210.05     0.291     
2727.6     216.15     0.289     
2727.8     214.94     0.297     
2728       211.18     0.304     
2728.2     217.38     0.3       
2728.4     235.66     0.318     
2728.6     247.03     0.322     
2728.8     243.24     0.306     
2729       227.45     0.295     
2729.2     209.74     0.298     
2729.4     196.11     0.326     
2729.6     186.66     0.341     
2729.8     178.08     0.313     
2730       165        0.289     
2730.2     146        0.278     
2730.4     134.85     0.286     
2730.6     130        0.311     
2730.8     130.89     0.316     
2731       129.83     0.303     
2731.2     128.08     0.305     
2731.4     129.26     0.29      
2731.6     128.4      0.273     
2731.8     123.93     0.263     
2732       119.94     0.243     
2732.2     117.08     0.233     
2732.4     121.48     0.24      
2732.6     136.76     0.253     
2732.8     150.74     0.254     
2733       155.12     0.246     
2733.2     152.11     0.236     
2733.4     148.12     0.243     
2733.6     144.66     0.257     
2733.8     143.07     0.261     
2734       142.94     0.253     
2734.2     140.92     0.273     
2734.4     139.36     0.294     
2734.6     142.18     0.293     
2734.8     145.08     0.288     
2735       146.36     0.29      
2735.2     149.3      0.295     
2735.4     147.34     0.284     
2735.6     143.28     0.267     
2735.8     137.03     0.274     
2736       133.07     0.29      
2736.2     131.76     0.304     
2736.4     130.82     0.298     
2736.6     130.63     0.29      
2736.8     132.06     0.28      
2737       132.2      0.282     
2737.2     132.24     0.3       
2737.4     133.37     0.304     
2737.6     134.87     0.298     
2737.8     136.22     0.283     
2738       136.66     0.288     
2738.2     140.64     0.291     
2738.4     142.15     0.282     
2738.6     137.24     0.269     
2738.8     135.12     0.256     
2739       133.09     0.244     
2739.2     122.65     0.23      
2739.4     104.31     0.218     
2739.6     89.38      0.219     
2739.8     105.2      0.25      
2740       133.3      0.266     
2740.2     142.44     0.251     
2740.4     145.67     0.258     
2740.6     146.08     0.272     
2740.8     146.38     0.291     
2741       149.11     0.305     
2741.2     148.29     0.303     
2741.4     145.71     0.293     
2741.6     147        0.276     
