~Version
 VERS              .         2.0                           : CWLS LOG ASCII STANDARD - VERSION 2.0
 WRAP              .         NO                            : ONE LINE PER DEPTH STEP
 DLM               .         SPACE                         : DELIMITING CHARACTER(SPACE TAB OR COMMA)
~Well Information
#_______________________________________________________________________________
#
#PARAMETER_NAME    .UNIT     VALUE                         : DESCRIPTION
#_______________________________________________________________________________
STRT               .m        2596                          : First reference value
STOP               .m        2813                          : Last reference value
STEP               .m        0.2                           : Step increment
NULL               .         -9999                         : Missing value
COMP               .                                       : Company
WELL               .         308                           : Well name
FLD                .                                       : Field
LOC                .                                       : Location
CNTY               .                                       : County
STAT               .                                       : State
CTRY               .                                       : Country
SRVC               .                                       : Service Company
DATE               .                                       : Date
API                .                                       : API number
EREF               .m        138.34                        : 
Pad                .         3                             : 
X                  .m        219750                        : 
Y                  .m        249950                        : 
group              .         Pad3                          : 
Интер-р            .         Зайцев                        : 
Куст               .         3                             : 
Статус             .         Не проверено                  : 
Тип                .         Разведка                      : 
~Parameter Information Block
#_______________________________________________________________________________
#
#PARAMETER_NAME    .UNIT     VALUE                         : DESCRIPTION
#_______________________________________________________________________________
SET                .         LAS1                          : 
REAL_CREATION_DATE .         Ср апр 11 2012-13_17_11       : 
TLFamily_DEPTH     .         Measured Depth                : 
TLFamily_KS        .         Potential Resistivity         : 
TLFamily_KS1       .         Extra Shallow Resistivity     : 
TLFamily_KS2       .         Shallow Resistivity           : 
TLFamily_KS3       .         Medium Resistivity            : 
TLFamily_KS4       .         Deep Resistivity              : 
TLFamily_KS5       .         Extra Deep Resistivity        : 
TLFamily_LLD       .         Lateral Log Resistivity       : 
TLFamily_OKS3      .         Medium Resistivity Inverted   : 
TLFamily_RM        .         Mud Resistivity               : 
TLFamily_SP        .         Spontaneous Potential         : 
group              .         INI                           : 
~Curve Information
#_______________________________________________________________________________
#
#LOGNAME           .UNIT     LOG_ID                        : DESCRIPTION
#_______________________________________________________________________________
DEPTH              .m                                      : Measured Depth 
KS                 .ohm.m                                  : Potential Resistivity 
KS1                .ohm.m                                  : Extra Shallow Resistivity 
KS2                .ohm.m                                  : Shallow Resistivity 
KS3                .ohm.m                                  : Medium Resistivity 
KS4                .ohm.m                                  : Deep Resistivity 
KS5                .ohm.m                                  : Extra Deep Resistivity 
LLD                .ohm.m                                  : Lateral Log Resistivity 
OKS3               .ohm.m                                  : Medium Resistivity Inverted 
RM                 .ohm.m                                  : Mud Resistivity 
SP                 .mV                                     : Spontaneous Potential 
~Ascii
# ...
2743.4     4.2121     1.6598     5.2121     8.2556     6.518      3.0506     2.8138     6.6026     0.327      48.7705   
2743.6     4.2116     1.6504     5.0331     7.9189     6.5943     2.8823     2.6946     6.6221     0.327      46.849    
2743.8     4.2133     1.6263     4.8248     7.5952     6.7545     2.7615     2.9401     6.7175     0.327      46.959    
2744       4.2583     1.6263     4.7406     7.3533     6.9216     2.6907     3.1629     6.8071     0.327      46.8138   
2744.2     4.2651     1.6166     4.729      7.1846     7.0535     2.6438     3.2086     6.7928     0.327      44.4392   
2744.4     4.2926     1.6277     4.7934     7.0752     7.1266     2.5979     2.9619     6.7372     0.332      45.2216   
2744.6     4.2992     1.6778     4.914      6.9647     7.1484     2.5582     3.0077     6.7648     0.333      46.4091   
2744.8     4.2951     1.6804     4.8859     6.8383     7.0883     2.5474     3.1292     6.8192     0.333      46.2599   
2745       4.3147     1.6804     4.887      6.6468     6.9468     2.5289     3.1566     6.9074     0.333      48.8174   
2745.2     4.3186     1.6804     4.9231     6.5994     6.9007     2.5007     3.1944     6.9242     0.332      48.003    
2745.4     4.3186     1.6804     4.986      6.5937     6.8326     2.5137     3.2702     7.0329     0.332      47.8242   
2745.6     4.3186     1.6947     5.0416     6.6513     6.8115     2.5476     3.1375     7.2362     0.333      49.518    
2745.8     4.2758     1.7346     5.1        6.7009     6.7493     2.5476     3.1598     7.491      0.335      50.1037   
2746       4.2651     1.7346     5.1096     6.7158     6.6251     2.5476     3.0931     7.586      0.339      49.1715   
2746.2     4.2116     1.7346     5.1267     6.7009     6.4294     2.5476     2.9397     7.8156     0.336      49.9849   
2746.4     4.1581     1.7346     5.2077     6.7009     6.2441     2.5476     2.6129     8.1582     0.339      49.0301   
2746.6     4.1376     1.6967     5.0775     6.6185     6.0068     2.5582     2.784      8.5809     0.339      48.6369   
2746.8     4.1047     1.6376     4.8955     6.4763     5.7973     2.6009     2.9994     9.0129     0.333      50.8542   
2747       4.1125     1.6263     4.8919     6.433      5.6549     2.6009     2.987      9.3218     0.332      54.4734   
2747.2     4.1836     1.6263     4.8384     6.3626     5.4761     2.6482     2.6129     9.4606     0.322      53.2065   
2747.4     4.3007     1.6038     4.6547     6.1889     5.2752     2.734      2.5453     9.6806     0.319      57.3946   
2747.6     4.4878     1.5042     4.3575     5.9009     5.0295     2.9066     3.8888     10.1558    0.311      55.6016   
2747.8     4.657      1.3794     4.0726     5.8668     5.0947     3.0745     7.5935     10.5911    0.306      60.1255   
2748       4.8331     1.5851     4.7488     6.2187     5.2473     3.2112     4.5559     10.288     0.321      57.5239   
2748.2     5.0558     1.7304     5.1145     6.4773     5.2335     3.3859     3.3196     9.2828     0.317      63.5838   
2748.4     5.1886     1.7733     5.0072     6.2989     4.9282     3.489      3.7706     8.5045     0.319      65.2184   
2748.6     5.2278     1.6804     4.8422     6.2366     4.7994     3.4408     4.8477     8.1807     0.315      68.1903   
2748.8     5.1208     1.7924     5.4394     6.5102     4.8826     3.3738     4.1942     8.174      0.318      73.3893   
2749       5.0742     1.944      6.093      6.9352     4.9916     3.3057     3.6464     8.0359     0.327      77.7709   
2749.2     5.0171     1.897      6.0289     7.0982     4.9118     3.223      3.6525     7.8761     0.327      83.7594   
2749.4     4.9604     1.8644     5.8718     7.1789     4.8326     3.0676     3.6359     7.6778     0.327      84.6762   
2749.6     4.9604     1.8047     5.6581     7.275      4.7994     2.9164     3.6969     7.5762     0.327      83.1647   
2749.8     4.9236     1.7887     5.5812     7.3762     4.807      2.8458     3.6541     7.5337     0.327      88.8575   
2750       4.8981     1.8375     5.5495     7.6515     4.873      2.7535     3.5806     7.5215     0.327      84.5032   
2750.2     4.8534     1.7964     5.5285     7.9488     4.9369     2.697      3.5301     7.5674     0.327      85.4651   
2750.4     4.8534     1.7992     5.4682     8.0647     5.0007     2.6358     3.5637     7.6015     0.321      86.6764   
2750.6     4.8368     1.7887     5.3915     7.9295     5.0819     2.6009     3.5976     7.6085     0.32       89.2981   
2750.8     4.7999     1.7887     5.3857     7.7883     5.1955     2.5568     3.6026     7.5434     0.315      90.7448   
2751       4.7999     1.7887     5.3628     7.7462     5.4899     2.5476     3.5319     7.3767     0.313      92.2863   
2751.2     4.7555     1.7887     5.3705     7.7188     5.7416     2.5476     3.4601     7.1666     0.315      94.6391   
2751.4     4.7464     1.7887     5.3286     7.6039     6.0104     2.6009     3.3784     6.9944     0.315      92.0589   
2751.6     4.7464     1.741      5.1752     7.4292     6.1984     2.636      3.3039     7.0423     0.315      91.719    
2751.8     4.7657     1.7346     5.1598     7.3516     6.4466     2.7507     3.3886     7.1297     0.315      90.1446   
2752       4.7999     1.7346     5.1014     7.3285     6.8875     2.8881     3.2955     7.31       0.317      90.1384   
2752.2     4.8447     1.7629     5.1853     7.3493     7.227      3.097      3.41       7.684      0.322      90.0076   
2752.4     4.9519     1.7147     5.0207     7.4398     7.5766     3.3427     3.7216     7.9657     0.323      90.481    
2752.6     5.0406     1.7758     5.2121     7.5794     7.8582     3.6526     4.7371     7.9641     0.327      91.8758   
2752.8     5.0502     1.9382     5.5949     8.0386     8.4052     3.9453     5.0971     7.9426     0.325      92.7631   
2753       4.9205     2.102      6.0653     8.6495     9.0622     4.1806     4.96       8.0422     0.327      94.0999   
2753.2     4.7486     2.1733     6.3411     8.6863     9.0019     4.2548     3.2405     7.8734     0.324      96.1468   
2753.4     4.7464     1.9758     5.8325     8.0315     8.2282     4.2474     3.1915     7.431      0.32       95.4818   
2753.6     4.7181     1.8571     5.5812     7.4715     7.5223     4.0959     3.3377     7.0267     0.315      92.519    
2753.8     4.6509     1.8428     5.5366     7.2764     7.3001     4.026      3.4858     6.9254     0.316      95.6061   
2754       4.5952     1.8801     5.613      7.203      7.0958     4.0414     3.2671     6.8003     0.32       91.79     
2754.2     4.586      1.8318     5.3869     7.0376     6.7649     4.0991     3.2234     6.5884     0.316      89.7445   
2754.4     4.586      1.7887     5.2732     6.8924     6.5366     4.1682     3.3038     6.4064     0.32       88.8202   
2754.6     4.5192     1.7887     5.2652     6.9493     6.4408     4.2999     3.259      6.294      0.315      91.7487   
2754.8     4.4516     1.7769     5.2262     7.075      6.4409     4.4722     3.2574     6.281      0.321      92.521    
2755       4.3293     1.837      5.4048     7.2607     6.4938     4.7745     3.2429     6.2965     0.331      88.7521   
2755.2     4.2731     1.7517     5.2607     7.3323     6.4938     4.9468     3.2589     6.2166     0.333      92.0324   
2755.4     4.2161     1.7503     5.2659     7.4398     6.4567     5.0574     3.2621     6.0612     0.328      91.0202   
2755.6     4.1716     1.8014     5.3696     7.4261     6.4301     5.0751     2.9024     5.9427     0.33       88.9932   
2755.8     4.0608     1.8074     5.1852     7.3236     6.2766     5.1163     2.6982     5.6929     0.332      90.1375   
2756       4.0276     1.7248     4.9159     7.0282     6.0117     5.1617     2.529      5.4392     0.322      90.5579   
2756.2     3.9107     1.6804     4.8438     6.8475     5.9265     5.1848     2.5322     5.3697     0.319      93.7021   
2756.4     3.7945     1.6415     4.6806     6.678      5.9756     5.2684     2.8338     5.4498     0.314      92.4234   
2756.6     3.752      1.5722     4.6214     6.5756     6.1122     5.2571     2.8314     5.4769     0.315      93.8606   
