~Version
 VERS              .         2.0                           : CWLS LOG ASCII STANDARD - VERSION 2.0
 WRAP              .         NO                            : ONE LINE PER DEPTH STEP
 DLM               .         SPACE                         : DELIMITING CHARACTER(SPACE TAB OR COMMA)
~Well Information
#_______________________________________________________________________________
#
#PARAMETER_NAME    .UNIT     VALUE                         : DESCRIPTION
#_______________________________________________________________________________
STRT               .m        2596                          : First reference value
STOP               .m        2813                          : Last reference value
STEP               .m        0.2                           : Step increment
NULL               .         -9999                         : Missing value
COMP               .                                       : Company
WELL               .         308                           : Well name
FLD                .                                       : Field
LOC                .                                       : Location
CNTY               .                                       : County
STAT               .                                       : State
CTRY               .                                       : Country
SRVC               .                                       : Service Company
DATE               .                                       : Date
API                .                                       : API number
EREF               .m        138.34                        : 
Pad                .         3                             : 
X                  .m        219750                        : 
Y                  .m        249950                        : 
group              .         Pad3                          : 
Интер-р            .         Зайцев                        : 
Куст               .         3                             : 
Статус             .         Не проверено                  : 
Тип                .         Разведка                      : 
~Parameter Information Block
#_______________________________________________________________________________
#
#PARAMETER_NAME    .UNIT     VALUE                         : DESCRIPTION
#_______________________________________________________________________________
SET                .         LAS3                          : 
REAL_CREATION_DATE .         Ср апр 11 2012-13_17_12       : 
TLFamily_DEPTH     .         Measured Depth                : 
TLFamily_GR        .         Gamma Ray                     : 
TLFamily_TNPH      .         Neutron Porosity              : 
group              .         INI                           : 
~Curve Information
#_______________________________________________________________________________
#
#LOGNAME           .UNIT     LOG_ID                        : DESCRIPTION
#_______________________________________________________________________________
DEPTH              .m                                      : Measured Depth 
GR                 .gAPI                                   :  
TNPH               .v/v                                    : Neutron Porosity 
~Ascii
# ...
2644.6     115.33     0.269     
2644.8     109.31     0.253     
2645       105.17     0.243     
2645.2     103.62     0.237     
2645.4     102.68     0.239     
2645.6     100.98     0.238     
2645.8     101.29     0.242     
2646       103.7      0.242     
2646.2     106.43     0.231     
2646.4     108.71     0.223     
2646.6     111.2      0.227     
2646.8     110.42     0.234     
2647       111.95     0.243     
2647.2     110.72     0.248     
2647.4     107.78     0.248     
2647.6     107.98     0.257     
2647.8     109.03     0.255     
2648       104.89     0.238     
2648.2     102.63     0.232     
2648.4     100.65     0.23      
2648.6     96.61      0.231     
2648.8     95.76      0.224     
2649       97.74001   0.22      
2649.2     100.2      0.226     
2649.4     100.02     0.227     
2649.6     97.47      0.225     
2649.8     95.41      0.22      
2650       96.37      0.226     
2650.2     96.98      0.245     
2650.4     97.23      0.261     
2650.6     96.22      0.252     
2650.8     97.27      0.25      
2651       104.64     0.251     
2651.2     110.8      0.253     
2651.4     112.2      0.267     
2651.6     112.67     0.265     
2651.8     110.26     0.262     
2652       106.21     0.254     
2652.2     102.04     0.237     
2652.4     96.88      0.231     
2652.6     92.9       0.234     
2652.8     93.23      0.232     
2653       87.25999   0.239     
2653.2     84.78      0.241     
2653.4     89.02      0.238     
2653.6     92.83      0.237     
2653.8     92.93      0.23      
2654       92.38      0.231     
2654.2     93.35      0.25      
2654.4     94.32      0.264     
2654.6     97.92      0.26      
2654.8     98.64      0.245     
2655       94.81      0.229     
2655.2     91.79      0.228     
2655.4     92.65      0.235     
2655.6     95.88      0.233     
2655.8     95.45      0.218     
2656       94.69      0.213     
2656.2     96.42      0.221     
2656.4     98.87      0.231     
2656.6     100.73     0.244     
2656.8     101.57     0.244     
2657       102.98     0.236     
2657.2     104.98     0.232     
2657.4     105.31     0.235     
2657.6     104.35     0.247     
2657.8     105.95     0.25      
2658       103.86     0.243     
2658.2     99.39999   0.253     
2658.4     98.69      0.257     
2658.6     102.97     0.252     
2658.8     106.85     0.253     
2659       111.43     0.247     
2659.2     113.33     0.233     
2659.4     111.28     0.233     
2659.6     110.44     0.238     
2659.8     109.84     0.24      
2660       106.03     0.245     
2660.2     100.45     0.249     
2660.4     99.8       0.247     
2660.6     103.27     0.253     
2660.8     107.01     0.263     
2661       106.91     0.268     
2661.2     105.17     0.258     
2661.4     104.42     0.237     
2661.6     103.57     0.247     
2661.8     105.42     0.252     
2662       111.4      0.249     
2662.2     112.96     0.248     
2662.4     110.25     0.256     
2662.6     108.95     0.254     
2662.8     108.75     0.257     
2663       108.6      0.257     
2663.2     108.73     0.24      
2663.4     109.73     0.241     
2663.6     109.44     0.25      
2663.8     105.64     0.242     
2664       101        0.234     
2664.2     99.43      0.226     
2664.4     99.95      0.229     
2664.6     101.73     0.239     
2664.8     103.75     0.239     
2665       104.47     0.239     
2665.2     103.13     0.241     
2665.4     103.9      0.244     
2665.6     105.94     0.259     
2665.8     107.9      0.266     
2666       108.67     0.255     
2666.2     110.22     0.253     
2666.4     111.07     0.254     
2666.6     109.69     0.257     
2666.8     106.17     0.255     
2667       104.08     0.255     
2667.2     106.63     0.253     
2667.4     108.03     0.243     
2667.6     108.76     0.234     
2667.8     111.32     0.242     
2668       111.04     0.251     
2668.2     111.94     0.258     
2668.4     113.03     0.266     
2668.6     113.2      0.266     
2668.8     112.44     0.253     
2669       111.85     0.251     
2669.2     114.76     0.258     
2669.4     111.66     0.256     
2669.6     109.38     0.242     
2669.8     110.31     0.233     
2670       112.33     0.225     
2670.2     113.31     0.231     
2670.4     112.43     0.258     
2670.6     110.3      0.263     
2670.8     108.96     0.252     
2671       103.36     0.249     
2671.2     99.37      0.247     
2671.4     97.51      0.245     
2671.6     96.42999   0.25      
2671.8     97.65      0.254     
2672       99.44      0.255     
2672.2     101.26     0.252     
2672.4     101.34     0.228     
2672.6     101.68     0.215     
2672.8     103.46     0.231     
2673       101.94     0.242     
2673.2     99.51      0.242     
2673.4     102.23     0.243     
2673.6     104.65     0.257     
2673.8     107.56     0.277     
2674       110        0.29      
2674.2     108.24     0.284     
2674.4     104.86     0.263     
2674.6     105.89     0.241     
2674.8     108.08     0.234     
2675       112.44     0.238     
2675.2     112.52     0.237     
2675.4     109.46     0.236     
2675.6     111.9      0.243     
2675.8     116.74     0.255     
2676       117.09     0.264     
2676.2     113.79     0.262     
2676.4     111.51     0.238     
2676.6     110.22     0.241     
2676.8     105.21     0.257     
2677       101.54     0.254     
2677.2     99.24      0.251     
2677.4     100.51     0.246     
2677.6     106.65     0.248     
2677.8     111.21     0.247     
2678       110.07     0.232     
2678.2     109.67     0.222     
2678.4     109.65     0.222     
2678.6     111.47     0.236     
2678.8     116.09     0.239     
2679       117.84     0.237     
2679.2     113.55     0.23      
2679.4     107.76     0.214     
2679.6     102.02     0.203     
2679.8     97.58      0.203     
2680       95.31      0.205     
2680.2     93.96      0.194     
2680.4     96.33      0.177     
2680.6     95.17999   0.165     
2680.8     87.64      0.162     
2681       80.7       0.163     
2681.2     73.13      0.172     
2681.4     73.8       0.176     
2681.6     83.98      0.2       
2681.8     91.04      0.215     
2682       87.8       0.225     
2682.2     79.77      0.204     
2682.4     72.83      0.19      
2682.6     73.41      0.177     
2682.8     83.09      0.18      
2683       93.44      0.202     
2683.2     106.26     0.214     
2683.4     115.89     0.213     
2683.6     117.85     0.213     
2683.8     117.72     0.206     
2684       118.7      0.205     
2684.2     118.95     0.204     
2684.4     120.3      0.203     
2684.6     119.31     0.214     
2684.8     114.2      0.226     
2685       105.21     0.226     
2685.2     94.35001   0.217     
2685.4     82.05      0.207     
2685.6     71.61      0.199     
2685.8     63.81      0.193     
2686       62.55      0.188     
2686.2     62.42      0.184     
2686.4     60.99      0.171     
2686.6     61.24      0.165     
2686.8     62.87      0.172     
2687       64.22      0.191     
2687.2     63.86      0.206     
2687.4     67.98      0.207     
2687.6     73.47      0.2       
2687.8     75.56      0.191     
2688       77.7       0.189     
2688.2     77.41      0.194     
2688.4     72.72      0.205     
2688.6     74.24      0.219     
2688.8     81.42999   0.22      
2689       91.73      0.214     
2689.2     101.01     0.215     
2689.4     108.17     0.225     
2689.6     108.76     0.225     
2689.8     107.38     0.223     
2690       108.14     0.23      
2690.2     102.85     0.218     
2690.4     88.31001   0.196     
2690.6     73.34      0.18      
2690.8     69.99      0.174     
2691       76.3       0.181     
2691.2     88.19      0.193     
2691.4     105.72     0.216     
2691.6     123.54     0.241     
2691.8     135.18     0.251     
2692       138.24     0.255     
2692.2     138.02     0.253     
2692.4     143.91     0.249     
2692.6     145.87     0.25      
2692.8     142.84     0.256     
2693       138.99     0.267     
