~Version
 VERS              .         2.0                           : CWLS LOG ASCII STANDARD - VERSION 2.0
 WRAP              .         NO                            : ONE LINE PER DEPTH STEP
 DLM               .         SPACE                         : DELIMITING CHARACTER(SPACE TAB OR COMMA)
~Well Information
#_______________________________________________________________________________
#
#PARAMETER_NAME    .UNIT     VALUE                         : DESCRIPTION
#_______________________________________________________________________________
STRT               .m        2596                          : First reference value
STOP               .m        2813                          : Last reference value
STEP               .m        0.2                           : Step increment
NULL               .         -9999                         : Missing value
COMP               .                                       : Company
WELL               .         308                           : Well name
FLD                .                                       : Field
LOC                .                                       : Location
CNTY               .                                       : County
STAT               .                                       : State
CTRY               .                                       : Country
SRVC               .                                       : Service Company
DATE               .                                       : Date
API                .                                       : API number
EREF               .m        138.34                        : 
Pad                .         3                             : 
X                  .m        219750                        : 
Y                  .m        249950                        : 
group              .         Pad3                          : 
Интер-р            .         Зайцев                        : 
Куст               .         3                             : 
Статус             .         Не проверено                  : 
Тип                .         Разведка                      : 
~Parameter Information Block
#_______________________________________________________________________________
#
#PARAMETER_NAME    .UNIT     VALUE                         : DESCRIPTION
#_______________________________________________________________________________
SET                .         LAS1                          : 
REAL_CREATION_DATE .         Ср апр 11 2012-13_17_11       : 
TLFamily_DEPTH     .         Measured Depth                : 
TLFamily_KS        .         Potential Resistivity         : 
TLFamily_KS1       .         Extra Shallow Resistivity     : 
TLFamily_KS2       .         Shallow Resistivity           : 
TLFamily_KS3       .         Medium Resistivity            : 
TLFamily_KS4       .         Deep Resistivity              : 
TLFamily_KS5       .         Extra Deep Resistivity        : 
TLFamily_LLD       .         Lateral Log Resistivity       : 
TLFamily_OKS3      .         Medium Resistivity Inverted   : 
TLFamily_RM        .         Mud Resistivity               : 
TLFamily_SP        .         Spontaneous Potential         : 
group              .         INI                           : 
~Curve Information
#_______________________________________________________________________________
#
#LOGNAME           .UNIT     LOG_ID                        : DESCRIPTION
#_______________________________________________________________________________
DEPTH              .m                                      : Measured Depth 
KS                 .ohm.m                                  : Potential Resistivity 
KS1                .ohm.m                                  : Extra Shallow Resistivity 
KS2                .ohm.m                                  : Shallow Resistivity 
KS3                .ohm.m                                  : Medium Resistivity 
KS4                .ohm.m                                  : Deep Resistivity 
KS5                .ohm.m                                  : Extra Deep Resistivity 
LLD                .ohm.m                                  : Lateral Log Resistivity 
OKS3               .ohm.m                                  : Medium Resistivity Inverted 
RM                 .ohm.m                                  : Mud Resistivity 
SP                 .mV                                     : Spontaneous Potential 
~Ascii
# ...
2622.8     5.8551     1.9257     6.3264     9.7552     8.4677     5.129      4.5545     9.5504     0.357      63.5227   
2623       5.8696     1.9315     6.3705     9.7965     8.6025     5.1181     4.5457     9.4062     0.357      63.0899   
2623.2     5.8487     2.0052     6.5444     9.8817     8.7521     5.1617     4.5249     9.2203     0.357      63.9858   
2623.4     5.784      2.0052     6.5749     10.0034    8.8722     5.1617     4.4389     9.0236     0.357      63.1694   
2623.6     5.72       2.0532     6.6648     10.0714    9.0101     5.1617     4.3326     8.9182     0.357      63.1282   
2623.8     5.6436     2.0594     6.7848     10.1748    9.1171     5.1617     4.2099     8.8799     0.357      64.9862   
2624       5.5594     2.0315     6.6644     10.0383    9.0799     5.1084     4.1869     8.7068     0.355      64.4756   
2624.2     5.4967     2.0052     6.5859     9.9164     8.9925     5.069      4.1343     8.5865     0.351      62.2885   
2624.4     5.4313     2.0052     6.4874     9.8412     8.9355     5.0024     4.0177     8.5322     0.351      62.3552   
2624.6     5.3679     1.996      6.4082     9.7791     8.8789     4.9483     3.9969     8.4822     0.349      67.57     
2624.8     5.3024     1.9511     6.3183     9.6112     8.7752     4.9421     4.0298     8.4183     0.349      67.233    
2625       5.2385     1.9033     6.2659     9.4999     8.6968     4.895      3.9786     8.3714     0.345      67.3145   
2625.2     5.1828     1.897      6.2271     9.4416     8.6163     4.8932     3.9648     8.3714     0.348      67.2718   
2625.4     5.1264     1.897      6.1532     9.3511     8.5514     4.8416     3.8944     8.4245     0.345      69.5599   
2625.6     5.0829     1.897      6.0614     9.1765     8.4357     4.8416     3.917      8.425      0.346      65.6231   
2625.8     5.0673     1.847      5.9672     9.0379     8.3254     4.7962     3.9607     8.425      0.351      65.8308   
2626       5.0472     1.8428     5.8971     8.8775     8.2035     4.7883     4.0336     8.425      0.351      64.1109   
2626.2     5.0139     1.8428     5.8222     8.7552     8.0831     4.7883     3.9058     8.4683     0.351      65.1361   
2626.4     5.0139     1.8428     5.7592     8.6346     7.9647     4.7883     3.7956     8.5485     0.351      62.5805   
2626.6     5.0057     1.8428     5.77       8.5328     7.9234     4.7498     3.8185     8.6131     0.355      63.2467   
2626.8     4.9604     1.8428     5.7392     8.4752     7.9216     4.7719     3.9228     8.7286     0.357      65.555    
2627       4.9604     1.8428     5.7857     8.4146     7.8303     4.7349     3.9577     8.8599     0.357      64.7642   
2627.2     4.9604     1.8428     5.7561     8.3489     7.7267     4.7349     3.9995     9.0259     0.357      65.9116   
2627.4     4.9604     1.8428     5.6865     8.2402     7.5773     4.6816     4.0174     9.2318     0.358      66.594    
2627.6     4.9604     1.8428     5.6445     8.1184     7.4577     4.6559     3.9915     9.4402     0.363      64.9509   
2627.8     5.002      1.8428     5.6339     8.0337     7.295      4.5749     3.9682     9.6091     0.363      67.0485   
2628       5.0255     1.8428     5.5457     7.8837     7.1623     4.531      4.0222     9.6578     0.36       65.3643   
2628.2     5.0673     1.799      5.5285     7.7985     7.0414     4.5191     4.2956     9.7769     0.363      64.7391   
2628.4     5.1009     1.8428     5.5285     7.7724     6.9613     4.4682     4.5348     9.9712     0.363      63.5461   
2628.6     5.1215     1.8428     5.5782     7.7653     6.8997     4.4604     4.6257     10.2794    0.363      65.7268   
2628.8     5.1743     1.8428     5.6239     7.7188     6.7897     4.4148     4.6309     10.5303    0.369      67.9446   
2629       5.2467     1.8025     5.5378     7.6426     6.6844     4.3615     4.6294     10.6574    0.369      63.9884   
2629.2     5.3749     1.7887     5.4917     7.6117     6.5752     4.3539     4.5222     10.583     0.369      65.2951   
2629.4     5.4531     1.8407     5.5711     7.6701     6.5467     4.3081     4.478      10.5495    0.369      67.2139   
2629.6     5.4952     1.8829     5.6913     7.797      6.5978     4.3081     4.7012     10.6068    0.369      66.8642   
2629.8     5.5456     1.897      5.8389     7.9588     6.6395     4.3081     4.7974     10.7259    0.375      65.2224   
2630       5.5917     1.897      5.9343     8.0822     6.6971     4.3081     4.7953     10.8458    0.375      64.2558   
2630.2     5.6022     1.897      5.9927     8.1401     6.7056     4.3081     4.8702     10.9857    0.375      67.8393   
2630.4     5.6793     1.8807     5.9499     8.1976     6.7056     4.2884     4.7075     11.0121    0.375      64.1431   
2630.6     5.7091     1.8428     5.9499     8.2658     6.7456     4.3081     4.5988     10.9978    0.375      64.0606   
2630.8     5.7626     1.8935     6.0459     8.4366     6.8257     4.3081     4.5906     10.9978    0.377      67.3811   
2631       5.7626     1.897      6.1238     8.6708     6.9475     4.3209     4.6311     11.0466    0.375      65.4864   
2631.2     5.8119     1.9403     6.2307     8.8778     7.0676     4.3615     4.9322     11.0903    0.373      69.0106   
2631.4     5.8064     1.9511     6.2659     9.0444     7.171      4.3615     5.2297     11.1697    0.369      65.355    
2631.6     5.8277     1.9136     6.2586     9.0791     7.2292     4.3721     5.5327     11.2438    0.367      69.5852   
2631.8     5.8943     1.897      6.1711     9.0629     7.2921     4.378      5.448      11.3231    0.363      65.5611   
2632       5.9605     1.8741     6.1412     9.0646     7.3563     4.4148     5.2414     11.373     0.365      67.8542   
2632.2     6.0363     1.897      6.1606     9.1703     7.51       4.4561     5.1355     11.373     0.363      69.9626   
2632.4     6.0998     1.9025     6.2622     9.3616     7.7184     4.4788     4.9293     11.3396    0.363      66.0307   
2632.6     6.137      1.9655     6.427      9.6026     7.9188     4.5253     4.7725     11.2222    0.363      64.055    
2632.8     6.137      2.0052     6.6056     9.839      8.1448     4.5749     4.8288     11.0862    0.363      64.8012   
2633       6.137      2.0554     6.7243     9.9585     8.3413     4.5749     4.9259     10.9267    0.363      64.4179   
2633.2     6.1185     2.0594     6.74       10.0164    8.4879     4.5749     4.9662     10.8042    0.363      63.6355   
2633.4     6.0835     2.0165     6.74       10.0227    8.5157     4.5749     4.9619     10.6904    0.363      63.934    
2633.6     6.0797     2.0052     6.6911     9.9933     8.5588     4.5749     4.9206     10.6762    0.363      61.8229   
2633.8     6.03       2.0052     6.6934     10.0443    8.6396     4.5749     4.9451     10.6762    0.363      65.4274   
2634       6.03       2.0052     6.724      10.1583    8.7612     4.5749     5.0467     10.7137    0.363      65.2289   
2634.2     6.03       2.0052     6.7132     10.237     8.8395     4.6056     4.9326     10.6761    0.362      64.1108   
2634.4     6.03       2.0052     6.6482     10.237     8.8765     4.6282     4.6703     10.5774    0.357      60.9202   
2634.6     6.03       1.9511     6.5592     10.237     8.9136     4.6302     4.6796     10.478     0.357      70.149    
2634.8     6.03       1.9746     6.6131     10.2899    8.9821     4.6866     4.7538     10.4618    0.357      67.7813   
2635       5.9765     2.0052     6.6871     10.3959    9.1249     4.7432     4.7016     10.4618    0.357      63.2008   
2635.2     5.9308     2.0052     6.7278     10.4513    9.226      4.7888     4.6686     10.5426    0.357      65.1302   
2635.4     5.8946     2.0052     6.7183     10.465     9.337      4.8416     4.5638     10.7198    0.353      64.072    
2635.6     5.8696     2.0052     6.7559     10.4033    9.353      4.8416     4.6237     10.7834    0.351      64.355    
2635.8     5.8811     1.969      6.5602     10.2587    9.2798     4.8416     4.8764     10.7113    0.351      69.5322   
2636       5.9231     1.9511     6.4881     10.103     9.2101     4.8416     4.8987     10.5893    0.354      68.1853   
