~Version
 VERS              .         2.0                           : CWLS LOG ASCII STANDARD - VERSION 2.0
 WRAP              .         NO                            : ONE LINE PER DEPTH STEP
 DLM               .         SPACE                         : DELIMITING CHARACTER(SPACE TAB OR COMMA)
~Well Information
#_______________________________________________________________________________
#
#PARAMETER_NAME    .UNIT     VALUE                         : DESCRIPTION
#_______________________________________________________________________________
STRT               .m        2596                          : First reference value
STOP               .m        2813                          : Last reference value
STEP               .m        0.2                           : Step increment
NULL               .         -9999                         : Missing value
COMP               .                                       : Company
WELL               .         308                           : Well name
FLD                .                                       : Field
LOC                .                                       : Location
CNTY               .                                       : County
STAT               .                                       : State
CTRY               .                                       : Country
SRVC               .                                       : Service Company
DATE               .                                       : Date
API                .                                       : API number
EREF               .m        138.34                        : 
Pad                .         3                             : 
X                  .m        219750                        : 
Y                  .m        249950                        : 
group              .         Pad3                          : 
Интер-р            .         Зайцев                        : 
Куст               .         3                             : 
Статус             .         Не проверено                  : 
Тип                .         Разведка                      : 
~Parameter Information Block
#_______________________________________________________________________________
#
#PARAMETER_NAME    .UNIT     VALUE                         : DESCRIPTION
#_______________________________________________________________________________
SET                .         LAS1                          : 
REAL_CREATION_DATE .         Ср апр 11 2012-13_17_11       : 
TLFamily_DEPTH     .         Measured Depth                : 
TLFamily_KS        .         Potential Resistivity         : 
TLFamily_KS1       .         Extra Shallow Resistivity     : 
TLFamily_KS2       .         Shallow Resistivity           : 
TLFamily_KS3       .         Medium Resistivity            : 
TLFamily_KS4       .         Deep Resistivity              : 
TLFamily_KS5       .         Extra Deep Resistivity        : 
TLFamily_LLD       .         Lateral Log Resistivity       : 
TLFamily_OKS3      .         Medium Resistivity Inverted   : 
TLFamily_RM        .         Mud Resistivity               : 
TLFamily_SP        .         Spontaneous Potential         : 
group              .         INI                           : 
~Curve Information
#_______________________________________________________________________________
#
#LOGNAME           .UNIT     LOG_ID                        : DESCRIPTION
#_______________________________________________________________________________
DEPTH              .m                                      : Measured Depth 
KS                 .ohm.m                                  : Potential Resistivity 
KS1                .ohm.m                                  : Extra Shallow Resistivity 
KS2                .ohm.m                                  : Shallow Resistivity 
KS3                .ohm.m                                  : Medium Resistivity 
KS4                .ohm.m                                  : Deep Resistivity 
KS5                .ohm.m                                  : Extra Deep Resistivity 
LLD                .ohm.m                                  : Lateral Log Resistivity 
OKS3               .ohm.m                                  : Medium Resistivity Inverted 
RM                 .ohm.m                                  : Mud Resistivity 
SP                 .mV                                     : Spontaneous Potential 
~Ascii
# ...
2689.8     6.5648     1.9966     6.7354     10.8381    11.7389    8.7709     4.5136     11.9102    0.345      73.2136   
2690       6.6194     1.9214     6.5493     10.7192    11.5437    8.8457     4.7032     11.8578    0.345      70.005    
2690.2     6.7397     1.8953     6.4684     10.6983    11.4116    8.9688     5.2737     11.6668    0.345      73.6992   
2690.4     6.9239     1.8324     6.3018     10.6478    11.3692    9.1705     5.6732     11.3635    0.345      77.9339   
2690.6     7.0775     1.8085     6.2527     10.9353    11.6557    9.4104     8.1152     10.9994    0.345      77.174    
2690.8     7.1425     2.002      6.7553     11.4781    12.342     9.616      9.5013     10.4466    0.351      78.4954   
2691       7.0899     2.1633     7.3754     12.2004    13.0041    9.9327     9.0493     9.672      0.351      74.3492   
2691.2     6.9448     2.3317     7.8559     12.6916    13.3167    10.0165    6.2208     9.0343     0.353      72.4766   
2691.4     6.723      2.3841     8.0942     13.041     13.4539    10.0077    5.1395     8.6497     0.357      66.2922   
2691.6     6.46       2.3841     8.2433     13.1302    13.3531    9.9004     4.4652     8.5632     0.356      63.1805   
2691.8     6.1684     2.2864     8.1078     13.0236    13.1929    9.7607     4.2717     8.635      0.352      62.4713   
2692       5.9756     2.179      7.9214     12.8241    13.0076    9.6065     4.1571     8.7301     0.357      61.0431   
2692.2     5.8322     2.0944     7.6523     12.6513    12.845     9.4432     4.0635     8.8032     0.357      59.548    
2692.4     5.6429     2.0581     7.1971     12.4242    12.6917    9.1947     3.8022     9.035      0.361      59.3536   
2692.6     5.5286     2.0052     6.874      12.2217    12.436     9.0231     3.8056     9.2532     0.362      58.1943   
2692.8     5.4525     1.96       6.6378     11.8998    12.0494    8.8604     3.8178     9.4531     0.359      60.5047   
2693       5.4417     1.9009     6.3883     11.4884    11.609     8.6609     3.7311     9.64       0.361      58.4      
2693.2     5.4417     1.897      6.1654     10.9785    11.2464    8.496      3.6973     9.794      0.363      58.983    
2693.4     5.4417     1.8527     5.9449     10.47      10.9394    8.3827     3.7136     9.926      0.361      56.0296   
2693.6     5.4945     1.8428     5.8972     10.0015    10.7455    8.3187     3.8009     10.1837    0.363      53.5552   
2693.8     5.5116     1.8428     5.907      9.7517     10.6802    8.2541     4.0163     10.3609    0.363      53.6868   
2694       5.575      1.8573     5.9499     9.5437     10.6332    8.1933     4.1916     10.4577    0.363      54.1417   
2694.2     5.6383     1.897      5.9499     9.3958     10.5563    8.0537     4.2267     10.4618    0.363      51.5317   
2694.4     5.6606     1.897      6.0077     9.275      10.4026    7.8797     4.3186     10.4618    0.369      51.5936   
2694.6     5.7262     1.9464     6.0938     9.1068     10.188     7.6944     4.246      10.4618    0.369      55.4736   
2694.8     5.7918     1.897      6.0104     8.9216     9.8932     7.5317     4.0855     10.4618    0.369      57.0331   
2695       5.8564     1.8711     5.9542     8.7904     9.6722     7.4051     4.119      10.6021    0.369      55.6653   
2695.2     5.8696     1.8428     6.0081     8.9172     9.6178     7.2814     4.3419     10.6559    0.37       54.6388   
2695.4     5.8696     2.0289     6.5263     9.1594     9.5297     7.1053     6.1027     10.5137    0.375      55.1293   
2695.6     5.8696     2.0594     6.6095     9.3208     9.2856     6.9284     4.7044     10.3321    0.374      51.4777   
2695.8     5.8163     2.0399     6.5519     9.2313     8.8193     6.6516     4.1181     10.2474    0.369      50.4588   
2696       5.7626     2.0115     6.4734     9.219      8.555      6.3812     4.1022     10.2474    0.369      50.032    
2696.2     5.717      1.9999     6.481      9.1443     8.2536     6.2373     4.2217     10.228     0.367      49.207    
2696.4     5.7091     1.9511     6.3581     9.0752     7.9374     6.0335     3.9075     10.3231    0.363      51.6618   
2696.6     5.7091     1.9054     6.2374     8.9415     7.6474     5.9132     3.9188     10.5332    0.357      49.5271   
2696.8     5.7091     1.8632     6.0809     8.8773     7.4781     5.8553     3.9942     10.8352    0.357      53.6107   
2697       5.7281     1.8428     6.0026     8.844      7.4469     5.8865     4.0578     11.1891    0.357      54.8966   
2697.2     5.7626     1.8428     5.9355     8.8815     7.5027     6.0728     3.9991     11.6019    0.357      55.1859   
2697.4     5.8547     1.8164     5.8972     8.9494     7.7157     6.3982     4.0141     12.1072    0.351      53.6276   
2697.6     5.9235     1.8246     5.8943     9.2057     8.104      6.759      4.3295     12.7206    0.35       51.5904   
2697.8     6.059      1.8576     6.1203     9.7028     8.8844     7.3273     4.7859     13.2306    0.347      50.2783   
2698       6.1747     1.9693     6.3826     9.9611     9.337      7.6169     5.4072     13.1961    0.348      49.6443   
2698.2     6.2953     1.9895     6.4758     10.0763    9.5562     7.8011     5.3412     12.9595    0.345      48.8092   
2698.4     6.37       1.9982     6.4216     10.0009    9.6743     7.9091     4.7631     12.8406    0.343      51.8178   
2698.6     6.4535     1.9772     6.4621     9.9173     9.7796     7.9963     4.8118     12.8202    0.339      52.7226   
2698.8     6.5528     1.9511     6.5948     9.9673     9.9714     8.0881     5.0155     12.7648    0.339      49.0922   
2699       6.6103     1.9897     6.7684     10.155     10.2114    8.1342     6.2428     12.5713    0.339      52.2548   
2699.2     6.6183     2.1014     7.1257     10.5068    10.4949    8.0641     6.0927     12.1509    0.341      51.1227   
2699.4     6.6183     2.1593     7.4133     10.7582    10.5125    7.8989     5.7747     11.609     0.345      49.3404   
2699.6     6.5579     2.1348     7.3383     10.8824    10.3909    7.648      4.7955     11.2487    0.345      45.2634   
2699.8     6.4466     2.1196     7.3896     10.9844    10.1298    7.235      5.1414     11.0072    0.35       47.0053   
2700       6.3556     2.151      7.4631     11.2113    9.9298     6.8467     4.7808     10.8531    0.349      48.2056   
2700.2     6.2597     2.1135     7.3928     11.2934    9.6652     6.5094     4.5272     10.7298    0.349      50.2893   
2700.4     6.2006     2.1135     7.3446     11.2918    9.3414     6.1628     4.3296     10.7516    0.351      51.3076   
2700.6     6.1442     2.0206     7.0515     11.1804    9.0674     5.868      4.0245     10.9123    0.346      53.0022   
2700.8     6.1044     1.962      6.8522     11.0447    8.8254     5.6288     4.4745     11.0346    0.345      53.1521   
2701       6.1239     1.9747     6.8752     11.0407    8.7651     5.544      4.547      11.0589    0.345      53.9009   
2701.2     6.137      1.9717     6.7212     11.1025    8.7638     5.4164     4.7311     11.148     0.345      51.9047   
2701.4     6.137      1.9937     6.779      11.175     8.8057     5.2955     4.533      11.2635    0.348      53.0505   
2701.6     6.137      2.0316     6.7794     11.3031    8.9149     5.1752     4.7162     11.4608    0.347      51.1126   
2701.8     6.137      2.0341     6.7273     11.15      8.9927     5.0543     4.627      11.5701    0.349      52.0445   
2702       6.1905     2.0052     6.6716     10.9629    9.0832     4.9316     4.7256     11.6606    0.35       51.1049   
2702.2     6.1905     2.0052     6.6873     10.801     9.2312     4.8093     4.6533     11.773     0.35       49.9047   
2702.4     6.1905     2.0052     6.6873     10.6658    9.3635     4.6902     4.7898     11.9484    0.351      54.3788   
2702.6     6.1477     2.0337     6.7727     10.5997    9.4807     4.6178     5.0155     12.0743    0.351      49.9626   
2702.8     6.137      2.0594     6.8541     10.5585    9.5931     4.4876     4.9683     12.1696    0.351      51.2403   
2703       6.0894     2.0829     6.8721     10.4333    9.5296     4.3158     4.3594     12.17      0.351      54.1233   
