~Version
 VERS              .         2.0                           : CWLS LOG ASCII STANDARD - VERSION 2.0
 WRAP              .         NO                            : ONE LINE PER DEPTH STEP
 DLM               .         SPACE                         : DELIMITING CHARACTER(SPACE TAB OR COMMA)
~Well Information
#_______________________________________________________________________________
#
#PARAMETER_NAME    .UNIT     VALUE                         : DESCRIPTION
#_______________________________________________________________________________
STRT               .m        2596                          : First reference value
STOP               .m        2813                          : Last reference value
STEP               .m        0.2                           : Step increment
NULL               .         -9999                         : Missing value
COMP               .                                       : Company
WELL               .         308                           : Well name
FLD                .                                       : Field
LOC                .                                       : Location
CNTY               .                                       : County
STAT               .                                       : State
CTRY               .                                       : Country
SRVC               .                                       : Service Company
DATE               .                                       : Date
API                .                                       : API number
EREF               .m        138.34                        : 
Pad                .         3                             : 
X                  .m        219750                        : 
Y                  .m        249950                        : 
group              .         Pad3                          : 
Интер-р            .         Зайцев                        : 
Куст               .         3                             : 
Статус             .         Не проверено                  : 
Тип                .         Разведка                      : 
~Parameter Information Block
#_______________________________________________________________________________
#
#PARAMETER_NAME    .UNIT     VALUE                         : DESCRIPTION
#_______________________________________________________________________________
SET                .         LAS1                          : 
REAL_CREATION_DATE .         Ср апр 11 2012-13_17_11       : 
TLFamily_DEPTH     .         Measured Depth                : 
TLFamily_KS        .         Potential Resistivity         : 
TLFamily_KS1       .         Extra Shallow Resistivity     : 
TLFamily_KS2       .         Shallow Resistivity           : 
TLFamily_KS3       .         Medium Resistivity            : 
TLFamily_KS4       .         Deep Resistivity              : 
TLFamily_KS5       .         Extra Deep Resistivity        : 
TLFamily_LLD       .         Lateral Log Resistivity       : 
TLFamily_OKS3      .         Medium Resistivity Inverted   : 
TLFamily_RM        .         Mud Resistivity               : 
TLFamily_SP        .         Spontaneous Potential         : 
group              .         INI                           : 
~Curve Information
#_______________________________________________________________________________
#
#LOGNAME           .UNIT     LOG_ID                        : DESCRIPTION
#_______________________________________________________________________________
DEPTH              .m                                      : Measured Depth 
KS                 .ohm.m                                  : Potential Resistivity 
KS1                .ohm.m                                  : Extra Shallow Resistivity 
KS2                .ohm.m                                  : Shallow Resistivity 
KS3                .ohm.m                                  : Medium Resistivity 
KS4                .ohm.m                                  : Deep Resistivity 
KS5                .ohm.m                                  : Extra Deep Resistivity 
LLD                .ohm.m                                  : Lateral Log Resistivity 
OKS3               .ohm.m                                  : Medium Resistivity Inverted 
RM                 .ohm.m                                  : Mud Resistivity 
SP                 .mV                                     : Spontaneous Potential 
~Ascii
# ...
2609.4     5.3583     1.897      6.0577     9.2682     9.1121     4.3344     4.8555     10.2976    0.369      64.1921   
2609.6     5.3882     1.897      5.9832     9.0458     8.8767     4.2548     5.0788     10.537     0.369      62.6126   
2609.8     5.3882     1.8512     5.9208     8.9062     8.6902     4.2085     5.3053     10.7419    0.369      60.8815   
2610       5.4318     1.8428     5.8457     8.715      8.5258     4.1694     5.3622     10.9267    0.368      62.7309   
2610.2     5.4882     1.8351     5.751      8.527      8.3524     4.1426     5.1783     11.2403    0.363      64.4018   
2610.4     5.5772     1.7887     5.6639     8.3277     8.1621     4.1428     5.145      11.4671    0.363      63.1673   
2610.6     5.6979     1.7695     5.619      8.3082     8.1101     4.1481     5.1682     11.5898    0.362      63.3379   
2610.8     5.8181     1.841      5.7467     8.3721     8.1193     4.1481     5.5508     11.5949    0.361      64.2076   
2611       5.8922     1.883      5.8948     8.4633     8.0996     4.1481     5.5863     11.4653    0.361      62.3317   
2611.2     6.0078     1.897      5.9218     8.4689     8.0582     4.186      5.3806     11.2798    0.361      62.7409   
2611.4     6.0728     1.897      5.9493     8.5231     7.9767     4.2548     5.3969     11.133     0.359      63.7494   
2611.6     6.0988     1.9503     6.1431     8.6444     8.0492     4.3291     5.2832     11.2625    0.357      62.1048   
2611.8     6.137      1.9511     6.2563     8.8546     8.1754     4.4743     5.1229     11.4088    0.357      64.8511   
2612       6.137      1.9511     6.4209     9.0824     8.2991     4.6264     5.2227     11.416     0.357      63.4534   
2612.2     6.1905     2.0012     6.5837     9.2991     8.421      4.8338     5.2193     11.3536    0.357      62.1861   
2612.4     6.1905     2.0052     6.5942     9.532      8.5054     5.062      5.1791     11.2716    0.352      68.4789   
2612.6     6.1905     2.023      6.672      9.7363     8.5985     5.256      5.1245     11.1367    0.351      64.9895   
2612.8     6.1905     2.0118     6.6912     9.9514     8.6553     5.4216     5.2463     10.9978    0.351      62.7627   
2613       6.1466     2.0052     6.6568     10.0863    8.7121     5.6084     5.6498     10.8989    0.351      62.6068   
2613.2     6.137      2.0052     6.7468     10.2087    8.8091     5.7071     5.5008     10.809     0.351      67.1447   
2613.4     6.137      1.9796     6.6783     10.2729    8.8584     5.8233     5.3219     10.5216    0.351      66.3825   
2613.6     6.1905     1.915      6.468      10.1219    8.8235     5.953      5.1287     10.1129    0.351      67.029    
2613.8     6.1905     1.9048     6.3735     10.1519    8.9577     6.0367     4.9296     9.9316     0.348      68.5836   
2614       6.1582     1.9686     6.6375     10.4426    9.288      6.1319     4.8944     9.8252     0.351      65.8698   
2614.2     6.137      2.0052     6.8219     10.7188    9.519      6.2754     4.9406     9.6285     0.351      64.806    
2614.4     6.1249     2.0052     6.7926     10.8178    9.6797     6.3888     4.9757     9.3489     0.352      64.0324   
2614.6     6.0614     2.0457     6.894      10.9389    9.8618     6.3925     4.9119     9.1414     0.357      65.579    
2614.8     5.9804     2.0594     6.9507     10.9871    10.0441    6.4421     4.4696     9.0164     0.357      64.7474   
2615       5.8813     2.0303     6.8628     10.9871    10.1192    6.4421     3.9228     8.9163     0.36       65.4141   
2615.2     5.8247     2.0431     6.8847     10.941     10.1825    6.4388     3.9566     8.8768     0.363      64.5807   
2615.4     5.7416     2.0594     6.8789     10.9335    10.2002    6.3888     3.98       8.7602     0.363      68.1557   
2615.6     5.6217     2.0594     6.8453     10.9871    10.2183    6.3662     3.9964     8.6372     0.363      68.0451   
2615.8     5.5054     2.0919     6.9316     11.0126    10.2532    6.2831     4.0332     8.5858     0.369      66.2389   
2616       5.3727     2.1052     6.8602     10.8077    10.1613    6.2102     4.1207     8.6697     0.369      62.9818   
2616.2     5.2997     2.0155     6.5836     10.4997    9.9363     6.086      4.2026     8.8271     0.369      66.8518   
2616.4     5.2282     1.9564     6.3837     10.1787    9.6744     5.9635     4.2424     8.9792     0.369      64.388    
2616.6     5.1827     1.8976     6.1814     9.8766     9.4536     5.8431     4.2128     9.166      0.369      68.0253   
2616.8     5.1743     1.8844     6.0268     9.5542     9.223      5.7744     4.2152     9.355      0.369      64.8525   
2617       5.1743     1.8428     5.9024     9.3058     9.0305     5.6621     4.201      9.5322     0.369      66.5126   
2617.2     5.1812     1.8428     5.8083     9.1248     8.8588     5.632      4.2639     9.6858     0.369      65.7072   
2617.4     5.2278     1.8428     5.7919     8.9898     8.7883     5.5862     4.4319     9.8712     0.369      65.1271   
2617.6     5.2278     1.8857     5.8135     8.9018     8.7246     5.5352     4.5662     10.0587    0.374      64.3048   
2617.8     5.2278     1.897      5.8446     8.758      8.588      5.4983     4.5996     10.2624    0.375      59.4598   
2618       5.2715     1.897      5.7954     8.5573     8.3565     5.4302     4.5758     10.4009    0.377      59.5369   
2618.2     5.3282     1.8428     5.6865     8.3108     8.1163     5.3558     4.6761     10.511     0.376      59.8279   
2618.4     5.3846     1.8428     5.6407     8.1642     7.9792     5.2901     4.7566     10.6103    0.375      61.208    
2618.6     5.4412     1.8428     5.7185     8.1475     7.9042     5.2253     4.9999     10.6762    0.38       62.3698   
2618.8     5.5408     1.8479     5.7798     8.1475     7.7838     5.2151     4.9026     10.7616    0.38       60.5131   
2619       5.5781     1.8547     5.7919     8.185      7.6664     5.2094     4.9391     10.7834    0.379      64.0714   
2619.2     5.6449     1.8689     5.8411     8.2126     7.5877     5.1617     5.1468     10.7834    0.377      62.4609   
2619.4     5.6998     1.8591     5.8651     8.2992     7.5528     5.1617     5.2254     10.7834    0.375      61.1011   
2619.6     5.756      1.8828     5.9794     8.3874     7.5528     5.1617     5.1968     10.7813    0.38       64.8287   
2619.8     5.7959     1.897      6.048      8.5583     7.5122     5.1617     5.1321     10.7298    0.375      63.5256   
2620       5.8589     1.897      6.0552     8.6462     7.4998     5.1617     5.001      10.6852    0.374      63.4989   
2620.2     5.8852     1.8997     6.1563     8.8328     7.5354     5.2151     4.9417     10.6279    0.369      62.6532   
2620.4     5.9231     1.9511     6.2748     9.0152     7.5912     5.2151     4.8615     10.5329    0.369      67.9082   
2620.6     5.9231     1.9745     6.3656     9.1597     7.648      5.2151     4.8119     10.4619    0.369      63.8344   
2620.8     5.9231     2.0052     6.4596     9.3294     7.7318     5.2151     4.794      10.4082    0.369      62.6683   
2621       5.9231     2.0052     6.5171     9.4518     7.8161     5.2151     4.8043     10.3586    0.369      64.2759   
2621.2     5.8926     2.0052     6.574      9.5754     7.9215     5.2094     4.9323     10.3011    0.369      64.3014   
2621.4     5.8696     2.0052     6.582      9.6573     7.9763     5.1926     4.7211     10.2589    0.369      66.1771   
2621.6     5.8696     1.9682     6.5451     9.7012     8.0546     5.1617     4.6508     10.154     0.367      63.7319   
2621.8     5.8696     1.9511     6.5034     9.7304     8.1225     5.1617     4.719      10.0513    0.363      63.2998   
2622       5.831      1.9511     6.4835     9.7951     8.2432     5.1617     5.1272     9.9703     0.363      64.5296   
2622.2     5.8161     2.0012     6.563      9.8757     8.3642     5.1617     5.2163     9.9079     0.363      64.7514   
2622.4     5.8161     2.0052     6.5341     9.9155     8.4494     5.1617     4.9426     9.7965     0.363      63.4658   
2622.6     5.8161     1.9621     6.4324     9.8344     8.4206     5.1617     4.7649     9.6234     0.361      64.4001   
