~Version
 VERS              .         2.0                           : CWLS LOG ASCII STANDARD - VERSION 2.0
 WRAP              .         NO                            : ONE LINE PER DEPTH STEP
 DLM               .         SPACE                         : DELIMITING CHARACTER(SPACE TAB OR COMMA)
~Well Information
#_______________________________________________________________________________
#
#PARAMETER_NAME    .UNIT     VALUE                         : DESCRIPTION
#_______________________________________________________________________________
STRT               .m        2596                          : First reference value
STOP               .m        2813                          : Last reference value
STEP               .m        0.2                           : Step increment
NULL               .         -9999                         : Missing value
COMP               .                                       : Company
WELL               .         308                           : Well name
FLD                .                                       : Field
LOC                .                                       : Location
CNTY               .                                       : County
STAT               .                                       : State
CTRY               .                                       : Country
SRVC               .                                       : Service Company
DATE               .                                       : Date
API                .                                       : API number
EREF               .m        138.34                        : 
Pad                .         3                             : 
X                  .m        219750                        : 
Y                  .m        249950                        : 
group              .         Pad3                          : 
Интер-р            .         Зайцев                        : 
Куст               .         3                             : 
Статус             .         Не проверено                  : 
Тип                .         Разведка                      : 
~Parameter Information Block
#_______________________________________________________________________________
#
#PARAMETER_NAME    .UNIT     VALUE                         : DESCRIPTION
#_______________________________________________________________________________
SET                .         LAS1                          : 
REAL_CREATION_DATE .         Ср апр 11 2012-13_17_11       : 
TLFamily_DEPTH     .         Measured Depth                : 
TLFamily_KS        .         Potential Resistivity         : 
TLFamily_KS1       .         Extra Shallow Resistivity     : 
TLFamily_KS2       .         Shallow Resistivity           : 
TLFamily_KS3       .         Medium Resistivity            : 
TLFamily_KS4       .         Deep Resistivity              : 
TLFamily_KS5       .         Extra Deep Resistivity        : 
TLFamily_LLD       .         Lateral Log Resistivity       : 
TLFamily_OKS3      .         Medium Resistivity Inverted   : 
TLFamily_RM        .         Mud Resistivity               : 
TLFamily_SP        .         Spontaneous Potential         : 
group              .         INI                           : 
~Curve Information
#_______________________________________________________________________________
#
#LOGNAME           .UNIT     LOG_ID                        : DESCRIPTION
#_______________________________________________________________________________
DEPTH              .m                                      : Measured Depth 
KS                 .ohm.m                                  : Potential Resistivity 
KS1                .ohm.m                                  : Extra Shallow Resistivity 
KS2                .ohm.m                                  : Shallow Resistivity 
KS3                .ohm.m                                  : Medium Resistivity 
KS4                .ohm.m                                  : Deep Resistivity 
KS5                .ohm.m                                  : Extra Deep Resistivity 
LLD                .ohm.m                                  : Lateral Log Resistivity 
OKS3               .ohm.m                                  : Medium Resistivity Inverted 
RM                 .ohm.m                                  : Mud Resistivity 
SP                 .mV                                     : Spontaneous Potential 
~Ascii
# ...
2770.2     10.0947    2.2977     9.2677     18.8152    13.3313    6.4955     13.831     17.5241    0.332      77.7769   
2770.4     10.056     2.2435     9.0737     19.6037    14.444     6.5381     29.1894    17.8615    0.329      80.908    
2770.6     9.8403     2.3956     9.7912     20.8298    16.2459    6.7347     16.9902    17.606     0.341      81.2998   
2770.8     9.5651     2.6544     10.8277    22.8543    19.7643    7.109      10.9155    16.7808    0.359      70.9951   
2771       8.8873     2.8172     11.666     25.6717    25.367     7.14       10.7271    16.5387    0.357      73.2174   
2771.2     8.4216     2.8907     12.2267    26.1817    27.7278    6.8898     5.9858     16.2424    0.347      70.2408   
2771.4     7.9436     2.4683     10.6142    23.7295    26.6608    6.2304     6.1297     14.5385    0.329      69.1821   
2771.6     7.6793     2.2403     9.5999     21.2311    24.8747    5.3628     5.7992     13.1792    0.334      74.279    
2771.8     7.6527     2.0982     8.5181     18.5739    22.714     4.2741     5.4735     12.6375    0.35       70.7538   
2772       7.6711     1.9131     7.6247     17.3317    21.5179    3.9195     5.2472     12.4691    0.345      76.6765   
2772.2     7.7281     1.9986     7.7877     17.0739    21.4782    3.6943     9.6171     12.0981    0.338      76.317    
2772.4     7.655      2.153      8.0175     17.4864    21.9959    3.5713     11.0807    11.7295    0.333      76.0704   
2772.6     7.3882     2.3464     8.4414     17.7293    22.2385    3.4481     10.6785    11.4044    0.337      78.8963   
2772.8     7.1149     2.476      8.6727     17.0456    21.2233    3.3234     7.5009     11.6391    0.345      81.7091   
2773       6.93       2.2497     7.9812     15.379     18.9963    3.2056     4.148      12.4993    0.345      79.8648   
2773.2     6.8372     1.9838     7.2908     13.6074    16.6961    3.0766     4.3129     13.6313    0.336      81.7509   
2773.4     6.8842     1.7962     6.6261     12.3186    15.0774    2.9298     4.4212     14.9657    0.329      80.3283   
2773.6     6.947      1.7896     6.3199     11.5162    14.0177    2.8068     5.6794     16.0215    0.329      84.7399   
2773.8     7.1544     1.7606     5.783      10.7485    13.0191    2.761      4.5493     17.2925    0.342      87.432    
2774       7.4039     1.6591     5.2428     9.8302     11.8776    2.761      4.7059     18.8789    0.352      88.6814   
2774.2     7.7294     1.5855     4.8964     9.2288     11.1591    2.8056     5.8538     20.2798    0.339      79.5121   
2774.4     8.2385     1.5181     4.7265     8.9228     11.0033    2.9919     7.0377     21.1851    0.326      82.2636   
2774.6     8.7225     1.565      4.9656     8.9719     11.3079    3.3981     9.3846     21.916     0.331      76.5154   
2774.8     9.1758     1.6661     5.2762     9.2288     11.8602    3.9898     11.2675    22.4878    0.341      78.6955   
2775       9.5247     1.7934     5.6686     9.4931     12.5641    4.6796     12.8361    22.9656    0.353      71.3672   
2775.2     9.851      1.8905     6.2323     9.8111     13.2931    5.4003     13.1256    23.6773    0.34       70.6995   
2775.4     10.1183    1.9874     6.7336     10.2748    14.0278    6.0606     12.7047    24.4777    0.331      69.6391   
2775.6     10.286     2.0468     7.1636     10.8464    14.6863    6.7445     12.7231    25.2832    0.33       70.6064   
2775.8     10.4649    2.1076     7.5422     11.5891    15.4132    7.6402     12.8281    26.0842    0.349      66.2099   
2776       10.5893    2.1514     7.9032     12.2538    16.107     8.7375     12.5817    26.8434    0.356      69.8658   
2776.2     10.7125    2.1676     8.0972     12.943     16.9275    9.9757     11.5018    27.8306    0.342      68.3639   
2776.4     10.8366    2.1676     8.2333     13.779     17.9066    11.4371    11.5314    28.994     0.329      71.7082   
2776.6     10.9629    2.1338     8.2518     14.5975    19.089     13.365     11.007     30.1639    0.334      68.0307   
2776.8     11.1731    2.125      8.1901     15.3551    20.512     15.9331    10.0228    31.9359    0.353      72.0245   
2777       11.6416    1.9899     7.886      15.9328    23.1125    20.2403    8.9033     34.8549    0.338      65.2033   
2777.2     12.2745    1.7411     7.2556     16.2326    25.3539    23.2266    8.3916     36.9817    0.32       69.3735   
2777.4     12.8993    1.6932     7.259      16.9743    27.0923    26.0488    14.8895    36.607     0.328      67.3547   
2777.6     13.5828    1.9396     8.166      18.437     28.6133    28.3717    62.2148    34.1575    0.348      69.1351   
2777.8     14.1094    2.1742     8.9435     20.1349    30.2341    30.1898    74.4448    31.0404    0.345      69.3692   
2778       14.4472    2.4356     9.8646     21.2656    30.902     31.9134    58.2601    28.0613    0.335      78.6748   
2778.2     14.631     2.4924     10.1791    22.2913    31.7441    33.2734    30.9069    25.1028    0.33       77.4235   
2778.4     14.4949    2.7811     11.9421    24.3897    33.7215    34.9803    66.1572    20.8658    0.354      75.6923   
2778.6     14.3144    3.0218     13.059     25.2692    34.4941    36.8863    93.3278    17.4203    0.346      71.1696   
2778.8     13.7256    2.7        12.3455    27.5194    36.5897    37.8032    89.7274    15.051     0.319      69.9132   
2779       12.9526    3.362      15.4489    30.222     39.5169    37.8618    59.1766    13.5961    0.348      66.568    
2779.2     12.1741    3.2816     15.2232    31.7821    39.7182    38.4955    14.0291    13.2491    0.358      67.1482   
2779.4     11.5547    3.0445     14.2909    31.5071    37.8105    37.6905    10.014     12.8187    0.349      72.333    
2779.6     10.9949    2.824      13.4437    31.5896    36.8612    35.4524    9.5413     12.7898    0.334      70.2763   
2779.8     10.454     2.7631     13.0672    32.1848    36.9076    33.476     10.0824    13.0201    0.344      68.8267   
2780       9.9511     2.8505     13.0081    32.6462    37.0737    31.805     8.8579     13.4142    0.357      70.8995   
2780.2     9.4842     2.7483     12.2545    32.632     36.9689    30.5832    6.0142     14.8956    0.339      72.9447   
2780.4     9.0497     2.6326     11.7907    32.3066    37.1873    29.048     5.8603     16.7044    0.328      72.8378   
2780.6     8.6436     2.5729     11.7322    32.5131    38.3188    26.9797    12.3025    17.3427    0.345      75.6814   
2780.8     8.4284     2.7394     12.0264    31.8312    38.5342    24.6866    16.4815    16.107     0.348      80.3199   
2781       8.1849     2.5798     10.8303    29.1697    36.6764    22.2433    6.2111     14.5907    0.334      73.5813   
2781.2     7.9281     2.3983     9.7763     25.5464    34.0227    19.3514    6.0909     13.3808    0.339      77.8335   
2781.4     7.7632     2.2683     9.1019     22.5095    32.0169    16.6207    5.7484     12.5576    0.345      75.5202   
2781.6     7.5873     2.0596     8.0993     19.1262    29.5734    14.2911    5.8359     11.7213    0.335      81.1269   
2781.8     7.4506     2.0461     7.9532     17.2609    27.9253    11.9151    6.0903     11.3586    0.341      77.2619   
2782       7.2601     2.0052     7.2891     14.8674    24.6796    9.8172     6.1296     11.0423    0.331      78.7036   
2782.2     7.181      1.938      7.0302     13.8785    22.8676    8.9739     6.0368     10.8386    0.33       84.7092   
2782.4     7.1104     1.9241     6.8777     13.4008    21.0869    8.2784     6.0247     10.7459    0.34       78.7719   
2782.6     7.0377     1.9459     6.7659     13.0722    19.5645    7.7329     5.9616     10.7913    0.337      85.0231   
2782.8     6.9631     1.8428     6.5688     12.6184    17.9562    7.2445     5.2435     10.8852    0.324      82.001    
2783       6.9392     1.8633     6.5292     12.1708    16.5977    6.8384     6.0973     10.8845    0.337      80.6138   
2783.2     6.9392     1.8428     6.3721     11.7916    15.35      6.5873     5.7998     10.837     0.339      79.3878   
2783.4     6.9691     1.8288     6.247      11.4158    14.3922    6.3941     5.7712     10.8846    0.326      82.6688   
