~Version
 VERS              .         2.0                           : CWLS LOG ASCII STANDARD - VERSION 2.0
 WRAP              .         NO                            : ONE LINE PER DEPTH STEP
 DLM               .         SPACE                         : DELIMITING CHARACTER(SPACE TAB OR COMMA)
~Well Information
#_______________________________________________________________________________
#
#PARAMETER_NAME    .UNIT     VALUE                         : DESCRIPTION
#_______________________________________________________________________________
STRT               .m        2596                          : First reference value
STOP               .m        2813                          : Last reference value
STEP               .m        0.2                           : Step increment
NULL               .         -9999                         : Missing value
COMP               .                                       : Company
WELL               .         308                           : Well name
FLD                .                                       : Field
LOC                .                                       : Location
CNTY               .                                       : County
STAT               .                                       : State
CTRY               .                                       : Country
SRVC               .                                       : Service Company
DATE               .                                       : Date
API                .                                       : API number
EREF               .m        138.34                        : 
Pad                .         3                             : 
X                  .m        219750                        : 
Y                  .m        249950                        : 
group              .         Pad3                          : 
Интер-р            .         Зайцев                        : 
Куст               .         3                             : 
Статус             .         Не проверено                  : 
Тип                .         Разведка                      : 
~Parameter Information Block
#_______________________________________________________________________________
#
#PARAMETER_NAME    .UNIT     VALUE                         : DESCRIPTION
#_______________________________________________________________________________
SET                .         LAS1                          : 
REAL_CREATION_DATE .         Ср апр 11 2012-13_17_11       : 
TLFamily_DEPTH     .         Measured Depth                : 
TLFamily_KS        .         Potential Resistivity         : 
TLFamily_KS1       .         Extra Shallow Resistivity     : 
TLFamily_KS2       .         Shallow Resistivity           : 
TLFamily_KS3       .         Medium Resistivity            : 
TLFamily_KS4       .         Deep Resistivity              : 
TLFamily_KS5       .         Extra Deep Resistivity        : 
TLFamily_LLD       .         Lateral Log Resistivity       : 
TLFamily_OKS3      .         Medium Resistivity Inverted   : 
TLFamily_RM        .         Mud Resistivity               : 
TLFamily_SP        .         Spontaneous Potential         : 
group              .         INI                           : 
~Curve Information
#_______________________________________________________________________________
#
#LOGNAME           .UNIT     LOG_ID                        : DESCRIPTION
#_______________________________________________________________________________
DEPTH              .m                                      : Measured Depth 
KS                 .ohm.m                                  : Potential Resistivity 
KS1                .ohm.m                                  : Extra Shallow Resistivity 
KS2                .ohm.m                                  : Shallow Resistivity 
KS3                .ohm.m                                  : Medium Resistivity 
KS4                .ohm.m                                  : Deep Resistivity 
KS5                .ohm.m                                  : Extra Deep Resistivity 
LLD                .ohm.m                                  : Lateral Log Resistivity 
OKS3               .ohm.m                                  : Medium Resistivity Inverted 
RM                 .ohm.m                                  : Mud Resistivity 
SP                 .mV                                     : Spontaneous Potential 
~Ascii
# ...
2649.6     5.7294     2.0052     6.5889     9.878      8.3169     4.7349     4.1256     8.9859     0.351      68.5462   
2649.8     5.664      2.0052     6.5322     9.862      8.347      4.7056     3.9904     8.8623     0.351      64.3162   
2650       5.5885     1.9673     6.5293     9.862      8.4234     4.6722     4.0906     8.8538     0.351      67.8367   
2650.2     5.5059     1.9343     6.4167     9.7885     8.4158     4.6397     4.1769     8.9575     0.351      64.6656   
2650.4     5.4934     1.8496     6.1376     9.6477     8.4424     4.6816     4.0912     9.1514     0.351      70.6148   
2650.6     5.4417     1.8823     6.2808     9.6896     8.5591     4.7225     4.6922     9.4256     0.351      64.9543   
2650.8     5.3938     1.897      6.2456     9.8034     8.7551     4.7883     4.1482     9.729      0.351      69.7656   
2651       5.3882     1.8428     6.1672     9.8632     8.8744     4.7883     3.6379     9.9147     0.352      64.5007   
2651.2     5.3278     1.9756     6.4484     9.9282     8.9294     4.7883     3.5291     9.9258     0.353      67.0165   
2651.4     5.2813     1.9449     6.266      9.8521     8.8635     4.7786     3.4004     10.0142    0.351      66.3713   
2651.6     5.1954     1.9412     6.1606     9.5864     8.6357     4.7191     3.4673     10.3388    0.351      69.6767   
2651.8     5.1743     1.8704     6.0477     9.2743     8.4416     4.602      3.8466     10.75      0.349      67.411    
2652       5.234      1.8049     5.7804     8.8379     8.2035     4.5666     4.3952     11.1789    0.348      64.924    
2652.2     5.3073     1.7472     5.5805     8.4881     7.9638     4.5215     4.8259     11.6014    0.347      67.1786   
2652.4     5.4635     1.7346     5.45       8.2354     7.8217     4.5215     5.1161     11.8463    0.351      69.7186   
2652.6     5.6441     1.7346     5.3376     8.1068     7.7645     4.528      5.2591     11.909     0.351      64.8589   
2652.8     5.7965     1.7422     5.3956     8.0939     7.7645     4.5749     5.1952     11.8742    0.349      67.8736   
2653       5.9506     1.832      5.6094     8.2087     7.8535     4.6299     5.0689     11.7444    0.351      66.8432   
2653.2     6.0291     1.8908     5.8025     8.3895     7.9105     4.6816     5.0694     11.5585    0.351      72.4072   
2653.4     6.128      1.949      6.0328     8.5533     7.9683     4.7142     5.2371     11.3555    0.347      67.2804   
2653.6     6.1848     1.9511     6.2099     8.6609     8.0257     4.7843     4.9279     11.2155    0.345      69.2315   
2653.8     6.1905     1.9742     6.3671     8.8185     8.0893     4.8082     4.8811     11.1605    0.347      71.2462   
2654       6.1905     2.0382     6.6495     9.046      8.1773     4.874      4.883      10.9928    0.351      74.1571   
2654.2     6.1905     2.0055     6.6595     9.2249     8.1881     4.9047     4.9262     10.8122    0.351      70.5463   
2654.4     6.1905     2.0052     6.6873     9.4061     8.1881     4.9503     4.9057     10.687     0.351      72.7016   
2654.6     6.1905     2.0052     6.6873     9.64       8.2009     5.0017     4.8362     10.6079    0.351      76.2557   
2654.8     6.1464     2.0052     6.6912     9.9301     8.2637     5.0399     4.8293     10.5404    0.351      70.9366   
2655       6.137      2.0052     6.7807     10.1731    8.424      5.0657     4.7938     10.4611    0.351      74.8898   
2655.2     6.137      2.0052     6.8179     10.415     8.543      5.1264     4.7962     10.3548    0.351      67.1872   
2655.4     6.1331     2.0052     6.7587     10.5031    8.6221     5.1617     4.8688     10.2571    0.351      70.2941   
2655.6     6.0835     2.0052     6.74       10.5585    8.6647     5.1621     4.7069     10.0525    0.348      73.1479   
2655.8     6.0338     2.0052     6.7188     10.61      8.7644     5.2151     4.6238     9.9303     0.351      67.4754   
2656       6.0293     2.0052     6.7892     10.6513    8.926      5.2151     4.6435     9.8072     0.351      70.2649   
2656.2     5.9765     2.0424     6.7692     10.6456    9.0105     5.2151     4.4504     9.7336     0.351      68.106    
2656.4     5.9289     2.0052     6.7161     10.6121    9.126      5.2163     4.328      9.6171     0.351      66.4891   
2656.6     5.8723     2.0052     6.74       10.5586    9.2469     5.2464     4.2863     9.5369     0.351      64.0858   
2656.8     5.8103     2.0052     6.6889     10.5168    9.3894     5.2496     4.2558     9.5217     0.351      65.1233   
2657       5.7459     2.0052     6.6759     10.4591    9.487      5.2684     4.135      9.5506     0.351      67.5533   
2657.2     5.6765     1.9904     6.6124     10.4166    9.5491     5.2684     4.12       9.5427     0.351      63.1685   
2657.4     5.6532     1.9511     6.5496     10.3052    9.5648     5.2684     4.176      9.497      0.351      66.72     
2657.6     5.6022     1.9511     6.4823     10.2275    9.537      5.2684     4.1581     9.497      0.351      66.8311   
2657.8     5.6022     1.9383     6.3568     10.0777    9.4754     5.2678     4.1798     9.534      0.351      68.3197   
2658       5.6022     1.897      6.2726     9.9326     9.4202     5.2151     4.2512     9.537      0.351      65.4915   
2658.2     5.6022     1.897      6.2147     9.8103     9.3431     5.2151     4.3085     9.5715     0.351      71.6712   
2658.4     5.6022     1.897      6.1732     9.6874     9.2691     5.2151     4.3529     9.6042     0.351      67.6659   
2658.6     5.6022     1.897      6.1606     9.6147     9.2101     5.2151     4.4255     9.6211     0.351      71.0388   
2658.8     5.6022     1.897      6.1915     9.5564     9.1942     5.2151     4.3067     9.6447     0.351      66.6548   
2659       5.5583     1.9336     6.2174     9.5405     9.1702     5.2151     3.9865     9.6042     0.351      72.063    
2659.2     5.5269     1.9511     6.281      9.5405     9.1412     5.2151     3.6773     9.6042     0.351      69.8271   
2659.4     5.4608     1.9704     6.3902     9.5405     9.1412     5.2151     3.6115     9.6625     0.351      68.6479   
2659.6     5.3989     1.9747     6.3883     9.4872     9.0358     5.2151     3.7991     9.7822     0.35       71.6819   
2659.8     5.3882     1.9132     6.1808     9.2997     8.8307     5.2047     4.024      9.9895     0.348      71.5983   
2660       5.3882     1.8557     6.0465     9.0898     8.6445     5.1617     4.4311     10.2063    0.35       72.1693   
2660.2     5.4251     1.8208     5.9256     8.9633     8.5078     5.1365     4.4534     10.3627    0.347      65.3852   
2660.4     5.4914     1.7887     5.8117     8.8559     8.3863     5.1084     4.4733     10.3651    0.345      67.045    
2660.6     5.5487     1.8428     5.857      8.8703     8.3145     5.119      4.346      10.232     0.345      67.4093   
2660.8     5.5974     1.8807     5.9237     8.9485     8.2843     5.1617     4.3303     10.0173    0.345      64.3178   
2661       5.6449     1.897      6.0004     8.9511     8.1978     5.1617     4.1954     9.8614     0.345      63.5701   
2661.2     5.6556     1.897      6.0529     8.9511     8.139      5.1617     4.2462     9.7402     0.345      64.1863   
2661.4     5.6556     1.897      6.1079     8.9007     8.1278     5.1617     4.445      9.6588     0.345      65.9681   
2661.6     5.6556     1.897      6.1261     8.9123     8.0822     5.1617     4.4689     9.6985     0.345      64.0789   
2661.8     5.6556     1.897      6.1594     8.9147     8.0822     5.1617     4.3064     9.6425     0.345      65.628    
2662       5.6556     1.897      6.1734     9.025      8.0822     5.1629     4.2699     9.5697     0.345      72.8054   
2662.2     5.6267     1.897      6.2361     9.1481     8.1448     5.2151     4.3535     9.5946     0.351      64.4406   
2662.4     5.6022     1.9178     6.2659     9.3238     8.2088     5.2151     4.1366     9.6732     0.351      70.6708   
2662.6     5.5487     1.9333     6.3398     9.4895     8.2893     5.2151     3.9306     9.7375     0.351      64.9564   
2662.8     5.5022     1.9511     6.3713     9.5889     8.3094     5.2123     4.0317     9.765      0.351      66.2421   
