~Version
 VERS              .         2.0                           : CWLS LOG ASCII STANDARD - VERSION 2.0
 WRAP              .         NO                            : ONE LINE PER DEPTH STEP
 DLM               .         SPACE                         : DELIMITING CHARACTER(SPACE TAB OR COMMA)
~Well Information
#_______________________________________________________________________________
#
#PARAMETER_NAME    .UNIT     VALUE                         : DESCRIPTION
#_______________________________________________________________________________
STRT               .m        2596                          : First reference value
STOP               .m        2813                          : Last reference value
STEP               .m        0.2                           : Step increment
NULL               .         -9999                         : Missing value
COMP               .                                       : Company
WELL               .         308                           : Well name
FLD                .                                       : Field
LOC                .                                       : Location
CNTY               .                                       : County
STAT               .                                       : State
CTRY               .                                       : Country
SRVC               .                                       : Service Company
DATE               .                                       : Date
API                .                                       : API number
EREF               .m        138.34                        : 
Pad                .         3                             : 
X                  .m        219750                        : 
Y                  .m        249950                        : 
group              .         Pad3                          : 
Интер-р            .         Зайцев                        : 
Куст               .         3                             : 
Статус             .         Не проверено                  : 
Тип                .         Разведка                      : 
~Parameter Information Block
#_______________________________________________________________________________
#
#PARAMETER_NAME    .UNIT     VALUE                         : DESCRIPTION
#_______________________________________________________________________________
SET                .         LAS1                          : 
REAL_CREATION_DATE .         Ср апр 11 2012-13_17_11       : 
TLFamily_DEPTH     .         Measured Depth                : 
TLFamily_KS        .         Potential Resistivity         : 
TLFamily_KS1       .         Extra Shallow Resistivity     : 
TLFamily_KS2       .         Shallow Resistivity           : 
TLFamily_KS3       .         Medium Resistivity            : 
TLFamily_KS4       .         Deep Resistivity              : 
TLFamily_KS5       .         Extra Deep Resistivity        : 
TLFamily_LLD       .         Lateral Log Resistivity       : 
TLFamily_OKS3      .         Medium Resistivity Inverted   : 
TLFamily_RM        .         Mud Resistivity               : 
TLFamily_SP        .         Spontaneous Potential         : 
group              .         INI                           : 
~Curve Information
#_______________________________________________________________________________
#
#LOGNAME           .UNIT     LOG_ID                        : DESCRIPTION
#_______________________________________________________________________________
DEPTH              .m                                      : Measured Depth 
KS                 .ohm.m                                  : Potential Resistivity 
KS1                .ohm.m                                  : Extra Shallow Resistivity 
KS2                .ohm.m                                  : Shallow Resistivity 
KS3                .ohm.m                                  : Medium Resistivity 
KS4                .ohm.m                                  : Deep Resistivity 
KS5                .ohm.m                                  : Extra Deep Resistivity 
LLD                .ohm.m                                  : Lateral Log Resistivity 
OKS3               .ohm.m                                  : Medium Resistivity Inverted 
RM                 .ohm.m                                  : Mud Resistivity 
SP                 .mV                                     : Spontaneous Potential 
~Ascii
# ...
2730       11.6987    2.8985     12.3912    26.9509    31.8301    25.7985    13.0081    15.4156    0.369      44.3806   
2730.2     11.3261    2.8887     12.4745    27.2005    31.826     25.325     10.9065    14.3593    0.37       45.6073   
2730.4     10.9426    2.8237     12.2194    27.1739    31.7949    24.7905    9.1134     13.5796    0.37       48.9754   
2730.6     10.5087    2.7631     12.0071    27.2595    32.1299    24.0648    10.4532    12.8461    0.369      47.5335   
2730.8     10.1232    2.8111     12.1791    27.2745    32.545     23.2792    10.0258    12.0279    0.371      47.1445   
2731       9.8109     2.6885     11.5409    26.9307    32.5466    22.5171    7.8772     11.3308    0.369      51.8978   
2731.2     9.4981     2.6548     11.2692    26.162     32.067     21.6696    8.6386     10.775     0.369      44.6617   
2731.4     9.1879     2.5879     10.8447    25.5657    32.053     20.8099    7.702      10.3281    0.366      43.1871   
2731.6     8.8717     2.5465     10.591     25.0176    32.1121    20.0423    7.986      9.9407     0.363      43.6006   
2731.8     8.5669     2.5776     10.6415    24.5147    32.1385    19.565     7.7239     9.5919     0.363      45.0942   
2732       8.2835     2.4834     10.1855    23.9998    32.2504    19.2154    6.4286     9.3987     0.356      45.7653   
2732.2     7.8199     2.4838     10.2869    24.0927    33.0752    18.6855    11.411     9.1279     0.355      44.3032   
2732.4     7.3894     2.7734     11.1743    24.3036    33.8313    17.925     9.2172     8.5991     0.36       49.1156   
2732.6     7.0024     2.6909     10.6362    23.3332    32.8502    17.1262    5.8404     7.8885     0.356      47.2574   
2732.8     6.5618     2.5743     9.9884     21.3637    30.3402    15.8225    4.6017     7.4795     0.35       47.7836   
2733       6.166      2.3848     9.2273     19.3834    27.5378    14.3439    3.9588     7.3082     0.343      46.587    
2733.2     5.862      2.1725     8.4151     17.4388    24.8387    13.0482    3.1548     7.5926     0.337      47.9612   
2733.4     5.6546     1.9612     7.6949     15.938     22.7563    11.9845    3.6312     7.9728     0.333      44.1753   
2733.6     5.5026     1.9404     7.4345     14.798     21.1593    11.1839    3.714      8.2575     0.333      45.6511   
2733.8     5.4609     1.8249     6.7423     13.8819    19.8021    10.6268    3.7934     8.3178     0.333      48.9987   
2734       5.3989     1.8673     6.5342     13.1439    18.5703    10.0726    4.1804     8.3178     0.339      47.2674   
2734.2     5.3882     1.8436     6.2827     12.4402    17.3722    9.6127     3.8388     8.2506     0.339      47.6304   
2734.4     5.4369     1.7858     5.8293     11.5838    15.9533    9.2372     3.4248     8.2959     0.339      47.8131   
2734.6     5.4417     1.6877     5.5695     10.8565    14.7707    8.9949     3.9799     8.3569     0.339      49.2805   
2734.8     5.4872     1.7329     5.6332     10.3761    14.1693    8.8962     3.9543     8.4373     0.339      48.7978   
2735       5.4952     1.7505     5.704      10.1306    14.0131    8.9297     4.3137     8.5619     0.345      48.079    
2735.2     5.4417     1.8762     6.1322     9.9885     13.7289    8.9484     5.1071     8.3635     0.347      47.3296   
2735.4     5.3672     1.9081     6.2175     9.7732     13.2113    8.8186     4.8653     7.9466     0.351      48.2758   
2735.6     5.2942     1.9963     6.3186     9.5095     12.3569    8.6087     4.5237     7.6075     0.351      47.366    
2735.8     5.1726     1.9185     6.0997     9.1748     11.4549    8.2696     3.4143     7.485      0.347      43.9998   
2736       5.0492     1.8428     5.9363     8.8004     10.5843    7.9056     3.2183     7.7096     0.35       43.8206   
2736.2     4.9633     1.7765     5.8156     8.5541     9.9474     7.5918     3.1597     7.962      0.354      48.1825   
2736.4     4.9604     1.6849     5.6198     8.2544     9.3502     7.4712     3.2888     8.3325     0.357      47.6408   
2736.6     4.9604     1.6415     5.2978     8.0843     8.9287     7.3501     3.1839     8.8122     0.351      47.012    
2736.8     4.9604     1.6941     5.3865     8.0403     8.5565     7.2957     3.8752     9.1698     0.353      47.9972   
2737       5.0577     1.6989     5.1934     8.003      8.2127     7.2957     3.5434     9.5588     0.35       49.508    
2737.2     5.0673     1.646      5.0895     7.958      7.8749     7.2957     3.5667     9.9647     0.34       51.0621   
2737.4     5.0673     1.7574     5.3775     8.0103     7.6609     7.2957     3.6365     10.3067    0.345      46.0295   
2737.6     5.0673     1.719      5.2015     7.9189     7.4692     7.3141     3.6219     10.2602    0.345      47.5819   
2737.8     5.1379     1.7737     5.4283     7.7279     7.2589     7.3915     4.2439     10.0542    0.343      49.8956   
2738       5.2103     1.7444     5.1753     7.4148     7.0905     7.6188     3.5859     10.014     0.335      49.0473   
2738.2     5.2278     1.7346     5.1072     7.1581     7.0966     8.0557     3.4809     10.3538    0.333      44.5994   
2738.4     5.2957     1.7284     5.1422     7.091      7.2774     8.9723     3.5321     10.9884    0.328      47.9955   
2738.6     5.4577     1.618      4.8643     7.0542     7.7387     10.309     3.0514     12.0162    0.327      48.3333   
2738.8     5.651      1.5233     4.8005     7.2318     8.5299     12.1654    3.4342     13.1399    0.331      47.5685   
2739       5.988      1.5563     5.0324     7.8074     9.7696     14.175     4.6483     14.1497    0.333      46.5639   
2739.2     6.3893     1.5285     5.0764     8.6839     11.2765    16.0066    4.8236     14.6307    0.334      49.6303   
2739.4     6.6495     1.7548     5.8921     9.8718     12.8782    17.0435    13.0316    14.0628    0.34       49.2797   
2739.6     6.7192     2.2618     7.2491     11.3043    13.8351    16.9885    39.7775    12.1512    0.348      45.9893   
2739.8     6.6295     2.5003     7.8006     11.6393    13.2545    16.2631    10.5598    10.4906    0.351      46.4098   
2740       6.3991     2.3721     7.6785     11.0757    11.7238    13.9541    4.0708     9.1848     0.351      45.099    
2740.2     6.2386     2.2971     7.7226     10.5761    10.7109    12.4785    4.5278     8.614      0.351      48.3517   
2740.4     6.0472     2.1321     7.6532     10.1089    9.5741     10.4572    3.9259     8.059      0.353      51.3473   
2740.6     5.9253     2.0646     7.4762     9.8873     8.9157     9.4321     3.9183     7.7426     0.355      50.3283   
2740.8     5.8711     2.0086     7.2065     9.8712     8.4708     8.5942     4.0685     7.5454     0.361      49.3963   
2741       5.8245     1.9743     6.9473     10.0529    8.1425     7.9343     4.1116     7.3532     0.358      47.037    
2741.2     5.7487     1.9992     6.9001     10.4299    7.9597     7.3687     4.3526     7.1708     0.36       47.9337   
2741.4     5.6368     2.0594     6.9627     10.9947    7.9235     6.8384     4.7614     6.9912     0.36       46.3772   
2741.6     5.4948     2.0917     7.0756     11.6889    7.9549     6.3913     4.6729     6.7345     0.356      47.8525   
2741.8     5.2808     2.1824     7.3141     12.1274    7.9643     5.9063     4.7724     6.5069     0.352      48.6853   
2742       5.0617     2.2057     7.2403     12.0846    7.869      5.4554     3.6274     6.2904     0.348      48.5716   
2742.2     4.843      2.1473     7.0822     11.6006    7.5849     5.0143     3.2593     6.1473     0.348      48.8783   
2742.4     4.6601     2.0466     6.8251     10.9334    7.2335     4.532      2.7257     6.158      0.345      48.7154   
2742.6     4.485      1.9144     6.3772     10.216     6.8804     4.1449     2.7177     6.2666     0.341      53.0777   
2742.8     4.3643     1.8438     6.1084     9.6084     6.6587     3.7862     2.6919     6.377      0.335      50.9751   
2743       4.2808     1.7628     5.7959     9.1197     6.4967     3.4784     2.6404     6.4882     0.332      50.7317   
2743.2     4.2581     1.6834     5.4442     8.6615     6.4616     3.2213     2.9003     6.5895     0.327      48.9874   
