~Version
 VERS              .         2.0                           : CWLS LOG ASCII STANDARD - VERSION 2.0
 WRAP              .         NO                            : ONE LINE PER DEPTH STEP
 DLM               .         SPACE                         : DELIMITING CHARACTER(SPACE TAB OR COMMA)
~Well Information
#_______________________________________________________________________________
#
#PARAMETER_NAME    .UNIT     VALUE                         : DESCRIPTION
#_______________________________________________________________________________
STRT               .m        2596                          : First reference value
STOP               .m        2813                          : Last reference value
STEP               .m        0.2                           : Step increment
NULL               .         -9999                         : Missing value
COMP               .                                       : Company
WELL               .         308                           : Well name
FLD                .                                       : Field
LOC                .                                       : Location
CNTY               .                                       : County
STAT               .                                       : State
CTRY               .                                       : Country
SRVC               .                                       : Service Company
DATE               .                                       : Date
API                .                                       : API number
EREF               .m        138.34                        : 
Pad                .         3                             : 
X                  .m        219750                        : 
Y                  .m        249950                        : 
group              .         Pad3                          : 
Интер-р            .         Зайцев                        : 
Куст               .         3                             : 
Статус             .         Не проверено                  : 
Тип                .         Разведка                      : 
~Parameter Information Block
#_______________________________________________________________________________
#
#PARAMETER_NAME    .UNIT     VALUE                         : DESCRIPTION
#_______________________________________________________________________________
SET                .         LAS1                          : 
REAL_CREATION_DATE .         Ср апр 11 2012-13_17_11       : 
TLFamily_DEPTH     .         Measured Depth                : 
TLFamily_KS        .         Potential Resistivity         : 
TLFamily_KS1       .         Extra Shallow Resistivity     : 
TLFamily_KS2       .         Shallow Resistivity           : 
TLFamily_KS3       .         Medium Resistivity            : 
TLFamily_KS4       .         Deep Resistivity              : 
TLFamily_KS5       .         Extra Deep Resistivity        : 
TLFamily_LLD       .         Lateral Log Resistivity       : 
TLFamily_OKS3      .         Medium Resistivity Inverted   : 
TLFamily_RM        .         Mud Resistivity               : 
TLFamily_SP        .         Spontaneous Potential         : 
group              .         INI                           : 
~Curve Information
#_______________________________________________________________________________
#
#LOGNAME           .UNIT     LOG_ID                        : DESCRIPTION
#_______________________________________________________________________________
DEPTH              .m                                      : Measured Depth 
KS                 .ohm.m                                  : Potential Resistivity 
KS1                .ohm.m                                  : Extra Shallow Resistivity 
KS2                .ohm.m                                  : Shallow Resistivity 
KS3                .ohm.m                                  : Medium Resistivity 
KS4                .ohm.m                                  : Deep Resistivity 
KS5                .ohm.m                                  : Extra Deep Resistivity 
LLD                .ohm.m                                  : Lateral Log Resistivity 
OKS3               .ohm.m                                  : Medium Resistivity Inverted 
RM                 .ohm.m                                  : Mud Resistivity 
SP                 .mV                                     : Spontaneous Potential 
~Ascii
# ...
2636.2     5.9073     1.9511     6.4068     10.0388    9.1942     4.8416     4.8439     10.6319    0.351      68.437    
2636.4     5.8703     1.9511     6.3713     10.0227    9.2373     4.8808     4.8711     10.7832    0.351      69.3886   
2636.6     5.9145     1.9511     6.4239     9.9774     9.2752     4.8951     4.8425     10.837     0.35       69.8349   
2636.8     5.9231     1.9511     6.4239     9.9691     9.3001     4.9483     4.8249     10.8362    0.345      69.207    
2637       5.9231     1.9511     6.4716     9.9155     9.3001     4.9545     4.8977     10.7834    0.345      70.5312   
2637.2     5.9231     1.9511     6.4742     9.9155     9.3001     5.0017     4.8754     10.7571    0.345      68.4853   
2637.4     5.9231     1.9511     6.4514     9.8445     9.2518     5.0031     4.8633     10.6926    0.345      71.9215   
2637.6     5.9231     1.9511     6.402      9.8084     9.1557     5.055      4.7605     10.627     0.345      72.2681   
2637.8     5.9231     1.9511     6.4075     9.8084     9.0978     5.055      4.7128     10.5253    0.345      73.128    
2638       5.9231     1.9511     6.4286     9.8525     9.1365     5.055      4.7324     10.4385    0.345      71.3897   
2638.2     5.8993     1.9511     6.4766     9.9104     9.1412     5.055      4.7685     10.3679    0.345      69.2835   
2638.4     5.9197     1.9511     6.4766     9.8606     9.1281     5.0841     4.709      10.2332    0.351      72.9156   
2638.6     5.9231     1.9021     6.3888     9.7955     9.0205     5.1084     4.6811     10.05      0.348      67.2425   
2638.8     5.9231     1.8632     6.2901     9.7776     9.0154     5.1084     4.7611     9.8992     0.351      73.0609   
2639       5.8747     1.9116     6.4263     9.8904     9.0727     5.1275     4.9134     9.8255     0.351      67.7914   
2639.2     5.8696     1.9047     6.4463     10.0066    9.0883     5.1682     4.748      9.6528     0.351      71.7405   
2639.4     5.8696     1.897      6.3718     9.9811     9.0636     5.2151     4.7252     9.5295     0.352      72.051    
2639.6     5.8696     1.897      6.3305     9.9952     9.0707     5.2693     4.786      9.4453     0.351      69.0568   
2639.8     5.8696     1.9511     6.4711     10.1577    9.2921     5.3505     4.8384     9.5006     0.351      71.5797   
2640       5.8161     1.9511     6.5135     10.237     9.3988     5.4168     4.951      9.5506     0.351      69.2136   
2640.2     5.8161     1.9511     6.5148     10.237     9.406      5.4395     4.6931     9.5508     0.353      71.2113   
2640.4     5.7829     1.9952     6.5025     10.237     9.4589     5.5037     3.9093     9.5644     0.353      69.9966   
2640.6     5.7198     2.0052     6.5293     10.2763    9.5368     5.5672     3.6712     9.5313     0.357      65.2772   
2640.8     5.6488     2.0431     6.6303     10.3539    9.6645     5.5885     3.7033     9.497      0.357      70.2381   
2641       5.5286     2.0594     6.7732     10.3685    9.7216     5.5885     3.7753     9.5541     0.357      65.5876   
2641.2     5.4448     2.0367     6.6885     10.2155    9.6129     5.5885     4.0949     9.7673     0.356      69.755    
2641.4     5.3833     1.9737     6.4009     9.9105     9.3653     5.5536     4.5122     10.0356    0.351      67.8832   
2641.6     5.3806     1.8596     6.159      9.5373     9.0875     5.4739     4.6218     10.2741    0.351      73.2185   
2641.8     5.4198     1.8003     5.9222     9.2054     8.849      5.4242     4.4986     10.3606    0.351      65.1006   
2642       5.4853     1.7887     5.7657     9.0091     8.7129     5.3751     4.472      10.349     0.351      69.5843   
2642.2     5.5605     1.7894     5.7392     8.9511     8.6188     5.3751     4.7069     10.1022    0.351      67.6687   
2642.4     5.6493     1.8428     5.7806     8.9034     8.5616     5.3751     4.9037     9.8529     0.351      71.3606   
2642.6     5.6923     1.8638     5.8001     8.8976     8.5588     5.4009     4.9432     9.7149     0.347      67.7149   
2642.8     5.752      1.897      5.9322     8.8976     8.5588     5.4656     4.9923     9.5947     0.351      68.9295   
2643       5.7795     1.897      5.9601     8.8976     8.5113     5.5307     4.6908     9.4333     0.351      67.7134   
2643.2     5.8161     1.897      6.0663     8.9287     8.5951     5.5915     4.6731     9.2975     0.351      64.9546   
2643.4     5.8161     1.9432     6.2987     9.0463     8.7193     5.6755     4.8576     9.2201     0.351      68.1241   
2643.6     5.7726     2.0015     6.3764     9.2546     8.8422     5.8353     4.7804     9.1754     0.352      67.6101   
2643.8     5.741      2.0052     6.5208     9.4286     8.9638     5.9719     4.064      9.2145     0.355      68.5221   
2644       5.6595     2.0052     6.582      9.7042     9.1326     6.0952     3.7386     9.3231     0.351      64.555    
2644.2     5.5591     2.0346     6.7472     10.0023    9.3523     6.1754     3.604      9.3362     0.351      67.8323   
2644.4     5.4379     2.1108     6.8898     10.2387    9.406      6.1754     3.6076     9.3362     0.351      66.5213   
2644.6     5.3624     2.048      6.7468     10.1775    9.2228     6.1064     3.6603     9.3812     0.351      63.9596   
2644.8     5.2454     1.9823     6.4835     9.8995     8.9676     5.9596     3.7348     9.5181     0.351      61.9692   
2645       5.1847     1.912      6.2135     9.5383     8.536      5.762      3.9853     9.802      0.351      66.758    
2645.2     5.1963     1.8024     5.939      9.2264     8.2275     5.5767     4.1548     10.0692    0.351      65.5807   
2645.4     5.2278     1.7887     5.7701     8.9837     8.0326     5.4562     4.2396     10.3124    0.351      71.7957   
2645.6     5.2906     1.7887     5.7012     8.8018     7.9104     5.3414     4.3111     10.5534    0.351      71.2223   
2645.8     5.3565     1.7887     5.6239     8.6672     7.8379     5.2744     4.4688     10.6733    0.351      75.9641   
2646       5.4714     1.7887     5.5812     8.5457     7.7645     5.2119     4.7526     10.6662    0.351      67.5436   
2646.2     5.5399     1.8371     5.6295     8.4689     7.7645     5.1558     4.7649     10.6435    0.348      72.8236   
2646.4     5.6166     1.8428     5.6718     8.4266     7.7645     5.1084     4.5684     10.6762    0.346      67.1408   
2646.6     5.6833     1.8556     5.7906     8.4438     7.7645     5.0566     4.4789     10.6364    0.351      71.6028   
2646.8     5.7091     1.9214     5.9965     8.5076     7.8038     5.055      4.5226     10.5563    0.351      64.6857   
2647       5.7526     1.9511     6.129      8.5862     7.8175     5.0221     4.3298     10.4915    0.351      71.9235   
2647.2     5.7626     1.9511     6.1606     8.649      7.8647     4.9577     4.5516     10.4618    0.351      67.7538   
2647.4     5.7626     1.9511     6.2291     8.6832     7.8189     4.9463     4.9505     10.4234    0.351      69.0936   
2647.6     5.7641     1.9233     6.1818     8.7754     7.8175     4.9166     4.9242     10.4248    0.351      68.384    
2647.8     5.8161     1.897      6.1669     8.8719     7.8175     4.895      4.5689     10.4618    0.351      68.2055   
2648       5.8161     1.9378     6.2805     9.1057     7.9498     4.895      4.5787     10.371     0.349      68.1482   
2648.2     5.8663     1.9728     6.4308     9.3463     8.0293     4.895      4.7105     10.2474    0.355      69.9573   
2648.4     5.8696     1.9873     6.3888     9.4738     8.0545     4.895      4.6781     10.1257    0.351      68.5372   
2648.6     5.8696     1.9517     6.3597     9.4869     8.0293     4.8851     4.983      10.0045    0.351      66.5728   
2648.8     5.8696     1.9511     6.3836     9.5725     8.0304     4.8416     4.8644     9.8882     0.351      66.3931   
2649       5.8696     1.9511     6.4239     9.6926     8.1317     4.8416     4.52       9.8081     0.346      65.5649   
2649.2     5.8161     1.9864     6.5212     9.8133     8.2504     4.8054     4.3629     9.5565     0.351      65.689    
2649.4     5.7697     2.0052     6.6346     9.9087     8.3277     4.7883     4.209      9.3049     0.351      68.1975   
