~Version
 VERS              .         2.0                           : CWLS LOG ASCII STANDARD - VERSION 2.0
 WRAP              .         NO                            : ONE LINE PER DEPTH STEP
 DLM               .         SPACE                         : DELIMITING CHARACTER(SPACE TAB OR COMMA)
~Well Information
#_______________________________________________________________________________
#
#PARAMETER_NAME    .UNIT     VALUE                         : DESCRIPTION
#_______________________________________________________________________________
STRT               .m        2500                          : First reference value
STOP               .m        2709.600105                   : Last reference value
STEP               .m        0.2000001                     : Step increment
NULL               .         -9999                         : Missing value
COMP               .                                       : Company
WELL               .         400                           : Well name
FLD                .                                       : Field
LOC                .                                       : Location
CNTY               .                                       : County
STAT               .                                       : State
CTRY               .                                       : Country
SRVC               .                                       : Service Company
DATE               .                                       : Date
API                .                                       : API number
EREF               .m        140.4                         : 
Pad                .         4                             : 
X                  .m        222100                        : 
Y                  .m        250025                        : 
group              .         Pad4                          : 
Интер-р            .         Ярышев                        : 
Куст               .         4                             : 
Статус             .         Не проверено                  : 
Тип                .         Разобраться                   : 
~Parameter Information Block
#_______________________________________________________________________________
#
#PARAMETER_NAME    .UNIT     VALUE                         : DESCRIPTION
#_______________________________________________________________________________
SET                .         LAS1                          : 
REAL_CREATION_DATE .         Ср апр 11 2012-13_17_12       : 
TLFamily_DEPTH     .         Measured Depth                : 
TLFamily_KS        .         Potential Resistivity         : 
TLFamily_KS1       .         Extra Shallow Resistivity     : 
TLFamily_KS2       .         Shallow Resistivity           : 
TLFamily_KS3       .         Medium Resistivity            : 
TLFamily_KS4       .         Deep Resistivity              : 
TLFamily_KS5       .         Extra Deep Resistivity        : 
TLFamily_LLD       .         Lateral Log Resistivity       : 
TLFamily_OKS       .         Medium Resistivity Inverted   : 
TLFamily_RM        .         Mud Resistivity               : 
TLFamily_SP        .         Spontaneous Potential         : 
group              .         INI                           : 
~Curve Information
#_______________________________________________________________________________
#
#LOGNAME           .UNIT     LOG_ID                        : DESCRIPTION
#_______________________________________________________________________________
DEPTH              .m                                      : Measured Depth 
KS                 .ohm.m                                  : Potential Resistivity 
KS1                .ohm.m                                  : Extra Shallow Resistivity 
KS2                .ohm.m                                  : Shallow Resistivity 
KS3                .ohm.m                                  : Medium Resistivity 
KS4                .ohm.m                                  : Deep Resistivity 
KS5                .ohm.m                                  : Extra Deep Resistivity 
LLD                .ohm.m                                  : Lateral Log Resistivity 
OKS                .ohm.m                                  : Medium Resistivity Inverted 
RM                 .ohm.m                                  : Mud Resistivity 
SP                 .mV                                     : Spontaneous Potential 
~Ascii
# ...
2684.800092 19.7712    7.6814     16.4285    11.3957    12.1625    24.2545    9.534      20.126     0.5938     76.3944   
2685.000092 20.0495    7.8644     18.2605    10.8071    10.3086    20.6314    8.7738     15.7646    0.5601     78.0663   
2685.200093 20.1989    8.1018     19.3046    10.7747    9.007      18.8264    8.4406     13.8153    0.5736     80.604    
2685.400093 20.2532    8.4137     19.449     11.1758    8.0669     18.8918    9.2844     12.3097    0.5837     81.9634   
2685.600093 20.2034    8.1583     18.8274    12.1891    8.1107     20.8668    10.4709    12.4015    0.5837     82.2226   
2685.800093 19.9952    7.9255     19.2914    14.2223    8.9873     24.5422    10.4367    14.0226    0.5567     83.2262   
2686.000093 19.8934    7.9255     20.7295    20.1956    10.8608    30.5589    9.398      16.4024    0.5736     85.6247   
2686.200093 19.8255    8.3391     23.6253    33.8984    13.8454    36.6409    7.8878     19.4104    0.5871     87.0463   
2686.400093 19.5947    8.9358     28.8193    47.8308    17.7832    42.3306    5.6533     22.6127    0.5922     86.3056   
2686.600093 18.3185    10.5701    34.0133    60.7734    21.9971    44.528     3.0862     24.5619    0.5635     85.3204   
2686.800093 15.2908    13.513     39.424     66.5135    23.8838    41.9055    4.7504     24.5878    0.577      86.5194   
2687.000093 13.3154    14.598     40.3564    62.1696    21.6684    34.025     12.6172    21.8744    0.5905     89.0917   
2687.200094 11.4282    11.5669    31.4261    50.6269    17.0929    26.151     19.679     16.5093    0.5905     90.0667   
2687.400094 9.7175     9.2817     25.5952    35.6157    13.4707    17.7669    21.9571    10.775     0.5669     88.7      
2687.600094 8.9368     7.1999     20.3749    23.7951    11.2421    11.9988    22.2719    8.5894     0.5652     86.1653   
2687.800094 8.4243     6.393      17.3741    18.3748    9.9668     8.4019     22.083     7.7767     0.577      84.1264   
2688.000094 7.9797     5.8912     14.5636    14.7721    9.3587     5.9429     21.7663    7.7475     0.5854     81.8028   
2688.200094 7.7522     5.6199     12.0027    12.5923    8.961      3.6539     21.3405    7.6666     0.5736     79.6569   
2688.400094 7.5723     5.386      10.8733    11.3828    8.2313     2.8168     20.2576    7.3914     0.5601     78.0264   
2688.600094 7.5045     5.2741     10.2265    10.7133    7.2255     2.2544     18.9922    7.304      0.5736     75.9389   
2688.800094 7.5011     5.3657     9.6979     10.2702    6.2328     1.8882     18.6358    7.304      0.582      75.3611   
2689.000095 7.4603     5.3216     9.0741     10.005     5.5162     1.6135     19.0752    7.3007     0.5905     77.5      
2689.200095 7.406      5.2877     8.8837     9.9468     5.2007     1.4435     18.7531    7.304      0.577      80.6111   
2689.400095 7.3415     5.1487     9.3171     10.3187    5.25       1.3388     17.175     7.304      0.5534     84.2833   
2689.600095 7.3721     5.3216     9.8129     10.5354    5.3782     1.2473     16.0212    7.2975     0.5719     88.7611   
2689.800095 7.5282     5.4538     9.9179     10.3673    5.365      1.1557     15.8427    7.2942     0.5837     92.7153   
2690.000095 7.5757     5.6878     9.7702     9.8821     5.4505     1.0772     15.9541    7.2975     0.5804     94.5589   
2690.200095 7.5893     5.7081     9.5568     9.3906     5.6872     1.0511     15.9338    7.3007     0.5804     95.0734   
2690.400095 7.5859     5.6233     9.5042     8.8408     6.1408     0.9988     15.5016    7.3007     0.5804     95.1936   
2690.600095 7.5995     5.6471     9.8129     8.3557     6.7324     0.9334     14.7213    7.2975     0.5635     95.232    
2690.800095 7.6131     5.6538     9.757      7.8641     7.3504     0.8941     14.3411    7.2942     0.5534     94.4264   
2691.000096 7.6742     5.6572     9.455      7.2367     7.4621     0.8418     14.3777    7.3007     0.5551     92.5084   
2691.200096 7.681      5.6369     9.455      6.6319     7.7382     0.8549     14.2517    -9999      0.5551     90.5043   
2691.400096 7.681      5.6301     9.4517     6.4896     8.2806     0.8941     13.4353    -9999      0.5534     89.4019   
2691.600096 7.681      5.6335     9.4222     6.8906     8.7506     0.9464     12.0202    -9999      0.5534     89.1216   
2691.800096 7.681      5.6267     9.455      7.7024     8.7309     1.0118     11.8974    -9999      0.5534     88.9857   
2692.000096 7.681      5.6267     9.455      7.9676     8.0735     1.1426     13.1378    -9999      0.5567     89.396    
2692.200096 7.681      5.6301     9.455      7.8964     7.4227     1.2996     14.0441    -9999      0.5551     90.6746   
2692.400096 7.681      5.6403     9.455      7.89       6.8244     1.6135     14.2512    -9999      0.5534     91.7778   
2692.600096 7.681      5.6335     9.455      7.89       6.4596     1.7966     14.2321    -9999      0.5534     91.3875   
2692.800096 7.681      5.6335     9.455      7.89       6.2427     1.9405     14.2738    -9999      0.5534     90.5528   
2693.000096 7.681      5.6369     9.455      7.8705     6.0947     2.0321     14.1269    -9999      0.5534     91.381    
2693.200097 7.681      5.6369     9.455      7.877      5.96       2.1236     13.8905    -9999      0.5534     92.8306   
2693.400097 7.681      5.6369     9.455      7.877      5.8877     2.189      13.878     -9999      0.5534     93.2384   
2693.600097 7.6793     5.6369     9.455      7.8738     5.8877     2.2937     14.037     -9999      -9999      93.1796   
2693.800097 -9999      5.6403     9.455      7.877      5.9764     2.4637     14.1458    -9999      -9999      93.491    
2694.000097 -9999      -9999      9.455      7.877      6.0816     2.6337     14.1057    -9999      -9999      94.131    
2694.200097 -9999      -9999      9.455      7.877      6.144      2.8692     14.0206    -9999      -9999      94.4359   
2694.400097 -9999      -9999      9.455      7.877      6.1473     3.2223     14.0463    -9999      -9999      94.4657   
2694.600097 -9999      -9999      -9999      7.877      6.1473     3.7324     14.0678    -9999      -9999      94.6878   
2694.800097 -9999      -9999      -9999      7.8738     6.1539     4.4256     14.045     -9999      -9999      95.5707   
2695.000097 -9999      -9999      -9999      7.877      6.1605     5.9429     13.8935    -9999      -9999      97.0472   
2695.200098 -9999      -9999      -9999      7.877      6.1605     7.0808     13.6785    -9999      -9999      97.8296   
2695.400098 -9999      -9999      -9999      7.877      6.1605     8.1926     13.6808    -9999      -9999      98.1249   
2695.600098 -9999      -9999      -9999      7.877      6.1605     9.3894     14.029     -9999      -9999      98.6173   
2695.800098 -9999      -9999      -9999      -9999      6.1605     10.1022    14.5839    -9999      -9999      99.4531   
2696.000098 -9999      -9999      -9999      -9999      6.1605     10.4292    15.2112    -9999      -9999      100.3864  
2696.200098 -9999      -9999      -9999      -9999      6.1605     11.044     15.8925    -9999      -9999      100.9004  
2696.400098 -9999      -9999      -9999      -9999      6.1605     11.868     16.901     -9999      -9999      100.9833  
2696.600098 -9999      -9999      -9999      -9999      6.1605     14.5362    17.322     -9999      -9999      100.8252  
2696.800098 -9999      -9999      -9999      -9999      6.1605     18.5321    16.3696    -9999      -9999      100.6737  
2697.000099 -9999      -9999      -9999      -9999      6.1605     25.6409    14.8897    -9999      -9999      100.6069  
2697.200099 -9999      -9999      -9999      -9999      6.1605     36.2747    13.4408    -9999      -9999      100.568   
2697.400099 -9999      -9999      -9999      -9999      6.1605     41.0946    12.309     -9999      -9999      100.5428  
2697.600099 -9999      -9999      -9999      -9999      6.1605     41.2777    13.0392    -9999      -9999      100.5795  
2697.800099 -9999      -9999      -9999      -9999      -9999      39.0868    17.1426    -9999      -9999      100.7314  
