~Version
 VERS              .         2.0                           : CWLS LOG ASCII STANDARD - VERSION 2.0
 WRAP              .         NO                            : ONE LINE PER DEPTH STEP
 DLM               .         SPACE                         : DELIMITING CHARACTER(SPACE TAB OR COMMA)
~Well Information
#_______________________________________________________________________________
#
#PARAMETER_NAME    .UNIT     VALUE                         : DESCRIPTION
#_______________________________________________________________________________
STRT               .m        2500                          : First reference value
STOP               .m        2709                          : Last reference value
STEP               .m        0.2                           : Step increment
NULL               .         -9999                         : Missing value
COMP               .                                       : Company
WELL               .         400                           : Well name
FLD                .                                       : Field
LOC                .                                       : Location
CNTY               .                                       : County
STAT               .                                       : State
CTRY               .                                       : Country
SRVC               .                                       : Service Company
DATE               .                                       : Date
API                .                                       : API number
EREF               .m        140.4                         : 
Pad                .         4                             : 
X                  .m        222100                        : 
Y                  .m        250025                        : 
group              .         Pad4                          : 
Интер-р            .         Ярышев                        : 
Куст               .         4                             : 
Статус             .         Не проверено                  : 
Тип                .         Разобраться                   : 
~Parameter Information Block
#_______________________________________________________________________________
#
#PARAMETER_NAME    .UNIT     VALUE                         : DESCRIPTION
#_______________________________________________________________________________
SET                .         LAS3                          : 
REAL_CREATION_DATE .         Ср апр 11 2012-13_17_12       : 
TLFamily_DEPTH     .         Measured Depth                : 
TLFamily_GR        .         Gamma Ray                     : 
TLFamily_TNPH      .         Neutron Porosity              : 
group              .         INI                           : 
~Curve Information
#_______________________________________________________________________________
#
#LOGNAME           .UNIT     LOG_ID                        : DESCRIPTION
#_______________________________________________________________________________
DEPTH              .m                                      : Measured Depth 
GR                 .gAPI                                   :  
TNPH               .v/v                                    : Neutron Porosity 
~Ascii
2500.0     47.034     0.3056    
2500.2     41.641     0.3184    
2500.4     42.406     0.3012    
2500.6     44.649     0.2805    
2500.8     47.566     0.2705    
2501       48.407     0.2642    
2501.2     47.43      0.254     
2501.4     46.829     0.2648    
2501.6     48.859     0.2933    
2501.8     50.368     0.2901    
2502       45.758     0.2707    
2502.2     46.148     0.2666    
2502.4     48.984     0.2656    
2502.6     48.094     0.2352    
2502.8     47.656     0.2341    
2503       46.934     0.2492    
2503.2     40.891     0.3009    
2503.4     37.906     0.3109    
2503.6     34.024     0.3031    
2503.8     27.899     0.2787    
2504       22.188     0.3269    
2504.2     25.804     0.3064    
2504.4     33.836     0.2872    
2504.6     43.023     0.2966    
2504.8     51.18      0.308     
2505       54.406     0.3143    
2505.2     57.219     0.3346    
2505.4     58.688     0.3391    
2505.6     58.203     0.3414    
2505.8     57.086     0.3367    
2506       58.289     0.3099    
2506.2     52.206     0.2949    
2506.4     46.414     0.2995    
2506.6     45.844     0.3016    
2506.8     47.928     0.2676    
2507       48.852     0.2555    
2507.2     50.664     0.2899    
2507.4     51.297     0.3047    
2507.6     52.289     0.281     
2507.8     51.267     0.2803    
2508       50.625     0.2675    
2508.2     50.719     0.2706    
2508.4     51.336     0.3018    
2508.6     52.289     0.2827    
2508.8     52.578     0.2588    
2509       50.703     0.2631    
2509.2     50.781     0.2875    
2509.4     50.664     0.2836    
2509.6     50.391     0.2615    
2509.8     54.648     0.2815    
2510       55.469     0.2728    
2510.2     55.156     0.2816    
2510.4     51.985     0.2935    
2510.6     48.203     0.2842    
2510.8     50.313     0.2439    
2511       49.208     0.2232    
2511.2     48.219     0.2431    
2511.4     45.125     0.2526    
2511.6     44.031     0.2713    
2511.8     45.167     0.2845    
2512       46.156     0.2888    
2512.2     51         0.2887    
2512.4     46.719     0.2784    
2512.6     48.414     0.2526    
2512.8     48.914     0.2477    
2513       46.813     0.2746    
2513.2     48.656     0.2789    
2513.4     49.406     0.2918    
2513.6     50.086     0.3144    
2513.8     48.141     0.3006    
2514       48.446     0.3231    
2514.2     51.266     0.3611    
2514.4     51.234     0.3508    
2514.6     47.026     0.3388    
2514.8     44.839     0.2937    
2515       47.266     0.2684    
2515.2     44.867     0.2751    
2515.4     41.008     0.2959    
2515.6     38.847     0.3208    
2515.8     35.992     0.3708    
2516       32.891     0.3742    
2516.2     35.745     0.334     
2516.4     50.883     0.2969    
2516.6     72.836     0.2642    
2516.8     79.688     0.2802    
2517       80.766     0.3035    
2517.2     84.657     0.304     
2517.4     88.984     0.287     
2517.6     88.672     0.2709    
2517.8     90.674     0.2521    
2518       96.524     0.2499    
2518.2     100.055    0.2461    
2518.4     100.992    0.2313    
2518.6     93.247     0.2205    
2518.8     90.859     0.2475    
2519       95.531     0.2714    
2519.2     95.976     0.2606    
2519.4     94.508     0.2508    
2519.6     92.266     0.2283    
2519.8     94.141     0.2375    
2520       93         0.2539    
2520.2     93.937     0.2775    
2520.4     95.446     0.2952    
2520.6     92.172     0.2922    
2520.8     91.031     0.2615    
2521       89.922     0.2293    
2521.2     89.922     0.2173    
2521.4     88.961     0.2224    
2521.6     85.703     0.2532    
2521.8     88.727     0.2963    
2522       90.078     0.3106    
2522.2     87.5       0.3182    
2522.4     89.063     0.3175    
2522.6     86.189     0.3053    
2522.8     82.891     0.3004    
2523       84.19501   0.2946    
2523.2     88.292     0.271     
2523.4     88.359     0.2509    
2523.6     87.266     0.252     
2523.8     89.039     0.2584    
2524       88.44499   0.2662    
2524.2     85.859     0.2816    
2524.4     85.859     0.2658    
2524.6     86.031     0.2543    
2524.8     83.984     0.2496    
2525       86.14      0.2695    
2525.2     86.52      0.2535    
2525.4     84.789     0.2665    
2525.6     86.14101   0.2598    
2525.8     88.031     0.279     
2526       89.453     0.2579    
2526.2     90.164     0.2348    
2526.4     91.196     0.2472    
2526.6     92.51601   0.2545    
2526.8     86.258     0.2481    
2527       84.187     0.2272    
2527.2     89.086     0.2647    
2527.4     91.469     0.3097    
2527.6     90.875     0.3039    
2527.8     89.265     0.2604    
2528       89.015     0.2531    
2528.2     89.609     0.2405    
2528.4     89.094     0.2223    
2528.6     87.891     0.2224    
2528.8     87.414     0.2489    
2529       87.734     0.2529    
2529.2     89.44199   0.2541    
2529.4     89.453     0.266     
2529.6     88.313     0.2609    
2529.8     87.266     0.2423    
2530       88.9       0.2395    
2530.2     90.922     0.2522    
2530.4     92.67999   0.2483    
2530.6     86.758     0.2191    
2530.8     83.562     0.2273    
2531       85.235     0.2313    
2531.2     89.375     0.234     
2531.4     86.922     0.2605    
2531.6     84.875     0.2699    
2531.8     80.5       0.2719    
2532       80.78101   0.2556    
2532.2     82.93      0.2585    
2532.4     86.845     0.2599    
2532.6     89.766     0.2657    
2532.8     88.648     0.2418    
2533       87.305     0.2375    
2533.2     88.75      0.2383    
2533.4     88.945     0.244     
2533.6     89.813     0.247     
2533.8     90.289     0.2588    
2534       84.678     0.2671    
2534.2     83.22601   0.2618    
2534.4     89.469     0.2542    
2534.6     90.508     0.2584    
2534.8     92.597     0.265     
2535       92.453     0.2469    
2535.2     90.859     0.2401    
2535.4     92.505     0.2384    
2535.6     97.03101   0.2506    
2535.8     92.813     0.2464    
2536       91.875     0.2648    
2536.2     99.883     0.271     
2536.4     100.859    0.2914    
2536.6     95.27299   0.2803    
2536.8     86.46201   0.2604    
2537       85.772     0.2742    
2537.2     88.984     0.273     
2537.4     86.25      0.266     
2537.6     81.25      0.2382    
2537.8     82.96899   0.2383    
2538       81.016     0.2469    
2538.2     82.117     0.2342    
2538.4     83.258     0.237     
2538.6     87.85699   0.259     
2538.8     94.696     0.2628    
2539       95.891     0.2686    
2539.2     91.25      0.2708    
2539.4     92.562     0.2525    
2539.6     95.336     0.2689    
2539.8     95.672     0.2494    
2540       96.625     0.2605    
2540.2     97.781     0.2585    
2540.4     105.422    0.2325    
2540.6     108.125    0.2346    
2540.8     106.008    0.2637    
2541       102.266    0.2684    
2541.2     104.156    0.2681    
2541.4     106.875    0.2639    
2541.6     102.147    0.2617    
2541.8     97.345     0.2588    
2542       100.234    0.2411    
2542.2     92.061     0.2418    
2542.4     89.141     0.2516    
2542.6     87.187     0.2532    
2542.8     89         0.2595    
2543       93.605     0.2487    
2543.2     98.28101   0.2467    
2543.4     97.758     0.2488    
2543.6     92.53899   0.2259    
2543.8     89.992     0.2089    
2544       83.71899   0.1912    
2544.2     81.071     0.1997    
2544.4     77.359     0.2204    
2544.6     71.188     0.2282    
2544.8     65.313     0.2262    
2545       70.336     0.2215    
2545.2     84.819     0.2422    
2545.4     88.664     0.2346    
2545.6     89.719     0.2238    
2545.8     81.367     0.2157    
2546       79.636     0.2305    
2546.2     84.469     0.2411    
2546.4     86.242     0.2293    
2546.6     81.813     0.2107    
2546.8     74.088     0.2161    
2547       66.563     0.2234    
2547.2     73.063     0.2185    
2547.4     73.28101   0.2121    
2547.6     76.40601   0.2424    
2547.8     83.227     0.2664    
2548       86.781     0.2795    
2548.2     86.156     0.2743    
2548.4     94.87601   0.2732    
