~Version
 VERS              .         2.0                           : CWLS LOG ASCII STANDARD - VERSION 2.0
 WRAP              .         NO                            : ONE LINE PER DEPTH STEP
 DLM               .         SPACE                         : DELIMITING CHARACTER(SPACE TAB OR COMMA)
~Well Information
#_______________________________________________________________________________
#
#PARAMETER_NAME    .UNIT     VALUE                         : DESCRIPTION
#_______________________________________________________________________________
STRT               .m        2500                          : First reference value
STOP               .m        2709.600105                   : Last reference value
STEP               .m        0.2000001                     : Step increment
NULL               .         -9999                         : Missing value
COMP               .                                       : Company
WELL               .         400                           : Well name
FLD                .                                       : Field
LOC                .                                       : Location
CNTY               .                                       : County
STAT               .                                       : State
CTRY               .                                       : Country
SRVC               .                                       : Service Company
DATE               .                                       : Date
API                .                                       : API number
EREF               .m        140.4                         : 
Pad                .         4                             : 
X                  .m        222100                        : 
Y                  .m        250025                        : 
group              .         Pad4                          : 
Интер-р            .         Ярышев                        : 
Куст               .         4                             : 
Статус             .         Не проверено                  : 
Тип                .         Разобраться                   : 
~Parameter Information Block
#_______________________________________________________________________________
#
#PARAMETER_NAME    .UNIT     VALUE                         : DESCRIPTION
#_______________________________________________________________________________
SET                .         LAS1                          : 
REAL_CREATION_DATE .         Ср апр 11 2012-13_17_12       : 
TLFamily_DEPTH     .         Measured Depth                : 
TLFamily_KS        .         Potential Resistivity         : 
TLFamily_KS1       .         Extra Shallow Resistivity     : 
TLFamily_KS2       .         Shallow Resistivity           : 
TLFamily_KS3       .         Medium Resistivity            : 
TLFamily_KS4       .         Deep Resistivity              : 
TLFamily_KS5       .         Extra Deep Resistivity        : 
TLFamily_LLD       .         Lateral Log Resistivity       : 
TLFamily_OKS       .         Medium Resistivity Inverted   : 
TLFamily_RM        .         Mud Resistivity               : 
TLFamily_SP        .         Spontaneous Potential         : 
group              .         INI                           : 
~Curve Information
#_______________________________________________________________________________
#
#LOGNAME           .UNIT     LOG_ID                        : DESCRIPTION
#_______________________________________________________________________________
DEPTH              .m                                      : Measured Depth 
KS                 .ohm.m                                  : Potential Resistivity 
KS1                .ohm.m                                  : Extra Shallow Resistivity 
KS2                .ohm.m                                  : Shallow Resistivity 
KS3                .ohm.m                                  : Medium Resistivity 
KS4                .ohm.m                                  : Deep Resistivity 
KS5                .ohm.m                                  : Extra Deep Resistivity 
LLD                .ohm.m                                  : Lateral Log Resistivity 
OKS                .ohm.m                                  : Medium Resistivity Inverted 
RM                 .ohm.m                                  : Mud Resistivity 
SP                 .mV                                     : Spontaneous Potential 
~Ascii
# ...
2618.800059 6.4115     3.8433     5.9288     4.0608     4.1587     9.409      16.491     6.6596     0.5837     90.9377   
2619.00006 6.605      3.8637     6.7365     4.8305     6.0816     13.1367    17.0892    8.6606     0.5837     91.1316   
2619.20006 7.3958     4.3316     7.5967     6.9003     9.4737     17.5969    15.1628    11.5359    0.577      91.4358   
2619.40006 7.6877     5.2673     9.1792     9.8045     13.6679    21.233     12.7688    13.7085    0.577      91.8649   
2619.60006 7.8235     7.227      11.8583    11.7126    14.9301    22.0178    10.8583    11.6524    0.5871     92.5274   
2619.80006 8.3191     6.7117     10.1018    10.5031    12.9316    21.063     8.6067     8.8225     0.5804     93.121    
2620.00006 8.1562     6.6846     10.0788    8.3815     9.4836     17.5838    10.0668    6.5949     0.5938     92.8804   
2620.20006 8.0272     6.298      9.8424     7.1138     6.9428     12.1688    12.7202    5.5069     0.604      92.145    
2620.40006 7.9457     5.8369     9.8227     5.9042     5.6937     10.3638    13.538     4.9953     0.6141     91.731    
2620.60006 7.8846     5.6199     10.243     5.2057     4.9772     9.1997     14.0651    4.8334     0.6175     91.5079   
2620.80006 7.9932     5.4843     10.046     4.9081     4.6353     8.8073     14.1253    4.9112     0.6141     91.2576   
2621.000061 8.1358     5.3894     9.7111     5.0375     4.6682     9.0689     13.9975    5.4163     0.604      91.0898   
2621.200061 8.2376     5.6471     10.2988    5.943      5.1021     10.1807    13.5202    5.9473     0.604      91.0208   
2621.400061 8.353      5.8708     10.9587    7.7347     6.1276     10.9982    12.3962    6.9186     0.6073     91.0517   
2621.600061 7.9389     6.5693     13.559     10.0503    7.3997     10.9655    11.269     7.2554     0.6141     91.2498   
2621.800061 7.4094     7.8984     14.3141    12.1848    7.0677     10.3769    9.5254     6.7373     0.6141     91.2517   
2622.000061 6.6559     7.6271     12.8629    11.7385    5.6411     9.1605     9.8973     5.5976     0.6073     90.5395   
2622.200061 5.9567     6.7456     11.7729    9.9145     4.3724     7.1593     13.5813    4.6845     0.6107     89.8661   
2622.400061 5.5358     5.5996     10.4203    7.5957     3.3929     5.6944     16.3007    4.1794     0.604      89.825    
2622.600061 5.1964     4.8333     9.1037     6.1888     2.7289     4.6611     18.3793    4.147      0.5938     90.1349   
2622.800061 4.9588     4.596      8.4306     5.4838     2.4133     3.9548     19.7746    4.1988     0.5905     90.5067   
2623.000061 4.8909     4.2909     7.4654     5.031      2.1833     3.4577     19.6249    4.2441     0.5837     90.8331   
2623.200062 4.8434     4.1485     6.7562     4.7335     2.1898     3.1046     19.2722    4.283      0.577      91.1233   
2623.400062 4.7687     4.2027     6.6314     4.5912     2.2819     2.8953     18.4587    4.1697     0.577      91.4199   
2623.600062 4.7687     4.2637     6.1784     4.5395     2.4265     2.7384     17.3046    3.9398     0.5736     91.9384   
2623.800062 4.6805     4.0942     5.85       4.4942     2.6829     2.6076     17.5921    3.9074     0.5702     92.4736   
2624.000062 4.6533     3.9654     5.7319     4.5589     2.8801     2.5291     18.3853    3.9463     0.5736     92.5836   
2624.200062 4.6669     3.8772     5.6629     4.5006     2.9721     2.516      18.3154    4.0758     0.577      92.4647   
2624.400062 4.7076     3.8298     5.8238     4.4554     3.143      2.516      17.8233    4.2701     0.5804     92.39     
2624.600062 4.7959     3.9993     5.8041     4.4295     3.2351     2.5552     17.0981    4.4255     0.5871     92.4569   
2624.800062 5.0301     3.8976     5.6399     4.3648     3.3008     2.6206     16.2749    4.5356     0.5871     92.4906   
2625.000062 5.0538     4.2976     5.9223     4.4424     3.4586     2.6337     15.8662    4.7428     0.5871     92.3334   
2625.200063 5.0606     4.474      6.2572     4.5847     3.6427     2.686      15.3823    4.9532     0.5972     91.8375   
2625.400063 5.1692     4.3655     6.2309     4.6559     3.7939     2.7384     14.6291    5.1637     0.5905     91.2751   
2625.600063 5.1557     4.6367     6.6905     4.7076     4.0108     2.7514     14.102     5.4033     0.604      91.0418   
2625.800063 5.1421     4.6842     6.6971     4.6882     4.3099     2.7514     13.676     5.5328     0.5938     90.8355   
2626.000063 5.1149     4.7045     6.7365     4.5265     4.5696     2.7253     13.5889    5.494      0.5905     90.6944   
2626.200063 5.0131     4.6231     6.7168     4.3907     4.5236     2.6599     13.8205    5.617      0.577      90.7251   
2626.400063 4.9113     4.6842     6.7825     4.2354     4.3198     2.6206     14.0892    6.0056     0.5736     90.9793   
2626.600063 4.8705     4.3926     6.6249     4.1061     4.1226     2.5945     14.5531    6.9316     0.5669     91.4486   
2626.800063 4.8637     4.1281     6.2342     3.9961     3.9648     2.5945     15.6429    7.9871     0.5635     91.864    
2627.000064 4.857      4.0061     6.29       4.0608     3.9779     2.6076     16.0848    9.2953     0.5601     91.9554   
2627.200064 4.9316     4.1417     6.4279     4.1514     4.0042     2.6664     15.3072    10.5321    0.5635     91.7345   
2627.400064 5.0538     4.2637     6.2703     4.1966     3.8695     2.8299     14.9145    11.633     0.5652     91.4457   
2627.600064 5.4408     4.0874     5.85       4.0931     3.7347     3.0392     15.5742    13.2001    0.5669     91.1723   
2627.800064 6.0042     3.6399     5.3182     4.1449     3.8728     3.1962     16.4367    15.5768    0.5669     90.63     
2628.000064 6.3572     4.4943     6.5001     4.5556     3.9056     3.3793     14.223     16.315     0.5837     89.1553   
2628.200064 7.0632     5.2063     7.3144     4.4554     3.5309     3.5493     9.8763     14.7284    0.5804     87.4903   
2628.400064 7.7488     5.2266     6.7956     3.8215     2.8012     3.4577     10.214     14.2427    0.577      85.8333   
2628.600064 8.1426     4.3858     5.9617     3.3946     2.3673     3.0784     14.4422    15.9847    0.5804     83.0417   
2628.800064 8.7264     4.2027     6.881      3.4657     2.3246     2.8561     15.2865    17.8238    0.5972     79.9361   
2629.000065 10.6       4.5892     8.4438     3.7633     2.387      2.8299     11.5157    18.2869    0.5938     75.5667   
2629.200065 12.2021    6.0505     9.7964     4.229      2.4594     2.8168     8.1527     17.688     0.604      68.6319   
2629.400065 13.0235    7.4576     10.499     4.824      2.558      2.8299     6.6871     17.3252    0.6073     60.6778   
2629.600065 13.4308    8.1967     11.5234    5.5549     2.65       2.8561     6.5594     17.0856    0.5938     54.0444   
2629.800065 13.4919    8.4815     14.0974    6.4928     2.7552     2.8953     7.1038     17.1827    0.6006     49.7653   
2630.000065 13.519     8.5629     16.3037    7.3919     2.9721     3          7.5982     17.377     0.6006     46.625    
2630.200065 13.553     8.4408     17.2624    8.6661     3.1825     3.2616     8.0742     17.6296    0.5871     44.0111   
2630.400065 13.6412    8.4001     17.8403    9.5781     3.3797     3.4054     8.5378     17.8821    0.577      42.3932   
2630.600065 13.7091    8.373      17.7746    9.9404     3.6295     3.5362     8.8504     17.9469    0.5669     41.7132   
2630.800065 13.6684    8.5019     17.9782    10.3931    3.9056     3.667      9.121      17.908     0.5635     41.5819   
2631.000065 13.6887    8.6036     18.3196    11.8808    4.254      3.7978     9.5388     17.785     0.5736     41.3937   
2631.200066 13.7974    8.1764     17.5382    13.0774    4.7208     3.9417     10.4942    18.0894    0.5804     40.7351   
2631.400066 14.035     8.0408     17.4397    13.7566    5.273      4.0987     11.3717    18.5556    0.577      39.7731   
2631.600066 14.5373    8.0543     17.4922    14.2999    5.9928     4.2752     11.3423    18.7952    0.5837     39.0569   
2631.800066 14.8032    8.2917     17.7286    14.675     6.9099     4.4649     10.9784    18.7305    0.5736     38.2403   
