~Version
 VERS              .         2.0                           : CWLS LOG ASCII STANDARD - VERSION 2.0
 WRAP              .         NO                            : ONE LINE PER DEPTH STEP
 DLM               .         SPACE                         : DELIMITING CHARACTER(SPACE TAB OR COMMA)
~Well Information
#_______________________________________________________________________________
#
#PARAMETER_NAME    .UNIT     VALUE                         : DESCRIPTION
#_______________________________________________________________________________
STRT               .m        2500                          : First reference value
STOP               .m        2708.600104                   : Last reference value
STEP               .m        0.2000001                     : Step increment
NULL               .         -9999                         : Missing value
COMP               .                                       : Company
WELL               .         400                           : Well name
FLD                .                                       : Field
LOC                .                                       : Location
CNTY               .                                       : County
STAT               .                                       : State
CTRY               .                                       : Country
SRVC               .                                       : Service Company
DATE               .                                       : Date
API                .                                       : API number
EREF               .m        140.4                         : 
Pad                .         4                             : 
X                  .m        222100                        : 
Y                  .m        250025                        : 
group              .         Pad4                          : 
Интер-р            .         Ярышев                        : 
Куст               .         4                             : 
Статус             .         Не проверено                  : 
Тип                .         Разобраться                   : 
~Parameter Information Block
#_______________________________________________________________________________
#
#PARAMETER_NAME    .UNIT     VALUE                         : DESCRIPTION
#_______________________________________________________________________________
SET                .         LAS4                          : 
REAL_CREATION_DATE .         Ср апр 11 2012-13_17_12       : 
TLFamily_DEPTH     .         Measured Depth                : 
TLFamily_RT        .         Resistivity 20                : 
TLFamily_SP        .         Spontaneous Potential         : 
group              .         INI                           : 
~Curve Information
#_______________________________________________________________________________
#
#LOGNAME           .UNIT     LOG_ID                        : DESCRIPTION
#_______________________________________________________________________________
DEPTH              .m                                      : Measured Depth 
RT                 .ohm.m                                  : Conductivity 
SP                 .mV                                     : Spontaneous Potential 
~Ascii
2500.0000000 -9999      62.0955   
2500.2     -9999      62.0278   
2500.4     -9999      61.9353   
2500.6     -9999      61.9121   
2500.8     -9999      62.0007   
2501.000001 -9999      62.2909   
2501.200001 -9999      62.7294   
2501.400001 -9999      61.8869   
2501.600001 -9999      59.2729   
2501.800001 -9999      57.3536   
2502.000001 -9999      56.8432   
2502.200001 -9999      56.6681   
2502.400001 -9999      56.2118   
2502.600001 -9999      54.8422   
2502.800001 -9999      53.1951   
2503.000002 -9999      52.5109   
2503.200002 -9999      52.4791   
2503.400002 -9999      52.7631   
2503.600002 -9999      54.0555   
2503.800002 -9999      55.6671   
2504.000002 -9999      57.9774   
2504.200002 -9999      65.2977   
2504.400002 -9999      73.3761   
2504.600002 -9999      76.8441   
2504.800002 -9999      78.2574   
2505.000002 -9999      79.3143   
2505.200003 -9999      81.5139   
2505.400003 -9999      85.3352   
2505.600003 -9999      88.3803   
2505.800003 -9999      89.7045   
2506.000003 -9999      89.8535   
2506.200003 -9999      89.5292   
2506.400003 -9999      88.8166   
2506.600003 -9999      87.8096   
2506.800003 -9999      87.0688   
2507.000003 -9999      86.5609   
2507.200004 -9999      86.0404   
2507.400004 -9999      84.819    
2507.600004 -9999      83.4795   
2507.800004 -9999      85.3149   
2508.000004 -9999      88.3643   
2508.200004 4.6455     89.5469   
2508.400004 4.6455     90.0448   
2508.600004 4.6455     90.4198   
2508.800004 4.6455     90.598    
2509.000005 4.6455     90.5894   
2509.200005 4.6455     90.2958   
2509.400005 4.6455     89.4999   
2509.600005 4.6455     88.7145   
2509.800005 4.6455     88.3874   
2510.000005 4.6455     88.2913   
2510.200005 4.6455     88.246    
2510.400005 4.6455     88.1731   
2510.600005 4.6455     88.0459   
2510.800005 4.6455     87.8595   
2511.000006 4.6455     87.5973   
2511.200006 4.6455     87.1211   
2511.400006 4.6455     86.6222   
2511.600006 4.6455     86.5368   
2511.800006 4.6455     86.6374   
2512.000006 4.6455     86.6517   
2512.200006 4.6455     86.56     
2512.400006 4.6455     86.3608   
2512.600006 4.6455     86.0755   
2512.800006 4.6455     85.7939   
2513.000006 4.6455     85.5914   
2513.200007 4.6455     85.4109   
2513.400007 4.6455     85.1326   
2513.600007 4.6455     84.7377   
2513.800007 4.6455     84.3016   
2514.000007 4.6455     83.9159   
2514.200007 4.6455     83.6706   
2514.400007 4.6455     83.587    
2514.600007 4.6455     83.6388   
2514.800007 4.6455     83.8346   
2515.000007 4.6455     84.1694   
2515.200008 4.6455     84.5511   
2515.400008 4.6455     84.8913   
2515.600008 4.6455     85.2956   
2515.800008 4.6455     85.8575   
2516.000008 4.6455     85.0347   
2516.200008 4.6455     79.9867   
2516.400008 4.6455     75.6268   
2516.600008 4.6455     83.755    
2516.800008 4.6455     108.0316  
2517.000009 4.6455     134.3699  
2517.200009 4.6455     151.4855  
2517.400009 4.6455     160.5557  
2517.600009 4.6455     164.3299  
2517.800009 4.6455     166.4793  
2518.000009 4.6455     168.2754  
2518.200009 4.6455     169.4505  
2518.400009 4.6455     170.1342  
2518.600009 4.6455     170.6471  
2518.800009 4.7927     171.0731  
2519.00001 4.8917     171.4059  
2519.20001 4.4178     171.6536  
2519.40001 3.8771     171.83    
2519.60001 3.9047     171.9973  
2519.80001 4.037      172.197   
2520.00001 4.1825     172.3644  
2520.20001 4.2694     172.4331  
2520.40001 4.2055     172.4218  
2520.60001 4.2248     172.3479  
2520.80001 4.2821     172.2135  
2521.00001 4.3265     172.0287  
2521.200011 4.3473     171.7729  
2521.400011 4.369      171.4853  
2521.600011 4.369      171.2417  
2521.800011 4.4517     171.0126  
2522.000011 4.5524     170.7834  
2522.200011 4.6779     170.5741  
2522.400011 4.8117     170.3451  
2522.600011 4.8423     170.0691  
2522.800011 4.8523     169.7013  
2523.000011 4.8899     168.9399  
2523.200012 4.9304     167.9218  
2523.400012 4.9574     167.293   
2523.600012 4.9602     166.9299  
2523.800012 4.9547     166.6414  
2524.000012 5.014      166.4548  
2524.200012 5.0652     166.3065  
2524.400012 5.0998     166.1344  
2524.600012 5.1829     165.9593  
2524.800012 5.2392     165.8134  
2525.000013 5.2095     165.6889  
2525.200013 5.1524     165.4225  
2525.400013 5.0605     164.5582  
2525.600013 5.0529     163.3682  
2525.800013 4.9205     163.1388  
2526.000013 4.7632     163.4794  
2526.200013 4.7066     163.502   
2526.400013 4.6507     163.4635  
2526.600013 4.6335     163.5555  
2526.800013 4.6284     163.7618  
2527.000014 4.6882     163.9936  
2527.200014 4.8063     164.0802  
2527.400014 4.845      163.8805  
2527.600014 4.845      163.3203  
2527.800014 4.9464     162.3839  
2528.000014 4.9828     161.7275  
2528.200014 5.0595     161.7808  
2528.400014 5.0576     162.3647  
2528.600014 5.0453     162.9059  
2528.800014 4.967      163.4323  
2529.000014 4.8761     164.1049  
2529.200015 4.8506     164.2587  
2529.400015 4.7828     163.7759  
2529.600015 4.7703     163.0383  
2529.800015 4.7945     162.3728  
2530.000015 4.7927     161.7427  
2530.200015 4.7562     161.4416  
2530.400015 4.7304     161.547   
2530.600015 4.7454     162.0592  
2530.800015 4.7668     162.4251  
2531.000015 4.8143     162.3159  
2531.200016 4.9259     161.9219  
2531.400016 4.978      161.2378  
2531.600016 5.0385     160.7307  
2531.800016 5.043      160.8285  
2532.000016 5.1591     161.4659  
2532.200016 5.1817     161.6697  
2532.400016 5.1298     161.1414  
2532.600016 5.1847     160.7993  
2532.800016 5.1615     160.7295  
2533.000017 5.0863     160.7674  
2533.200017 5.1163     161.1139  
2533.400017 5.124      161.497   
2533.600017 5.0999     161.1856  
2533.800017 5.1251     161.1577  
2534.000017 5.071      161.8426  
2534.200017 5.0471     162.154   
2534.400017 4.9893     162.1216  
2534.600017 4.9705     161.9733  
2534.800017 5.0615     161.1741  
2535.000018 5.0989     159.9818  
2535.200018 5.0724     160.3639  
2535.400018 4.9921     160.985   
2535.600018 5.0482     159.5923  
2535.800018 5.1048     158.4972  
2536.000018 5.1357     158.7894  
2536.200018 4.9072     159.735   
2536.400018 4.5914     161.1521  
2536.600018 4.6072     161.9142  
2536.800018 4.7154     161.5094  
2537.000018 4.733      160.582   
2537.200019 4.7066     159.876   
2537.400019 4.7084     159.6971  
2537.600019 4.759      159.7645  
2537.800019 4.8263     159.8662  
2538.000019 4.727      159.9285  
2538.200019 4.6241     160.0916  
2538.400019 4.6317     160.8893  
2538.600019 4.5634     161.4017  
2538.800019 4.4268     160.544   
2539.000019 4.353      159.9114  
2539.20002 4.4779     159.8009  
2539.40002 4.5667     159.7665  
2539.60002 4.5305     159.7879  
2539.80002 4.4786     159.822   
2540.00002 4.3896     159.8282  
2540.20002 4.1846     159.823   
2540.40002 4.0613     159.8636  
2540.60002 4.0416     159.9666  
2540.80002 3.9644     159.9812  
2541.000021 3.9047     159.4327  
2541.200021 3.9678     158.7754  
2541.400021 4.0815     158.5714  
2541.600021 4.2057     158.6066  
2541.800021 4.5232     158.7842  
2542.000021 4.6251     158.5313  
2542.200021 4.7563     159.3601  
2542.400021 4.859      160.4675  
2542.600021 5.0216     160.7556  
2542.800021 5.2077     160.7518  
2543.000022 5.2693     160.6743  
2543.200022 5.3162     160.4175  
2543.400022 5.4197     159.3468  
2543.600022 5.5125     157.8985  
2543.800022 5.6363     156.8554  
2544.000022 5.8554     155.7821  
2544.200022 6.476      156.0666  
2544.400022 7.1415     157.3913  
2544.600022 8.3428     157.9276  
2544.800022 9.2239     157.9005  
2545.000022 9.2209     158.1241  
2545.200023 8.142      158.4452  
2545.400023 7.0547     157.7808  
2545.600023 6.9427     157.9086  
2545.800023 8.4965     158.9023  
2546.000023 9.0941     159.1251  
2546.200023 8.5728     159.0926  
2546.400023 7.6501     158.7962  
2546.600023 7.825      158.0659  
2546.800023 8.8445     157.6624  
2547.000023 10.0602    157.2344  
