~Version
 VERS              .         2.0                           : CWLS LOG ASCII STANDARD - VERSION 2.0
 WRAP              .         NO                            : ONE LINE PER DEPTH STEP
 DLM               .         SPACE                         : DELIMITING CHARACTER(SPACE TAB OR COMMA)
~Well Information
#_______________________________________________________________________________
#
#PARAMETER_NAME    .UNIT     VALUE                         : DESCRIPTION
#_______________________________________________________________________________
STRT               .m        2500                          : First reference value
STOP               .m        2709.600105                   : Last reference value
STEP               .m        0.2000001                     : Step increment
NULL               .         -9999                         : Missing value
COMP               .                                       : Company
WELL               .         400                           : Well name
FLD                .                                       : Field
LOC                .                                       : Location
CNTY               .                                       : County
STAT               .                                       : State
CTRY               .                                       : Country
SRVC               .                                       : Service Company
DATE               .                                       : Date
API                .                                       : API number
EREF               .m        140.4                         : 
Pad                .         4                             : 
X                  .m        222100                        : 
Y                  .m        250025                        : 
group              .         Pad4                          : 
Интер-р            .         Ярышев                        : 
Куст               .         4                             : 
Статус             .         Не проверено                  : 
Тип                .         Разобраться                   : 
~Parameter Information Block
#_______________________________________________________________________________
#
#PARAMETER_NAME    .UNIT     VALUE                         : DESCRIPTION
#_______________________________________________________________________________
SET                .         LAS1                          : 
REAL_CREATION_DATE .         Ср апр 11 2012-13_17_12       : 
TLFamily_DEPTH     .         Measured Depth                : 
TLFamily_KS        .         Potential Resistivity         : 
TLFamily_KS1       .         Extra Shallow Resistivity     : 
TLFamily_KS2       .         Shallow Resistivity           : 
TLFamily_KS3       .         Medium Resistivity            : 
TLFamily_KS4       .         Deep Resistivity              : 
TLFamily_KS5       .         Extra Deep Resistivity        : 
TLFamily_LLD       .         Lateral Log Resistivity       : 
TLFamily_OKS       .         Medium Resistivity Inverted   : 
TLFamily_RM        .         Mud Resistivity               : 
TLFamily_SP        .         Spontaneous Potential         : 
group              .         INI                           : 
~Curve Information
#_______________________________________________________________________________
#
#LOGNAME           .UNIT     LOG_ID                        : DESCRIPTION
#_______________________________________________________________________________
DEPTH              .m                                      : Measured Depth 
KS                 .ohm.m                                  : Potential Resistivity 
KS1                .ohm.m                                  : Extra Shallow Resistivity 
KS2                .ohm.m                                  : Shallow Resistivity 
KS3                .ohm.m                                  : Medium Resistivity 
KS4                .ohm.m                                  : Deep Resistivity 
KS5                .ohm.m                                  : Extra Deep Resistivity 
LLD                .ohm.m                                  : Lateral Log Resistivity 
OKS                .ohm.m                                  : Medium Resistivity Inverted 
RM                 .ohm.m                                  : Mud Resistivity 
SP                 .mV                                     : Spontaneous Potential 
~Ascii
# ...
2566.000033 11.177     7.9458     14.5439    13.7889    6.3051     5.0273     14.4377    10.7458    0.5938     65.264    
2566.200033 11.0005    7.939      14.2222    13.3038    6.1868     4.8704     15.7846    10.9401    0.5938     65.3323   
2566.400033 10.6611    7.7017     14.2419    12.2171    5.9633     4.7919     15.5842    11.3805    0.5938     66.4015   
2566.600033 10.5084    7.2881     14.1762    11.0205    5.8975     4.818      15.2563    12.0377    0.5938     67.1409   
2566.800033 10.3149    7.1864     14.4126    10.6971    6.0947     4.975      14.8662    12.0863    0.5972     67.0352   
2567.000033 10.0162    7.4779     14.7015    10.9559    6.5878     5.1189     15.3768    11.8467    0.6006     66.3157   
2567.200034 9.8125     7.5729     14.7147    11.234     7.1137     5.2758     17.0057    11.6071    0.6073     66.1746   
2567.400034 9.8261     6.8744     13.779     10.9817    7.3898     5.4328     17.4616    11.3416    0.604      69.2889   
2567.600034 9.9076     6.4404     12.469     10.4384    7.5081     5.5636     16.4419    11.0178    0.6073     73.0667   
2567.800034 10.3556    6.454      12.2588    10.0956    7.804      5.629      16.1957    11.0502    0.6107     75.0792   
2568.000034 11.1091    5.9183     11.0441    9.9339     8.1918     5.799      14.5657    11.4193    0.6141     76.2069   
2568.200034 11.8083    5.9183     11.2542    9.7981     8.6783     6.2437     11.6334    11.4582    0.6208     76.5528   
2568.400034 12.9556    6.515      12.1341    10.1021    9.5132     6.8977     10.5695    11.3351    0.6242     75.8194   
2568.600034 14.0621    6.7795     12.7973    11.2243    11.4656    7.9179     8.6359     11.4841    0.6141     74.2111   
2568.800034 14.13      7.9188     16.0041    13.6683    13.1771    8.3888     5.9572     10.9033    0.6242     73.0014   
2569.000034 12.6807    10.9091    21.4977    15.2701    12.9514    8.5981     7.7027     8.4081     0.6208     73.0278   
2569.200035 11.0277    10.8752    22.3579    14.7397    11.5314    8.1534     12.8402    7.3655     0.6107     75.3417   
2569.400035 9.6903     9.1325     20.6704    13.6401    10.0983    7.434      16.8332    7.0028     0.6107     78.1694   
2569.600035 8.8554     7.5593     19.0222    12.5406    9.0004     6.8061     18.6988    7.0676     0.6073     80.6639   
2569.800035 8.5227     6.3523     16.156     11.6415    8.2181     6.3876     18.6426    7.1194     0.6073     83.4361   
2570.000035 8.3734     5.9454     14.1303    10.9947    7.6593     6.1129     17.055     7.0158     0.6107     85.6917   
2570.200035 8.2987     6.0946     12.771     10.8459    7.2912     5.9429     16.1099    6.9251     0.6107     87.0389   
2570.400035 8.1697     6.2438     11.7861    10.917     7.0282     5.8513     16.4659    6.9575     0.6107     87.0507   
2570.600035 7.9321     6.0607     11.0638    10.7877    6.7423     5.7859     16.554     7.0482     0.6107     86.8361   
2570.800035 7.7421     6.0878     10.9981    10.5872    6.5286     5.7859     16.5419    6.7794     0.6141     86.7403   
2571.000036 7.6063     5.9454     10.8142    10.377     6.3643     5.7859     17.045     6.1027     0.6107     86.2715   
2571.200036 7.4434     5.7962     10.4662    9.7657     6.2591     5.8513     17.2841    5.7401     0.6107     86.6615   
2571.400036 7.328      5.6674     10.1445    9.0801     6.2196     5.969      17.2597    5.6041     0.6107     87.7323   
2571.600036 7.2804     5.5793     9.8752     8.485      6.2065     6.1522     17.238     5.6364     0.6107     88.1651   
2571.800036 7.2397     5.5386     9.6717     8.1099     6.2394     6.4007     17.1874    5.8178     0.6107     88.2243   
2572.000036 7.2737     5.5386     9.4845     7.877      6.2854     6.7538     17.1006    6.0638     0.6141     88.2097   
2572.200036 7.3823     5.4233     9.1267     7.6765     6.384      7.2509     16.7201    6.3293     0.6175     88.1608   
2572.400036 7.5588     5.3419     8.9494     7.5083     6.6404     8.1272     16.0684    6.7244     0.6208     88.0218   
2572.600036 7.8303     5.4029     9.0216     7.5989     7.2715     9.6968     15.6084    7.8576     0.6141     87.7872   
2572.800036 8.1154     5.2199     9.2777     8.5109     8.9676     11.4494    14.5848    9.6061     0.6175     87.2646   
2573.000037 7.8303     5.742      11.7795    10.1473    11.8568    11.7241    11.6366    10.3184    0.6259     86.8656   
2573.200037 7.7387     7.6068     13.5852    10.7683    11.5182    11.4494    11.1912    9.4442     0.6141     87.599    
2573.400037 7.8032     7.1389     11.5759    8.7049     8.8558     10.4161    14.6188    7.8058     0.6107     88.6682   
2573.600037 7.4705     6.2099     10.2233    7.0426     6.8179     8.5065     16.4421    6.7503     0.6073     88.9743   
2573.800037 7.2872     5.5453     9.4484     6.1112     5.7332     7.2247     16.2322    6.2516     0.604      89.3304   
2574.000037 7.1922     5.308      9.5863     5.7555     5.273      6.61       15.8535    6.4686     0.6006     89.9599   
2574.200037 7.0904     5.4504     10.3546    5.7425     5.1612     6.3484     15.4984    6.8086     0.5972     90.2475   
2574.400037 7.0428     5.4911     10.0263    5.846      5.0889     6.2568     14.9631    7.0093     0.5972     90.3161   
2574.600037 7.1379     5.4369     9.4747     5.8784     4.8917     6.1914     14.8764    7.0741     0.5938     90.3441   
2574.800037 7.1922     5.4911     9.2711     5.9301     4.7076     5.9887     15.1274    7.2101     0.5938     90.327    
2575.000037 7.3212     5.5657     8.9822     6.2018     4.4381     5.7336     15.1402    7.4238     0.5905     90.3514   
2575.200038 7.5927     5.4165     8.8772     6.7516     4.2212     5.7075     15.1537    7.7443     0.5871     90.8505   
2575.400038 8.0475     5.1588     8.7984     7.0103     4.2803     5.629      15.0327    8.3498     0.5837     91.6308   
2575.600038 7.9525     5.3623     8.6473     7.2884     4.4447     5.4982     12.7036    8.4016     0.5905     91.9408   
2575.800038 7.9118     7.2474     11.2509    7.3725     4.3395     5.3674     9.7622     7.903      0.5938     92.0141   
2576.000038 7.9864     6.7931     10.1576    6.9909     3.9714     5.145      12.1516    7.2683     0.5871     92.0151   
2576.200038 7.4569     6.3319     10.0131    6.3764     3.6755     4.805      15.3218    6.9381     0.5905     91.9601   
2576.400038 7.1549     6.0675     10.1313    6.2212     3.5638     4.478      15.2972    6.7373     0.5871     91.8175   
2576.600038 7.1107     5.5691     10         6.0659     3.406      4.3079     15.2488    6.556      0.5905     91.4058   
2576.800038 7.0496     5.4029     9.7833     5.8654     3.3468     4.1771     15.5053    6.5171     0.5905     91.0688   
2577.000038 7.0496     5.2538     9.0479     5.7393     3.4257     4.1379     15.4619    6.5366     0.6006     91.1403   
2577.200039 7.07       5.2063     8.6375     5.7619     3.8465     4.2818     15.2951    6.5107     0.604      91.6946   
2577.400039 7.1175     5.2538     8.6408     5.846      4.208      4.5695     15.1888    6.5884     0.6073     92.3264   
2577.600039 7.2669     5.2199     8.4109     6.0013     4.5038     5.1189     15.3362    6.8798     0.6107     92.4568   
2577.800039 7.4502     5.1317     8.3256     6.4734     5.1284     5.7336     15.4925    7.5727     0.6141     92.4729   
2578.000039 7.4502     5.3894     8.9165     7.4436     6.1013     6.283      15.0941    8.7901     0.6141     92.5028   
2578.200039 7.5791     5.8776     10.1445    8.2328     6.8705     6.8454     14.0315    9.7421     0.6208     92.4786   
2578.400039 8.0407     5.9183     10.0722    8.3751     7.0743     7.3817     13.5845    9.8975     0.6208     92.3166   
2578.600039 8.4956     5.7962     9.3696     8.0775     7.1203     7.7086     13.9606    10.1565    0.6073     91.7047   
2578.800039 8.9504     5.9726     9.606      7.9546     7.3438     7.8918     13.6623    10.5645    0.6141     90.5623   
2579.00004 9.3373     5.9386     9.8621     8.181      8.0078     8.0226     12.4414    10.8041    0.6124     90.3099   
