~Version
 VERS              .         2.0                           : CWLS LOG ASCII STANDARD - VERSION 2.0
 WRAP              .         NO                            : ONE LINE PER DEPTH STEP
 DLM               .         SPACE                         : DELIMITING CHARACTER(SPACE TAB OR COMMA)
~Well Information
#_______________________________________________________________________________
#
#PARAMETER_NAME    .UNIT     VALUE                         : DESCRIPTION
#_______________________________________________________________________________
STRT               .m        2500                          : First reference value
STOP               .m        2709.600105                   : Last reference value
STEP               .m        0.2000001                     : Step increment
NULL               .         -9999                         : Missing value
COMP               .                                       : Company
WELL               .         400                           : Well name
FLD                .                                       : Field
LOC                .                                       : Location
CNTY               .                                       : County
STAT               .                                       : State
CTRY               .                                       : Country
SRVC               .                                       : Service Company
DATE               .                                       : Date
API                .                                       : API number
EREF               .m        140.4                         : 
Pad                .         4                             : 
X                  .m        222100                        : 
Y                  .m        250025                        : 
group              .         Pad4                          : 
Интер-р            .         Ярышев                        : 
Куст               .         4                             : 
Статус             .         Не проверено                  : 
Тип                .         Разобраться                   : 
~Parameter Information Block
#_______________________________________________________________________________
#
#PARAMETER_NAME    .UNIT     VALUE                         : DESCRIPTION
#_______________________________________________________________________________
SET                .         LAS1                          : 
REAL_CREATION_DATE .         Ср апр 11 2012-13_17_12       : 
TLFamily_DEPTH     .         Measured Depth                : 
TLFamily_KS        .         Potential Resistivity         : 
TLFamily_KS1       .         Extra Shallow Resistivity     : 
TLFamily_KS2       .         Shallow Resistivity           : 
TLFamily_KS3       .         Medium Resistivity            : 
TLFamily_KS4       .         Deep Resistivity              : 
TLFamily_KS5       .         Extra Deep Resistivity        : 
TLFamily_LLD       .         Lateral Log Resistivity       : 
TLFamily_OKS       .         Medium Resistivity Inverted   : 
TLFamily_RM        .         Mud Resistivity               : 
TLFamily_SP        .         Spontaneous Potential         : 
group              .         INI                           : 
~Curve Information
#_______________________________________________________________________________
#
#LOGNAME           .UNIT     LOG_ID                        : DESCRIPTION
#_______________________________________________________________________________
DEPTH              .m                                      : Measured Depth 
KS                 .ohm.m                                  : Potential Resistivity 
KS1                .ohm.m                                  : Extra Shallow Resistivity 
KS2                .ohm.m                                  : Shallow Resistivity 
KS3                .ohm.m                                  : Medium Resistivity 
KS4                .ohm.m                                  : Deep Resistivity 
KS5                .ohm.m                                  : Extra Deep Resistivity 
LLD                .ohm.m                                  : Lateral Log Resistivity 
OKS                .ohm.m                                  : Medium Resistivity Inverted 
RM                 .ohm.m                                  : Mud Resistivity 
SP                 .mV                                     : Spontaneous Potential 
~Ascii
# ...
2579.20004 9.4799     6.8202     11.9962    8.4203     8.3233     7.9964     10.4244    10.4091    0.6107     90.6791   
2579.40004 9.4527     7.6169     13.0337    8.5303     7.988      7.6236     9.6502     9.6255     0.6107     90.8026   
2579.60004 9.1541     7.5661     13.0205    8.0387     7.2978     6.95       11.2547    8.5084     0.6073     91.0167   
2579.80004 8.7739     7.1999     12.771     7.3725     6.6272     6.2699     12.6926    7.9094     0.6073     91.5364   
2580.00004 8.3937     6.9694     13.0304    7.1138     6.1605     5.6421     13.1807    7.5856     0.6073     91.8542   
2580.20004 8.1494     6.7388     12.8958    6.9456     5.5688     5.2235     13.7899    7.2619     0.6073     91.8705   
2580.40004 8.0543     6.2234     11.6088    6.9327     4.8391     4.9227     14.7685    7.1712     0.6073     91.8149   
2580.60004 7.9152     5.8505     11.1163    6.9909     4.5367     4.7265     15.1733    7.2813     0.6141     91.2474   
2580.80004 7.9253     5.8132     10.9324    7.2496     4.4776     4.648      14.7439    7.6116     0.6107     90.3608   
2581.000041 7.9457     6.0404     10.7486    7.6248     4.4447     4.7134     14.5497    8.1264     0.6208     90.1872   
2581.200041 7.9186     6.02       10.8865    8.1551     4.4907     4.7788     14.5451    8.6477     0.6208     90.443    
2581.400041 8          6.1014     10.614     8.6144     4.4184     4.9685     14.6884    8.9974     0.6208     90.7347   
2581.600041 8.0883     6.0336     10.499     8.6079     4.3231     5.1058     14.5921    9.2499     0.6175     90.9633   
2581.800041 8.1697     6.1353     10.5778    8.4074     4.1817     5.0404     14.3786    9.3794     0.6124     91.0707   
2582.000041 8.2444     6.1285     10.44      8.181      4.1291     4.8965     14.3352    9.4442     0.6107     91.2573   
2582.200041 8.224      6.1862     10.591     7.974      4.1752     4.7003     14.181     9.4442     0.6073     91.282    
2582.400041 8.0951     6.3252     10.8668    7.8447     4.3198     4.4387     13.8558    9.3082     0.604      90.6701   
2582.600041 7.9593     6.5828     11.3133    7.3887     4.3198     4.1902     14.0505    8.8419     0.604      89.8366   
2582.800041 7.8982     6.176      10.7322    6.8486     4.1489     3.9417     15.0982    8.3498     0.5972     89.2923   
2583.000041 7.7692     5.898      10.1051    6.4217     3.9648     3.6932     15.9176    8.1102     0.5938     89.2399   
2583.200042 7.7896     5.7284     9.8424     6.1759     3.9188     3.4904     16.0132    8.2267     0.5905     89.4342   
2583.400042 8.0034     5.3351     9.2449     6.0659     4.0502     3.497      16.1661    8.6606     0.5871     89.73     
2583.600042 8.3191     5.3317     9.2711     6.1436     4.3066     3.6147     15.7156    9.2629     0.5871     90.0827   
2583.800042 8.6517     5.4504     9.2777     6.5187     4.7011     3.824      14.5223    10.4512    0.5837     90.4275   
2584.000042 8.9165     5.8708     9.7373     7.1073     5.1547     4.0987     13.3801    11.5423    0.5871     90.9354   
2584.200042 9.2084     6.1963     10.371     7.8382     5.5688     4.4649     12.7978    12.5202    0.5871     91.7681   
2584.400042 9.5953     6.2913     10.5253    8.2263     5.9698     4.9488     12.9561    13.7571    0.5871     92.1813   
2584.600042 9.9279     6.2234     10.8996    8.789      6.877      5.4524     12.9913    15.5055    0.5905     91.9083   
2584.800042 10.101     6.5693     12.2523    9.7075     7.7645     5.7075     11.9828    17.5583    0.5905     91.3797   
2585.000042 10.2674    7.3288     13.5787    10.2573    7.9946     5.7205     10.9487    18.2836    0.5972     91.5226   
2585.200043 10.5661    7.4983     13.664     9.908      7.3964     5.5505     11.1714    17.2507    0.6006     91.7705   
2585.400043 10.6882    7.1592     12.9614    9.0089     6.7193     5.1581     12.2118    16.5999    0.6073     91.6215   
2585.600043 10.6611    7.1118     12.9319    8.2586     6.2262     4.7657     12.7946    16.6906    0.6107     91.9675   
2585.800043 10.729     7.105      13.3489    8.0646     5.9633     4.5172     13.0232    17.39      0.6107     92.8071   
2586.000043 10.9462    6.7931     13.0731    7.9934     5.8219     4.4518     13.8059    18.6139    0.6124     93.229    
2586.200043 11.306     6.5422     12.9877    8.0646     5.8252     4.5434     13.9012    19.7601    0.6175     93.2729   
2586.400043 12.2224    6.6269     13.119     8.3492     5.937      4.7265     13.0575    20.8027    0.6175     93.1352   
2586.600043 13.166     6.6846     12.8826    8.6791     6.0553     5.1189     12.6709    21.732     0.6141     92.9395   
2586.800043 14.4083    6.6642     12.8432    9.2935     6.338      5.6944     12.1728    23.2182    0.6141     92.9628   
2587.000044 15.8135    6.6913     12.9549    10.4901    6.9033     6.2699     10.8709    24.455     0.6141     93.1841   
2587.200044 16.7843    7.3084     15.7719    12.56      7.7119     6.7277     8.1191     24.1507    0.6107     93.1319   
2587.400044 17.5106    9.6275     20.0663    14.4098    8.1458     7.1201     5.5036     22.2986    0.6107     92.4426   
2587.600044 17.7822    10.4616    21.1497    15.283     7.8697     7.4863     6.5664     20.3041    0.6107     92.0751   
2587.800044 17.0083    10.6684    22.2266    15.3089    7.5805     7.4471     9.2342     19.4234    0.6107     92.2565   
2588.000044 16.3295    10.109     23.1196    15.5806    7.5936     7.3163     10.5156    19.3392    0.6107     92.3269   
2588.200044 15.8067    10.0479    24.8663    16.0528    7.6791     7.1593     11.2672    19.595     0.6141     92.2632   
2588.400044 15.4266    9.5936     24.7251    16.719     7.7054     7.0285     11.9476    19.5788    0.6107     92.1457   
2588.600044 15.1279    9.2546     22.9292    17.023     7.633      6.8846     12.4117    19.5205    0.6141     91.9773   
2588.800044 14.8971    9.0308     21.8655    17.424     7.7448     6.6296     13.1051    19.8119    0.6208     91.857    
2589.000045 14.7342    8.868      20.9593    17.8638    8.0209     6.4007     13.6235    20.4206    0.6242     91.8491   
2589.200045 14.8054    8.5222     20.1648    18.2455    8.3233     6.3222     13.399     20.6926    0.6276     91.7971   
2589.400045 15.0668    8.3968     19.5607    18.8147    8.4942     6.2437     13.1501    20.7246    0.6208     91.6402   
2589.600045 15.2365    8.5697     19.3768    19.193     8.56       6.2045     13.0648    20.5663    0.6175     91.5677   
2589.800045 15.3791    8.6782     19.2323    18.7953    8.6323     6.2045     13.1528    20.4854    0.6141     91.5586   
2590.000045 15.5759    8.746      19.2586    18.3425    8.698      6.2437     13.6073    20.5566    0.6073     91.5387   
2590.200045 15.7728    8.5425     19.1141    18.0514    8.8985     6.3091     13.6557    20.6861    0.6006     91.3649   
2590.400045 15.9493    8.6443     19.6657    17.9932    9.4146     6.5315     13.0586    20.7574    0.5989     90.9102   
2590.600045 16.2107    8.8206     20.1188    18.2455    9.9865     6.6884     12.7941    20.9063    0.5972     90.6975   
2590.800045 16.2955    8.9494     20.5128    18.6465    10.7031    6.8454     12.576     21.0617    0.5938     90.8287   
2591.000045 16.2955    9.3156     21.3336    19.0281    11.4262    7.0023     12.4553    21.0553    0.5905     91.0188   
2591.200046 16.3634    9.3088     21.5371    19.4485    12.0902    7.1201     12.8265    21.1589    0.5905     91.0615   
2591.400046 16.377     9.1461     21.5404    19.7655    12.7936    7.1593     13.0438    21.5409    0.5871     91.0453   
2591.600046 16.3362    9.2206     21.8983    20.0436    13.566     7.1462     12.6947    21.8064    0.5871     91.2024   
2591.800046 16.355     9.2749     22.0559    20.3994    14.0295    7.0547     12.4651    21.8453    0.5871     91.4893   
2592.000046 16.2718    9.3931     22.312     20.6063    14.0361    6.9108     12.4003    21.6575    0.5905     91.7175   
2592.200046 16.1258    9.4885     22.463     20.6257    13.8191    6.7146     12.4788    21.269     0.5905     91.758    
