~Version
 VERS              .         2.0                           : CWLS LOG ASCII STANDARD - VERSION 2.0
 WRAP              .         NO                            : ONE LINE PER DEPTH STEP
 DLM               .         SPACE                         : DELIMITING CHARACTER(SPACE TAB OR COMMA)
~Well Information
#_______________________________________________________________________________
#
#PARAMETER_NAME    .UNIT     VALUE                         : DESCRIPTION
#_______________________________________________________________________________
STRT               .m        2500                          : First reference value
STOP               .m        2709.600105                   : Last reference value
STEP               .m        0.2000001                     : Step increment
NULL               .         -9999                         : Missing value
COMP               .                                       : Company
WELL               .         400                           : Well name
FLD                .                                       : Field
LOC                .                                       : Location
CNTY               .                                       : County
STAT               .                                       : State
CTRY               .                                       : Country
SRVC               .                                       : Service Company
DATE               .                                       : Date
API                .                                       : API number
EREF               .m        140.4                         : 
Pad                .         4                             : 
X                  .m        222100                        : 
Y                  .m        250025                        : 
group              .         Pad4                          : 
Интер-р            .         Ярышев                        : 
Куст               .         4                             : 
Статус             .         Не проверено                  : 
Тип                .         Разобраться                   : 
~Parameter Information Block
#_______________________________________________________________________________
#
#PARAMETER_NAME    .UNIT     VALUE                         : DESCRIPTION
#_______________________________________________________________________________
SET                .         LAS1                          : 
REAL_CREATION_DATE .         Ср апр 11 2012-13_17_12       : 
TLFamily_DEPTH     .         Measured Depth                : 
TLFamily_KS        .         Potential Resistivity         : 
TLFamily_KS1       .         Extra Shallow Resistivity     : 
TLFamily_KS2       .         Shallow Resistivity           : 
TLFamily_KS3       .         Medium Resistivity            : 
TLFamily_KS4       .         Deep Resistivity              : 
TLFamily_KS5       .         Extra Deep Resistivity        : 
TLFamily_LLD       .         Lateral Log Resistivity       : 
TLFamily_OKS       .         Medium Resistivity Inverted   : 
TLFamily_RM        .         Mud Resistivity               : 
TLFamily_SP        .         Spontaneous Potential         : 
group              .         INI                           : 
~Curve Information
#_______________________________________________________________________________
#
#LOGNAME           .UNIT     LOG_ID                        : DESCRIPTION
#_______________________________________________________________________________
DEPTH              .m                                      : Measured Depth 
KS                 .ohm.m                                  : Potential Resistivity 
KS1                .ohm.m                                  : Extra Shallow Resistivity 
KS2                .ohm.m                                  : Shallow Resistivity 
KS3                .ohm.m                                  : Medium Resistivity 
KS4                .ohm.m                                  : Deep Resistivity 
KS5                .ohm.m                                  : Extra Deep Resistivity 
LLD                .ohm.m                                  : Lateral Log Resistivity 
OKS                .ohm.m                                  : Medium Resistivity Inverted 
RM                 .ohm.m                                  : Mud Resistivity 
SP                 .mV                                     : Spontaneous Potential 
~Ascii
# ...
2552.800026 9.7243     6.3523     11.5037    8.5626     7.1006     4.3733     12.9703    11.1085    0.6073     87.1834   
2553.000026 9.6971     6.4201     12.0947    8.1551     6.6042     4.4649     12.8375    10.8494    0.6107     86.6989   
2553.200027 9.5614     6.5286     12.6857    8.0646     6.2131     4.6872     13.324     10.5839    0.6107     86.5748   
2553.400027 9.3645     6.61       12.6134    8.1196     6.0159     4.8834     14.2138    10.4415    0.6141     86.5148   
2553.600027 9.1982     6.3387     12.2785    8.1616     5.8384     4.975      14.8062    10.435     0.6175     86.4764   
2553.800027 9.0997     5.9454     11.8123    8.4074     5.7792     4.975      14.5625    10.4674    0.6141     86.4577   
2554.000027 9.1269     5.8369     11.8058    8.8472     5.8121     5.0012     14.1413    10.5062    0.6208     86.3724   
2554.200027 9.2287     5.7691     11.53      9.4035     5.9567     5.1189     13.8125    10.4738    0.6175     86.165    
2554.400027 9.2762     5.8505     11.3428    9.9145     6.1473     5.2758     13.5711    10.5386    0.6141     85.9237   
2554.600027 9.3034     6.0539     11.4446    10.1603    6.292      5.3674     13.6343    10.6163    0.6141     85.642    
2554.800027 9.3102     6.0743     11.4052    10.3026    6.3971     5.472      13.7299    10.6681    0.6141     85.2688   
2555.000028 9.3509     6.0607     11.3658    10.2896    6.476      5.6748     13.9811    10.6746    0.6141     84.8446   
2555.200028 9.3917     6.0336     11.3789    10.2573    6.5944     5.969      14.262     10.8041    0.6107     84.5481   
2555.400028 9.3306     6.0336     11.4118    10.2444    6.9231     6.2306     14.183     11.157     0.6107     84.3085   
2555.600028 9.3136     6.0946     11.6153    10.3026    7.2781     6.4792     14.1919    11.374     0.6073     84.1273   
2555.800028 9.3306     6.0607     11.6088    10.3478    7.6725     6.6623     14.4062    11.6006    0.6107     84.2494   
2556.000028 9.3577     6.0404     11.6679    10.3931    8.1787     6.8454     14.3952    11.5682    0.6107     84.775    
2556.200028 9.4052     6.0268     11.5497    10.4255    8.6914     6.9631     14.2179    11.361     0.6107     85.3459   
2556.400028 9.5682     6.0675     11.5365    10.3608    9.1188     7.0285     14.2177    11.4193    0.6073     85.4445   
2556.600028 9.6564     5.9658     11.3461    10.3414    9.3686     7.0677     13.9439    11.633     0.6107     85.3221   
2556.800028 9.7786     6.2913     11.6547    10.2444    9.4212     7.107      13.7408    11.6848    0.6141     85.2249   
2557.000029 10.0366    6.1014     11.3461    10.1861    9.408      7.1855     13.9528    11.5812    0.6107     85.0124   
2557.200029 10.2606    6.081      11.3921    10.0956    9.408      7.3293     13.6404    11.4646    0.6107     84.4323   
2557.400029 10.5525    6.1217     11.6941    10.1797    9.6052     7.6694     12.8402    11.3027    0.6107     83.9099   
2557.600029 10.8308    6.1895     12.1538    10.5807    10.095     8.0618     12.0638    11.2574    0.6107     83.6279   
2557.800029 11.1227    6.6642     13.0205    11.1952    10.5519    8.5327     11.9627    11.6524    0.6208     83.1321   
2558.000029 10.9937    6.8846     13.2898    11.9843    11.2093    8.8727     11.5705    12.2288    0.6208     82.6263   
2558.200029 10.7018    8.1764     14.9839    12.6246    11.6037    9.0951     12.2949    12.4554    0.6309     82.4969   
2558.400029 10.9258    7.4305     15.6011    12.6052    11.3276    9.3436     15.2089    12.3583    0.6208     81.946    
2558.600029 11.1499    6.515      13.6246    11.7644    10.6439    9.5398     14.5978    12.1252    0.6242     80.9123   
2558.800029 11.5911    6.2777     13.362     11.4604    10.3218    9.3959     10.8456    11.8273    0.6309     79.8083   
2559.000029 11.8559    7.2406     14.7212    11.8485    10.3152    9.2521     9.2109     11.1603    0.6309     77.5583   
2559.20003 11.5775    8.5019     16.0279    12.3336    10.2692    9.239      10.7068    10.5645    0.6276     74.3431   
2559.40003 10.6543    9.1935     16.5992    12.6246    10.0325    9.2128     13.9512    10.4026    0.6242     71.726    
2559.60003 9.9551     8.8002     16.0542    12.3724    9.5625     9.3044     18.6725    11.0049    0.6141     70.9457   
2559.80003 9.799      7.0507     14.2813    11.4442    8.9873     9.8145     20.4936    12.6724    0.6208     72.4043   
2560.00003 10.0637    5.7759     12.6003    10.4707    9.0727     10.5208    17.3407    15.2271    0.6175     75.7749   
2560.20003 11.1668    5.4097     12.0356    10.8265    9.8287     11.3448    12.6947    16.6323    0.6208     77.1833   
2560.40003 12.2632    6.0505     12.5149    12.2301    10.874     11.9726    8.4349     16.3927    0.6242     74.625    
2560.60003 12.4329    9.3766     15.345     13.3232    11.137     12.2865    8.9063     15.0975    0.6242     71.3111   
2560.80003 12.4125    9.5665     16.1396    13.2715    10.3218    12.2211    13.5368    14.1715    0.6107     69.5306   
2561.00003 12.0052    8.2306     14.4192    12.0942    9.1319     11.5148    14.6074    14.2363    0.6141     67.5917   
2561.200031 11.7608    7.6136     15.5026    11.3569    8.3365     10.6385    13.0577    14.5147    0.6107     66.2806   
2561.400031 11.9305    7.7763     16.6911    10.9623    7.9815     9.9714     13.4666    15.1429    0.6073     65.7632   
2561.600031 11.9509    7.4033     15.8572    10.6777    7.85       9.5921     13.5478    15.9135    0.6006     65.0352   
2561.800031 11.9102    7.8509     16.2381    10.4061    7.7382     9.3371     13.1124    15.9588    0.6073     64.9208   
2562.000031 12.0663    7.383      15.0102    10.516     7.6133     9.1082     12.8261    15.308     0.604      64.9169   
2562.200031 11.9373    8.1493     16.6189    10.9073    7.5344     8.9774     13.229     14.3269    0.6006     63.6227   
2562.400031 12.0052    7.9865     15.7193    11.8549    7.5344     9.0428     14.5328    13.9772    0.5972     62.0074   
2562.600031 12.0595    7.7424     15.3253    12.4112    7.6856     9.1605     15.2338    14.2427    0.5972     61.1426   
2562.800031 12.5279    7.5051     15.4698    12.6182    7.9157     9.4875     15.5066    14.9357    0.5938     60.4387   
2563.000032 13.4308    6.7998     14.5045    12.2301    8.1853     10.1153    14.2741    15.7969    0.5938     59.7555   
2563.200032 14.741     6.7931     13.9464    12.1007    8.7309     10.8739    11.755     16.7618    0.5972     59.4087   
2563.400032 16.4041    6.9897     14.5505    12.9545    9.6447     11.6456    8.6209     17.3964    0.5938     59.7519   
2563.600032 17.755     7.8644     16.4154    14.3322    10.7096    12.4435    5.3722     16.8395    0.5938     60.4773   
2563.800032 17.9791    9.9462     20.3224    16.2921    11.6957    12.7182    4.4221     15.0522    0.5938     60.8139   
2564.000032 16.6553    12.7671    26.1402    18.6012    12.2216    12.0511    7.5571     13.116     0.5938     61.4377   
2564.200032 14.7477    13.5334    28.0247    19.4809    11.7549    11.1486    12.8553    11.1894    0.5938     62.4664   
2564.400032 12.7655    11.8991    27.0529    18.1129    10.3875    9.8406     16.7584    10.6616    0.5905     63.6389   
2564.600032 10.8342    9.9462     25.7922    16.2597    9.5592     8.3888     18.7412    10.8171    0.5905     65.487    
2564.800032 10.2742    7.678      22.2791    14.8173    8.5994     7.3032     18.7946    10.7782    0.5905     68.1806   
2565.000033 10.2063    6.7931     18.7202    13.4332    7.4753     6.5315     17.5798    10.4738    0.5905     69.775    
2565.200033 10.376     6.6507     16.0673    12.8834    6.8244     5.9036     16.993     10.2731    0.5938     68.9056   
2565.400033 10.6882    6.732      13.5852    12.7217    6.4563     5.5113     16.6509    10.6293    0.5905     67.4285   
2565.600033 10.9869    6.4811     12.62      12.8834    6.2985     5.2889     14.3941    10.9012    0.5972     66.2752   
2565.800033 11.0277    7.1253     13.6443    13.4267    6.2788     5.1712     12.7166    10.8689    0.5938     65.621    
