~Version
 VERS              .         2.0                           : CWLS LOG ASCII STANDARD - VERSION 2.0
 WRAP              .         NO                            : ONE LINE PER DEPTH STEP
 DLM               .         SPACE                         : DELIMITING CHARACTER(SPACE TAB OR COMMA)
~Well Information
#_______________________________________________________________________________
#
#PARAMETER_NAME    .UNIT     VALUE                         : DESCRIPTION
#_______________________________________________________________________________
STRT               .m        2500                          : First reference value
STOP               .m        2709.600105                   : Last reference value
STEP               .m        0.2000001                     : Step increment
NULL               .         -9999                         : Missing value
COMP               .                                       : Company
WELL               .         400                           : Well name
FLD                .                                       : Field
LOC                .                                       : Location
CNTY               .                                       : County
STAT               .                                       : State
CTRY               .                                       : Country
SRVC               .                                       : Service Company
DATE               .                                       : Date
API                .                                       : API number
EREF               .m        140.4                         : 
Pad                .         4                             : 
X                  .m        222100                        : 
Y                  .m        250025                        : 
group              .         Pad4                          : 
Интер-р            .         Ярышев                        : 
Куст               .         4                             : 
Статус             .         Не проверено                  : 
Тип                .         Разобраться                   : 
~Parameter Information Block
#_______________________________________________________________________________
#
#PARAMETER_NAME    .UNIT     VALUE                         : DESCRIPTION
#_______________________________________________________________________________
SET                .         LAS1                          : 
REAL_CREATION_DATE .         Ср апр 11 2012-13_17_12       : 
TLFamily_DEPTH     .         Measured Depth                : 
TLFamily_KS        .         Potential Resistivity         : 
TLFamily_KS1       .         Extra Shallow Resistivity     : 
TLFamily_KS2       .         Shallow Resistivity           : 
TLFamily_KS3       .         Medium Resistivity            : 
TLFamily_KS4       .         Deep Resistivity              : 
TLFamily_KS5       .         Extra Deep Resistivity        : 
TLFamily_LLD       .         Lateral Log Resistivity       : 
TLFamily_OKS       .         Medium Resistivity Inverted   : 
TLFamily_RM        .         Mud Resistivity               : 
TLFamily_SP        .         Spontaneous Potential         : 
group              .         INI                           : 
~Curve Information
#_______________________________________________________________________________
#
#LOGNAME           .UNIT     LOG_ID                        : DESCRIPTION
#_______________________________________________________________________________
DEPTH              .m                                      : Measured Depth 
KS                 .ohm.m                                  : Potential Resistivity 
KS1                .ohm.m                                  : Extra Shallow Resistivity 
KS2                .ohm.m                                  : Shallow Resistivity 
KS3                .ohm.m                                  : Medium Resistivity 
KS4                .ohm.m                                  : Deep Resistivity 
KS5                .ohm.m                                  : Extra Deep Resistivity 
LLD                .ohm.m                                  : Lateral Log Resistivity 
OKS                .ohm.m                                  : Medium Resistivity Inverted 
RM                 .ohm.m                                  : Mud Resistivity 
SP                 .mV                                     : Spontaneous Potential 
~Ascii
# ...
2539.60002 6.6898     5.4843     8.8246     5.8881     4.3526     4.478      14.3551    6.3639     0.6107     88.0208   
2539.80002 6.5473     5.525      8.8115     5.846      4.2212     4.4256     15.0179    6.5042     0.6141     87.9893   
2540.00002 6.4251     5.3928     8.667      5.7749     4.1226     4.4387     15.6337    6.8604     0.6107     87.7858   
2540.20002 6.2011     5.1317     8.562      5.943      4.2014     4.4256     15.4765    7.5662     0.6175     87.3432   
2540.40002 6.0925     5.4301     9.0282     6.1824     4.2014     4.3602     15.4297    8.0001     0.6276     87.2517   
2540.60002 6.1875     5.0775     8.4996     6.053      4.0502     4.321      16.0547    8.2915     0.6175     87.5422   
2540.80002 6.3165     4.8944     7.6755     5.5873     3.7939     4.2556     16.062     8.5311     0.6208     87.6525   
2541.000021 6.4319     4.8876     7.5048     5.3544     3.7018     4.0725     15.5628    8.965      0.6175     87.5224   
2541.200021 6.6559     4.8401     7.3209     5.2574     3.6361     3.9025     15.0366    9.3471     0.6175     87.5111   
2541.400021 6.9342     4.8605     7.38       5.1604     3.5638     3.824      14.3411    9.7227     0.6175     87.6264   
2541.600021 7.2465     4.9418     7.5048     5.0504     3.5375     3.7586     13.6381    10.1242    0.6175     87.7138   
2541.800021 7.5248     5.1249     7.7018     4.9955     3.5638     3.7324     13.2265    10.558     0.6175     87.6383   
2542.000021 7.8982     5.3012     8.0432     5.0375     3.6361     3.7324     13.0093    11.3157    0.6158     87.3681   
2542.200021 8.1416     5.4267     8.365      5.1216     3.761      3.7717     12.6807    12.3389    0.6141     87.1233   
2542.400021 8.3937     5.5631     8.7918     5.3221     3.9714     3.8109     12.174     12.6821    0.6107     86.7882   
2542.600021 8.5906     5.8573     9.4025     5.6132     4.0831     3.8632     11.9784    12.1705    0.6107     86.3087   
2542.800021 8.8554     5.9183     9.7341     5.846      4.1028     3.9548     12.3211    11.6848    0.6107     86.3388   
2543.000022 9.0522     5.8776     9.8055     6.0077     4.1554     4.0856     12.453     11.8338    0.6107     86.4327   
2543.200022 9.2084     5.9997     10.2692    6.3117     4.3526     4.2687     12.4772    12.6368    0.6141     86.3623   
2543.400022 9.5546     6.0946     10.6435    6.6416     4.5762     4.6088     12.8313    13.8024    0.6208     86.4358   
2543.600022 10.0773    5.803      10.2495    6.9585     4.8983     5.3805     12.7766    15.0587    0.6208     86.6021   
2543.800022 10.695     5.8844     10.7092    7.3208     5.4768     6.1522     11.9129    16.3215    0.6208     86.6408   
2544.000022 11.6794    5.9251     10.6763    8.2295     6.6272     7.1462     10.7511    18.2124    0.6276     86.3967   
2544.200022 12.8606    5.9115     11.1688    9.1499     7.7645     8.6765     8.8151     20.3494    0.6309     85.738    
2544.400022 13.9467    6.7252     12.9549    11.2146    9.5986     9.9191     6.9641     22.8555    0.6343     84.8343   
2544.600022 14.2963    7.6746     15.3844    13.7889    11.6234    10.4423    5.8995     22.8814    0.6309     84.2288   
2544.800022 13.7634    10.7328    20.5391    15.5288    12.4254    10.4031    7.6019     20.6602    0.6276     83.9102   
2545.000022 13.6548    10.0479    21.3598    15.0502    10.9726    10.0107    11.6111    17.526     0.6141     83.8261   
2545.200023 13.3018    8.7799     19.1732    12.7605    8.6783     9.0035     14.053     15.5573    0.6141     84.2694   
2545.400023 13.1864    7.3288     17.0392    11.3181    7.3832     7.8264     13.7677    15.389     0.6107     85.4221   
2545.600023 12.8198    6.9422     17.6827    11.2728    7.14       7.0416     10.9181    15.6998    0.6107     86.2884   
2545.800023 12.5822    8.3662     20.8608    12.0942    7.1729     6.6296     10.9074    14.9486    0.6141     86.3753   
2546.000023 12.8266    8.312      18.3853    12.7023    6.5089     6.623      14.17      13.7117    0.604      86.029    
2546.200023 12.8062    7.6407     15.89      12.3142    6.0318     6.7015     15.3241    13.2001    0.6006     85.7627   
2546.400023 12.8673    6.9558     14.9642    12.34      6.2262     6.8846     14.3815    13.7182    0.6006     85.7167   
2546.600023 13.1796    6.5489     15.148     14.3937    6.9362     7.1724     11.7799    14.9648    0.604      85.275    
2546.800023 13.3663    7.2813     17.9453    16.816     7.5147     7.3686     9.6604     14.4564    0.604      85.0167   
2547.000023 13.8245    8.4476     18.996     18.2843    7.4687     7.4732     10.9355    13.0447    0.6006     84.3222   
2547.200024 13.5055    8.2849     17.3675    18.0708    7.1794     7.1855     11.2889    11.905     0.6006     83.7951   
2547.400024 12.4397    9.2546     18.3196    17.9932    7.186      6.5446     11.3402    11.0826    0.6006     84.0104   
2547.600024 11.9781    9.4037     20.1057    17.6245    7.0545     6.0606     14.8313    10.5062    0.5905     84.3958   
2547.800024 11.435     7.9119     17.6892    16.3568    6.5615     5.6682     16.1369    10.0788    0.5905     85.2401   
2548.000024 10.7086    7.5864     17.8403    15.5224    6.3446     5.145      14.8561    9.768      0.5938     86.2772   
2548.200024 10.2674    7.6475     17.6827    15.2378    6.5878     4.5041     15.3545    9.5543     0.5905     86.7656   
2548.400024 9.9076     7.3627     16.2315    14.4551    6.739      4.2556     16.5889    9.2693     0.5871     87.0595   
2548.600024 9.6089     6.9219     14.7869    13.4526    6.8442     3.994      16.8996    8.965      0.5905     87.4246   
2548.800024 9.3441     6.6439     13.664     12.7896    7.0874     3.7847     16.9405    8.8808     0.5905     87.7987   
2549.000025 9.1575     6.4811     13.1716    12.6505    7.4555     3.667      17.084     8.9391     0.5905     88.1547   
2549.200025 8.9911     6.2913     12.5543    12.2948    7.5936     3.6147     17.1153    9.1204     0.5905     88.6576   
2549.400025 8.9504     6.237      12.1932    11.7644    7.5542     3.667      17.5495    9.4701     0.5905     89.2338   
2549.600025 9.1473     5.9658     11.7138    11.4022    7.6462     3.7978     17.8922    10.2019    0.5871     89.0288   
2549.800025 9.3034     5.525      11.0539    11.4216    8.2641     3.8632     15.4101    11.0308    0.5871     88.8103   
2550.000025 9.4527     6.2574     12.5215    11.5574    8.9478     3.9025     12.1206    10.6357    0.5938     89.0317   
2550.200025 9.9212     6.5354     12.0421    11.4798    8.9741     3.9221     12.061     9.6708     0.5905     89.1133   
2550.400025 9.989      6.8676     12.0159    10.7942    8.4088     3.8115     12.9607    8.7448     0.5905     88.8882   
2550.600025 9.4052     7.3016     12.9417    10.5742    8.3299     3.6932     14.4452    8.5764     0.5905     88.4394   
2550.800025 8.8825     7.2067     12.9483    10.4319    8.5074     3.6801     16.1964    8.9585     0.5905     88.0113   
2551.000025 8.4684     6.5625     13.0993    10.0083    8.6126     3.7324     16.6685    9.551      0.5871     87.9684   
2551.200026 8.353      6.0675     12.7316    9.4164     8.6849     3.824      16.8291    10.3638    0.5871     88.2384   
2551.400026 8.499      5.8166     11.7926    9.1965     8.7966     4.0333     16.8583    11.3416    0.5871     88.3439   
2551.600026 8.7739     5.5148     10.8799    9.3194     9.2371     4.3341     15.7716    12.7339    0.5871     88.2776   
2551.800026 9.059      5.6674     10.696     9.8692     10.0983    4.5957     13.2395    14.0679    0.5938     88.2282   
2552.000026 9.1676     6.3387     11.3658    10.723     10.7096    4.7265     11.5486    14.3723    0.5938     88.127    
2552.200026 9.4867     7.1457     12.4263    11.1693    10.2363    4.7788     12.7538    13.647     0.5938     88.0353   
2552.400026 9.7243     6.7117     11.3133    10.5872    8.9084     4.7265     13.8095    12.3583    0.6006     88.0018   
2552.600026 9.7175     6.6303     11.1885    9.3129     7.7842     4.5303     13.5028    11.5359    0.604      87.8048   
