~Version
 VERS              .         2.0                           : CWLS LOG ASCII STANDARD - VERSION 2.0
 WRAP              .         NO                            : ONE LINE PER DEPTH STEP
 DLM               .         SPACE                         : DELIMITING CHARACTER(SPACE TAB OR COMMA)
~Well Information
#_______________________________________________________________________________
#
#PARAMETER_NAME    .UNIT     VALUE                         : DESCRIPTION
#_______________________________________________________________________________
STRT               .m        2500                          : First reference value
STOP               .m        2709.600105                   : Last reference value
STEP               .m        0.2000001                     : Step increment
NULL               .         -9999                         : Missing value
COMP               .                                       : Company
WELL               .         400                           : Well name
FLD                .                                       : Field
LOC                .                                       : Location
CNTY               .                                       : County
STAT               .                                       : State
CTRY               .                                       : Country
SRVC               .                                       : Service Company
DATE               .                                       : Date
API                .                                       : API number
EREF               .m        140.4                         : 
Pad                .         4                             : 
X                  .m        222100                        : 
Y                  .m        250025                        : 
group              .         Pad4                          : 
Интер-р            .         Ярышев                        : 
Куст               .         4                             : 
Статус             .         Не проверено                  : 
Тип                .         Разобраться                   : 
~Parameter Information Block
#_______________________________________________________________________________
#
#PARAMETER_NAME    .UNIT     VALUE                         : DESCRIPTION
#_______________________________________________________________________________
SET                .         LAS1                          : 
REAL_CREATION_DATE .         Ср апр 11 2012-13_17_12       : 
TLFamily_DEPTH     .         Measured Depth                : 
TLFamily_KS        .         Potential Resistivity         : 
TLFamily_KS1       .         Extra Shallow Resistivity     : 
TLFamily_KS2       .         Shallow Resistivity           : 
TLFamily_KS3       .         Medium Resistivity            : 
TLFamily_KS4       .         Deep Resistivity              : 
TLFamily_KS5       .         Extra Deep Resistivity        : 
TLFamily_LLD       .         Lateral Log Resistivity       : 
TLFamily_OKS       .         Medium Resistivity Inverted   : 
TLFamily_RM        .         Mud Resistivity               : 
TLFamily_SP        .         Spontaneous Potential         : 
group              .         INI                           : 
~Curve Information
#_______________________________________________________________________________
#
#LOGNAME           .UNIT     LOG_ID                        : DESCRIPTION
#_______________________________________________________________________________
DEPTH              .m                                      : Measured Depth 
KS                 .ohm.m                                  : Potential Resistivity 
KS1                .ohm.m                                  : Extra Shallow Resistivity 
KS2                .ohm.m                                  : Shallow Resistivity 
KS3                .ohm.m                                  : Medium Resistivity 
KS4                .ohm.m                                  : Deep Resistivity 
KS5                .ohm.m                                  : Extra Deep Resistivity 
LLD                .ohm.m                                  : Lateral Log Resistivity 
OKS                .ohm.m                                  : Medium Resistivity Inverted 
RM                 .ohm.m                                  : Mud Resistivity 
SP                 .mV                                     : Spontaneous Potential 
~Ascii
# ...
2513.200007 0.01       -9999      0.0749     -9999      -9999      -9999      14.0587    0.0155     0.5466     21.4679   
2513.400007 0.01       -9999      0.0651     -9999      -9999      -9999      14.0667    0.0155     0.55       22.1114   
2513.600007 0.01       -9999      0.0651     -9999      -9999      -9999      13.885     0.0155     0.55       22.2543   
2513.800007 0.01       -9999      0.0716     -9999      -9999      -9999      13.6439    0.0155     0.5534     22.0724   
2514.000007 0.01       -9999      0.0782     -9999      -9999      -9999      13.3913    0.0155     0.55       21.7496   
2514.200007 0.01       -9999      0.0651     -9999      -9999      -9999      13.6527    0.0155     0.55       21.5083   
2514.400007 0.01       -9999      0.0716     -9999      -9999      -9999      13.8478    0.0155     0.55       21.397    
2514.600007 0.01       -9999      0.0651     -9999      -9999      -9999      13.7237    0.0155     0.5534     21.3298   
2514.800007 0.01       -9999      0.0716     -9999      -9999      -9999      12.8453    0.0155     0.55       21.3958   
2515.000007 0.01       -9999      0.0651     -9999      -9999      -9999      12.7036    0.0155     0.55       21.7839   
2515.200008 0.01       -9999      0.0716     -9999      -9999      -9999      13.2865    0.0155     0.55       22.731    
2515.400008 0.01       -9999      0.0683     -9999      -9999      -9999      13.7306    0.0155     0.5466     24.1069   
2515.600008 0.01       -9999      0.0716     -9999      -9999      -9999      15.3474    0.009      0.5466     25.1617   
2515.800008 0.01       -9999      0.0848     -9999      -9999      -9999      19.8871    0.009      0.5466     25.6323   
2516.000008 0.01       -9999      0.0519     -9999      -9999      -9999      23.6556    0.0478     0.5298     25.3025   
2516.200008 0.01       -9999      0.0519     -9999      -9999      -9999      21.3759    3.1886     0.5298     20.9302   
2516.400008 0.01       -9999      0.0782     -9999      -9999      -9999      10.9942    13.226     0.5635     14.967    
2516.600008 0.4546     -9999      0.0782     -9999      -9999      -9999      2.4659     18.9118    0.5804     19.8944   
2516.800008 3.8794     0.2901     0.0782     -9999      -9999      -9999      0.4861     17.1568    0.5837     38.0611   
2517.000009 5.2711     3.3212     0.0716     -9999      -9999      -9999      0.3624     11.6913    0.5837     56.6833   
2517.200009 5.9295     4.4875     0.0716     -9999      -9999      -9999      0.3658     9.6903     0.5871     67.4472   
2517.400009 6.2147     5.0232     0.6757     -9999      -9999      0.1093     0.3939     8.4534     0.5905     73.625    
2517.600009 6.3097     5.2538     5.2459     -9999      -9999      0.4494     0.4391     7.6957     0.5905     77.9667   
2517.800009 6.3504     5.2605     6.9729     -9999      -9999      0.4494     0.4895     7.2424     0.5871     81.0037   
2518.000009 6.3912     5.1521     7.7083     -9999      -9999      0.4363     0.537      7.0158     0.5871     82.7296   
2518.200009 6.493      5.1114     8.0498     -9999      -9999      0.4363     0.5854     6.9834     0.5871     83.5167   
2518.400009 6.4998     5.1046     8.3584     -9999      -9999      0.4363     0.6229     7.0546     0.5905     84.4084   
2518.600009 6.3572     5.5928     9.1661     0.2996     -9999      0.4363     0.7819     6.8215     0.5938     85.0682   
2518.800009 6.269      5.8098     8.9559     3.1682     -9999      0.4363     1.1169     6.4653     0.5938     85.4434   
2519.00001 6.0585     5.5996     8.5291     4.229      -9999      0.4233     1.4503     6.3034     0.5938     86.1207   
2519.20001 5.9024     5.1114     8.0826     4.6753     -9999      0.4363     1.8786     6.4912     0.5938     86.9578   
2519.40001 5.9669     4.7045     7.7806     4.8823     -9999      0.4233     2.9589     6.692      0.5938     87.3895   
2519.60001 6.14       4.674      7.8134     5.0181     -9999      0.4363     6.0487     6.8409     0.5938     87.6519   
2519.80001 6.269      4.9079     7.7543     5.141      -9999      0.4233     10.5781    6.9122     0.5938     87.7104   
2520.00001 6.3572     5.091      7.6821     5.2121     -9999      0.4363     13.2017    6.9964     0.5938     87.5847   
2520.20001 6.4115     5.1046     7.6525     5.2509     -9999      0.4233     13.8615    7.1        0.5938     87.5358   
2520.40001 6.4794     5.1046     7.82       5.2833     -9999      0.4233     13.8141    7.1841     0.5938     87.6144   
2520.60001 6.5541     5.1181     8.017      5.3544     0.004      0.4233     13.6922    7.2489     0.5938     87.4304   
2520.80001 6.6016     5.2402     8.2599     5.4967     1.6968     0.4363     13.7956    7.3201     0.5938     86.6088   
2521.00001 6.6287     5.2945     8.3453     5.542      2.5382     0.4363     13.9863    7.4497     0.5972     86.2931   
2521.200011 6.6627     5.2741     8.3387     5.4773     3.051      0.4233     14.0041    7.5209     0.5972     86.9052   
2521.400011 6.7442     5.2199     8.3453     5.4159     3.3468     0.4363     13.9587    7.5792     0.5972     87.497    
2521.600011 6.9071     5.2063     8.3518     5.4515     3.5375     0.4363     13.8547    7.6569     0.6006     87.7551   
2521.800011 7.0089     5.2368     8.3715     5.5679     3.6953     0.4363     13.5526    7.7734     0.5972     87.7808   
2522.000011 7.1107     5.3419     8.562      5.6843     3.8202     0.4363     13.2181    7.8253     0.6006     87.7186   
2522.200011 7.2193     5.3826     8.6802     5.8007     3.9122     0.4363     13.0921    7.8382     0.6006     87.7968   
2522.400011 7.2872     5.4911     8.9231     5.8913     3.9911     0.4363     13.1031    7.7929     0.604      87.926    
2522.600011 7.3415     5.5386     9.0347     5.9948     4.0634     0.4363     13.2334    7.7411     0.604      87.8542   
2522.800011 7.3823     5.5386     9.1529     6.0853     4.162      0.4363     13.3203    7.6828     0.6073     87.7319   
2523.000011 7.3891     5.5793     9.3302     6.1824     4.2277     0.4363     13.4401    7.618      0.6141     87.7559   
2523.200012 7.4162     5.5928     9.409      6.2794     4.2606     0.4363     13.653     7.5079     0.6141     87.8954   
2523.400012 7.4298     5.586      9.4484     6.3764     4.3099     0.4363     13.7579    7.4367     0.6141     88.1149   
2523.600012 7.4637     5.5589     9.455      6.5122     4.3855     0.4363     13.682     7.3169     0.6158     88.3491   
2523.800012 7.535      5.5386     9.455      6.5963     4.4578     0.4363     13.5448    7.2165     0.6175     88.337    
2524.000012 7.6402     5.5928     9.501      6.7127     4.5564     0.4363     13.4702    7.1647     0.6141     88.2044   
2524.200012 7.6674     5.6606     9.5732     6.8615     4.6748     0.4363     13.3228    7.1323     0.6208     88.3099   
2524.400012 7.6538     5.7691     9.7373     7.0232     4.7931     0.4363     13.2233    7.1194     0.6242     88.6092   
2524.600012 7.6199     5.8437     9.9278     7.1526     4.8983     0.4363     13.3965    7.0805     0.6242     88.7624   
2524.800012 7.5588     5.8573     10.0525    7.2302     4.9837     0.4363     13.7098    7.1        0.6242     87.9792   
2525.000013 7.4841     5.7827     10.0197    7.2949     5.1087     1.7312     13.8294    7.1971     0.6208     86.9034   
2525.200013 7.3551     5.8166     10.2561    7.3919     5.2401     2.5683     13.8923    7.3007     0.6208     87.1505   
2525.400013 7.2261     5.8437     10.2298    7.4566     5.3322     3.1308     14.3425    7.3396     0.6208     87.9745   
2525.600013 7.1039     5.7759     10.0066    7.4242     5.3387     3.4839     14.9125    7.3007     0.6175     88.639    
2525.800013 6.975      5.6945     9.8687     7.3046     5.2927     3.7193     15.2422    7.1647     0.6191     88.9785   
2526.000013 6.9173     5.4911     9.4878     7.062      5.2073     3.8632     15.4619    6.9154     0.6141     88.9785   
2526.200013 6.9274     5.3419     9.2055     6.8615     5.1284     3.9809     15.5244    6.7503     0.6141     88.816    
