~Version
 VERS              .         2.0                           : CWLS LOG ASCII STANDARD - VERSION 2.0
 WRAP              .         NO                            : ONE LINE PER DEPTH STEP
 DLM               .         SPACE                         : DELIMITING CHARACTER(SPACE TAB OR COMMA)
~Well Information
#_______________________________________________________________________________
#
#PARAMETER_NAME    .UNIT     VALUE                         : DESCRIPTION
#_______________________________________________________________________________
STRT               .m        2500                          : First reference value
STOP               .m        2709.600105                   : Last reference value
STEP               .m        0.2000001                     : Step increment
NULL               .         -9999                         : Missing value
COMP               .                                       : Company
WELL               .         400                           : Well name
FLD                .                                       : Field
LOC                .                                       : Location
CNTY               .                                       : County
STAT               .                                       : State
CTRY               .                                       : Country
SRVC               .                                       : Service Company
DATE               .                                       : Date
API                .                                       : API number
EREF               .m        140.4                         : 
Pad                .         4                             : 
X                  .m        222100                        : 
Y                  .m        250025                        : 
group              .         Pad4                          : 
Интер-р            .         Ярышев                        : 
Куст               .         4                             : 
Статус             .         Не проверено                  : 
Тип                .         Разобраться                   : 
~Parameter Information Block
#_______________________________________________________________________________
#
#PARAMETER_NAME    .UNIT     VALUE                         : DESCRIPTION
#_______________________________________________________________________________
SET                .         LAS1                          : 
REAL_CREATION_DATE .         Ср апр 11 2012-13_17_12       : 
TLFamily_DEPTH     .         Measured Depth                : 
TLFamily_KS        .         Potential Resistivity         : 
TLFamily_KS1       .         Extra Shallow Resistivity     : 
TLFamily_KS2       .         Shallow Resistivity           : 
TLFamily_KS3       .         Medium Resistivity            : 
TLFamily_KS4       .         Deep Resistivity              : 
TLFamily_KS5       .         Extra Deep Resistivity        : 
TLFamily_LLD       .         Lateral Log Resistivity       : 
TLFamily_OKS       .         Medium Resistivity Inverted   : 
TLFamily_RM        .         Mud Resistivity               : 
TLFamily_SP        .         Spontaneous Potential         : 
group              .         INI                           : 
~Curve Information
#_______________________________________________________________________________
#
#LOGNAME           .UNIT     LOG_ID                        : DESCRIPTION
#_______________________________________________________________________________
DEPTH              .m                                      : Measured Depth 
KS                 .ohm.m                                  : Potential Resistivity 
KS1                .ohm.m                                  : Extra Shallow Resistivity 
KS2                .ohm.m                                  : Shallow Resistivity 
KS3                .ohm.m                                  : Medium Resistivity 
KS4                .ohm.m                                  : Deep Resistivity 
KS5                .ohm.m                                  : Extra Deep Resistivity 
LLD                .ohm.m                                  : Lateral Log Resistivity 
OKS                .ohm.m                                  : Medium Resistivity Inverted 
RM                 .ohm.m                                  : Mud Resistivity 
SP                 .mV                                     : Spontaneous Potential 
~Ascii
2500.0000000 41.5011    41.4643    40.3761    39.668     -9999      -9999      14.9303    39.6602    10.3277    5.9579    
2500.2     41.4943    41.4643    40.3695    39.668     -9999      -9999      15.3656    39.6602    10.3277    5.5276    
2500.4     41.4943    41.4643    40.3695    39.6744    -9999      -9999      15.5491    39.6602    10.3243    5.1436    
2500.6     41.4875    41.4575    40.3761    39.6712    -9999      -9999      15.0524    39.6666    10.326     5.0139    
2500.8     41.4943    41.4575    40.3761    39.668     -9999      -9999      14.818     39.6666    10.3277    4.7064    
2501.000001 41.4943    41.4575    40.3695    39.6744    12.3663    -9999      15.2036    39.6699    10.3277    4.3674    
2501.200001 41.4943    41.4575    40.363     39.6809    40.1083    -9999      15.6205    39.6602    10.3277    3.8096    
2501.400001 41.4875    41.4575    40.363     39.6744    40.1214    -9999      15.5646    39.6537    10.3243    3.1716    
2501.600001 41.4875    41.4575    40.3695    39.668     40.1149    -9999      15.3127    31.0668    10.3209    2.7953    
2501.800001 41.4875    41.4643    40.3761    39.668     40.1149    -9999      15.26      -9999      10.3277    2.4198    
2502.000001 41.4943    41.4507    40.363     39.6744    40.1083    -9999      15.1343    -9999      10.3243    1.547     
2502.200001 41.4943    41.4643    40.3695    39.6744    40.1214    -9999      14.7484    -9999      10.3243    0.5969    
2502.400001 41.4739    41.4575    40.3695    39.6744    40.1149    -9999      13.3014    -9999      10.3243    0.3446    
2502.600001 41.4875    41.4507    40.3695    39.668     40.1214    -9999      11.3498    -9999      10.3277    0.2162    
2502.800001 41.4943    41.4507    40.3695    39.6647    40.1149    -9999      12.4083    -9999      10.3277    0.2505    
2503.000002 41.4943    41.4575    40.3695    39.6744    40.1214    -9999      13.1772    -9999      10.3277    0.5747    
2503.200002 41.4875    41.4643    40.3564    39.668     40.1214    -9999      12.9009    -9999      10.3243    0.9875    
2503.400002 41.4875    41.4575    40.3564    39.668     40.1214    -9999      14.1568    -9999      10.3209    1.6985    
2503.600002 41.4875    41.4507    40.363     39.6744    40.1214    -9999      18.675     -9999      10.3243    3.3206    
2503.800002 41.4739    41.4507    40.363     39.668     40.1083    -9999      21.477     -9999      10.2973    6.6861    
2504.000002 41.3925    41.4439    40.363     39.668     40.1214    -9999      20.8607    -9999      -9999      9.075     
2504.200002 12.7655    41.3761    40.3663    39.6744    40.1149    -9999      20.9303    -9999      -9999      4.5417    
2504.400002 0.01       13.6147    40.363     39.6615    40.1083    -9999      18.1464    -9999      -9999      0.5444    
2504.600002 0.01       -9999      40.3564    39.6615    40.1214    -9999      14.1385    -9999      -9999      6.0907    
2504.800002 0.01       -9999      40.2776    39.6615    40.1214    -9999      13.405     -9999      -9999      15.2741   
2505.000002 0.01       -9999      12.3311    39.668     40.1214    -9999      13.7146    -9999      -9999      19.4648   
2505.200003 0.01       -9999      -9999      39.668     40.1149    -9999      12.2061    -9999      -9999      20.9657   
2505.400003 0.01       -9999      -9999      39.6647    40.1214    39.8193    7.3208     -9999      -9999      22.9053   
2505.600003 0.01       -9999      -9999      39.668     40.1017    39.8062    4.4791     -9999      -9999      24.3547   
2505.800003 0.01       -9999      -9999      39.6615    40.1214    39.7931    4.1743     -9999      -9999      24.7818   
2506.000003 0.01       -9999      -9999      39.5839    40.1214    39.8062    6.204      -9999      -9999      24.8018   
2506.200003 0.01       -9999      -9999      11.1758    40.1149    39.7931    7.8818     -9999      -9999      25.024    
2506.400003 0.01       -9999      -9999      -9999      40.0951    39.8062    7.9634     -9999      -9999      25.4024   
2506.600003 0.01       -9999      -9999      -9999      40.0951    39.8062    8.3192     -9999      -9999      25.8929   
2506.800003 0.01       -9999      -9999      -9999      40.1214    39.7931    7.4346     0.0155     -9999      25.5018   
2507.000003 0.01       -9999      -9999      -9999      40.1017    39.7931    9.8163     0.0155     -9999      25.0905   
2507.200004 0.01       -9999      -9999      -9999      40.1214    39.8062    10.0764    0.0155     -9999      26.059    
2507.400004 0.01       -9999      -9999      -9999      40.1214    39.8193    8.0879     0.0155     -9999      26.4249   
2507.600004 0.01       -9999      -9999      -9999      40.1017    39.8062    8.8817     0.0155     -9999      26.3548   
2507.800004 0.01       -9999      -9999      -9999      40.0886    39.8062    6.7439     0.0155     -9999      26.6976   
2508.000004 0.01       -9999      -9999      -9999      39.99      39.7931    4.249      0.0155     -9999      26.8745   
2508.200004 0.01       -9999      -9999      -9999      7.449      39.8062    3.4897     0.0155     -9999      26.8944   
2508.400004 0.01       -9999      -9999      -9999      -9999      39.7931    3.1752     0.0155     -9999      26.8278   
2508.600004 0.01       -9999      -9999      -9999      -9999      39.7931    3.2315     0.0155     -9999      26.1      
2508.800004 0.01       -9999      -9999      -9999      -9999      39.8062    3.9704     0.0155     -9999      26.4944   
2509.000005 0.01       -9999      -9999      -9999      -9999      39.8062    3.9481     0.0155     0.55       27.5694   
2509.200005 0.01       -9999      -9999      -9999      -9999      39.8062    4.3654     0.0155     0.5534     28.5056   
2509.400005 0.01       -9999      -9999      -9999      -9999      39.7931    5.7113     0.0155     0.55       28.5785   
2509.600005 0.01       -9999      -9999      -9999      -9999      39.8062    7.0322     0.0155     0.5534     27.8208   
2509.800005 0.01       -9999      -9999      -9999      -9999      39.7931    9.0967     0.0155     0.5517     26.9819   
2510.000005 0.01       -9999      0.0191     -9999      -9999      39.8062    9.4925     0.0155     0.55       26.091    
2510.200005 0.01       -9999      0.0716     -9999      -9999      39.8062    11.4874    0.0155     0.5534     24.9486   
2510.400005 0.01       -9999      0.0651     -9999      -9999      39.8062    14.1034    0.0155     0.5466     24.0576   
2510.600005 0.01       -9999      0.0716     -9999      -9999      39.7931    15.0257    0.0155     0.55       23.837    
2510.800005 0.01       -9999      0.0716     -9999      -9999      39.7931    14.8073    0.0155     0.5433     23.8175   
2511.000006 0.01       -9999      0.0716     -9999      -9999      39.8062    14.0991    0.0155     0.55       23.8642   
2511.200006 0.01       -9999      0.0651     -9999      -9999      39.7931    11.2572    0.0155     0.55       23.9135   
2511.400006 0.01       -9999      0.0716     -9999      -9999      39.8062    7.5599     0.0155     0.5466     23.9706   
2511.600006 0.01       -9999      0.0716     -9999      -9999      39.8062    8.6606     0.0155     0.5466     24.0271   
2511.800006 0.01       -9999      0.0716     -9999      -9999      39.7931    13.1241    0.0155     0.55       24.0031   
2512.000006 0.01       -9999      0.0651     -9999      -9999      39.7931    13.2334    0.0155     0.5466     23.7131   
2512.200006 0.01       -9999      0.0651     -9999      -9999      39.78      11.3851    0.0155     0.5449     23.0668   
2512.400006 0.01       -9999      0.0716     -9999      -9999      15.0987    13.3169    0.0155     0.5466     22.8153   
2512.600006 0.01       -9999      0.0651     -9999      -9999      -9999      14.3888    0.0155     0.5466     22.9178   
2512.800006 0.01       -9999      0.0651     -9999      -9999      -9999      14.1082    0.0155     0.55       22.2643   
2513.000006 0.01       -9999      0.0651     -9999      -9999      -9999      14.0135    0.0155     0.5534     21.2642   
