~Version
 VERS              .         2.0                           : CWLS LOG ASCII STANDARD - VERSION 2.0
 WRAP              .         NO                            : ONE LINE PER DEPTH STEP
 DLM               .         SPACE                         : DELIMITING CHARACTER(SPACE TAB OR COMMA)
~Well Information
#_______________________________________________________________________________
#
#PARAMETER_NAME    .UNIT     VALUE                         : DESCRIPTION
#_______________________________________________________________________________
STRT               .m        2500                          : First reference value
STOP               .m        2709                          : Last reference value
STEP               .m        0.2                           : Step increment
NULL               .         -9999                         : Missing value
COMP               .                                       : Company
WELL               .         400                           : Well name
FLD                .                                       : Field
LOC                .                                       : Location
CNTY               .                                       : County
STAT               .                                       : State
CTRY               .                                       : Country
SRVC               .                                       : Service Company
DATE               .                                       : Date
API                .                                       : API number
EREF               .m        140.4                         : 
Pad                .         4                             : 
X                  .m        222100                        : 
Y                  .m        250025                        : 
group              .         Pad4                          : 
Интер-р            .         Ярышев                        : 
Куст               .         4                             : 
Статус             .         Не проверено                  : 
Тип                .         Разобраться                   : 
~Parameter Information Block
#_______________________________________________________________________________
#
#PARAMETER_NAME    .UNIT     VALUE                         : DESCRIPTION
#_______________________________________________________________________________
SET                .         LAS3                          : 
REAL_CREATION_DATE .         Ср апр 11 2012-13_17_12       : 
TLFamily_DEPTH     .         Measured Depth                : 
TLFamily_GR        .         Gamma Ray                     : 
TLFamily_TNPH      .         Neutron Porosity              : 
group              .         INI                           : 
~Curve Information
#_______________________________________________________________________________
#
#LOGNAME           .UNIT     LOG_ID                        : DESCRIPTION
#_______________________________________________________________________________
DEPTH              .m                                      : Measured Depth 
GR                 .gAPI                                   :  
TNPH               .v/v                                    : Neutron Porosity 
~Ascii
# ...
2597.2     127.422    0.2943    
2597.4     128.961    0.2985    
2597.6     130.547    0.2753    
2597.8     121.411    0.2468    
2598       115        0.2218    
2598.2     113.276    0.2401    
2598.4     111.14     0.2431    
2598.6     114.357    0.241     
2598.8     112.887    0.2633    
2599       105.469    0.2568    
2599.2     106.617    0.2415    
2599.4     115.588    0.2508    
2599.6     120.344    0.2664    
2599.8     123.992    0.2946    
2600       123.945    0.2997    
2600.2     126.25     0.294     
2600.4     128.438    0.2742    
2600.6     127.764    0.2802    
2600.8     117.772    0.2975    
2601       118.025    0.2941    
2601.2     119.688    0.3014    
2601.4     122.851    0.3197    
2601.6     134.75     0.3223    
2601.8     139.625    0.3121    
2602       140.816    0.3098    
2602.2     143.594    0.2957    
2602.4     144.778    0.2609    
2602.6     145.172    0.2427    
2602.8     144.008    0.2868    
2603       133.867    0.3094    
2603.2     120.68     0.3254    
2603.4     122.898    0.317     
2603.6     139.911    0.2976    
2603.8     146.859    0.269     
2604       147.016    0.2406    
2604.2     131.984    0.2657    
2604.4     116.446    0.2921    
2604.6     108.555    0.3436    
2604.8     105.123    0.3634    
2605       106.86     0.3578    
2605.2     113.898    0.2913    
2605.4     127.484    0.2882    
2605.6     145.183    0.3074    
2605.8     159.008    0.3022    
2606       161.258    0.2844    
2606.2     166.328    0.2666    
2606.4     160.148    0.2789    
2606.6     150.663    0.2832    
2606.8     133.594    0.3538    
2607       127.5      0.369     
2607.2     127.463    0.3633    
2607.4     129.827    0.324     
2607.6     143.578    0.3725    
2607.8     153.642    0.3855    
2608       163.305    0.4055    
2608.2     187.661    0.4306    
2608.4     211.313    0.4657    
2608.6     214.501    0.4802    
2608.8     213.779    0.4556    
2609       201.284    0.4592    
2609.2     203.617    0.4224    
2609.4     224.43     0.3853    
2609.6     239.562    0.371     
2609.8     234.547    0.3891    
2610       218.647    0.4042    
2610.2     217.023    0.3575    
2610.4     231.18     0.3243    
2610.6     244.688    0.3007    
2610.8     225.265    0.326     
2611       169.375    0.3423    
2611.2     139.039    0.3561    
2611.4     122.758    0.3749    
2611.6     117.833    0.367     
2611.8     112.656    0.324     
2612       115.661    0.2755    
2612.2     122.711    0.253     
2612.4     126.563    0.2463    
2612.6     121.906    0.2281    
2612.8     117.461    0.2324    
2613       112.008    0.2438    
2613.2     105.047    0.2403    
2613.4     106.714    0.2183    
2613.6     129.016    0.2431    
2613.8     141.175    0.2972    
2614       146.77     0.3089    
2614.2     147.909    0.3232    
2614.4     138.852    0.3243    
2614.6     135.313    0.3067    
2614.8     132.453    0.3107    
2615       131.641    0.2903    
2615.2     128.422    0.2733    
2615.4     127.656    0.2662    
2615.6     132.507    0.2529    
2615.8     135        0.2968    
2616       134.766    0.3083    
2616.2     133.658    0.3066    
2616.4     127.164    0.3553    
2616.6     125.305    0.3304    
2616.8     124.297    0.3009    
2617       130.205    0.3       
2617.2     130.695    0.2875    
2617.4     131.953    0.2633    
2617.6     129.995    0.2711    
2617.8     129.325    0.2862    
2618       128.607    0.2788    
2618.2     128.125    0.2737    
2618.4     130.219    0.277     
2618.6     134.609    0.2917    
2618.8     131.614    0.2893    
2619       128.516    0.2882    
2619.2     130.841    0.2816    
2619.4     132.656    0.2692    
2619.6     134.789    0.2682    
2619.8     135.938    0.2457    
2620       133.228    0.2598    
2620.2     121.484    0.2779    
2620.4     127.891    0.2924    
2620.6     131.782    0.2811    
2620.8     130.238    0.2856    
2621       134.719    0.2886    
2621.2     139.219    0.2494    
2621.4     134.258    0.2409    
2621.6     132.75     0.2661    
2621.8     131.037    0.2844    
2622       128.477    0.2779    
2622.2     125.642    0.2743    
2622.4     123.953    0.2783    
2622.6     134.375    0.2854    
2622.8     131.467    0.29      
2623       130.125    0.2749    
2623.2     125.812    0.2936    
2623.4     121.875    0.2928    
2623.6     121.719    0.2844    
2623.8     117.563    0.2778    
2624       117.836    0.2501    
2624.2     119.812    0.2497    
2624.4     117.469    0.2603    
2624.6     111.172    0.255     
2624.8     117.5      0.3092    
2625       118.883    0.2896    
2625.2     127.656    0.2393    
2625.4     125.393    0.2134    
2625.6     122.813    0.2172    
2625.8     123.778    0.2395    
2626       128.539    0.2622    
2626.2     131.562    0.2559    
2626.4     137.5      0.2787    
2626.6     134.034    0.3459    
2626.8     132.819    0.3416    
2627       132.83     0.333     
2627.2     130.766    0.2899    
2627.4     128.586    0.2876    
2627.6     125.593    0.2839    
2627.8     123.684    0.2649    
2628       121.336    0.2095    
2628.2     118.416    0.1934    
2628.4     115.57     0.2097    
2628.6     108.062    0.214     
2628.8     118.127    0.1965    
2629       139.782    0.1753    
2629.2     148.281    0.1619    
2629.4     116.794    0.1619    
2629.6     58.439     0.1619    
2629.8     35.209     0.1703    
2630       31.875     0.183     
2630.2     33.543     0.1844    
2630.4     35.57      0.1631    
2630.6     35.683     0.1644    
2630.8     36         0.163     
2631       34.395     0.1673    
2631.2     32.349     0.1773    
2631.4     32.441     0.1773    
2631.6     34.234     0.1674    
2631.8     35.992     0.17      
2632       37.188     0.1734    
2632.2     39.302     0.1717    
2632.4     38.992     0.1662    
2632.6     35.125     0.1543    
2632.8     37.056     0.1548    
2633       37.648     0.1729    
2633.2     37.93      0.1915    
2633.4     38.203     0.1997    
2633.6     37.72      0.1942    
2633.8     37.5       0.1781    
2634       37.85      0.1844    
2634.2     38.071     0.2003    
2634.4     38.508     0.1829    
2634.6     40.062     0.1706    
2634.8     37.534     0.1639    
2635       37.031     0.1794    
2635.2     38.219     0.178     
2635.4     42.778     0.1796    
2635.6     47.553     0.1856    
2635.8     49.5       0.1872    
2636       51.563     0.1678    
2636.2     62.133     0.1543    
2636.4     63.758     0.1293    
2636.6     59.843     0.1064    
2636.8     50.722     0.0993    
2637       43.568     0.09      
2637.2     33.516     0.0825    
2637.4     28.694     0.0769    
2637.6     27.719     0.0768    
2637.8     28.625     0.0747    
2638       32.712     0.0677    
2638.2     34.922     0.0755    
2638.4     34.922     0.0812    
2638.6     37.266     0.088     
2638.8     35.055     0.09      
2639       33.218     0.0856    
2639.2     29.742     0.0794    
2639.4     29.372     0.0822    
2639.6     31.113     0.0821    
2639.8     28.688     0.0836    
2640       28.766     0.0897    
2640.2     29.148     0.0846    
2640.4     31.016     0.0725    
2640.6     31.133     0.0821    
2640.8     31.195     0.1064    
2641       29.7       0.1547    
2641.2     28.219     0.1917    
2641.4     31.164     0.2053    
2641.6     36.648     0.2052    
2641.8     37.778     0.2035    
2642       38.984     0.2047    
2642.2     39.609     0.2049    
2642.4     40.408     0.2122    
2642.6     40.687     0.2159    
2642.8     39.25      0.214     
2643       41.199     0.2089    
2643.2     41.625     0.2015    
2643.4     40         0.198     
2643.6     40.641     0.1964    
2643.8     42.5       0.1931    
2644       42.759     0.1886    
2644.2     45.8       0.1936    
2644.4     48.414     0.205     
2644.6     52.239     0.2095    
2644.8     53.563     0.2142    
2645       55.231     0.2363    
2645.2     56.754     0.2457    
2645.4     54.539     0.2273    
2645.6     51.797     0.2237    
