~Version
 VERS              .         2.0                           : CWLS LOG ASCII STANDARD - VERSION 2.0
 WRAP              .         NO                            : ONE LINE PER DEPTH STEP
 DLM               .         SPACE                         : DELIMITING CHARACTER(SPACE TAB OR COMMA)
~Well Information
#_______________________________________________________________________________
#
#PARAMETER_NAME    .UNIT     VALUE                         : DESCRIPTION
#_______________________________________________________________________________
STRT               .m        2500                          : First reference value
STOP               .m        2709.600105                   : Last reference value
STEP               .m        0.2000001                     : Step increment
NULL               .         -9999                         : Missing value
COMP               .                                       : Company
WELL               .         400                           : Well name
FLD                .                                       : Field
LOC                .                                       : Location
CNTY               .                                       : County
STAT               .                                       : State
CTRY               .                                       : Country
SRVC               .                                       : Service Company
DATE               .                                       : Date
API                .                                       : API number
EREF               .m        140.4                         : 
Pad                .         4                             : 
X                  .m        222100                        : 
Y                  .m        250025                        : 
group              .         Pad4                          : 
Интер-р            .         Ярышев                        : 
Куст               .         4                             : 
Статус             .         Не проверено                  : 
Тип                .         Разобраться                   : 
~Parameter Information Block
#_______________________________________________________________________________
#
#PARAMETER_NAME    .UNIT     VALUE                         : DESCRIPTION
#_______________________________________________________________________________
SET                .         LAS1                          : 
REAL_CREATION_DATE .         Ср апр 11 2012-13_17_12       : 
TLFamily_DEPTH     .         Measured Depth                : 
TLFamily_KS        .         Potential Resistivity         : 
TLFamily_KS1       .         Extra Shallow Resistivity     : 
TLFamily_KS2       .         Shallow Resistivity           : 
TLFamily_KS3       .         Medium Resistivity            : 
TLFamily_KS4       .         Deep Resistivity              : 
TLFamily_KS5       .         Extra Deep Resistivity        : 
TLFamily_LLD       .         Lateral Log Resistivity       : 
TLFamily_OKS       .         Medium Resistivity Inverted   : 
TLFamily_RM        .         Mud Resistivity               : 
TLFamily_SP        .         Spontaneous Potential         : 
group              .         INI                           : 
~Curve Information
#_______________________________________________________________________________
#
#LOGNAME           .UNIT     LOG_ID                        : DESCRIPTION
#_______________________________________________________________________________
DEPTH              .m                                      : Measured Depth 
KS                 .ohm.m                                  : Potential Resistivity 
KS1                .ohm.m                                  : Extra Shallow Resistivity 
KS2                .ohm.m                                  : Shallow Resistivity 
KS3                .ohm.m                                  : Medium Resistivity 
KS4                .ohm.m                                  : Deep Resistivity 
KS5                .ohm.m                                  : Extra Deep Resistivity 
LLD                .ohm.m                                  : Lateral Log Resistivity 
OKS                .ohm.m                                  : Medium Resistivity Inverted 
RM                 .ohm.m                                  : Mud Resistivity 
SP                 .mV                                     : Spontaneous Potential 
~Ascii
# ...
2671.600086 8.2139     6.0065     11.1557    5.8784     3.6821     3.5231     14.6369    8.8873     0.5669     69.0583   
2671.800086 8.0204     6.2302     10.9062    6.0659     2.959      2.9346     14.8422    8.4923     0.5635     72.3417   
2672.000086 7.9593     5.9861     10.3218    6.2632     2.4133     2.516      15.1856    8.2462     0.577      75.5569   
2672.200086 7.8167     5.9115     9.9409     6.053      2.0255     2.2544     15.6739    8.1749     0.5736     76.525    
2672.400086 7.8032     5.7081     9.9245     6.1694     1.7625     2.0713     15.911     8.3304     0.5534     75.7583   
2672.600086 7.8303     5.1927     9.3828     6.8227     1.6573     2.0059     15.1142    8.7319     0.5567     75.8528   
2672.800086 7.8303     5.4233     10.0919    7.3984     1.6803     2.0713     14.0511    8.7837     0.5736     77.5986   
2673.000087 7.9084     5.7691     10.1707    7.5924     1.7034     2.1236     14.6713    8.3498     0.5702     78.8944   
2673.200087 7.9118     5.7657     9.6979     7.2949     1.6902     2.1629     16.2233    7.6051     0.577      77.5556   
2673.400087 8.0272     5.5589     9.3368     6.9521     1.7296     2.1629     16.8928    6.6078     0.5635     73.5681   
2673.600087 8.3055     5.1181     8.8049     6.8162     1.94       2.1498     15.6764    6.284      0.5567     68.2208   
2673.800087 8.7671     5.2199     8.9855     6.8809     2.5382     2.1498     13.7922    6.2452     0.5702     64.5617   
2674.000087 9.3577     5.3148     9.3302     7.366      3.7741     2.2152     11.8778    6.2452     0.5753     63.862    
2674.200087 9.6971     6.0268     10.3152    7.9676     4.7208     2.3852     9.5619     6.148      0.5871     64.1241   
2674.400087 9.5749     7.2474     11.6547    8.485      5.6543     2.516      9.5943     5.9861     0.5736     65.0257   
2674.600087 9.3713     7.8238     12.469     8.7761     6.9559     2.7122     12.2579    6.2452     0.5534     67.6063   
2674.800087 8.9368     6.9897     11.9634    9.0283     8.2181     2.9346     13.7826    6.9769     0.5736     72.3583   
2675.000088 8.482      6.671      12.5904    9.8466     9.4737     3.3662     13.4458    7.89       0.5871     77.1653   
2675.200088 8.0475     6.5693     13.513     10.9688    10.9397    3.8632     13.6991    8.9456     0.5837     79.1271   
2675.400088 7.3823     6.6574     13.9661    12.7475    13.7337    4.0333     15.2045    10.8559    0.5837     79.1056   
2675.600088 6.7645     7.0846     15.3647    13.2326    15.3804    3.9155     16.5576    11.3027    0.5567     78.4014   
2675.800088 6.7306     6.0946     12.1669    12.0425    12.5898    3.6278     17.0418    10.1047    0.5804     76.1007   
2676.000088 6.8188     5.3623     10.1313    9.4617     8.9807     3          16.3436    7.8447     0.5837     71.8611   
2676.200088 6.7713     5.6064     9.7505     7.7315     6.9888     2.3591     16.0711    6.3812     0.5938     67.1995   
2676.400088 6.812      5.4165     8.5357     6.2729     5.5557     2.0582     16.8421    6.0833     0.5905     64.0833   
2676.600088 6.7917     5.2809     7.8528     5.4515     4.6288     1.9013     17.2159    6.0703     0.5601     63.6741   
2676.800088 6.846      5.0842     7.8265     4.934      4.1357     1.862      17.2159    6.3682     0.5804     65.2981   
2677.000088 6.9817     4.9554     7.7674     4.7335     4.0305     2.0255     16.9722    6.7956     0.5871     68.1795   
2677.200089 7.2669     4.9147     7.925      4.8693     4.3658     2.4768     16.4084    7.4885     0.5905     70.6139   
2677.400089 7.5927     4.9283     8.0038     5.4579     5.1547     2.9476     15.2164    9.3762     0.5905     71.6903   
2677.600089 7.871      5.1588     8.6999     6.6416     6.2131     3.4316     13.1426    11.2445    0.5567     73.501    
2677.800089 8.2919     5.8166     10.1477    8.6435     6.8047     3.9548     11.3366    11.6783    0.5736     77.1125   
2678.000089 8.6585     6.1014     10.5056    9.3712     6.6338     4.648      11.0527    10.9336    0.5871     81.3597   
2678.200089 8.9776     6.6913     10.3809    8.6985     5.8153     5.4982     12.3145    9.6579     0.5837     83.4799   
2678.400089 9.0183     6.1895     9.7373     7.8964     5.0495     5.6421     13.0679    8.8679     0.5837     83.2587   
2678.600089 8.6958     6.1895     10.499     7.3208     4.8063     5.7205     12.9178    8.4923     0.5601     83.0064   
2678.800089 8.5567     6.1489     11.3658    7.0168     4.5893     5.9952     13.9402    8.3757     0.577      82.9895   
2679.000089 8.3666     5.9251     11.3592    6.7289     4.3724     6.0868     15.027     8.4081     0.5871     82.1837   
2679.20009 8.1969     5.8234     11.4643    6.3829     4.1554     5.8252     15.1571    8.4145     0.5837     79.7781   
2679.40009 8.2716     5.6335     10.3907    6.053      3.8202     5.5767     15.1062    8.3951     0.5871     74.4708   
2679.60009 8.4752     5.4979     9.5995     5.8395     3.5966     5.2758     14.7436    8.5959     0.5652     67.4444   
2679.80009 8.706      5.3962     9.1792     6.0659     3.9155     5.1254     13.7082    9.101      0.5905     62.9333   
2680.00009 8.8486     5.8302     9.7767     6.8162     4.5038     5.0796     13.1163    9.6061     0.5871     63.3722   
2680.20009 8.9911     6.1082     10.1313    7.5989     4.7339     5.0665     13.2687    9.9428     0.5972     68.7722   
2680.40009 9.0794     6.176      10.1116    7.8059     4.6419     5.0927     13.8383    9.7227     0.5635     74.2703   
2680.60009 9.3917     5.8641     9.7669     7.2884     4.3198     5.0796     14.8963    9.4442     0.5736     76.3707   
2680.80009 9.6021     5.3962     9.3171     7.0426     4.2343     5.0535     14.9004    9.7939     0.5837     76.951    
2681.000091 9.7175     5.4233     10.1051    7.1914     4.4217     5.1581     13.7116    10.4156    0.5922     78.2123   
2681.200091 9.9721     5.6471     10.5581    7.5213     4.8128     5.472      12.9744    11.1149    0.5669     79.7222   
2681.400091 10.2945    5.9319     11.0112    7.8705     5.1481     5.8383     12.6269    11.7301    0.5669     79.8577   
2681.600091 10.3896    6.3184     11.4512    8.181      5.5228     6.1129     12.3932    12.0377    0.5871     79.4659   
2681.800091 10.4439    6.5218     11.6547    8.4074     5.9041     6.4007     12.688     11.5877    0.5837     79.1336   
2682.000091 10.4507    6.5964     11.8616    8.5432     6.3248     6.6623     13.3249    11.3805    0.5972     78.772    
2682.200091 10.4574    6.4337     11.8189    8.6209     6.6667     7.0023     13.5713    11.6719    0.5702     78.089    
2682.400091 10.4846    6.393      11.9371    8.5756     6.7982     7.6432     13.1464    12.3518    0.5685     75.8919   
2682.600091 10.5525    6.3659     12.0618    8.5756     6.9494     9.7098     13.2268    13.4916    0.5871     70.7498   
2682.800091 10.5932    6.5489     11.8452    8.498      7.5213     12.1688    14.2109    15.5832    0.5837     64.7625   
2683.000092 10.5661    6.5083     11.7795    8.5562     8.698      16.5113    15.08      21.2236    0.5837     62.2139   
2683.200092 10.7561    6.3523     11.5497    9.1609     10.8543    23.1427    15.5801    28.4312    0.5601     61.3125   
2683.400092 11.3264    6.0539     11.4479    11.1564    14.7789    32.4423    15.4106    38.6305    0.577      59.9653   
2683.600092 12.236     5.6064     11.8977    14.0218    20.3733    41.2842    13.025     52.1988    0.5837     60.4972   
2683.800092 13.295     5.8844     13.7888    17.5469    27.0886    46.8692    9.0197     64.1963    0.5922     63.9194   
2684.000092 15.0023    7.1864     16.3563    19.3515    28.3804    49.1124    7.0479     65.4178    0.5669     68.3444   
2684.200092 17.402     8.1594     16.0345    18.5107    23.7655    45.4828    7.8812     50.9745    0.5736     72.7903   
2684.400092 18.6036    8.3391     15.7719    15.8199    18.6641    37.9227    9.1667     36.0078    0.5905     75.4809   
2684.600092 19.3164    7.9729     15.7653    13.3717    14.9038    29.8656    9.7695     27.0389    0.5837     76.0958   
