~Version
 VERS              .         2.0                           : CWLS LOG ASCII STANDARD - VERSION 2.0
 WRAP              .         NO                            : ONE LINE PER DEPTH STEP
 DLM               .         SPACE                         : DELIMITING CHARACTER(SPACE TAB OR COMMA)
~Well Information
#_______________________________________________________________________________
#
#PARAMETER_NAME    .UNIT     VALUE                         : DESCRIPTION
#_______________________________________________________________________________
STRT               .m        2500                          : First reference value
STOP               .m        2709.600105                   : Last reference value
STEP               .m        0.2000001                     : Step increment
NULL               .         -9999                         : Missing value
COMP               .                                       : Company
WELL               .         400                           : Well name
FLD                .                                       : Field
LOC                .                                       : Location
CNTY               .                                       : County
STAT               .                                       : State
CTRY               .                                       : Country
SRVC               .                                       : Service Company
DATE               .                                       : Date
API                .                                       : API number
EREF               .m        140.4                         : 
Pad                .         4                             : 
X                  .m        222100                        : 
Y                  .m        250025                        : 
group              .         Pad4                          : 
Интер-р            .         Ярышев                        : 
Куст               .         4                             : 
Статус             .         Не проверено                  : 
Тип                .         Разобраться                   : 
~Parameter Information Block
#_______________________________________________________________________________
#
#PARAMETER_NAME    .UNIT     VALUE                         : DESCRIPTION
#_______________________________________________________________________________
SET                .         LAS1                          : 
REAL_CREATION_DATE .         Ср апр 11 2012-13_17_12       : 
TLFamily_DEPTH     .         Measured Depth                : 
TLFamily_KS        .         Potential Resistivity         : 
TLFamily_KS1       .         Extra Shallow Resistivity     : 
TLFamily_KS2       .         Shallow Resistivity           : 
TLFamily_KS3       .         Medium Resistivity            : 
TLFamily_KS4       .         Deep Resistivity              : 
TLFamily_KS5       .         Extra Deep Resistivity        : 
TLFamily_LLD       .         Lateral Log Resistivity       : 
TLFamily_OKS       .         Medium Resistivity Inverted   : 
TLFamily_RM        .         Mud Resistivity               : 
TLFamily_SP        .         Spontaneous Potential         : 
group              .         INI                           : 
~Curve Information
#_______________________________________________________________________________
#
#LOGNAME           .UNIT     LOG_ID                        : DESCRIPTION
#_______________________________________________________________________________
DEPTH              .m                                      : Measured Depth 
KS                 .ohm.m                                  : Potential Resistivity 
KS1                .ohm.m                                  : Extra Shallow Resistivity 
KS2                .ohm.m                                  : Shallow Resistivity 
KS3                .ohm.m                                  : Medium Resistivity 
KS4                .ohm.m                                  : Deep Resistivity 
KS5                .ohm.m                                  : Extra Deep Resistivity 
LLD                .ohm.m                                  : Lateral Log Resistivity 
OKS                .ohm.m                                  : Medium Resistivity Inverted 
RM                 .ohm.m                                  : Mud Resistivity 
SP                 .mV                                     : Spontaneous Potential 
~Ascii
# ...
2592.400046 16.0715    9.3902     22.2463    20.3605    13.3063    6.5184     12.9037    20.7379    0.5938     91.7944   
2592.600046 15.9561    9.1732     21.6908    19.9595    12.8002    6.3222     13.1752    20.4692    0.6006     91.826    
2592.800046 15.7389    9.2342     21.7144    19.6555    12.4189    6.1652     13.1665    20.6149    0.6073     91.8517   
2593.000046 15.4741    9.2681     21.964     19.6555    12.1691    6.0475     13.5295    21.1265    0.6107     92.4211   
2593.200047 15.2229    9.2139     21.6291    19.552     11.8239    6.0606     14.3909    21.9101    0.6158     93.3234   
2593.400047 15.2297    8.9765     20.9265    19.0281    11.5051    6.2045     15.2452    22.9527    0.6208     93.6261   
2593.600047 15.5216    8.3357     19.5541    18.5818    11.3933    6.3484     15.051     24.5392    0.6175     93.6667   
2593.800047 15.7253    8.4001     19.692     18.7918    11.6431    6.4138     13.5864    26.2909    0.6141     93.7783   
2594.000047 16.0036    8.8274     20.3749    19.4097    11.9324    6.3876     12.2757    26.7021    0.6141     93.8356   
2594.200047 16.1869    9.1596     20.7492    19.8496    11.8995    6.2699     12.0804    25.8797    0.6073     93.7523   
2594.400047 16.2955    9.3427     20.7886    19.4873    11.4919    6.0344     12.5664    24.2349    0.6073     93.6068   
2594.600047 16.3566    9.1664     20.3092    18.737     10.8181    5.6028     12.984     22.6872    0.6073     93.461    
2594.800047 16.2819    8.9901     20.3946    18.0191    10.118     5.3543     13.3436    21.9619    0.6073     93.3456   
2595.000048 16.1631    8.9901     20.7098    17.5275    9.8813     5.2366     13.8396    21.8064    0.6107     93.2763   
2595.200048 16.0715    8.7358     20.3749    17.217     9.8353     5.2758     14.17      22.4605    0.6141     93.2108   
2595.400048 16.119     8.5968     20.4143    17.0521    9.9668     5.472      14.2763    23.7233    0.6175     93.1505   
2595.600048 16.4109    8.2442     19.8233    17.2106    10.2692    5.9036     13.8675    25.3228    0.6208     93.1281   
2595.800048 16.8182    7.9933     19.1338    17.7539    11.0652    6.5707     12.8138    27.4339    0.6242     93.0975   
2596.000048 17.2866    8.2713     19.7183    19.041     12.2479    7.9702     11.9093    29.5191    0.6225     93.1436   
2596.200048 17.8161    8.468      20.1188    20.9944    14.6606    9.0166     11.1639    31.682     0.6107     92.9956   
2596.400048 18.1284    8.9426     21.5765    23.5558    17.0864    9.6968     10.5325    34.0392    0.6107     92.1735   
2596.600048 18.2438    9.9259     24.0324    25.9102    18.6773    10.1022    10.6699    35.1789    0.6073     91.3427   
2596.800048 18.5629    9.8648     24.3344    26.4665    18.5195    10.2461    11.5741    33.22      0.6006     91.0287   
2597.000049 18.8208    9.4919     23.2969    24.8688    17.1192    9.9191     11.9825    30.7883    0.5972     91.054    
2597.200049 18.7462    9.7089     23.8419    23.2001    16.0345    9.0689     12.085     29.4155    0.5972     91.1739   
2597.400049 18.7326    9.6682     23.7303    22.3721    15.1503    8.2318     13.0428    28.4635    0.5938     91.2464   
2597.600049 18.8582    9.4173     23.251     21.3502    13.99      7.6825     14.0178    28.3146    0.5905     91.2648   
2597.800049 19.167     8.9562     22.4105    20.5352    13.451     7.3163     13.4937    28.8909    0.5871     91.3083   
2598.000049 19.4997    8.6782     22.0362    20.27      13.3589    7.0939     11.8961    29.1176    0.5871     91.4731   
2598.200049 19.9884    8.9562     22.5287    20.8909    13.5956    6.9762     11.0468    28.7291    0.5871     91.4439   
2598.400049 20.355     9.2613     23.0507    22.1846    13.8783    6.9631     10.7502    28.3146    0.5837     90.8367   
2598.600049 20.4908    9.4715     23.5071    23.3424    14.1347    6.9893     10.5339    27.7447    0.5871     90.3534   
2598.800049 20.5383    9.8445     24.4198    24.6942    14.2924    7.0808     10.8054    27.1231    0.5871     90.2574   
2599.000049 20.3143    9.9123     25.129     26.1301    14.539     7.2639     11.609     26.864     0.5871     90.3934   
2599.20005 19.8595    10.292     26.4554    26.9387    14.8512    7.3817     12.7973    26.9094    0.5972     90.9621   
2599.40005 19.4929    10.1293    26.4554    27.2944    14.8249    7.5648     13.8556    27.3497    0.604      91.5431   
2599.60005 19.5132    9.3834     25.2274    26.6832    14.6737    7.8133     14.027     28.0912    0.6073     92.1299   
2599.80005 19.6083    9.0376     24.0521    26.046     14.8512    8.0749     13.263     29.3637    0.6073     93.1498   
2600.00005 19.6965    9.2206     24.1801    26.4924    15.5546    8.4411     12.5922    30.1019    0.6141     93.7785   
2600.20005 19.8459    9.4648     24.4723    27.2297    16.5637    8.7289     12.5108    30.3221    0.6175     93.681    
2600.40005 20.0292    9.4512     24.0915    27.5273    17.7175    9.3436     12.346     30.0307    0.6141     93.4962   
2600.60005 20.131     9.5936     24.3476    27.689     18.7298    9.7098     12.2004    29.2989    0.6141     93.4597   
2600.80005 20.1514    9.8479     24.9057    27.8507    19.8474    10.063     12.6212    28.5413    0.6107     93.5676   
2601.00005 20.0767    9.8377     24.8794    27.8119    20.8795    10.4423    13.1181    28.3988    0.6073     93.7453   
2601.200051 19.9545    9.8784     25.129     27.5305    21.5172    10.887     13.5457    28.6837    0.6073     93.8102   
2601.400051 19.9952    9.7835     25.0731    27.1456    21.9576    11.4494    14.3028    28.9687    0.6073     93.7707   
2601.600051 20.3279    9.3902     24.2622    26.6476    22.3718    12.195     14.5013    29.3507    0.6073     93.7693   
2601.800051 20.8506    8.8952     23.3363    26.5506    23.3316    13.5029    12.7832    29.3637    0.604      93.8263   
2602.000051 21.3936    9.0308     24.098     27.275     24.5806    14.4447    10.371     28.211     0.6073     94.0676   
2602.200051 22.0996    9.6275     25.5426    28.905     25.9415    15.2949    9.3191     26.5208    0.6073     94.0858   
2602.400051 22.2151    10.6887    27.2105    30.5932    26.8947    15.9881    9.5578     24.672     0.6073     93.2589   
2602.600051 21.7534    11.4313    28.6288    32.2134    27.2628    16.3282    10.6324    22.9527    0.6073     92.4591   
2602.800051 21.19      11.7296    29.8502    32.3202    26.8289    16.472     12.7389    22.1756    0.6073     92.2854   
2603.000052 20.7148    11.0583    29.2494    31.3499    25.7705    16.4982    14.2417    22.1302    0.6073     92.4242   
2603.200052 20.2871    10.2853    28.202     30.2827    24.7483    16.459     13.3431    22.5253    0.6107     92.3208   
2603.400052 19.9477    10.0276    28.3071    30.3668    24.7516    16.3412    11.3229    22.6159    0.6208     91.4949   
2603.600052 19.4114    10.292     29.1476    31.3111    25.008     16.2366    10.0816    21.8324    0.6276     91.2221   
2603.800052 18.5561    11.1092    29.8371    32.3719    24.8896    15.7396    10.5485    20.1487    0.6208     91.8738   
2604.000052 17.4767    11.7974    30.2639    32.9152    23.7852    14.9156    13.7333    17.3803    0.6175     92.1692   
2604.200052 16.5331    11.0719    29.1016    31.4081    21.6487    13.8823    17.9695    15.5768    0.6073     91.8972   
2604.400052 15.7117    9.8513     24.9976    28.1223    18.9402    12.8882    20.5675    15.2659    0.6006     91.4602   
2604.600052 15.2433    8.651      21.918     25.1793    16.3632    12.0119    20.9962    16.2049    0.5905     91.0016   
2604.800052 15.1483    7.6339     20.0597    23.0448    15.6007    12.195     18.8149    17.7979    0.5905     90.7448   
2605.000053 15.5929    7.3966     19.3177    22.1458    15.9096    12.8751    16.0595    19.6047    0.5905     90.7025   
2605.200053 16.1462    7.722      18.8712    22.191     16.6196    13.8823    13.9076    20.7638    0.5871     90.6548   
2605.400053 16.5942    8.3391     19.0156    22.6891    17.3493    14.7717    12.6383    21.188     0.5837     90.5696   
