~Version
 VERS              .         2.0                           : CWLS LOG ASCII STANDARD - VERSION 2.0
 WRAP              .         NO                            : ONE LINE PER DEPTH STEP
 DLM               .         SPACE                         : DELIMITING CHARACTER(SPACE TAB OR COMMA)
~Well Information
#_______________________________________________________________________________
#
#PARAMETER_NAME    .UNIT     VALUE                         : DESCRIPTION
#_______________________________________________________________________________
STRT               .m        2500                          : First reference value
STOP               .m        2709.600105                   : Last reference value
STEP               .m        0.2000001                     : Step increment
NULL               .         -9999                         : Missing value
COMP               .                                       : Company
WELL               .         400                           : Well name
FLD                .                                       : Field
LOC                .                                       : Location
CNTY               .                                       : County
STAT               .                                       : State
CTRY               .                                       : Country
SRVC               .                                       : Service Company
DATE               .                                       : Date
API                .                                       : API number
EREF               .m        140.4                         : 
Pad                .         4                             : 
X                  .m        222100                        : 
Y                  .m        250025                        : 
group              .         Pad4                          : 
Интер-р            .         Ярышев                        : 
Куст               .         4                             : 
Статус             .         Не проверено                  : 
Тип                .         Разобраться                   : 
~Parameter Information Block
#_______________________________________________________________________________
#
#PARAMETER_NAME    .UNIT     VALUE                         : DESCRIPTION
#_______________________________________________________________________________
SET                .         LAS1                          : 
REAL_CREATION_DATE .         Ср апр 11 2012-13_17_12       : 
TLFamily_DEPTH     .         Measured Depth                : 
TLFamily_KS        .         Potential Resistivity         : 
TLFamily_KS1       .         Extra Shallow Resistivity     : 
TLFamily_KS2       .         Shallow Resistivity           : 
TLFamily_KS3       .         Medium Resistivity            : 
TLFamily_KS4       .         Deep Resistivity              : 
TLFamily_KS5       .         Extra Deep Resistivity        : 
TLFamily_LLD       .         Lateral Log Resistivity       : 
TLFamily_OKS       .         Medium Resistivity Inverted   : 
TLFamily_RM        .         Mud Resistivity               : 
TLFamily_SP        .         Spontaneous Potential         : 
group              .         INI                           : 
~Curve Information
#_______________________________________________________________________________
#
#LOGNAME           .UNIT     LOG_ID                        : DESCRIPTION
#_______________________________________________________________________________
DEPTH              .m                                      : Measured Depth 
KS                 .ohm.m                                  : Potential Resistivity 
KS1                .ohm.m                                  : Extra Shallow Resistivity 
KS2                .ohm.m                                  : Shallow Resistivity 
KS3                .ohm.m                                  : Medium Resistivity 
KS4                .ohm.m                                  : Deep Resistivity 
KS5                .ohm.m                                  : Extra Deep Resistivity 
LLD                .ohm.m                                  : Lateral Log Resistivity 
OKS                .ohm.m                                  : Medium Resistivity Inverted 
RM                 .ohm.m                                  : Mud Resistivity 
SP                 .mV                                     : Spontaneous Potential 
~Ascii
# ...
2645.200073 7.3687     6.5422     10.3218    6.1824     6.0487     6.0344     17.1645    5.4163     0.5837     45.5701   
2645.400073 7.1922     6.4608     9.7275     5.6843     5.2796     5.9429     17.7318    5.5393     0.5837     45.6724   
2645.600073 7.2126     6.0946     9.0938     5.2768     4.7274     5.9429     17.4555    5.753      0.5938     45.7593   
2645.800073 7.294      6.0946     8.9756     4.8952     4.3362     6.3549     16.9505    6.284      0.5804     45.8386   
2646.000073 7.3314     6.1963     8.8115     4.8952     4.5827     7.0023     16.4374    7.3978     0.5702     45.9464   
2646.200073 7.552      6.1828     8.8181     5.0698     5.0298     7.774      15.8131    8.6995     0.5635     46.7372   
2646.400073 7.8303     5.9183     8.4569     5.335      5.4768     8.5457     15.0236    9.305      0.5534     50.5154   
2646.600073 8.258      6.0878     8.8312     5.5776     5.6477     9.3305     14.9223    8.7319     0.5736     58.6972   
2646.800073 8.4548     5.9929     8.8016     5.7425     5.7792     9.8799     14.9631    7.9224     0.5736     66.9722   
2647.000073 8.6178     5.8573     9.3828     5.9301     5.9435     10.2984    13.8059    7.1971     0.5736     71.4694   
2647.200074 8.7535     6.2302     10.3743    6.15       6.1243     10.5404    12.5744    6.8733     0.5669     73.0626   
2647.400074 8.7196     6.4133     11.2082    6.2212     5.9896     10.4946    12.0594    6.6337     0.5635     73.574    
2647.600074 8.3734     6.8405     11.6941    6.1306     5.5688     10.5208    12.1899    6.5949     0.5635     73.7604   
2647.800074 8.1358     6.7795     11.6547    5.859      5.0692     11.2925    13.752     7.3234     0.5736     71.8747   
2648.000074 7.9729     6.0539     10.4662    5.4127     5.0429     14.1962    15.9803    10.1242    0.5669     64.8976   
2648.200074 7.9389     5.5589     9.5995     5.846      6.338      19.9251    17.4812    15.0004    0.5601     55.5153   
2648.400074 7.9661     5.3758     9.9737     7.6959     9.7696     26.9227    18.0715    23.2117    0.5601     49.0111   
2648.600074 8.2987     5.5182     12.075     10.5872    15.788     34.6005    16.0077    32.0576    0.577      46.375    
2648.800074 9.3102     5.7962     12.4821    13.1421    18.3749    37.5434    10.9642    35.6776    0.577      48.5194   
2649.000074 10.8037    7.3864     13.5393    13.8018    16.383     35.4768    8.1885     31.8245    0.577      54.4667   
2649.200075 11.4961    8.0272     12.0159    12.3788    12.4715    29.5125    9.8222     21.7644    0.577      60.8667   
2649.400075 11.9373    7.1253     10.3743    9.5038     8.2641     22.1225    11.7201    14.9357    0.577      65.0528   
2649.600075 12.2157    6.7795     11.0835    7.0362     5.8975     15.151     11.9958    11.9697    0.5837     65.7111   
2649.800075 12.3039    6.6507     12.6857    5.9818     4.4447     11.0701    11.8746    10.7717    0.577      63.3861   
2650.000075 12.3718    6.6642     12.8826    5.2704     3.2055     8.3038     11.5479    10.5321    0.5702     59.5528   
2650.200075 12.4397    6.671      12.817     4.9599     2.696      6.6754     11.4064    11.1732    0.5567     56.8917   
2650.400075 12.2869    6.827      13.2569    5.1022     2.5777     6.2568     11.3585    12.6173    0.5736     56.4056   
2650.600075 11.9509    7.1185     13.7822    6.0336     2.8078     6.5838     11.2503    15.2562    0.5837     57.0417   
2650.800075 11.4418    7.6339     15.1415    9.2353     3.4915     6.8192     11.3037    19.5982    0.5837     58.1972   
2651.000076 10.9666    7.9729     17.3478    16.5379    4.425      6.78       11.7126    20.9193    0.5702     60.5361   
2651.200076 11.1431    7.7085     17.4167    19.7202    4.7339     6.5838     12.111     17.7267    0.5871     64.6917   
2651.400076 11.7948    6.7727     14.1631    18.446     4.0733     5.9625     12.1178    13.5175    0.5837     67.6819   
2651.600076 12.5109    6.6439     12.8104    15.3348    3.1759     4.8704     12.3159    10.6034    0.5736     67.9958   
2651.800076 12.6841    6.4676     12.0487    13.2003    2.9524     4.3864     12.9929    10.1306    0.5669     68.0738   
2652.000076 12.5415    6.6981     12.6069    12.0425    3.0707     4.3864     13.3684    11.2186    0.5669     68.6264   
2652.200076 12.4397    6.9626     14.2091    11.7967    3.4849     4.7919     13.2836    13.3556    0.5837     69.4968   
2652.400076 12.3786    7.1185     15.2137    12.2139    4.2343     5.6682     13.1451    15.1947    0.5938     70.7932   
2652.600076 12.494     7.2203     15.3844    13.1809    5.6543     7.1593     13.2742    17.5583    0.5938     72.5972   
2652.800076 12.5958    6.7998     14.9708    15.4642    9.8517     9.6902     13.2706    21.2301    0.5938     74.7306   
2653.000076 12.2496    7.2745     17.6104    20.3799    21.5829    10.9916    11.939     26.4302    0.5972     77.7139   
2653.200077 11.3875    8.6375     22.8307    26.266     29.7806    11.1094    9.6837     30.1796    0.5938     80.4424   
2653.400077 11.3739    9.2342     22.9029    28.9179    30.655     10.39      9.6166     26.1582    0.5635     81.7306   
2653.600077 11.4621    8.156      18.7464    24.5196    23.7326    8.6635     12.8147    19.1061    0.5702     81.2778   
2653.800077 11.306     7.5186     16.4416    17.3981    17.7043    6.2306     15.2146    14.7738    0.5871     78.9354   
2654.000077 11.1634    6.9355     14.9149    14.2481    13.234     4.5695     15.7316    12.4813    0.5938     76.1389   
2654.200077 11.048     6.8812     14.9379    12.1395    10.2166    3.3139     15.3729    11.4452    0.5938     73.625    
2654.400077 11.0277    6.888      15.0299    11.027     7.6692     2.5552     14.5333    10.9336    0.604      71.3806   
2654.600077 11.082     7.01       15.1612    10.6519    6.4103     2.1629     13.7278    10.6487    0.5972     71.4194   
2654.800077 11.1023    7.3694     15.3385    10.7101    5.6937     1.8751     13.5795    10.3314    0.5871     72.575    
2655.000077 11.0888    7.5118     15.24      10.8847    5.1415     1.6397     13.9412    10.0108    0.5702     71.5      
2655.200078 11.0752    7.4033     14.9905    11.3601    4.7602     1.4304     14.1162    9.8068     0.577      67.6722   
2655.400078 11.1091    7.227      14.5078    12.0296    4.5696     1.2604     13.6699    9.6255     0.5871     64.1708   
2655.600078 11.2449    7.3355     14.3207    12.4435    4.2935     1.1557     13.3233    9.496      0.604      62.2847   
2655.800078 11.0888    7.3423     14.0449    12.3788    3.9319     1.0511     13.5697    9.6385     0.5972     60.1153   
2656.000078 10.6747    7.5898     14.452     12.1137    3.7281     0.9988     14.05      10.0788    0.6006     58.1043   
2656.200078 10.471     7.4033     14.4257    11.5509    3.5243     0.9595     15.0133    10.3443    0.5871     57.2868   
2656.400078 10.3556    7.0033     13.5393    10.7165    3.314      0.9334     16.091     10.9336    0.5702     57.3748   
2656.600078 10.3217    6.6439     12.8564    9.7625     3.2942     0.9203     16.8798    11.8338    0.5669     58.0375   
2656.800078 10.3556    6.3591     11.8517    9.3453     3.4915     0.9464     17.3434    13.0188    0.5601     59.4087   
2657.000079 10.4914    6.2777     11.3855    9.1124     3.853      1.0118     17.2969    14.2492    0.5736     61.1694   
2657.200079 10.8037    6.1014     10.7551    8.8278     4.6748     1.2865     16.9756    15.512     0.582      63.2667   
2657.400079 11.3094    5.9861     10.4203    8.6532     5.8449     1.4958     16.3732    17.0727    0.577      66.1597   
2657.600079 12.0867    6.1183     10.4728    8.7308     7.1466     1.7181     15.2999    18.4942    0.5905     69.5847   
2657.800079 12.8062    6.3726     10.8339    8.802      7.9749     1.8489     14.0742    19.7666    0.5837     72.2514   
2658.000079 13.5598    6.5218     10.9981    8.8796     8.4416     1.9536     13.0022    20.4983    0.5702     74.0694   
2658.200079 14.2522    6.8948     11.7992    9.106      8.7769     2.019      11.9568    21.1459    0.5669     76.8111   
