~Version
 VERS              .         2.0                           : CWLS LOG ASCII STANDARD - VERSION 2.0
 WRAP              .         NO                            : ONE LINE PER DEPTH STEP
 DLM               .         SPACE                         : DELIMITING CHARACTER(SPACE TAB OR COMMA)
~Well Information
#_______________________________________________________________________________
#
#PARAMETER_NAME    .UNIT     VALUE                         : DESCRIPTION
#_______________________________________________________________________________
STRT               .m        2500                          : First reference value
STOP               .m        2709.600105                   : Last reference value
STEP               .m        0.2000001                     : Step increment
NULL               .         -9999                         : Missing value
COMP               .                                       : Company
WELL               .         400                           : Well name
FLD                .                                       : Field
LOC                .                                       : Location
CNTY               .                                       : County
STAT               .                                       : State
CTRY               .                                       : Country
SRVC               .                                       : Service Company
DATE               .                                       : Date
API                .                                       : API number
EREF               .m        140.4                         : 
Pad                .         4                             : 
X                  .m        222100                        : 
Y                  .m        250025                        : 
group              .         Pad4                          : 
Интер-р            .         Ярышев                        : 
Куст               .         4                             : 
Статус             .         Не проверено                  : 
Тип                .         Разобраться                   : 
~Parameter Information Block
#_______________________________________________________________________________
#
#PARAMETER_NAME    .UNIT     VALUE                         : DESCRIPTION
#_______________________________________________________________________________
SET                .         LAS1                          : 
REAL_CREATION_DATE .         Ср апр 11 2012-13_17_12       : 
TLFamily_DEPTH     .         Measured Depth                : 
TLFamily_KS        .         Potential Resistivity         : 
TLFamily_KS1       .         Extra Shallow Resistivity     : 
TLFamily_KS2       .         Shallow Resistivity           : 
TLFamily_KS3       .         Medium Resistivity            : 
TLFamily_KS4       .         Deep Resistivity              : 
TLFamily_KS5       .         Extra Deep Resistivity        : 
TLFamily_LLD       .         Lateral Log Resistivity       : 
TLFamily_OKS       .         Medium Resistivity Inverted   : 
TLFamily_RM        .         Mud Resistivity               : 
TLFamily_SP        .         Spontaneous Potential         : 
group              .         INI                           : 
~Curve Information
#_______________________________________________________________________________
#
#LOGNAME           .UNIT     LOG_ID                        : DESCRIPTION
#_______________________________________________________________________________
DEPTH              .m                                      : Measured Depth 
KS                 .ohm.m                                  : Potential Resistivity 
KS1                .ohm.m                                  : Extra Shallow Resistivity 
KS2                .ohm.m                                  : Shallow Resistivity 
KS3                .ohm.m                                  : Medium Resistivity 
KS4                .ohm.m                                  : Deep Resistivity 
KS5                .ohm.m                                  : Extra Deep Resistivity 
LLD                .ohm.m                                  : Lateral Log Resistivity 
OKS                .ohm.m                                  : Medium Resistivity Inverted 
RM                 .ohm.m                                  : Mud Resistivity 
SP                 .mV                                     : Spontaneous Potential 
~Ascii
# ...
2605.600053 16.9404    8.7934     19.3177    23.4847    17.8621    15.3079    12.1696    21.4503    0.5837     90.7155   
2605.800053 16.8997    9.2206     20.3552    23.8598    18.1842    15.5434    12.2207    21.392     0.5837     91.4685   
2606.000053 16.6825    9.6275     21.3992    23.8016    18.388     15.2164    12.5774    21.3337    0.5837     92.1392   
2606.200053 16.1122    9.5868     22.3185    23.3812    18.4767    14.5493    12.8596    21.0553    0.5854     92.2637   
2606.400053 15.4504    10.0886    23.6187    21.9711    17.6517    13.7515    14.7888    20.602     0.5871     92.2239   
2606.600053 14.9853    9.1766     21.0841    19.8237    16.1331    13.0844    17.3941    20.5825    0.5871     92.2092   
2606.800053 14.7953    8.2171     19.8561    17.3852    14.7263    12.6528    18.3937    22.8782    0.5905     92.2446   
2607.000053 14.9039    7.3898     18.0767    16.2015    14.2924    12.5351    17.1972    26.4949    0.5972     92.5862   
2607.200054 15.1075    7.2745     17.5152    16.6478    14.6474    12.8097    14.9682    29.8235    0.6006     93.4904   
2607.400054 15.5624    7.878      18.7333    17.3787    15.1602    13.4899    14.6067    32.1677    0.6073     93.9387   
2607.600054 16.4788    7.9187     17.1311    17.7345    15.502     14.8894    15.0063    35.1336    0.6073     93.8532   
2607.800054 17.3885    7.444      16.0673    17.6698    16.1397    15.7265    12.8704    38.6435    0.6175     93.8398   
2608.000054 18.6036    7.7153     17.2624    18.3231    17.1455    16.4197    10.1962    40.2948    0.6175     93.866    
2608.200054 19.8119    8.6612     18.8712    19.3644    17.7503    17.2961    9.5409     38.5528    0.6208     93.698    
2608.400054 20.613     9.5055     20.5522    19.9725    17.8095    18.0678    10.2468    36.105     0.6175     93.1007   
2608.600054 21.1017    9.5936     21.2154    20.4058    17.7701    18.6825    10.9104    34.5832    0.6107     92.7542   
2608.800054 21.448     10.0344    22.9095    20.3023    17.7306    19.7158    11.3891    33.968     0.6073     92.9097   
2609.000054 22.0318    9.4919     23.4086    20.3799    18.1612    21.0107    11.1107    33.696     0.6124     93.2056   
2609.200055 22.731     9.3698     24.1834    20.9103    19.0585    22.2009    9.9895     33.2038    0.6208     93.8552   
2609.400055 23.9325    9.7733     25.9957    22.2492    20.0841    23.5612    9.6435     31.7986    0.6242     94.4178   
2609.600055 24.8693    9.736      25.2209    23.9245    21.1688    25.3401    8.9935     30.0113    0.6276     94.308    
2609.800055 25.5753    10.2514    26.4291    25.5157    22.5756    27.5636    8.1844     27.9228    0.6242     94.0473   
2610.000055 26.037     10.7599    28.3892    29.5097    24.745     29.8264    7.5232     26.7734    0.6141     93.8056   
2610.200055 25.6252    11.5216    32.4369    34.9435    27.692     31.409     6.1628     25.3748    0.6107     93.4165   
2610.400055 24.2109    13.6825    39.2926    41.0651    29.9713    31.8145    6.456      21.4309    0.5972     92.6753   
2610.600055 22.2863    13.8046    39.2138    42.5398    28.0583    30.0357    9.5591     18.5621    0.5905     92.1401   
2610.800055 20.4501    12.8587    37.894     41.3432    24.9422    27.2235    12.5776    15.9523    0.5871     92.1788   
2611.000056 19.201     11.5465    35.4841    39.2734    22.2206    24.0321    14.6099    13.4559    0.5837     92.6731   
2611.200056 17.9247    10.6108    32.6672    37.0839    20.4128    21.0238    15.208     12.2094    0.5837     93.0255   
2611.400056 16.7775    10.8277    32.7558    36.4339    19.4464    18.5909    14.7886    11.0696    0.5837     92.5451   
2611.600056 16.0647    10.3734    28.5238    35.302     18.6115    16.459     15.9336    10.1954    0.5804     92.1661   
2611.800056 15.2433    9.6546     26.4619    32.8505    17.0995    13.8953    16.6699    9.509      0.5871     92.2856   
2612.000056 14.5237    9.3563     24.3935    30.9036    15.9425    12.3519    16.6797    9.0362     0.5871     92.4271   
2612.200056 13.7023    8.8816     22.6731    29.0667    15.5218    11.2402    16.6626    8.5959     0.5905     91.9885   
2612.400056 13.0167    8.8511     22.2397    28.0318    15.2325    10.5208    16.1939    8.0908     0.6006     91.2102   
2612.600056 12.7112    8.4205     21.222     26.5991    15.1405    10.0761    16.8823    7.7702     0.604      90.9722   
2612.800056 11.8151    7.8848     19.4031    26.2724    15.6532    9.4613     16.0536    7.7346     0.604      91.0167   
2613.000057 10.7154    9.4783     22.6895    25.9167    16.383     8.6896     13.6525    7.0805     0.6175     91.3653   
2613.200057 10.0162    9.085      20.0466    24.0603    15.4133    7.4601     15.796     6.0444     0.6141     91.7841   
2613.400057 8.258      8.0814     16.9866    18.7047    12.1954    5.7336     19.1804    4.6133     0.604      91.807    
2613.600057 7.6538     6.6439     14.7409    15.6065    10.2495    4.8311     20.9967    4.024      0.6006     91.8393   
2613.800057 7.2126     5.4911     12.3573    12.8834    9.0662     4.2818     22.3951    3.739      0.604      91.9703   
2614.000057 6.8324     5.4436     11.8058    11.3375    8.7177     4.0071     23.4456    4.1082     0.6141     91.932    
2614.200057 6.493      4.9825     10.5581    10.9817    9.2568     3.8894     23.3455    4.5938     0.6141     91.7973   
2614.400057 6.3165     5.0436     10.2167    10.7812    9.7005     3.9286     21.4099    4.9112     0.6141     91.7341   
2614.600057 6.3979     5.1453     9.3499     10.1797    9.5658     4.0463     20.105     5.0018     0.6073     91.9125   
2614.800057 6.5337     4.8469     7.925      9.4358     9.3291     4.0856     20.4317    5.2738     0.5938     92.4488   
2615.000057 6.6084     4.8605     7.8331     9.0154     9.3554     4.151      19.5546    5.4357     0.5871     93.2525   
2615.200058 6.8392     4.8503     7.6952     9.0672     9.6578     4.2556     17.9419    5.7724     0.577      93.7023   
2615.400058 6.9207     5.1249     8.1023     8.8246     9.9142     4.4126     16.3449    5.9084     0.5804     93.7718   
2615.600058 6.9207     5.5453     8.7918     8.6079     10.1706    4.4256     14.2316    5.8825     0.577      93.8951   
2615.800058 6.7238     5.9929     9.3795     7.9934     9.6973     4.3733     13.3338    5.4098     0.577      93.9361   
2616.000058 6.4522     6.2777     9.2055     7.0426     8.5041     4.1575     14.2531    4.9694     0.577      93.6656   
2616.200058 6.0721     5.4775     8.3387     5.7684     6.7258     3.9417     16.6982    4.8593     0.577      93.0686   
2616.400058 5.7598     4.6672     7.8659     5.1022     6.0356     3.7978     18.1521    5.1313     0.5837     92.326    
2616.600058 5.7666     4.5079     7.7412     4.9081     5.7726     3.8894     18.0891    5.9181     0.5938     91.9093   
2616.800058 5.7802     4.2366     7.2618     4.9534     5.8252     4.0071     17.6204    6.7503     0.5972     91.8713   
2617.000058 5.7666     4.6638     7.4391     5.0828     5.8712     4.2294     16.6119    7.1453     0.6107     91.8877   
2617.200059 5.9092     4.6164     6.8941     5.2704     5.8055     4.4191     15.4665    7.4302     0.6006     91.8356   
2617.400059 5.882      4.8537     7.1765     5.1669     5.3059     4.6088     15.519     6.9316     0.6073     91.7042   
2617.600059 6.0076     4.7248     6.5789     5.1798     4.9312     4.6349     15.2274    6.2128     0.5938     91.6355   
2617.800059 5.9499     4.6265     6.7825     5.0375     4.4907     4.5957     15.3024    5.6494     0.6073     91.5398   
2618.000059 6.0992     4.9283     7.2815     4.837      3.9714     4.6088     14.9431    4.7978     0.6107     91.238    
2618.200059 6.269      4.379      6.2703     4.1417     3.4389     4.7788     14.7131    4.4838     0.6107     90.8967   
2618.400059 6.1264     4.5689     6.3557     3.815      3.2745     5.1189     15.5562    4.7169     0.604      90.6841   
2618.600059 6.1264     4.5757     6.5789     3.815      3.4389     6.6296     15.8473    5.2803     0.5938     90.7358   
