~Version
 VERS              .         2.0                           : CWLS LOG ASCII STANDARD - VERSION 2.0
 WRAP              .         NO                            : ONE LINE PER DEPTH STEP
 DLM               .         SPACE                         : DELIMITING CHARACTER(SPACE TAB OR COMMA)
~Well Information
#_______________________________________________________________________________
#
#PARAMETER_NAME    .UNIT     VALUE                         : DESCRIPTION
#_______________________________________________________________________________
STRT               .m        2500                          : First reference value
STOP               .m        2709.600105                   : Last reference value
STEP               .m        0.2000001                     : Step increment
NULL               .         -9999                         : Missing value
COMP               .                                       : Company
WELL               .         400                           : Well name
FLD                .                                       : Field
LOC                .                                       : Location
CNTY               .                                       : County
STAT               .                                       : State
CTRY               .                                       : Country
SRVC               .                                       : Service Company
DATE               .                                       : Date
API                .                                       : API number
EREF               .m        140.4                         : 
Pad                .         4                             : 
X                  .m        222100                        : 
Y                  .m        250025                        : 
group              .         Pad4                          : 
Интер-р            .         Ярышев                        : 
Куст               .         4                             : 
Статус             .         Не проверено                  : 
Тип                .         Разобраться                   : 
~Parameter Information Block
#_______________________________________________________________________________
#
#PARAMETER_NAME    .UNIT     VALUE                         : DESCRIPTION
#_______________________________________________________________________________
SET                .         LAS1                          : 
REAL_CREATION_DATE .         Ср апр 11 2012-13_17_12       : 
TLFamily_DEPTH     .         Measured Depth                : 
TLFamily_KS        .         Potential Resistivity         : 
TLFamily_KS1       .         Extra Shallow Resistivity     : 
TLFamily_KS2       .         Shallow Resistivity           : 
TLFamily_KS3       .         Medium Resistivity            : 
TLFamily_KS4       .         Deep Resistivity              : 
TLFamily_KS5       .         Extra Deep Resistivity        : 
TLFamily_LLD       .         Lateral Log Resistivity       : 
TLFamily_OKS       .         Medium Resistivity Inverted   : 
TLFamily_RM        .         Mud Resistivity               : 
TLFamily_SP        .         Spontaneous Potential         : 
group              .         INI                           : 
~Curve Information
#_______________________________________________________________________________
#
#LOGNAME           .UNIT     LOG_ID                        : DESCRIPTION
#_______________________________________________________________________________
DEPTH              .m                                      : Measured Depth 
KS                 .ohm.m                                  : Potential Resistivity 
KS1                .ohm.m                                  : Extra Shallow Resistivity 
KS2                .ohm.m                                  : Shallow Resistivity 
KS3                .ohm.m                                  : Medium Resistivity 
KS4                .ohm.m                                  : Deep Resistivity 
KS5                .ohm.m                                  : Extra Deep Resistivity 
LLD                .ohm.m                                  : Lateral Log Resistivity 
OKS                .ohm.m                                  : Medium Resistivity Inverted 
RM                 .ohm.m                                  : Mud Resistivity 
SP                 .mV                                     : Spontaneous Potential 
~Ascii
# ...
2658.400079 14.8564    7.2813     13.1453    9.4617     9.0662     2.1105     11.1435    21.9165    0.577      80.4      
2658.600079 15.3994    7.5661     14.2025    9.7722     9.4244     2.2086     10.7757    22.875     0.5922     83.2722   
2658.800079 15.8543    7.7966     15.0955    10.1021    9.6644     2.3721     10.5754    24.0794    0.5905     85.3007   
2659.00008 16.3023    8.0238     16.0673    10.4966    9.8813     2.5552     10.3874    25.4782    0.5905     86.4556   
2659.20008 16.4992    8.2442     16.7962    11.0593    10.0785    2.8038     10.2646    28.2239    0.5972     86.9722   
2659.40008 16.601     8.4815     17.814     11.8452    10.3152    3.1962     10.1971    30.6006    0.5837     87.6104   
2659.60008 16.696     8.5493     18.4706    12.9416    10.5913    3.7847     10.313     32.5433    0.5702     87.8731   
2659.80008 16.7503    8.5358     18.9106    13.6919    10.9562    4.6088     10.5946    34.9782    0.575      87.3083   
2660.00008 16.7869    8.4476     18.799     14.4487    11.6957    6.2568     11.0676    37.6527    0.5871     87.163    
2660.20008 16.8725    8.3684     18.8121    15.1407    12.7936    7.8656     12.1144    40.8452    0.5972     88.452    
2660.40008 17.1916    8.0272     18.208     15.8652    14.7723    10.5469    13.635     45.3459    0.5871     89.5642   
2660.60008 17.9112    7.5186     17.4528    16.6931    17.9344    15.3864    14.8924    54.7292    0.5938     89.4464   
2660.80008 19.4046    6.9422     16.6369    18.5592    23.5617    21.0761    15.228     62.9747    0.5905     88.7252   
2661.00008 21.6652    5.9793     16.2709    22.3333    30.7799    26.7134    12.0733    68.0136    0.5736     87.2641   
2661.200081 24.7539    6.3387     17.9256    24.3191    35.1976    33.9465    6.0697     65.1124    0.577      85.0625   
2661.400081 29.3226    6.8541     17.768     25.6256    35.4178    43.4424    3.3665     56.5615    0.5736     83.3296   
2661.600081 33.0562    8.7595     23.1984    27.4949    35.546     52.8825    4.0429     51.361     0.604      82.6799   
2661.800081 34.4343    11.577     27.3287    30.2374    36.3085    61.6136    4.9218     51.2194    0.604      82.585    
2662.000081 35.2421    12.1026    29.5744    32.2264    35.2896    69.0975    4.0321     48.1985    0.6073     82.8021   
2662.200081 35.0385    13.5673    36.8959    35.2761    35.4605    69.0975    2.6238     41.0848    0.5905     83.5866   
2662.400081 33.8165    15.8118    47.0082    39.4092    35.7826    65.6674    3.1737     32.6858    0.5804     84.4426   
2662.600081 32.3366    16.2119    48.7548    41.382     33.8828    62.8609    5.6375     24.9148    0.5736     84.9245   
2662.800081 29.6484    14.1437    46.6864    44.3186    31.8153    54.7534    6.4307     19.514     0.5871     85.3398   
2663.000081 24.8727    16.2593    59.466     49.1697    30.3657    43.3508    8.0317     16.1984    0.6006     85.8731   
2663.200082 22.4866    14.4725    52.768     53.482     27.2299    36.3532    12.74      13.7053    0.5938     86.7051   
2663.400082 21.319     10.9295    40.8095    51.2808    21.2937    30.2711    15.7642    11.6136    0.5972     87.6509   
2663.600082 20.3822    9.5055     34.23      46.5145    17.7109    22.6849    16.5363    11.6071    0.5938     87.5241   
2663.800082 19.6286    9.0647     28.5468    41.5373    15.7058    18.4471    17.2001    13.3491    0.5804     85.6384   
2664.000082 18.8819    8.4815     26.2912    42.307     15.45      16.3805    16.9108    16.0883    0.5736     83.5639   
2664.200082 18.0401    8.6036     27.8934    47.889     17.6682    15.3472    13.9355    19.5335    0.5804     83.7472   
2664.400082 16.9947    9.519      33.0677    55.9642    21.8919    14.8502    9.3656     21.7805    0.5938     85.8903   
2664.600082 14.9039    11.2583    35.622     64.0313    25.5076    13.7253    7.1414     22.2015    0.5871     88.2667   
2664.800082 13.5326    13.2282    37.0272    63.4107    25.8757    11.9334    11.6613    18.1671    0.5972     90.4667   
2665.000083 12.3786    10.6853    29.0097    48.3681    23.1081    9.736      20.173     13.6858    0.577      92.3915   
2665.200083 11.3671    8.4883     22.3908    32.9088    19.3018    7.2901     23.9392    10.4997    0.5601     93.0598   
2665.400083 10.695     6.9626     18.2933    25.0111    17.4414    5.0796     23.4073    8.965      0.5702     93.0224   
2665.600083 10.2674    6.3998     16.724     19.4485    15.3673    3.667      22.6279    8.2138     0.5888     92.7698   
2665.800083 9.9585     6.0878     14.7475    15.7682    12.4189    2.4899     22.2245    8.1102     0.5837     92.1305   
2666.000083 9.6292     5.9047     13.0993    13.3943    11.2356    2.0451     20.959     8.5246     0.5938     91.8049   
2666.200083 9.412      6.0675     12.6594    12.2365    10.5256    1.7312     19.3819    9.2305     0.5905     92.2288   
2666.400083 9.3984     6.2099     12.3311    11.9099    9.8156     1.4958     19.2313    10.0529    0.5702     92.6594   
2666.600083 9.412      5.7352     11.3494    11.8291    8.8887     1.3388     18.9771    10.3573    0.5635     92.0806   
2666.800083 9.3509     6.0743     11.182     11.4798    7.7645     1.1819     17.3854    10.0335    0.577      90.1146   
2667.000084 9.6428     6.0065     9.9475     10.6777    6.2624     1.0511     17.4064    9.496      0.5854     87.8766   
2667.200084 9.8872     5.5453     9.0479     9.3582     5.2927     0.9726     17.269     9.1916     0.5837     86.7729   
2667.400084 9.799      5.6166     9.5207     8.8278     5.2664     0.9595     15.649     8.7804     0.5905     86.372    
2667.600084 9.5749     6.1217     10.4859    9.1836     5.5031     0.9464     14.8062    8.4081     0.5736     86.4958   
2667.800084 9.5546     6.4404     12.0618    9.1836     5.4834     0.9595     15.1658    7.9353     0.5601     87.7865   
2668.000084 9.7175     5.7827     10.893     8.2457     5.1612     0.9726     15.2744    7.0611     0.5669     88.8069   
2668.200084 9.9076     5.6064     9.8293     7.67       5.0035     1.0249     14.8856    5.9214     0.5804     88.4806   
2668.400084 9.9551     5.5928     9.7242     7.7865     5.7792     1.1361     14.4904    5.6753     0.5837     87.3296   
2668.600084 9.894      5.6335     10.046     8.4527     8.1721     1.4173     13.8259    5.8566     0.5871     85.8148   
2668.800084 9.7582     5.8302     11.0309    9.5587     11.1304    1.9274     13.25      6.2775     0.577      84.8361   
2669.000084 9.7039     6.0268     11.5234    10.9623    15.6861    3.0523     13.4084    7.1356     0.5567     84.2204   
2669.200085 9.6428     6.0539     11.7926    13.8827    23.8838    4.6349     14.2024    9.3082     0.5669     83.0829   
2669.400085 9.2084     6.1014     12.8564    20.8457    37.4327    6.3745     13.8237    12.7145    0.5669     81.0037   
2669.600085 8.9708     7.105      17.0457    23.6011    44.2959    8.6373     12.0964    14.178     0.5837     79.2491   
2669.800085 9.6632     6.5828     14.3076    21.6348    39.2964    11.7241    12.5155    13.783     0.5702     78.0157   
2670.000085 10.118     6.2574     12.8301    18.2649    31.2532    12.9274    13.2151    13.3491    0.5567     75.612    
2670.200085 8.93       7.9899     14.4454    18.0902    30.0502    12.3389    12.9691    14.9033    0.5534     72.7694   
2670.400085 8.5838     8.746      17.6892    17.01      25.8691    12.038     14.8331    14.9939    0.5635     69.4639   
2670.600085 8.4684     6.6981     14.1565    14.177     18.7233    11.371     15.5863    11.7366    0.5702     65.6472   
2670.800085 8.4345     7.0372     13.93      9.5587     12.7278    9.3828     15.4857    9.4766     0.5669     62.738    
2671.000085 8.4616     6.2913     11.3461    7.5601     9.4212     7.0808     16.8948    9.1139     0.577      61.3731   
2671.200086 8.1154     6.115      11.0309    6.4993     6.6601     5.4066     15.5886    9.3017     0.5601     62.2667   
2671.400086 8.1086     6.298      11.6941    6.0595     4.7537     4.1117     14.2118    9.1204     0.5534     65.3227   
