~Version
 VERS              .         2.0                           : CWLS LOG ASCII STANDARD - VERSION 2.0
 WRAP              .         NO                            : ONE LINE PER DEPTH STEP
 DLM               .         SPACE                         : DELIMITING CHARACTER(SPACE TAB OR COMMA)
~Well Information
#_______________________________________________________________________________
#
#PARAMETER_NAME    .UNIT     VALUE                         : DESCRIPTION
#_______________________________________________________________________________
STRT               .m        2500                          : First reference value
STOP               .m        2708.600104                   : Last reference value
STEP               .m        0.2000001                     : Step increment
NULL               .         -9999                         : Missing value
COMP               .                                       : Company
WELL               .         400                           : Well name
FLD                .                                       : Field
LOC                .                                       : Location
CNTY               .                                       : County
STAT               .                                       : State
CTRY               .                                       : Country
SRVC               .                                       : Service Company
DATE               .                                       : Date
API                .                                       : API number
EREF               .m        140.4                         : 
Pad                .         4                             : 
X                  .m        222100                        : 
Y                  .m        250025                        : 
group              .         Pad4                          : 
Интер-р            .         Ярышев                        : 
Куст               .         4                             : 
Статус             .         Не проверено                  : 
Тип                .         Разобраться                   : 
~Parameter Information Block
#_______________________________________________________________________________
#
#PARAMETER_NAME    .UNIT     VALUE                         : DESCRIPTION
#_______________________________________________________________________________
SET                .         LAS4                          : 
REAL_CREATION_DATE .         Ср апр 11 2012-13_17_12       : 
TLFamily_DEPTH     .         Measured Depth                : 
TLFamily_RT        .         Resistivity 20                : 
TLFamily_SP        .         Spontaneous Potential         : 
group              .         INI                           : 
~Curve Information
#_______________________________________________________________________________
#
#LOGNAME           .UNIT     LOG_ID                        : DESCRIPTION
#_______________________________________________________________________________
DEPTH              .m                                      : Measured Depth 
RT                 .ohm.m                                  : Conductivity 
SP                 .mV                                     : Spontaneous Potential 
~Ascii
# ...
2641.800071 6.3643     136.1406  
2642.000071 5.5773     135.4234  
2642.200071 5.0994     134.8271  
2642.400071 4.6762     134.5285  
2642.600071 4.3734     133.6738  
2642.800071 4.2009     132.0989  
2643.000072 3.8816     131.2776  
2643.200072 3.6107     131.4498  
2643.400072 3.3362     131.8363  
2643.600072 3.0852     132.1933  
2643.800072 3.0063     132.4352  
2644.000072 3.0486     132.5617  
2644.200072 3.1219     132.696   
2644.400072 3.241      132.9353  
2644.600072 3.3475     133.2643  
2644.800072 3.342      133.5326  
2645.000072 3.2258     133.6475  
2645.200073 3.074      133.7426  
2645.400073 2.839      134.2732  
2645.600073 2.4963     135.3655  
2645.800073 2.3506     136.6016  
2646.000073 2.2599     139.1629  
2646.200073 2.2987     144.6229  
2646.400073 2.5881     150.9575  
2646.600073 3.3094     154.7575  
2646.800073 3.7849     156.58    
2647.000073 4.2201     158.0593  
2647.200074 4.5303     158.6556  
2647.400074 4.7031     158.1703  
2647.600074 4.3439     154.985   
2647.800074 3.7194     147.9201  
2648.000074 2.772      139.543   
2648.200074 2.2315     133.5561  
2648.400074 2.102      132.1485  
2648.600074 3.1121     134.1363  
2648.800074 4.4073     138.2405  
2649.000074 5.7803     143.5171  
2649.200075 6.1657     147.1748  
2649.400075 5.9359     147.8204  
2649.600075 5.5863     146.4239  
2649.800075 5.2465     143.9978  
2650.000075 4.9579     141.455   
2650.200075 4.8834     140.3142  
2650.400075 4.9587     140.5925  
2650.600075 5.313      140.6158  
2650.800075 5.4197     141.7077  
2651.000076 5.5981     145.5398  
2651.200076 5.7898     148.6376  
2651.400076 6.0886     149.5909  
2651.600076 6.1192     150.1589  
2651.800076 5.9193     151.0047  
2652.000076 5.6798     152.0448  
2652.200076 5.6234     153.1488  
2652.400076 5.7003     154.0638  
2652.600076 5.8539     154.7159  
2652.800076 6.045      156.7003  
2653.000076 6.6023     160.1448  
2653.200077 7.3696     161.9422  
2653.400077 7.6613     161.6873  
2653.600077 6.9015     160.5935  
2653.800077 6.6312     159.0531  
2654.000077 6.3137     156.8231  
2654.200077 6.1657     154.1545  
2654.400077 6.0878     152.6078  
2654.600077 6.3852     152.2284  
2654.800077 6.5092     151.5203  
2655.000077 6.503      148.8404  
2655.200078 6.3765     144.6406  
2655.400078 6.2388     141.0964  
2655.600078 5.9989     139.149   
2655.800078 5.8795     138.4235  
2656.000078 5.641      138.1034  
2656.200078 5.3718     137.9156  
2656.400078 5.0501     137.7477  
2656.600078 4.7367     137.4756  
2656.800078 4.711      138.2704  
2657.000079 4.7759     141.2833  
2657.200079 4.9436     144.6815  
2657.400079 5.1912     147.395   
2657.600079 5.6809     150.6135  
2657.800079 6.0016     154.137   
2658.000079 6.4601     156.9065  
2658.200079 6.7209     158.9599  
2658.400079 7.0992     160.2379  
2658.600079 7.5638     161.0153  
2658.800079 7.7479     161.9248  
2659.00008 8.021      162.8997  
2659.20008 8.2149     163.4555  
2659.40008 8.5033     163.9321  
2659.60008 8.771      164.3999  
2659.80008 8.7261     164.4246  
2660.00008 8.5254     164.1736  
2660.20008 8.2957     163.85    
2660.40008 8.0472     163.2316  
2660.60008 7.8678     162.1926  
2660.80008 8.1344     161.0208  
2661.00008 8.8979     159.6755  
2661.200081 10.2668    158.0819  
2661.400081 12.3965    156.5421  
2661.600081 13.1624    155.669   
2661.800081 13.4262    155.6255  
2662.000081 13.9311    156.0691  
2662.200081 14.0446    156.8984  
2662.400081 14.7003    158.2721  
2662.600081 14.581     159.7993  
2662.800081 13.2047    160.6512  
2663.000081 11.7439    160.8485  
2663.200082 10.8218    160.6987  
2663.400082 9.0907     160.3176  
2663.600082 8.6341     159.39    
2663.800082 8.1954     158.1068  
2664.000082 8.2573     158.2674  
2664.200082 8.8506     160.1524  
2664.400082 10.2723    162.1736  
2664.600082 10.5825    163.5972  
2664.800082 9.0802     164.6381  
2665.000083 6.8907     165.1737  
2665.200083 6.1877     165.2718  
2665.400083 5.8274     165.155   
2665.600083 5.6629     164.9364  
2665.800083 5.5306     164.6925  
2666.000083 5.5724     164.4093  
2666.200083 5.6363     163.8418  
2666.400083 5.5439     162.7638  
2666.600083 5.4374     161.3387  
2666.800083 5.5231     159.9106  
2667.000084 5.3        159.0989  
2667.200084 5.2509     158.9011  
2667.400084 5.5561     158.8582  
2667.600084 5.6441     158.8039  
2667.800084 5.5156     158.6542  
2668.000084 5.4092     157.9194  
2668.200084 5.4342     156.4231  
2668.400084 5.5299     155.7944  
2668.600084 5.6694     156.7778  
2668.800084 5.7685     156.7955  
2669.000084 5.7606     154.7822  
2669.200085 5.6815     152.1181  
2669.400085 5.8888     148.1903  
2669.600085 6.2267     142.8889  
2669.800085 6.1765     138.6457  
2670.000085 5.8259     135.7103  
2670.200085 5.7657     132.7383  
2670.400085 5.3365     129.5303  
2670.600085 4.8646     127.2188  
2670.800085 4.4938     126.3402  
2671.000085 4.2297     127.7733  
2671.200086 4.6082     130.4511  
2671.400086 5.0844     132.7331  
2671.600086 5.1692     134.6665  
2671.800086 5.1318     136.2892  
2672.000086 4.9831     136.7761  
2672.200086 4.8389     136.7665  
2672.400086 4.6859     137.7291  
2672.600086 4.9456     140.5896  
2672.800086 5.2035     142.6948  
2673.000087 5.453      141.269   
2673.200087 5.2402     137.3537  
2673.400087 4.8442     132.045   
2673.600087 4.7136     126.2855  
2673.800087 4.8936     123.0303  
2674.000087 5.4606     122.6302  
2674.200087 6.0126     123.2173  
2674.400087 6.1327     125.2299  
2674.600087 5.7431     130.9115  
2674.800087 5.5308     137.7145  
2675.000088 5.6106     140.7184  
2675.200088 5.7374     140.8368  
2675.400088 5.4055     138.917   
2675.600088 5.0601     133.7953  
2675.800088 4.857      127.257   
2676.000088 4.5309     121.7955  
2676.200088 4.1815     118.3764  
2676.400088 3.8856     117.7392  
2676.600088 3.7619     120.7079  
2676.800088 3.8802     125.0486  
2677.000088 4.1682     127.74    
2677.200089 4.3595     130.812   
2677.400089 4.5463     133.1969  
2677.600089 5.0692     133.2837  
2677.800089 5.4178     133.9555  
2678.000089 5.7562     135.2139  
2678.200089 5.7359     136.5992  
2678.400089 5.6566     139.7581  
2678.600089 5.7686     142.4865  
2678.800089 5.6885     140.9776  
2679.000089 5.3351     137.2087  
2679.20009 5.0809     131.7856  
2679.40009 4.5516     124.2129  
2679.60009 4.1578     118.5505  
2679.80009 4.0704     117.8509  
2680.00009 4.4632     121.2546  
2680.20009 4.9353     126.787   
2680.40009 5.2018     131.172   
2680.60009 5.2945     133.7805  
2680.80009 5.3311     136.1268  
2681.000091 5.5181     137.0296  
2681.200091 5.8186     136.8533  
2681.400091 5.9574     135.8998  
2681.600091 6.0634     133.696   
2681.800091 6.1277     130.9379  
2682.000091 6.1179     128.9615  
2682.200091 6.1252     127.3501  
2682.400091 6.0586     125.055   
2682.600091 5.7604     122.3586  
2682.800091 5.4074     118.7055  
2683.000092 4.8277     115.1033  
2683.200092 4.5121     114.215   
2683.400092 4.9061     116.8365  
2683.600092 5.6436     121.1963  
2683.800092 7.2232     124.3124  
2684.000092 8.0273     127.9799  
2684.200092 7.8011     132.0297  
2684.400092 7.5528     135.8855  
2684.600092 7.5062     138.9619  
2684.800092 7.671      139.2462  
2685.000092 8.104      138.7287  
2685.200093 8.1901     140.583   
2685.400093 8.1673     144.0872  
2685.600093 8.2473     145.7308  
2685.800093 8.6437     145.0876  
2686.000093 10.0526    144.1272  
2686.200093 10.6651    145.6918  
2686.400093 12.5803    149.5164  
2686.600093 14.085     152.7013  
2686.800093 12.1543    153.7137  
2687.000093 7.7459     154.4731  
2687.200094 6.8208     155.015   
2687.400094 6.4129     153.0828  
2687.600094 6.1193     149.085   
2687.800094 5.7512     145.0184  
2688.000094 5.2827     142.5608  
2688.200094 5.2064     142.1887  
2688.400094 5.1986     142.2773  
2688.600094 5.1204     141.0431  
2688.800094 4.8893     140.0327  
