~Version
 VERS              .         2.0                           : CWLS LOG ASCII STANDARD - VERSION 2.0
 WRAP              .         NO                            : ONE LINE PER DEPTH STEP
 DLM               .         SPACE                         : DELIMITING CHARACTER(SPACE TAB OR COMMA)
~Well Information
#_______________________________________________________________________________
#
#PARAMETER_NAME    .UNIT     VALUE                         : DESCRIPTION
#_______________________________________________________________________________
STRT               .m        2500                          : First reference value
STOP               .m        2708.600104                   : Last reference value
STEP               .m        0.2000001                     : Step increment
NULL               .         -9999                         : Missing value
COMP               .                                       : Company
WELL               .         400                           : Well name
FLD                .                                       : Field
LOC                .                                       : Location
CNTY               .                                       : County
STAT               .                                       : State
CTRY               .                                       : Country
SRVC               .                                       : Service Company
DATE               .                                       : Date
API                .                                       : API number
EREF               .m        140.4                         : 
Pad                .         4                             : 
X                  .m        222100                        : 
Y                  .m        250025                        : 
group              .         Pad4                          : 
Интер-р            .         Ярышев                        : 
Куст               .         4                             : 
Статус             .         Не проверено                  : 
Тип                .         Разобраться                   : 
~Parameter Information Block
#_______________________________________________________________________________
#
#PARAMETER_NAME    .UNIT     VALUE                         : DESCRIPTION
#_______________________________________________________________________________
SET                .         LAS4                          : 
REAL_CREATION_DATE .         Ср апр 11 2012-13_17_12       : 
TLFamily_DEPTH     .         Measured Depth                : 
TLFamily_RT        .         Resistivity 20                : 
TLFamily_SP        .         Spontaneous Potential         : 
group              .         INI                           : 
~Curve Information
#_______________________________________________________________________________
#
#LOGNAME           .UNIT     LOG_ID                        : DESCRIPTION
#_______________________________________________________________________________
DEPTH              .m                                      : Measured Depth 
RT                 .ohm.m                                  : Conductivity 
SP                 .mV                                     : Spontaneous Potential 
~Ascii
# ...
2547.200024 10.4173    157.0416  
2547.400024 9.5976     157.7096  
2547.600024 9.1945     159.0362  
2547.800024 8.4241     160.2327  
2548.000024 7.7201     160.7316  
2548.200024 7.4232     160.9545  
2548.400024 7.6274     161.0878  
2548.600024 7.0107     161.1892  
2548.800024 6.6145     161.3643  
2549.000025 6.5557     161.8456  
2549.200025 6.441      161.8012  
2549.400025 6.2723     160.978   
2549.600025 6.1192     161.0236  
2549.800025 5.9435     161.5371  
2550.000025 6.0488     161.6757  
2550.200025 6.6993     161.2566  
2550.400025 7.0869     160.9176  
2550.600025 6.7311     161.0187  
2550.800025 6.2626     160.932   
2551.000025 5.9634     160.1991  
2551.200026 5.481      159.5463  
2551.400026 5.4552     159.4725  
2551.600026 5.4344     159.7974  
2551.800026 5.6965     160.3008  
2552.000026 6.0084     160.5093  
2552.200026 6.6379     160.3609  
2552.400026 6.9775     159.9964  
2552.600026 6.5509     159.9737  
2552.800026 6.3584     160.0055  
2553.000026 6.4799     159.4266  
2553.200027 6.6071     158.5394  
2553.400027 6.6636     157.6807  
2553.600027 6.6881     157.5019  
2553.800027 6.6921     157.9045  
2554.000027 6.7638     158.3954  
2554.200027 6.9397     158.6669  
2554.400027 6.9733     158.5463  
2554.600027 6.8232     158.2512  
2554.800027 6.7268     157.5227  
2555.000028 6.759      156.4804  
2555.200028 6.8335     156.1261  
2555.400028 6.8642     155.6084  
2555.600028 6.8844     154.6993  
2555.800028 6.928      154.7258  
2556.000028 6.9572     155.4703  
2556.200028 6.9021     156.0318  
2556.400028 6.863      156.3255  
2556.600028 6.9689     156.4983  
2556.800028 7.0059     156.4834  
2557.000029 7.0794     156.0277  
2557.200029 7.1859     154.3755  
2557.400029 7.2636     151.901   
2557.600029 7.3555     150.5554  
2557.800029 7.6202     150.4226  
2558.000029 7.7486     150.7862  
2558.200029 7.7797     151.1884  
2558.400029 7.7467     151.0669  
2558.600029 7.3462     150.176   
2558.800029 6.873      148.2435  
2559.000029 7.7964     145.1109  
2559.20003 7.8842     141.934   
2559.40003 7.4209     140.915   
2559.60003 6.5305     142.3055  
2559.80003 5.9219     144.0404  
2560.00003 5.5985     144.1124  
2560.20003 6.3516     142.1641  
2560.40003 7.204      139.6675  
2560.60003 7.8371     138.8516  
2560.80003 7.6834     138.5343  
2561.00003 6.775      137.7986  
2561.200031 6.2667     136.9652  
2561.400031 6.4135     135.5951  
2561.600031 6.5346     135.4042  
2561.800031 6.4732     136.4102  
2562.000031 6.6482     134.8449  
2562.200031 6.7185     131.9557  
2562.400031 6.6208     131.7066  
2562.600031 6.4368     132.665   
2562.800031 6.3443     132.6228  
2563.000032 6.49       132.7395  
2563.200032 7.1299     132.7203  
2563.400032 7.6637     132.1946  
2563.600032 8.6467     133.0164  
2563.800032 9.335      135.293   
2564.000032 9.6708     136.3808  
2564.200032 8.4969     136.8037  
2564.400032 7.3732     138.9863  
2564.600032 6.5        143.0404  
2564.800032 6.2907     146.1491  
2565.000033 6.3366     146.0237  
2565.200033 6.4655     144.0754  
2565.400033 6.4744     142.6344  
2565.600033 6.5757     141.7669  
2565.800033 6.8029     140.905   
2566.000033 7.0478     140.9823  
2566.200033 6.5772     141.9676  
2566.400033 6.2682     142.4874  
2566.600033 6.0792     142.403   
2566.800033 5.9766     142.4016  
2567.000033 5.855      143.8465  
2567.200034 5.8423     147.5504  
2567.400034 5.8712     150.6911  
2567.600034 5.895      151.8572  
2567.800034 6.0627     153.1182  
2568.000034 6.2434     154.912   
2568.200034 6.8669     154.6297  
2568.400034 7.4097     153.0498  
2568.600034 8.179      152.5404  
2568.800034 8.6995     152.7431  
2569.000034 9.7254     153.2181  
2569.200035 8.8874     154.5914  
2569.400035 7.5854     157.5642  
2569.600035 6.402      161.8871  
2569.800035 5.9602     166.5993  
2570.000035 5.8115     168.8449  
2570.200035 6.1248     167.5544  
2570.400035 6.2103     167.6112  
2570.600035 6.0059     169.775   
2570.800035 5.8222     169.6974  
2571.000036 5.6081     167.5232  
2571.200036 5.1878     166.2917  
2571.400036 5.0586     166.3055  
2571.600036 4.8914     167.04    
2571.800036 4.7856     169.2192  
2572.000036 4.67       169.8054  
2572.200036 4.5863     168.429   
2572.400036 4.5557     168.7254  
2572.600036 4.5779     170.0686  
2572.800036 4.666      171.4049  
2573.000037 4.8963     171.3859  
2573.200037 5.7431     170.2948  
2573.400037 5.8194     169.7302  
2573.600037 4.9272     169.5417  
2573.800037 4.2235     169.7567  
2574.000037 4.2238     171.1737  
2574.200037 4.3329     172.7547  
2574.400037 4.4359     172.7718  
2574.600037 4.5898     173.9562  
2574.800037 4.5889     175.2297  
2575.000037 4.5517     174.1295  
2575.200038 4.5171     172.694   
2575.400038 4.5786     170.4655  
2575.600038 4.5999     169.7906  
2575.800038 4.8558     170.571   
2576.000038 5.0569     170.8623  
2576.200038 4.4497     170.7791  
2576.400038 4.0447     171.1125  
2576.600038 4.2293     173.2827  
2576.800038 4.2078     176.292   
2577.000038 4.1556     176.9662  
2577.200039 4.1647     175.2105  
2577.400039 4.1847     173.7723  
2577.600039 4.1647     175.1697  
2577.800039 4.1624     176.6309  
2578.000039 4.1714     175.1243  
2578.200039 4.3125     173.8334  
2578.400039 4.5625     174.5791  
2578.600039 4.6864     175.4738  
2578.800039 4.7112     175.1797  
2579.00004 5.0799     173.7576  
2579.20004 5.4885     173.1863  
2579.40004 5.9589     175.1719  
2579.60004 5.7041     177.8011  
2579.80004 5.1906     177.1405  
2580.00004 5.0008     176.4579  
2580.20004 4.9686     177.7237  
2580.40004 4.7213     179.547   
2580.60004 4.571      181.2718  
2580.80004 4.6793     180.5463  
2581.000041 4.7892     178.6538  
2581.200041 4.7324     177.1753  
2581.400041 4.65       177.6432  
2581.600041 4.689      180.7084  
2581.800041 4.7084     181.4391  
2582.000041 4.7499     180.6591  
2582.200041 4.741      181.4657  
2582.400041 4.7623     182.559   
2582.600041 4.727      183.3432  
2582.800041 4.5275     183.5677  
2583.000041 4.3132     182.5466  
2583.200042 4.2639     179.6447  
2583.400042 4.2742     178.8426  
2583.600042 4.2991     182.1098  
2583.800042 4.5932     184.8053  
2584.000042 4.8665     185.3442  
2584.200042 4.9745     185.3693  
2584.400042 5.0806     185.4419  
2584.600042 5.1419     185.5897  
2584.800042 5.3609     185.6387  
2585.000042 5.6572     184.3084  
2585.200043 5.6926     180.8145  
2585.400043 5.4905     179.7757  
2585.600043 5.403      183.0707  
2585.800043 5.3825     185.7883  
2586.000043 5.3834     186.4471  
2586.200043 5.3938     186.5412  
2586.400043 5.6653     186.5278  
2586.600043 6.0728     186.1529  
2586.800043 6.3308     184.9878  
2587.000044 7.1864     182.5075  
2587.200044 7.8914     179.7598  
2587.400044 9.231      180.1983  
2587.600044 9.3947     183.5152  
2587.800044 8.4694     185.871   
2588.000044 8.0201     186.6994  
2588.200044 7.947      186.5813  
2588.400044 7.8825     185.9479  
2588.600044 7.7893     186.2514  
2588.800044 7.733      186.3129  
2589.000045 7.7206     183.8205  
2589.200045 7.6731     181.3217  
2589.400045 7.8631     182.487   
2589.600045 7.9822     184.9891  
2589.800045 8.0235     185.8342  
2590.000045 7.9977     185.799   
2590.200045 7.8397     185.7305  
2590.400045 7.8904     185.7244  
2590.600045 8.0887     185.7121  
2590.800045 8.0606     185.6206  
2591.000045 8.1257     185.207   
2591.200046 8.1369     184.6584  
2591.400046 8.0808     184.6251  
2591.600046 8.1039     185.1998  
2591.800046 8.3376     186.3611  
2592.000046 8.3039     187.2494  
2592.200046 8.3505     187.4319  
2592.400046 8.2978     187.419   
2592.600046 8.2015     187.3359  
2592.800046 8.1258     186.7744  
2593.000046 8.0606     185.095   
2593.200047 7.9599     183.3436  
2593.400047 7.634      183.606   
2593.600047 7.6578     185.2629  
2593.800047 8.0306     186.626   
2594.000047 8.5323     187.2728  
2594.200047 8.7053     187.4213  
