~Version
 VERS              .         2.0                           : CWLS LOG ASCII STANDARD - VERSION 2.0
 WRAP              .         NO                            : ONE LINE PER DEPTH STEP
 DLM               .         SPACE                         : DELIMITING CHARACTER(SPACE TAB OR COMMA)
~Well Information
#_______________________________________________________________________________
#
#PARAMETER_NAME    .UNIT     VALUE                         : DESCRIPTION
#_______________________________________________________________________________
STRT               .m        2500                          : First reference value
STOP               .m        2709                          : Last reference value
STEP               .m        0.2                           : Step increment
NULL               .         -9999                         : Missing value
COMP               .                                       : Company
WELL               .         400                           : Well name
FLD                .                                       : Field
LOC                .                                       : Location
CNTY               .                                       : County
STAT               .                                       : State
CTRY               .                                       : Country
SRVC               .                                       : Service Company
DATE               .                                       : Date
API                .                                       : API number
EREF               .m        140.4                         : 
Pad                .         4                             : 
X                  .m        222100                        : 
Y                  .m        250025                        : 
group              .         Pad4                          : 
Интер-р            .         Ярышев                        : 
Куст               .         4                             : 
Статус             .         Не проверено                  : 
Тип                .         Разобраться                   : 
~Parameter Information Block
#_______________________________________________________________________________
#
#PARAMETER_NAME    .UNIT     VALUE                         : DESCRIPTION
#_______________________________________________________________________________
SET                .         LAS3                          : 
REAL_CREATION_DATE .         Ср апр 11 2012-13_17_12       : 
TLFamily_DEPTH     .         Measured Depth                : 
TLFamily_GR        .         Gamma Ray                     : 
TLFamily_TNPH      .         Neutron Porosity              : 
group              .         INI                           : 
~Curve Information
#_______________________________________________________________________________
#
#LOGNAME           .UNIT     LOG_ID                        : DESCRIPTION
#_______________________________________________________________________________
DEPTH              .m                                      : Measured Depth 
GR                 .gAPI                                   :  
TNPH               .v/v                                    : Neutron Porosity 
~Ascii
# ...
2548.6     101.976    0.2779    
2548.8     106.563    0.276     
2549       103.463    0.2642    
2549.2     102.5      0.2368    
2549.4     103.359    0.2269    
2549.6     101.484    0.2409    
2549.8     102.578    0.2405    
2550       99.992     0.2336    
2550.2     91.25      0.2269    
2550.4     93.751     0.247     
2550.6     96.47701   0.2501    
2550.8     100.415    0.249     
2551       108.149    0.247     
2551.2     110.161    0.2523    
2551.4     108.977    0.2674    
2551.6     106.766    0.2415    
2551.8     104.008    0.2509    
2552       98.446     0.2259    
2552.2     93.75      0.2508    
2552.4     93.984     0.2649    
2552.6     94.828     0.2696    
2552.8     98.562     0.2707    
2553       94.945     0.2774    
2553.2     94.836     0.256     
2553.4     95         0.2532    
2553.6     99.113     0.2513    
2553.8     105.234    0.2299    
2554       105.305    0.2144    
2554.2     100.204    0.2168    
2554.4     98.297     0.2394    
2554.6     90.845     0.231     
2554.8     88.898     0.2234    
2555       85.733     0.2316    
2555.2     82.149     0.2517    
2555.4     82.578     0.2232    
2555.6     84.766     0.2077    
2555.8     84.949     0.2129    
2556       87.734     0.2205    
2556.2     87.687     0.2348    
2556.4     90.01601   0.2408    
2556.6     92.056     0.2209    
2556.8     94.21899   0.2008    
2557       94.063     0.2032    
2557.2     91.71899   0.2199    
2557.4     91.508     0.2129    
2557.6     89.063     0.2197    
2557.8     83.492     0.2218    
2558       82.44701   0.2129    
2558.2     85.141     0.2152    
2558.4     87.711     0.2256    
2558.6     95.234     0.2171    
2558.8     88.881     0.1929    
2559       73.64899   0.1764    
2559.2     71.796     0.1895    
2559.4     80.437     0.1998    
2559.6     92.734     0.2065    
2559.8     103.147    0.2076    
2560       104.875    0.2241    
2560.2     87.40501   0.2254    
2560.4     67.696     0.1993    
2560.6     56.156     0.1856    
2560.8     58.024     0.1859    
2561       67.922     0.2076    
2561.2     69.438     0.2158    
2561.4     65.078     0.205     
2561.6     67.602     0.2118    
2561.8     69.87701   0.2166    
2562       66.35899   0.2087    
2562.2     65.617     0.2152    
2562.4     71.71899   0.23      
2562.6     73.047     0.2236    
2562.8     72.34399   0.2168    
2563       74.297     0.1832    
2563.2     67.001     0.1505    
2563.4     59.017     0.1657    
2563.6     53.39      0.1668    
2563.8     48.906     0.1844    
2564       51.675     0.2528    
2564.2     59.11      0.2543    
2564.4     74.086     0.2456    
2564.6     80.418     0.2314    
2564.8     85.141     0.205     
2565       83.59399   0.2012    
2565.2     68.70499   0.2105    
2565.4     63.608     0.2223    
2565.6     64.539     0.2254    
2565.8     65.242     0.2238    
2566       65.773     0.2275    
2566.2     70.75301   0.2416    
2566.4     72.177     0.251     
2566.6     70.5       0.2482    
2566.8     70.391     0.2254    
2567       73.75301   0.2388    
2567.2     81.42999   0.2694    
2567.4     88.485     0.2775    
2567.6     88.376     0.2624    
2567.8     81.953     0.2523    
2568       79.93      0.2329    
2568.2     69.437     0.2115    
2568.4     57.688     0.1875    
2568.6     60.244     0.2018    
2568.8     59.327     0.2352    
2569       56.586     0.2398    
2569.2     71.37801   0.2419    
2569.4     94.633     0.2489    
2569.6     112.263    0.2585    
2569.8     113.672    0.2517    
2570       108.133    0.2524    
2570.2     101.875    0.2463    
2570.4     103.945    0.2468    
2570.6     109.75     0.2408    
2570.8     111        0.2245    
2571       114.219    0.2449    
2571.2     113.594    0.2602    
2571.4     118.112    0.2474    
2571.6     119.332    0.2224    
2571.8     117.636    0.2542    
2572       121.641    0.2748    
2572.2     121.516    0.2696    
2572.4     108        0.2583    
2572.6     101.774    0.2642    
2572.8     99.619     0.2412    
2573       95.03899   0.25      
2573.2     90.328     0.3037    
2573.4     106.467    0.3048    
2573.6     113.828    0.3028    
2573.8     117.711    0.2971    
2574       128.68     0.2615    
2574.2     142.709    0.2181    
2574.4     146.563    0.2302    
2574.6     148.07     0.2491    
2574.8     149.5      0.2418    
2575       149.609    0.2308    
2575.2     142.328    0.2309    
2575.4     135.526    0.2657    
2575.6     133.005    0.2611    
2575.8     118.805    0.24      
2576       103.125    0.2523    
2576.2     108.547    0.2469    
2576.4     113.267    0.2367    
2576.6     119.922    0.2484    
2576.8     122.765    0.2765    
2577       123.922    0.2699    
2577.2     123        0.2532    
2577.4     126.875    0.2531    
2577.6     139.214    0.2546    
2577.8     167.508    0.308     
2578       192.412    0.3171    
2578.2     221.328    0.3322    
2578.4     212.744    0.3438    
2578.6     195.664    0.3377    
2578.8     191.508    0.3182    
2579       195.78     0.3077    
2579.2     205.625    0.3199    
2579.4     220.461    0.3374    
2579.6     233.662    0.3619    
2579.8     233.913    0.3692    
2580       222.266    0.3473    
2580.2     221.399    0.318     
2580.4     214.65     0.2896    
2580.6     204.531    0.2974    
2580.8     206.203    0.3228    
2581       216.484    0.3485    
2581.2     242.147    0.3567    
2581.4     257.531    0.3381    
2581.6     261.822    0.3423    
2581.8     272.476    0.3481    
2582       272.072    0.3067    
2582.2     241.023    0.2936    
2582.4     221.156    0.2877    
2582.6     211.797    0.2787    
2582.8     200.12     0.2853    
2583       179.766    0.2996    
2583.2     180.391    0.2818    
2583.4     180.611    0.2683    
2583.6     184.383    0.228     
2583.8     196.678    0.2369    
2584       220.139    0.2695    
2584.2     243.977    0.2655    
2584.4     257.953    0.2675    
2584.6     277.594    0.292     
2584.8     302.591    0.2912    
2585       341.485    0.2859    
2585.2     368.359    0.2746    
2585.4     364.313    0.2843    
2585.6     359.981    0.2866    
2585.8     358.125    0.2996    
2586       369.934    0.3066    
2586.2     377.188    0.2669    
2586.4     399.953    0.2721    
2586.6     406.297    0.2764    
2586.8     398.311    0.2653    
2587       374.32     0.2422    
2587.2     366.719    0.2286    
2587.4     336.508    0.2526    
2587.6     343.85     0.2801    
2587.8     413.359    0.3052    
2588       423.099    0.358     
2588.2     398.719    0.3605    
2588.4     376.156    0.3413    
2588.6     355.1      0.3276    
2588.8     332.047    0.2816    
2589       333.25     0.2991    
2589.2     344.609    0.3267    
2589.4     343.625    0.3288    
2589.6     347.938    0.3385    
2589.8     373.144    0.3483    
2590       381.719    0.3456    
2590.2     378.741    0.3349    
2590.4     370.078    0.3384    
2590.6     353.594    0.3523    
2590.8     337.344    0.3654    
2591       337.188    0.4013    
2591.2     334.219    0.4027    
2591.4     332.391    0.3793    
2591.6     323.034    0.425     
2591.8     316.289    0.387     
2592       304.649    0.3428    
2592.2     291.844    0.3514    
2592.4     272.063    0.371     
2592.6     252.484    0.361     
2592.8     227.375    0.3248    
2593       229.984    0.3131    
2593.2     241.75     0.3078    
2593.4     242.773    0.2886    
2593.6     236.181    0.2617    
2593.8     225.86     0.2688    
2594       210.603    0.2753    
2594.2     193.25     0.2628    
2594.4     171.062    0.308     
2594.6     161.595    0.3135    
2594.8     150.606    0.3103    
2595       144.899    0.3262    
2595.2     143.594    0.3279    
2595.4     148.803    0.3199    
2595.6     157.445    0.3001    
2595.8     163.906    0.295     
2596       168.672    0.3059    
2596.2     170.625    0.29      
2596.4     170.625    0.2889    
2596.6     174.789    0.2835    
2596.8     175.375    0.2678    
2597       146.353    0.2867    
