~Version
 VERS              .         2.0                           : CWLS LOG ASCII STANDARD - VERSION 2.0
 WRAP              .         NO                            : ONE LINE PER DEPTH STEP
 DLM               .         SPACE                         : DELIMITING CHARACTER(SPACE TAB OR COMMA)
~Well Information
#_______________________________________________________________________________
#
#PARAMETER_NAME    .UNIT     VALUE                         : DESCRIPTION
#_______________________________________________________________________________
STRT               .m        2500                          : First reference value
STOP               .m        2709.600105                   : Last reference value
STEP               .m        0.2000001                     : Step increment
NULL               .         -9999                         : Missing value
COMP               .                                       : Company
WELL               .         400                           : Well name
FLD                .                                       : Field
LOC                .                                       : Location
CNTY               .                                       : County
STAT               .                                       : State
CTRY               .                                       : Country
SRVC               .                                       : Service Company
DATE               .                                       : Date
API                .                                       : API number
EREF               .m        140.4                         : 
Pad                .         4                             : 
X                  .m        222100                        : 
Y                  .m        250025                        : 
group              .         Pad4                          : 
Интер-р            .         Ярышев                        : 
Куст               .         4                             : 
Статус             .         Не проверено                  : 
Тип                .         Разобраться                   : 
~Parameter Information Block
#_______________________________________________________________________________
#
#PARAMETER_NAME    .UNIT     VALUE                         : DESCRIPTION
#_______________________________________________________________________________
SET                .         LAS1                          : 
REAL_CREATION_DATE .         Ср апр 11 2012-13_17_12       : 
TLFamily_DEPTH     .         Measured Depth                : 
TLFamily_KS        .         Potential Resistivity         : 
TLFamily_KS1       .         Extra Shallow Resistivity     : 
TLFamily_KS2       .         Shallow Resistivity           : 
TLFamily_KS3       .         Medium Resistivity            : 
TLFamily_KS4       .         Deep Resistivity              : 
TLFamily_KS5       .         Extra Deep Resistivity        : 
TLFamily_LLD       .         Lateral Log Resistivity       : 
TLFamily_OKS       .         Medium Resistivity Inverted   : 
TLFamily_RM        .         Mud Resistivity               : 
TLFamily_SP        .         Spontaneous Potential         : 
group              .         INI                           : 
~Curve Information
#_______________________________________________________________________________
#
#LOGNAME           .UNIT     LOG_ID                        : DESCRIPTION
#_______________________________________________________________________________
DEPTH              .m                                      : Measured Depth 
KS                 .ohm.m                                  : Potential Resistivity 
KS1                .ohm.m                                  : Extra Shallow Resistivity 
KS2                .ohm.m                                  : Shallow Resistivity 
KS3                .ohm.m                                  : Medium Resistivity 
KS4                .ohm.m                                  : Deep Resistivity 
KS5                .ohm.m                                  : Extra Deep Resistivity 
LLD                .ohm.m                                  : Lateral Log Resistivity 
OKS                .ohm.m                                  : Medium Resistivity Inverted 
RM                 .ohm.m                                  : Mud Resistivity 
SP                 .mV                                     : Spontaneous Potential 
~Ascii
# ...
2526.400013 6.9614     5.247      8.9822     6.7451     5.1284     4.0725     15.3111    6.7503     0.6141     88.5734   
2526.600013 7.0428     5.2334     8.7852     6.6739     5.1481     4.151      14.8669    6.7762     0.6141     88.2472   
2526.800013 7.165      5.3216     8.8148     6.6157     5.1678     4.2818     14.4849    6.7762     0.6141     87.9904   
2527.000014 7.3212     5.3284     8.6999     6.5381     5.1678     4.4518     14.2841    6.7956     0.6141     87.8879   
2527.200014 7.4094     5.4097     8.7918     6.5252     5.2467     4.6742     14.1057    6.951      0.6141     88.06     
2527.400014 7.4705     5.5182     9.0282     6.6545     5.4571     5.0012     13.9539    7.2619     0.6141     88.7452   
2527.600014 7.4569     5.5589     9.3959     7.0232     5.9172     5.387      13.6557    7.8123     0.6175     89.2609   
2527.800014 7.3755     5.803      10.2627    7.5083     6.5155     5.8121     13.4212    8.3239     0.6175     89.2891   
2528.000014 7.3551     5.9183     10.2955    7.9352     6.9428     5.956      13.5492    8.6282     0.6276     89.1704   
2528.200014 7.3144     6.02       10.6304    7.9223     6.739      5.9298     13.6863    8.5862     0.6343     88.9686   
2528.400014 7.3076     5.9658     10.1576    7.6183     6.2985     5.7075     13.9336    8.0649     0.6309     88.7171   
2528.600014 7.3076     5.7691     9.6717     7.0491     5.7135     5.4459     14.1974    7.6375     0.6276     88.5428   
2528.800014 7.2261     5.7284     9.5863     6.7127     5.3453     5.0927     14.4096    7.3784     0.6208     88.4555   
2529.000014 7.1718     5.5793     9.4878     6.4734     5.0429     4.8442     14.5038    7.2165     0.6208     88.4062   
2529.200015 7.1311     5.4843     9.386      6.2664     4.8128     4.6742     14.5248    7.1453     0.6175     88.548    
2529.400015 7.1039     5.4436     9.3565     6.1436     4.6616     4.5303     14.5289    6.9964     0.6175     89.1132   
2529.600015 7.0632     5.4233     9.2974     6.1047     4.5564     4.4518     14.5625    6.8474     0.6141     89.584    
2529.800015 7.0496     5.4097     9.1726     6.1371     4.471      4.3799     14.7733    6.7891     0.6141     89.7785   
2530.000015 7.0496     5.369      9.0807     6.2276     4.3855     4.321      14.8842    6.7308     0.6141     89.9476   
2530.200015 7.0836     5.3012     8.9362     6.3829     4.3132     4.3079     14.7258    6.6661     0.6107     90.078    
2530.400015 7.1582     5.2605     8.864      6.5122     4.2935     4.3602     14.5378    6.7017     0.6107     89.9735   
2530.600015 7.2533     5.2945     8.8312     6.7257     4.3658     4.4518     14.3964    6.9057     0.6073     89.6757   
2530.800015 7.2906     5.3284     8.8968     6.9521     4.5893     4.5434     13.9966    7.2813     0.604      89.3406   
2531.000015 7.3144     5.6166     9.4616     7.1396     4.7931     4.6872     13.7842    7.4756     0.604      89.0198   
2531.200016 7.4569     5.5386     9.3959     7.2173     4.918      4.9227     14.0409    7.6439     0.6006     89.359    
2531.400016 7.4026     5.5318     9.2186     7.3596     5.2007     5.0404     13.8383    8.0843     0.5972     90.2535   
2531.600016 7.3483     6.0268     10.0394    7.5536     5.4439     5.0796     13.6124    8.2203     0.604      90.6146   
2531.800016 7.4569     5.7013     9.5863     7.573      5.5491     5.1712     13.8565    8.1749     0.5972     90.5438   
2532.000016 7.4977     5.7081     9.7111     7.2755     5.5031     5.1712     13.8869    8.0195     0.5972     90.3491   
2532.200016 7.3823     5.8437     9.9606     7.2173     5.6674     4.8965     13.9688    7.9612     0.5938     90.1931   
2532.400016 7.3687     5.7623     9.7176     7.0426     5.582      4.7657     14.2868    7.6698     0.5938     89.9999   
2532.600016 7.3823     5.5996     9.5404     6.6998     5.2796     4.5957     14.4322    7.3201     0.5938     89.5201   
2532.800016 7.3483     5.5318     9.5535     6.3796     5.1152     4.4256     14.4121    7.1226     0.5938     89.0312   
2533.000017 7.3212     5.4877     9.4353     6.3247     5.01       4.3341     14.3311    7.1323     0.5938     89.0776   
2533.200017 7.3008     5.5182     9.4747     6.3829     4.9377     4.3079     14.282     7.1647     0.5938     89.4052   
2533.400017 7.294      5.4843     9.5141     6.4799     4.8917     4.2948     14.3297    7.1453     0.5938     89.7691   
2533.600017 7.2737     5.5386     9.4287     6.5446     4.8457     4.2948     14.3377    7.0611     0.5938     90.1235   
2533.800017 7.2804     5.525      9.3893     6.6998     4.8128     4.321      14.4687    7.0352     0.5938     90.2988   
2534.000017 7.294      5.4708     9.2514     6.8486     4.8063     4.3733     14.6298    7.1064     0.5938     90.1872   
2534.200017 7.3212     5.464      9.2974     6.9262     4.8523     4.4518     14.5625    7.2424     0.5938     90.0019   
2534.400017 7.3347     5.4504     9.3368     7.1138     4.9837     4.5564     14.2321    7.346      0.5972     89.6637   
2534.600017 7.3483     5.5725     9.6586     7.3078     5.0955     4.5957     14.0094    7.3396     0.5972     88.9236   
2534.800017 7.4094     5.6335     9.5469     7.3078     5.0758     4.6218     14.0737    7.2165     0.5972     88.3207   
2535.000018 7.4909     5.6132     9.4156     7.0685     4.9837     4.6349     14.1226    7.032      0.5972     88.1403   
2535.200018 7.5248     5.5996     9.3237     6.9844     5.0166     4.648      13.9722    6.8604     0.5938     88.2838   
2535.400018 7.4637     5.5996     9.4878     7.0685     5.1744     4.648      13.5407    6.828      0.5938     88.515    
2535.600018 7.2872     5.9929     9.9146     7.1914     5.3059     4.6611     13.5603    6.6467     0.6006     88.6697   
2535.800018 7.2261     5.9522     10.394     7.1979     5.365      4.6872     14.7268    6.3941     0.5938     88.7595   
2536.000018 7.1175     5.6742     9.7275     6.9327     5.2927     4.7265     15.385     6.1027     0.5972     88.8102   
2536.200018 7.0496     5.4233     9.3499     6.7774     5.2861     4.805      15.1306    6.0962     0.5972     88.8405   
2536.400018 6.975      5.369      9.4353     6.8615     5.4768     4.9227     14.7318    6.2711     0.5972     88.6818   
2536.600018 6.975      5.586      9.7439     6.9844     5.6214     5.0665     14.6715    6.3876     0.6006     88.0891   
2536.800018 7.0632     5.4504     9.1923     7.0103     5.6083     5.3805     14.6797    6.4006     0.5938     87.6274   
2537.000018 7.1786     5.4233     8.9756     6.9068     5.5885     5.5243     14.4224    6.3876     0.5972     87.5593   
2537.200019 7.199      5.4233     8.9625     7.0297     5.8055     5.6159     13.8903    6.6208     0.5972     87.9068   
2537.400019 7.1379     5.7352     9.6651     7.2431     5.937      5.7467     13.7134    6.7147     0.5972     88.4524   
2537.600019 7.1549     5.7556     9.5207     7.2173     5.9107     5.9952     14.202     6.679      0.5972     88.5967   
2537.800019 6.9885     5.725      9.6192     7.2949     6.0422     6.0475     14.5221    6.9445     0.5972     88.502    
2538.000019 6.7238     6.0336     9.849      7.4631     6.2328     5.9036     14.4612    7.1841     0.5972     88.3332   
2538.200019 6.7102     5.742      10.5056    7.2949     6.0553     5.7729     14.6633    6.8668     0.5972     88.1652   
2538.400019 6.8188     5.464      9.2974     6.6222     5.3782     5.5897     15.1457    6.2775     0.5938     87.9654   
2538.600019 6.8256     5.4911     8.8969     6.1436     4.9575     5.2889     15.5616    6.012      0.5972     87.6563   
2538.800019 6.7306     5.2538     8.5817     6.0401     4.8786     5.0012     15.2014    6.1739     0.6006     87.3653   
2539.000019 6.6627     5.3894     9.0544     6.0271     4.8457     4.8311     14.5002    6.284      0.6073     87.1626   
2539.20002 6.7442     5.2809     8.9625     6.0077     4.7109     4.7265     14.3138    6.297      0.6073     87.2019   
2539.40002 6.7781     5.3148     8.8443     5.8654     4.4644     4.6218     14.2068    6.2516     0.6073     87.6983   
