~Version
 VERS              .         2.0                           : CWLS LOG ASCII STANDARD - VERSION 2.0
 WRAP              .         NO                            : ONE LINE PER DEPTH STEP
 DLM               .         SPACE                         : DELIMITING CHARACTER(SPACE TAB OR COMMA)
~Well Information
#_______________________________________________________________________________
#
#PARAMETER_NAME    .UNIT     VALUE                         : DESCRIPTION
#_______________________________________________________________________________
STRT               .m        2500                          : First reference value
STOP               .m        2708.600104                   : Last reference value
STEP               .m        0.2000001                     : Step increment
NULL               .         -9999                         : Missing value
COMP               .                                       : Company
WELL               .         400                           : Well name
FLD                .                                       : Field
LOC                .                                       : Location
CNTY               .                                       : County
STAT               .                                       : State
CTRY               .                                       : Country
SRVC               .                                       : Service Company
DATE               .                                       : Date
API                .                                       : API number
EREF               .m        140.4                         : 
Pad                .         4                             : 
X                  .m        222100                        : 
Y                  .m        250025                        : 
group              .         Pad4                          : 
Интер-р            .         Ярышев                        : 
Куст               .         4                             : 
Статус             .         Не проверено                  : 
Тип                .         Разобраться                   : 
~Parameter Information Block
#_______________________________________________________________________________
#
#PARAMETER_NAME    .UNIT     VALUE                         : DESCRIPTION
#_______________________________________________________________________________
SET                .         LAS4                          : 
REAL_CREATION_DATE .         Ср апр 11 2012-13_17_12       : 
TLFamily_DEPTH     .         Measured Depth                : 
TLFamily_RT        .         Resistivity 20                : 
TLFamily_SP        .         Spontaneous Potential         : 
group              .         INI                           : 
~Curve Information
#_______________________________________________________________________________
#
#LOGNAME           .UNIT     LOG_ID                        : DESCRIPTION
#_______________________________________________________________________________
DEPTH              .m                                      : Measured Depth 
RT                 .ohm.m                                  : Conductivity 
SP                 .mV                                     : Spontaneous Potential 
~Ascii
# ...
2594.400047 8.788      187.4654  
2594.600047 8.7031     187.438   
2594.800047 8.7411     186.7271  
2595.000048 8.7901     184.9606  
2595.200048 8.7228     183.9377  
2595.400048 8.4346     184.6398  
2595.600048 8.328      185.5715  
2595.800048 8.6691     185.94    
2596.000048 9.14       186.0769  
2596.200048 9.5024     186.1316  
2596.400048 10.2595    186.1176  
2596.600048 10.7602    186.0344  
2596.800048 10.9868    185.6172  
2597.000049 10.8945    184.3716  
2597.200049 10.7538    183.3027  
2597.400049 10.5819    183.8371  
2597.600049 10.4358    185.1102  
2597.800049 10.3981    185.681   
2598.000049 10.7339    185.7466  
2598.200049 11.4291    185.6898  
2598.400049 11.96      185.5446  
2598.600049 12.0125    185.3484  
2598.800049 12.1387    184.8937  
2599.000049 11.9347    183.5107  
2599.20005 11.6997    182.1751  
2599.40005 11.3038    182.5961  
2599.60005 10.8944    183.6013  
2599.80005 10.9259    184.1723  
2600.00005 11.4588    184.7617  
2600.20005 11.5857    184.9107  
2600.40005 11.5502    184.4749  
2600.60005 11.679     184.1237  
2600.80005 11.5504    182.9553  
2601.00005 11.3874    181.1751  
2601.200051 11.1719    181.58    
2601.400051 10.86      183.5538  
2601.600051 10.8862    184.7462  
2601.800051 11.3973    184.6649  
2602.000051 12.235     184.3462  
2602.200051 13.148     184.185   
2602.400051 12.8587    183.9807  
2602.600051 12.7075    183.6987  
2602.800051 12.0449    183.1471  
2603.000052 11.2761    182.1855  
2603.200052 11.0345    182.0232  
2603.400052 11.7446    183.0883  
2603.600052 12.1267    183.9524  
2603.800052 11.6236    184.2419  
2604.000052 10.8288    184.2784  
2604.200052 9.783      184.1738  
2604.400052 8.06       183.9688  
2604.600052 7.8149     183.6364  
2604.800052 8.0672     182.8951  
2605.000053 8.4759     182.0297  
2605.200053 8.9263     182.3987  
2605.400053 9.483      183.5618  
2605.600053 9.4973     184.3258  
2605.800053 9.1724     184.5013  
2606.000053 8.9739     184.4161  
2606.200053 8.5535     184.3602  
2606.400053 7.7707     184.3578  
2606.600053 7.2216     184.2503  
2606.800053 7.002      183.3618  
2607.000053 7.1217     181.8997  
2607.200054 7.5167     181.5102  
2607.400054 8.0934     182.6209  
2607.600054 8.1335     183.8864  
2607.800054 8.3871     184.316   
2608.000054 9.1413     184.4234  
2608.200054 9.8422     184.5446  
2608.400054 9.6967     184.6603  
2608.600054 9.8152     184.4111  
2608.800054 9.7786     182.9442  
2609.000054 9.9457     181.2703  
2609.200055 10.6312    181.2598  
2609.400055 11.8577    181.9052  
2609.600055 12.4202    182.5579  
2609.800055 13.1742    183.9959  
2610.000055 13.7952    185.4414  
2610.200055 14.4617    185.9836  
2610.400055 15.0885    186.1323  
2610.600055 14.0521    186.1206  
2610.800055 12.0699    185.266   
2611.000056 10.9739    183.7469  
2611.200056 10.4847    183.9865  
2611.400056 10.4681    185.1987  
2611.600056 10.2901    185.6795  
2611.800056 9.4939     185.9298  
2612.000056 9.084      186.1397  
2612.200056 8.9357     186.2591  
2612.400056 8.6442     186.2063  
2612.600056 8.4802     185.8632  
2612.800056 8.3683     184.9537  
2613.000057 8.5111     183.4485  
2613.200057 8.8256     182.922   
2613.400057 6.2458     183.6587  
2613.600057 5.5091     184.4471  
2613.800057 4.8664     184.7635  
2614.000057 4.4305     184.74    
2614.200057 4.0922     184.5776  
2614.400057 3.9376     184.293   
2614.600057 4.0214     183.5718  
2614.800057 3.9433     182.2883  
2615.000057 3.7382     181.5806  
2615.200058 3.7755     182.0496  
2615.400058 4.007      183.0083  
2615.600058 4.1163     183.5175  
2615.800058 4.2577     183.5156  
2616.000058 4.2261     184.34    
2616.200058 3.8512     185.258   
2616.400058 3.2319     185.1691  
2616.600058 3.1326     183.7056  
2616.800058 3.1673     181.2837  
2617.000058 3.203      179.6079  
2617.200059 3.2984     179.6846  
2617.400059 3.4655     181.2667  
2617.600059 3.4341     182.5753  
2617.800059 3.3858     182.8748  
2618.000059 3.3816     182.9739  
2618.200059 3.4487     183.1032  
2618.400059 3.3761     183.1361  
2618.600059 3.2541     182.6023  
2618.800059 3.1674     181.5133  
2619.00006 3.132      180.4654  
2619.20006 3.1531     179.6403  
2619.40006 4.0759     179.499   
2619.60006 4.4875     180.0792  
2619.80006 5.266      181.3267  
2620.00006 5.7922     182.6586  
2620.20006 5.1983     183.2226  
2620.40006 4.5715     183.0225  
2620.60006 4.5745     182.3207  
2620.80006 4.4408     181.5999  
2621.000061 4.4475     180.9182  
2621.200061 4.6423     180.9512  
2621.400061 4.8284     182.6849  
2621.600061 5.1356     184.3199  
2621.800061 5.4276     184.6801  
2622.000061 5.5509     184.6362  
2622.200061 4.9003     184.5681  
2622.400061 3.9941     184.4795  
2622.600061 3.6284     183.7372  
2622.800061 3.2136     181.5994  
2623.000061 3.0878     180.0629  
2623.200062 3.0777     180.4255  
2623.400062 3.0527     182.0661  
2623.600062 3.075      184.322   
2623.800062 3.0732     185.7498  
2624.000062 2.9615     186.0185  
2624.200062 2.781      185.8209  
2624.400062 2.7523     185.4434  
2624.600062 2.7742     184.1215  
2624.800062 2.8554     181.3939  
2625.000062 2.9172     179.8497  
2625.200063 3.0605     180.6476  
2625.400063 3.1641     182.2186  
2625.600063 3.2579     184.2355  
2625.800063 3.2684     186.0057  
2626.000063 3.2702     186.5143  
2626.200063 3.2545     186.355   
2626.400063 3.1989     186.049   
2626.600063 3.1485     184.9605  
2626.800063 2.976      182.6694  
2627.000064 2.8616     180.7489  
2627.200064 2.9208     180.4748  
2627.400064 3.112      181.1097  
2627.600064 3.2657     180.9283  
2627.800064 3.2832     179.7414  
2628.000064 3.3686     178.8218  
2628.200064 4.3202     177.8734  
2628.400064 5.2905     175.7482  
2628.600064 5.0504     171.6433  
2628.800064 4.1944     165.2304  
2629.000065 4.358      158.3137  
2629.200065 5.5508     152.3713  
2629.400065 6.2267     147.4108  
2629.600065 6.1709     143.6166  
2629.800065 6.1081     140.8052  
2630.000065 6.0442     138.341   
2630.200065 6.1474     136.4849  
2630.400065 6.2369     135.4481  
2630.600065 6.3535     134.1009  
2630.800065 6.5953     131.2889  
2631.000065 6.6468     128.6238  
2631.200066 6.9524     127.8324  
2631.400066 7.2372     127.8999  
2631.600066 7.5768     127.9452  
2631.800066 8.0114     127.5489  
2632.000066 8.3504     126.8152  
2632.200066 8.7904     126.4005  
2632.400066 8.9341     126.1691  
2632.600066 9.23       125.7602  
2632.800066 9.2975     124.6092  
2633.000066 9.2658     123.3228  
2633.200067 8.7429     123.8412  
2633.400067 8.4491     125.8094  
2633.600067 8.1223     127.4914  
2633.800067 8.3037     128.077   
2634.000067 8.7318     128.5916  
2634.200067 9.1366     129.5303  
2634.400067 9.0368     130.3488  
2634.600067 8.9155     131.1741  
2634.800067 8.6701     131.6797  
2635.000068 8.2356     131.7865  
2635.200068 7.8898     132.4315  
2635.400068 7.8593     133.7402  
2635.600068 7.8952     134.8565  
2635.800068 8.0273     135.785   
2636.000068 8.6479     136.4342  
2636.200068 9.9411     136.6544  
2636.400068 11.2154    136.6277  
2636.600068 13.5669    136.37    
2636.800068 15.1581    135.9657  
2637.000068 18.3261    136.3187  
2637.200069 23.8711    138.1195  
2637.400069 26.8313    140.3415  
2637.600069 30.8831    141.4048  
2637.800069 35.2502    141.5892  
2638.000069 44.097     141.616   
2638.200069 54.3474    141.6729  
2638.400069 64.1857    142.0016  
2638.600069 84.5891    141.9635  
2638.800069 107.1931   140.8994  
2639.000069 138.8635   141.5943  
2639.20007 149.781    144.6389  
2639.40007 151.9021   147.0168  
2639.60007 151.9021   147.4825  
2639.80007 147.108    147.0855  
2640.00007 128.5127   146.5178  
2640.20007 124.3207   145.7244  
2640.40007 120.2834   144.6415  
2640.60007 89.0364    142.6596  
2640.80007 64.7789    139.1059  
2641.000071 42.5577    136.8965  
2641.200071 19.4424    136.7548  
2641.400071 13.7813    136.6975  
2641.600071 8.847      136.5072  
