~Version
 VERS              .         2.0                           : CWLS LOG ASCII STANDARD - VERSION 2.0
 WRAP              .         NO                            : ONE LINE PER DEPTH STEP
 DLM               .         SPACE                         : DELIMITING CHARACTER(SPACE TAB OR COMMA)
~Well Information
#_______________________________________________________________________________
#
#PARAMETER_NAME    .UNIT     VALUE                         : DESCRIPTION
#_______________________________________________________________________________
STRT               .m        2500                          : First reference value
STOP               .m        2709.600105                   : Last reference value
STEP               .m        0.2000001                     : Step increment
NULL               .         -9999                         : Missing value
COMP               .                                       : Company
WELL               .         400                           : Well name
FLD                .                                       : Field
LOC                .                                       : Location
CNTY               .                                       : County
STAT               .                                       : State
CTRY               .                                       : Country
SRVC               .                                       : Service Company
DATE               .                                       : Date
API                .                                       : API number
EREF               .m        140.4                         : 
Pad                .         4                             : 
X                  .m        222100                        : 
Y                  .m        250025                        : 
group              .         Pad4                          : 
Интер-р            .         Ярышев                        : 
Куст               .         4                             : 
Статус             .         Не проверено                  : 
Тип                .         Разобраться                   : 
~Parameter Information Block
#_______________________________________________________________________________
#
#PARAMETER_NAME    .UNIT     VALUE                         : DESCRIPTION
#_______________________________________________________________________________
SET                .         LAS1                          : 
REAL_CREATION_DATE .         Ср апр 11 2012-13_17_12       : 
TLFamily_DEPTH     .         Measured Depth                : 
TLFamily_KS        .         Potential Resistivity         : 
TLFamily_KS1       .         Extra Shallow Resistivity     : 
TLFamily_KS2       .         Shallow Resistivity           : 
TLFamily_KS3       .         Medium Resistivity            : 
TLFamily_KS4       .         Deep Resistivity              : 
TLFamily_KS5       .         Extra Deep Resistivity        : 
TLFamily_LLD       .         Lateral Log Resistivity       : 
TLFamily_OKS       .         Medium Resistivity Inverted   : 
TLFamily_RM        .         Mud Resistivity               : 
TLFamily_SP        .         Spontaneous Potential         : 
group              .         INI                           : 
~Curve Information
#_______________________________________________________________________________
#
#LOGNAME           .UNIT     LOG_ID                        : DESCRIPTION
#_______________________________________________________________________________
DEPTH              .m                                      : Measured Depth 
KS                 .ohm.m                                  : Potential Resistivity 
KS1                .ohm.m                                  : Extra Shallow Resistivity 
KS2                .ohm.m                                  : Shallow Resistivity 
KS3                .ohm.m                                  : Medium Resistivity 
KS4                .ohm.m                                  : Deep Resistivity 
KS5                .ohm.m                                  : Extra Deep Resistivity 
LLD                .ohm.m                                  : Lateral Log Resistivity 
OKS                .ohm.m                                  : Medium Resistivity Inverted 
RM                 .ohm.m                                  : Mud Resistivity 
SP                 .mV                                     : Spontaneous Potential 
~Ascii
# ...
2632.000066 14.965     8.5872     18.1949    15.1278    7.6725     4.6349     10.7269    18.6074    0.5804     37.2167   
2632.200066 14.9514    8.9223     18.9631    15.6       8.6914     4.7526     10.9053    18.7758    0.5871     36.0139   
2632.400066 14.8632    8.8884     19.5902    16.1789    9.6447     4.8834     11.5251    19.2809    0.5871     35.1287   
2632.600066 14.7206    8.8545     20.0214    16.6284    10.1574    5.0273     12.006     19.5788    0.5871     35.0432   
2632.800066 14.4151    9.0104     20.7689    17.1912    10.4993    5.1843     11.9846    19.7536    0.5837     35.1503   
2633.000066 13.7974    9.3224     21.5043    17.8897    11.2323    5.3281     11.9075    19.9997    0.5787     35.0859   
2633.200067 13.2747    9.7428     22.3251    17.8638    11.5248    5.4459     12.7795    21.5539    0.5736     35.0251   
2633.400067 13.3697    8.1933     18.1161    17.1329    11.3473    5.5113     16.3846    24.9051    0.5635     35.1457   
2633.600067 13.6752    7.2338     17.1771    16.098     11.0252    5.6159     19.1451    27.0454    0.5567     35.321    
2633.800067 14.4558    7.6068     17.4594    16.3904    11.1764    5.6551     15.9917    29.6421    0.5601     35.3431   
2634.000067 15.0261    8.2103     17.7319    16.6155    11.1961    5.7336     13.7912    34.214     0.5702     35.3773   
2634.200067 15.5692    8.2238     16.9341    16.3956    11.012     5.8186     13.4134    39.9062    0.5736     35.6127   
2634.400067 16.3973    8.2442     17.2493    16.1368    10.6833    5.9167     12.2598    46.3367    0.5736     36.0795   
2634.600067 17.1033    8.6917     18.556     16.1757    10.5782    5.9298     11.4867    53.6364    0.5669     37.0715   
2634.800067 17.6634    9.1393     19.7839    16.3891    10.5256    5.9821     11.2613    63.1274    0.5702     38.7875   
2635.000068 18.0945    9.4953     20.6178    16.5314    10.3941    6.0344     11.7678    77.8625    0.5837     40.3953   
2635.200068 18.5832    9.2817     21.1235    16.2403    10.0588    6.1129     12.4674    100.2322   0.5804     41.3078   
2635.400068 19.3911    9.0918     21.3073    15.5482    9.6841     6.2437     12.8594    120.0826   0.5804     41.8519   
2635.600068 20.4568    8.7053     20.5358    15.3089    9.3094     6.4792     13.2464    145.5826   0.5736     42.2606   
2635.800068 22.4323    8.4815     19.7708    15.2766    9.0662     7.0416     13.836     177.1904   0.5702     42.4205   
2636.000068 26.6072    7.4        17.1968    14.5069    8.9741     7.8656     14.6419    225.2892   0.5635     42.3085   
2636.200068 31.8411    5.4233     14.1434    13.168     8.8689     8.3626     13.815     285.7563   0.5736     42.3065   
2636.400068 38.8196    4.5689     12.1406    12.2365    8.9347     8.9251     9.32       314.2339   0.5601     42.5229   
2636.600068 48.6493    4.8808     12.0914    12.1654    8.9676     9.5398     4.6319     303.4689   0.5601     42.7842   
2636.800068 57.5748    5.8098     14.452     13.8018    9.5986     9.6837     2.5069     290.3372   0.5669     42.9866   
2637.000068 65.4419    6.6439     17.1902    16.0269    10.4598    9.8014     1.5806     277.3581   0.5702     43.1137   
2637.200069 72.1852    7.5051     20.9527    18.6724    11.5807    10.0172    1.0954     261.0198   0.577      43.2054   
2637.400069 78.6073    8.3798     26.6392    22.1781    13.2406    10.4031    0.8479     244.0707   0.5871     43.3457   
2637.600069 85.9928    9.363      32.2666    26.8934    14.8709    10.7824    0.6643     225.4419   0.5938     43.7813   
2637.800069 90.9699    10.9634    38.5441    34.1409    17.0666    11.2532    0.4914     203.1485   0.5972     44.3086   
2638.000069 94.6627    12.1772    44.0664    45.5799    19.6502    11.7372    0.3744     173.2203   0.5972     44.409    
2638.200069 97.2315    13.4588    50.2519    57.981     22.8714    12.2342    0.4583     152.6065   0.5938     44.3099   
2638.400069 98.9976    14.5844    58.5391    73.1843    26.9538    12.7312    0.6548     129.5496   0.6073     44.254    
2638.600069 99.961     15.4117    64.4098    93.8174    31.7265    13.3918    0.6959     105.5766   0.5972     44.5109   
2638.800069 100.6032   16.3271    69.1991    113.0543   39.4213    14.1046    0.7562     79.9238    0.577      45.304    
2639.000069 99.4793    17.0663    73.6794    132.6015   47.3856    14.8109    0.7913     58.3939    0.5702     45.6201   
2639.20007 97.3921    18.4767    79.0867    151.6833   57.0576    15.5957    0.72       41.509     0.5702     45.1069   
2639.40007 94.6627    19.8058    84.8029    172.9369   68.5254    16.5636    0.7269     27.5505    0.5736     44.2895   
2639.60007 90.6488    20.7144    89.7467    201.7923   83.4025    17.5969    0.7894     20.4789    0.5702     43.7612   
2639.80007 85.8322    21.8672    97.3168    225.6833   105.0209   19.1468    0.7169     15.4926    0.5702     43.4853   
2640.00007 80.3734    23.02      103.96     248.3332   139.3468   20.8239    0.6821     11.9762    0.5702     43.1784   
2640.20007 73.6301    24.3151    109.9853   270.3625   176.6946   22.5279    0.6911     9.4442     0.577      42.9193   
2640.40007 62.3111    25.5561    116.3195   294.5638   227.6799   24.3853    0.6957     7.6957     0.5804     42.9126   
2640.60007 50.9845    27.7023    124.3531   317.9893   297.5714   26.3734    0.9337     6.2031     0.5871     43.2889   
2640.80007 39.2541    28.4244    128.6789   342.656    369.3227   27.1974    2.1429     5.1054     0.5972     43.9797   
2641.000071 28.6369    30.8113    139.339    343.8971   405.2758   26.9489    7.4395     5.1378     0.6006     44.3322   
2641.200071 21.061     24.3084    109.5218   296.5806   392.8781   25.4447    19.4077    5.5652     0.5837     44.2886   
2641.400071 16.1462    17.5341    78.3142    226.9244   323.4515   22.9072    29.2213    5.8178     0.577      44.4042   
2641.600071 13.2882    13.2553    58.2301    167.0418   234.8085   16.7206    31.9952    5.9926     0.5804     44.9243   
2641.800071 11.3298    10.8956    42.0702    124.5344   176.3847   13.5422    32.4507    6.0509     0.5905     45.1569   
2642.000071 10.5321    8.8375     29.5284    91.3353    134.5427   11.384     31.5498    6.0217     0.5804     44.9174   
2642.200071 10.2131    8.0001     22.0887    67.134     104.6335   9.6052     29.4945    5.7854     0.5702     44.596    
2642.400071 10.0433    7.6949     18.162     45.4742    82.6277    8.2188     27.1653    5.6818     0.5635     44.3572   
2642.600071 9.7922     7.7085     16.0115    34.39      67.7505    7.3555     25.2909    5.7336     0.577      44.3034   
2642.800071 9.4935     8.2035     15.739     27.0163    55.8178    6.7146     23.6045    5.6947     0.5871     44.3171   
2643.000072 9.446      7.9865     14.4257    20.5675    40.4797    6.126      22.1268    5.4422     0.5736     44.0984   
2643.200072 9.5885     7.4779     13.1059    15.2701    30.0436    5.6421     21.1144    5.1508     0.5736     43.3566   
2643.400072 9.446      7.6034     12.7119    12.0813    24.3308    5.2758     20.2036    4.9889     0.5702     42.8038   
2643.600072 9.2355     7.6678     12.8235    10.322     19.9592    5.1319     19.5471    5.0795     0.5736     42.7346   
2643.800072 8.9843     7.4169     12.6528    9.0348     16.9352    5.1712     18.6572    5.1961     0.577      43.139    
2644.000072 8.7943     7.4305     12.9943    8.4527     14.6343    5.2758     17.6316    5.2803     0.5702     43.9433   
2644.200072 8.4141     7.4847     13.1322    8.2716     13.1223    5.4589     17.2125    5.4681     0.5601     44.4602   
2644.400072 8.0475     7.6949     13.0402    7.974      11.1008    5.6682     17.2914    5.5458     0.5669     44.6512   
2644.600072 7.7964     7.1185     11.6876    7.5277     9.4277     5.8644     17.5606    5.5523     0.5736     44.7739   
2644.800072 7.6606     6.7558     11.2017    6.9521     8.0801     6.0475     17.4753    5.4681     0.5837     45.0511   
2645.000072 7.4705     6.671      10.5844    6.6093     6.9756     6.126      16.9343    5.3418     0.5804     45.3747   
