~Version
 VERS              .         2.0                           : CWLS LOG ASCII STANDARD - VERSION 2.0
 WRAP              .         NO                            : ONE LINE PER DEPTH STEP
 DLM               .         SPACE                         : DELIMITING CHARACTER(SPACE TAB OR COMMA)
~Well Information
#_______________________________________________________________________________
#
#PARAMETER_NAME    .UNIT     VALUE                         : DESCRIPTION
#_______________________________________________________________________________
STRT               .m        2500                          : First reference value
STOP               .m        2709                          : Last reference value
STEP               .m        0.2                           : Step increment
NULL               .         -9999                         : Missing value
COMP               .                                       : Company
WELL               .         400                           : Well name
FLD                .                                       : Field
LOC                .                                       : Location
CNTY               .                                       : County
STAT               .                                       : State
CTRY               .                                       : Country
SRVC               .                                       : Service Company
DATE               .                                       : Date
API                .                                       : API number
EREF               .m        140.4                         : 
Pad                .         4                             : 
X                  .m        222100                        : 
Y                  .m        250025                        : 
group              .         Pad4                          : 
Интер-р            .         Ярышев                        : 
Куст               .         4                             : 
Статус             .         Не проверено                  : 
Тип                .         Разобраться                   : 
~Parameter Information Block
#_______________________________________________________________________________
#
#PARAMETER_NAME    .UNIT     VALUE                         : DESCRIPTION
#_______________________________________________________________________________
SET                .         LAS3                          : 
REAL_CREATION_DATE .         Ср апр 11 2012-13_17_12       : 
TLFamily_DEPTH     .         Measured Depth                : 
TLFamily_GR        .         Gamma Ray                     : 
TLFamily_TNPH      .         Neutron Porosity              : 
group              .         INI                           : 
~Curve Information
#_______________________________________________________________________________
#
#LOGNAME           .UNIT     LOG_ID                        : DESCRIPTION
#_______________________________________________________________________________
DEPTH              .m                                      : Measured Depth 
GR                 .gAPI                                   :  
TNPH               .v/v                                    : Neutron Porosity 
~Ascii
# ...
2645.8     51.703     0.2278    
2646       48.062     0.2267    
2646.2     48.883     0.2165    
2646.4     55.17      0.2378    
2646.6     62.72701   0.2585    
2646.8     73.45801   0.2449    
2647       91.011     0.2312    
2647.2     90.761     0.2291    
2647.4     86.563     0.2262    
2647.6     88.047     0.2537    
2647.8     90.317     0.2719    
2648       90.444     0.2339    
2648.2     80.453     0.224     
2648.4     61.65      0.2565    
2648.6     46.875     0.3392    
2648.8     47.786     0.3455    
2649       54.499     0.2798    
2649.2     68.618     0.2206    
2649.4     84.821     0.208     
2649.6     92.481     0.2057    
2649.8     94.025     0.214     
2650       81.383     0.242     
2650.2     71.357     0.2522    
2650.4     66.28101   0.2573    
2650.6     65.5       0.2722    
2650.8     70.855     0.281     
2651       80.104     0.2756    
2651.2     82.593     0.2532    
2651.4     86.116     0.235     
2651.6     91.172     0.2153    
2651.8     85.5       0.2177    
2652       72.047     0.2179    
2652.2     67.555     0.2256    
2652.4     76.699     0.2554    
2652.6     79.922     0.2648    
2652.8     80.66399   0.293     
2653       83.457     0.2919    
2653.2     85.5       0.2872    
2653.4     86.217     0.2606    
2653.6     98.012     0.2061    
2653.8     101.262    0.2148    
2654       93.728     0.2344    
2654.2     89.72701   0.2375    
2654.4     84.763     0.2422    
2654.6     81.789     0.2614    
2654.8     80.313     0.2832    
2655       84.092     0.2815    
2655.2     89.145     0.2822    
2655.4     89.542     0.2697    
2655.6     79.002     0.2666    
2655.8     65.298     0.2713    
2656       55.547     0.285     
2656.2     56.733     0.2845    
2656.4     60.414     0.2628    
2656.6     62.631     0.2506    
2656.8     65.53001   0.2593    
2657       70.08701   0.2677    
2657.2     71.79401   0.2659    
2657.4     70.46899   0.2646    
2657.6     76.781     0.2525    
2657.8     80.588     0.2469    
2658       82.109     0.2599    
2658.2     87.188     0.251     
2658.4     89.889     0.2422    
2658.6     96.367     0.2505    
2658.8     98.188     0.2735    
2659       100.063    0.302     
2659.2     100.391    0.3023    
2659.4     99.152     0.2927    
2659.6     99.214     0.2645    
2659.8     102.031    0.2639    
2660       100.7      0.2639    
2660.2     101.195    0.279     
2660.4     104.467    0.27      
2660.6     107.563    0.2755    
2660.8     102.964    0.3033    
2661       95.149     0.3666    
2661.2     81.797     0.4431    
2661.4     56.812     0.4072    
2661.6     26.491     0.4193    
2661.8     5.994999   0.4288    
2662       4.481001   0.4536    
2662.2     6.043999   0.4446    
2662.4     11.977     0.397     
2662.6     20.147     0.3768    
2662.8     40.186     0.3573    
2663       64.85      0.2693    
2663.2     80.953     0.217     
2663.4     83.491     0.2272    
2663.6     90.46899   0.2483    
2663.8     86.66701   0.2608    
2664       81.84399   0.2813    
2664.2     70.764     0.3052    
2664.4     65.78101   0.3649    
2664.6     66.187     0.3824    
2664.8     66.347     0.2982    
2665       79.761     0.2369    
2665.2     98.559     0.2493    
2665.4     113.672    0.2565    
2665.6     113.433    0.2563    
2665.8     112.809    0.2654    
2666       108.602    0.294     
2666.2     108.188    0.3127    
2666.4     110.156    0.3155    
2666.6     107.266    0.2969    
2666.8     98.897     0.2786    
2667       80.319     0.2436    
2667.2     67.891     0.2187    
2667.4     72.34901   0.2102    
2667.6     79.985     0.2243    
2667.8     89.408     0.2436    
2668       94.06999   0.2424    
2668.2     98.28101   0.2278    
2668.4     95.09      0.2266    
2668.6     83.438     0.2213    
2668.8     82.711     0.2241    
2669       82.849     0.226     
2669.2     89.766     0.2388    
2669.4     87.327     0.2268    
2669.6     80.813     0.2325    
2669.8     80.625     0.2283    
2670       79.305     0.2313    
2670.2     75.01701   0.2544    
2670.4     74.209     0.2532    
2670.6     72.189     0.2231    
2670.8     67.039     0.2201    
2671       51.775     0.2187    
2671.2     49.157     0.2163    
2671.4     55.713     0.2255    
2671.6     64.98      0.2482    
2671.8     73.59399   0.286     
2672       80.57201   0.278     
2672.2     88.59399   0.2505    
2672.4     84.6       0.2499    
2672.6     82.453     0.2532    
2672.8     83.311     0.2211    
2673       85.492     0.228     
2673.2     87.625     0.2325    
2673.4     81.88      0.2214    
2673.6     77.617     0.2081    
2673.8     72.789     0.1979    
2674       67.394     0.1924    
2674.2     63.969     0.1894    
2674.4     57.375     0.2179    
2674.6     62.32899   0.2697    
2674.8     74.155     0.2694    
2675       90.867     0.2744    
2675.2     98.59399   0.3018    
2675.4     93.083     0.2673    
2675.6     83.392     0.2111    
2675.8     68.743     0.204     
2676       59.336     0.2128    
2676.2     54.616     0.2129    
2676.4     48.652     0.2149    
2676.6     47.489     0.2251    
2676.8     54.252     0.2353    
2677       59.266     0.2511    
2677.2     64.117     0.2654    
2677.4     70.97701   0.2513    
2677.6     73.516     0.2505    
2677.8     71.953     0.2436    
2678       75.52399   0.2238    
2678.2     85.93001   0.1988    
2678.4     86.824     0.2253    
2678.6     87.55901   0.2489    
2678.8     91.893     0.263     
2679       93.788     0.2487    
2679.2     90.19901   0.2041    
2679.4     89.666     0.1966    
2679.6     85.369     0.2045    
2679.8     76.93      0.2259    
2680       72.669     0.2324    
2680.2     69.766     0.2318    
2680.4     75.56599   0.2399    
2680.6     88.511     0.2472    
2680.8     90.78101   0.2471    
2681       82.586     0.2473    
2681.2     77.85201   0.2461    
2681.4     81.668     0.2515    
2681.6     84.46999   0.25      
2681.8     89.719     0.2477    
2682       90.148     0.2387    
2682.2     81.86401   0.235     
2682.4     77.367     0.2184    
2682.6     73.93401   0.2212    
2682.8     65.722     0.2277    
2683       62.516     0.237     
2683.2     69.067     0.2549    
2683.4     70.051     0.2671    
2683.6     67.937     0.2874    
2683.8     72.688     0.3324    
2684       79.758     0.3105    
2684.2     86.23801   0.2741    
2684.4     88.68201   0.2425    
2684.6     87.243     0.2359    
2684.8     82.817     0.264     
2685       79.149     0.2975    
2685.2     73.571     0.2855    
2685.4     73.01601   0.2882    
2685.6     72.828     0.2986    
2685.8     80.299     0.2887    
2686       84.828     0.3613    
2686.2     86.062     0.3544    
2686.4     82.205     0.3643    
2686.6     65.006     0.4099    
2686.8     48.57      0.324     
2687       45.391     0.2186    
2687.2     61.64799   0.1922    
2687.4     86.272     0.2193    
2687.6     95.46899   0.2198    
2687.8     90.405     0.218     
2688       82.449     0.2214    
2688.2     79.633     0.2262    
2688.4     75.978     0.2224    
2688.6     74.516     0.2183    
2688.8     70         0.2485    
2689       71.75      0.2751    
2689.2     72.563     0.2568    
2689.4     79.77299   0.2652    
2689.6     92.577     0.2875    
2689.8     107.001    0.2814    
2690       111.125    0.2884    
2690.2     108.984    0.2925    
2690.4     103.984    0.2659    
2690.6     104.844    0.2377    
2690.8     103.77     0.2409    
2691       96.805     0.2476    
2691.2     86.89101   0.2461    
2691.4     82.5       0.2277    
2691.6     82.14799   0.2306    
2691.8     79.453     0.2275    
2692       81.564     0.2249    
2692.2     88.656     0.2417    
2692.4     91.797     0.2405    
2692.6     88.188     0.2346    
2692.8     91.408     0.2369    
2693       93.359     0.2542    
2693.2     92.233     0.2468    
2693.4     91.524     0.2308    
2693.6     91.21899   0.2317    
2693.8     84.375     0.2436    
2694       85.01601   0.253     
2694.2     86.375     0.2735    
