~Version
 VERS              .         2.0                           : CWLS LOG ASCII STANDARD - VERSION 2.0
 WRAP              .         NO                            : ONE LINE PER DEPTH STEP
 DLM               .         SPACE                         : DELIMITING CHARACTER(SPACE TAB OR COMMA)
~Well Information
#_______________________________________________________________________________
#
#PARAMETER_NAME    .UNIT     VALUE                         : DESCRIPTION
#_______________________________________________________________________________
STRT               .m        2839                          : First reference value
STOP               .m        3000                          : Last reference value
STEP               .m        0.2                           : Step increment
NULL               .         -9999                         : Missing value
COMP               .                                       : Company
WELL               .         401                           : Well name
FLD                .                                       : Field
LOC                .                                       : Location
CNTY               .                                       : County
STAT               .                                       : State
CTRY               .                                       : Country
SRVC               .                                       : Service Company
DATE               .                                       : Date
API                .                                       : API number
EREF               .m        140.4                         : 
Pad                .         4                             : 
X                  .m        222100                        : 
Y                  .m        250025                        : 
group              .         Pad4                          : 
Интер-р            .         Старостина                    : 
Куст               .         4                             : 
Статус             .         Не проверено                  : 
Тип                .         Эксплуатация                  : 
~Parameter Information Block
#_______________________________________________________________________________
#
#PARAMETER_NAME    .UNIT     VALUE                         : DESCRIPTION
#_______________________________________________________________________________
SET                .         LAS1                          : 
REAL_CREATION_DATE .         Ср апр 11 2012-13_17_12       : 
TLFamily_DEPTH     .         Measured Depth                : 
TLFamily_KS        .         Potential Resistivity         : 
TLFamily_KS1       .         Extra Shallow Resistivity     : 
TLFamily_KS2       .         Shallow Resistivity           : 
TLFamily_KS3       .         Medium Resistivity            : 
TLFamily_KS4       .         Deep Resistivity              : 
TLFamily_KS5       .         Extra Deep Resistivity        : 
TLFamily_LLD       .         Lateral Log Resistivity       : 
TLFamily_OKS3      .         Medium Resistivity Inverted   : 
TLFamily_RM        .         Mud Resistivity               : 
group              .         INI                           : 
~Curve Information
#_______________________________________________________________________________
#
#LOGNAME           .UNIT     LOG_ID                        : DESCRIPTION
#_______________________________________________________________________________
DEPTH              .m                                      : Measured Depth 
KS                 .ohm.m                                  : Potential Resistivity 
KS1                .ohm.m                                  : Extra Shallow Resistivity 
KS2                .ohm.m                                  : Shallow Resistivity 
KS3                .ohm.m                                  : Medium Resistivity 
KS4                .ohm.m                                  : Deep Resistivity 
KS5                .ohm.m                                  : Extra Deep Resistivity 
LLD                .ohm.m                                  : Lateral Log Resistivity 
OKS3               .ohm.m                                  : Medium Resistivity Inverted 
RM                 .ohm.m                                  : Mud Resistivity 
~Ascii
# ...
2868.2     7.4117     2.9418     9.2963     13.2326    10.6918    7.1307     5.6275     11.2138    0.198     
2868.4     7.4169     2.9071     8.9481     13.2406    10.4593    7.0399     5.4333     11.259     0.197     
2868.6     7.4334     2.8874     8.7438     13.2238    10.35      7.0113     5.295      11.3028    0.2       
2868.8     7.437      2.8318     8.4287     13.1687    10.4832    7.0445     5.8706     11.3933    0.197     
2869       7.491      2.9164     8.7505     12.9674    10.9154    7.1184     5.8634     11.4939    0.202     
2869.2     7.5379     2.8953     8.7195     12.6594    11.0207    7.2375     5.9822     11.3105    0.2       
2869.4     7.5724     2.9386     8.77       12.3561    11.1365    7.2946     6.3811     10.9426    0.195     
2869.6     7.5797     2.9744     8.8851     12.219     11.4034    7.3037     6.2149     10.5397    0.193     
2869.8     7.5318     3.0735     9.1234     12.1009    11.5819    7.3162     5.6442     10.3509    0.191     
2870       7.4924     2.9861     8.9996     11.8928    11.6973    7.3432     5.7802     10.2346    0.192     
2870.2     7.4365     2.9555     9.0085     11.8027    11.8449    7.3995     6.5        10.0007    0.197     
2870.4     7.3813     3.0367     9.2748     11.89      12.1512    7.4782     6.181      9.7272     0.197     
2870.6     7.2297     3.0987     9.3256     12.0158    12.4379    7.617      5.8803     9.5879     0.197     
2870.8     7.05       3.1815     9.5522     12.1005    12.4937    7.7407     5.1921     9.7168     0.199     
2871       6.9063     3.0361     9.2404     11.9691    12.1742    7.8482     4.9982     9.979      0.197     
2871.2     6.8243     2.9603     9.1061     11.7883    11.7556    7.8911     5.1658     10.1176    0.197     
2871.4     6.7558     2.9146     8.9538     11.6778    11.3956    7.902      5.1716     9.8574     0.192     
2871.6     6.6698     2.894      8.7442     11.6154    11.1065    7.9124     5.0078     9.6609     0.195     
2871.8     6.551      2.9466     8.7416     11.5522    10.9065    7.9112     4.9413     9.6558     0.2       
2872       6.467      2.9141     8.5762     11.3302    10.5751    7.9269     4.7727     9.7461     0.203     
2872.2     6.4524     2.8254     8.3357     10.97      10.221     7.9927     4.2675     9.9614     0.198     
2872.4     6.4926     2.6979     7.9834     10.5636    9.966      8.0588     4.3596     10.3173    0.194     
2872.6     6.5416     2.6182     7.7373     10.3501    9.8978     8.1944     4.911      10.5592    0.192     
2872.8     6.6616     2.7467     7.9381     10.1547    9.8977     8.5061     5.1568     10.6675    0.188     
2873       6.8801     2.6465     7.614      9.9355     9.9246     9.085      4.4117     10.94      0.188     
2873.2     7.028      2.5466     7.4029     10.0436    10.4717    9.5775     4.9012     11.4988    0.191     
2873.4     6.9648     2.7909     8.1591     10.8783    11.4841    9.8148     8.2688     11.7302    0.196     
2873.6     6.9175     3.4469     9.8228     11.7593    12.044     9.8696     7.5217     10.9012    0.199     
2873.8     6.8875     3.3707     9.5183     11.6758    11.3883    9.7426     5.3828     9.8286     0.198     
2874       6.6973     3.1866     8.9622     10.7442    10.1308    9.1878     4.3257     9.2914     0.197     
2874.2     6.5164     2.9661     8.6802     10.0767    9.3036     8.5858     4.2706     9.2306     0.197     
2874.4     6.4157     2.8238     8.6406     9.7162     8.8272     8.2409     4.2858     9.3949     0.197     
2874.6     6.3546     2.7502     8.6094     9.6031     8.5337     8.1052     4.4617     9.6466     0.195     
2874.8     6.3299     2.7642     8.4703     9.6689     8.3304     8.0522     4.6499     9.8444     0.197     
2875       6.3477     2.7597     8.2286     9.7474     8.076      7.9851     4.7071     9.9082     0.197     
2875.2     6.3925     2.7634     8.0045     9.7025     7.8237     7.8481     4.6633     9.9106     0.199     
2875.4     6.4156     2.7711     7.8851     9.713      7.6024     7.6611     4.6838     9.9365     0.201     
2875.6     6.4388     2.7691     7.8027     9.8302     7.4349     7.444      4.7717     10.0277    0.201     
2875.8     6.4574     2.7926     7.9019     9.9647     7.3027     7.2349     4.8553     10.1335    0.198     
2876       6.4537     2.8007     7.9234     9.8726     7.2236     6.9988     4.9914     10.2418    0.196     
2876.2     6.4287     2.9156     8.1983     9.5592     7.0883     6.6085     4.9593     10.2569    0.191     
2876.4     6.3907     2.8364     8.0281     9.3821     6.9926     6.3495     4.4881     10.3113    0.191     
2876.6     6.3387     2.866      8.1333     9.1885     6.8863     6.0686     4.8313     10.3269    0.191     
2876.8     6.3397     2.8163     7.967      9.0296     6.7613     5.8491     4.6269     10.3402    0.196     
2877       6.3474     2.7565     7.7738     8.8162     6.6049     5.6519     4.4612     10.3716    0.199     
2877.2     6.348      2.7212     7.6285     8.6633     6.5405     5.5063     4.4801     10.5779    0.198     
2877.4     6.3839     2.6831     7.4877     8.5642     6.5901     5.4482     4.5379     10.8842    0.198     
2877.6     6.4246     2.6756     7.5082     8.526      6.7769     5.4898     4.6456     11.263     0.197     
2877.8     6.4813     2.6865     7.497      8.5629     6.9997     5.6392     4.5971     11.6802    0.196     
2878       6.6025     2.6379     7.3919     8.6294     7.1706     5.9382     4.5554     12.2251    0.197     
2878.2     6.7198     2.6046     7.3632     8.913      7.5706     6.3015     4.6385     13.1076    0.2       
2878.4     6.8257     2.6967     7.6431     9.4008     8.1603     6.6407     5.3004     13.7367    0.203     
2878.6     6.9973     2.8127     8.0543     9.8282     8.5964     6.9343     5.6814     13.8422    0.201     
2878.8     7.2294     2.8183     8.0486     9.9413     8.7294     7.1497     5.5499     13.6348    0.198     
2879       7.4125     2.8098     8.0014     9.9095     8.8082     7.2246     5.5099     13.4663    0.194     
2879.2     7.5656     2.8846     8.1959     9.9541     8.9541     7.2609     6.0987     13.4045    0.191     
2879.4     7.7166     2.9358     8.4652     10.0879    9.1686     7.2973     5.9888     13.3534    0.193     
2879.6     7.8125     2.9844     8.86       10.2971    9.3614     7.3166     6.6732     13.1211    0.199     
2879.8     7.8483     3.0647     9.0754     10.4151    9.4607     7.2921     6.8982     12.9344    0.199     
2880       7.8737     3.1565     9.457      10.7731    9.5702     7.1949     6.7646     12.4232    0.199     
2880.2     7.8703     3.2867     9.7789     10.9148    9.4276     7.0498     5.7303     11.9804    0.198     
2880.4     7.798      3.1619     9.5796     11.0778    9.2959     6.8473     6.5645     11.6532    0.195     
2880.6     7.6468     3.3031     10.2774    11.3913    9.1792     6.5944     6.3604     11.2504    0.195     
2880.8     7.5005     3.3291     10.2863    11.885     9.0638     6.3705     5.433      10.9425    0.2       
2881       7.3042     3.2984     10.1746    12.0029    8.7751     6.1749     5.1043     10.8077    0.204     
2881.2     7.1668     3.1899     9.8833     11.8905    8.4019     5.9686     4.6749     10.8817    0.203     
2881.4     7.107      3.0068     9.3766     11.7171    8.091      5.8202     4.714      11.0681    0.198     
2881.6     7.0586     2.9374     9.1487     11.6184    7.9016     5.7486     5.248      11.2337    0.195     
2881.8     7.064      2.9356     9.0041     11.6521    7.8482     5.7469     5.1189     11.3281    0.191     
2882       7.0547     2.9222     8.9082     11.7836    7.8856     5.8158     5.4453     11.4104    0.196     
2882.2     7.0793     2.9864     8.8574     11.8119    7.9772     5.8413     5.1287     11.5215    0.199     
2882.4     7.1018     2.9722     8.7434     11.681     8.009      5.8191     5.2851     11.5759    0.197     
2882.6     7.1129     2.961      8.6991     11.5509    8.157      5.7211     5.3629     11.7305    0.195     
