~Version
 VERS              .         2.0                           : CWLS LOG ASCII STANDARD - VERSION 2.0
 WRAP              .         NO                            : ONE LINE PER DEPTH STEP
 DLM               .         SPACE                         : DELIMITING CHARACTER(SPACE TAB OR COMMA)
~Well Information
#_______________________________________________________________________________
#
#PARAMETER_NAME    .UNIT     VALUE                         : DESCRIPTION
#_______________________________________________________________________________
STRT               .m        2839                          : First reference value
STOP               .m        3000                          : Last reference value
STEP               .m        0.2                           : Step increment
NULL               .         -9999                         : Missing value
COMP               .                                       : Company
WELL               .         401                           : Well name
FLD                .                                       : Field
LOC                .                                       : Location
CNTY               .                                       : County
STAT               .                                       : State
CTRY               .                                       : Country
SRVC               .                                       : Service Company
DATE               .                                       : Date
API                .                                       : API number
EREF               .m        140.4                         : 
Pad                .         4                             : 
X                  .m        222100                        : 
Y                  .m        250025                        : 
group              .         Pad4                          : 
Интер-р            .         Старостина                    : 
Куст               .         4                             : 
Статус             .         Не проверено                  : 
Тип                .         Эксплуатация                  : 
~Parameter Information Block
#_______________________________________________________________________________
#
#PARAMETER_NAME    .UNIT     VALUE                         : DESCRIPTION
#_______________________________________________________________________________
SET                .         LAS3                          : 
REAL_CREATION_DATE .         Ср апр 11 2012-13_17_13       : 
TLFamily_DEPTH     .         Measured Depth                : 
TLFamily_GR        .         Gamma Ray                     : 
TLFamily_TNPH      .         Neutron Porosity              : 
group              .         INI                           : 
~Curve Information
#_______________________________________________________________________________
#
#LOGNAME           .UNIT     LOG_ID                        : DESCRIPTION
#_______________________________________________________________________________
DEPTH              .m                                      : Measured Depth 
GR                 .gAPI                                   :  
TNPH               .v/v                                    : Neutron Porosity 
~Ascii
2839.0     120.22     0.278     
2839.2     118.5      0.286     
2839.4     115.62     0.276     
2839.6     110.11     0.259     
2839.8     106.97     0.253     
2840       105.29     0.268     
2840.2     103.05     0.277     
2840.4     101.76     0.274     
2840.6     102.38     0.274     
2840.8     102.6      0.262     
2841       97.9       0.251     
2841.2     94.54001   0.258     
2841.4     93.75      0.266     
2841.6     94.6       0.254     
2841.8     96.44      0.248     
2842       96.00999   0.226     
2842.2     96.88      0.222     
2842.4     98.4       0.22      
2842.6     103.06     0.248     
2842.8     109.38     0.238     
2843       107.19     0.225     
2843.2     101.59     0.234     
2843.4     94.42001   0.221     
2843.6     85.23      0.216     
2843.8     76.12      0.209     
2844       71.16      0.202     
2844.2     67.29      0.191     
2844.4     67.64      0.179     
2844.6     71.25      0.191     
2844.8     73.21999   0.182     
2845       76.34      0.191     
2845.2     75.27      0.192     
2845.4     67.19      0.153     
2845.6     57.77      0.123     
2845.8     50.27      0.115     
2846       48.94      0.125     
2846.2     52.37      0.131     
2846.4     55.71      0.144     
2846.6     55.41      0.149     
2846.8     51.18      0.127     
2847       45.82      0.109     
2847.2     44.81      0.108     
2847.4     47.16      0.138     
2847.6     48.99      0.173     
2847.8     53.21      0.185     
2848       60.99      0.196     
2848.2     67.17      0.217     
2848.4     73.82      0.229     
2848.6     81.00999   0.229     
2848.8     85.9       0.227     
2849       91.35001   0.241     
2849.2     98.13      0.247     
2849.4     103.93     0.248     
2849.6     105.77     0.244     
2849.8     105.64     0.268     
2850       108.63     0.243     
2850.2     111.12     0.234     
2850.4     108.79     0.221     
2850.6     107.62     0.217     
2850.8     109.97     0.223     
2851       111.95     0.219     
2851.2     114.56     0.235     
2851.4     117.01     0.251     
2851.6     117.35     0.257     
2851.8     115.52     0.252     
2852       114.8      0.242     
2852.2     117.5      0.246     
2852.4     119.98     0.249     
2852.6     119.11     0.243     
2852.8     112.36     0.235     
2853       98.9       0.213     
2853.2     86.17      0.207     
2853.4     76.48      0.174     
2853.6     71.86      0.15      
2853.8     75.61      0.173     
2854       78.83      0.203     
2854.2     73.28      0.222     
2854.4     67.06001   0.211     
2854.6     66.03      0.205     
2854.8     69.63      0.215     
2855       72.56      0.239     
2855.2     74.38      0.247     
2855.4     75.84      0.252     
2855.6     74.69      0.257     
2855.8     74.73      0.254     
2856       79.71      0.236     
2856.2     87.33      0.229     
2856.4     90.14      0.223     
2856.6     88.28      0.22      
2856.8     85.25      0.206     
2857       84.18      0.209     
2857.2     82.29      0.231     
2857.4     81.95      0.238     
2857.6     79.35001   0.246     
2857.8     68.83      0.234     
2858       62.39      0.215     
2858.2     58.68      0.192     
2858.4     53.84      0.173     
2858.6     50.32      0.176     
2858.8     53.77      0.182     
2859       60.84      0.192     
2859.2     70.55      0.192     
2859.4     79.49001   0.216     
2859.6     85.96      0.229     
2859.8     89.61      0.222     
2860       91.03      0.218     
2860.2     96.94      0.209     
2860.4     109.03     0.208     
2860.6     120.47     0.213     
2860.8     122.55     0.247     
2861       116.47     0.25      
2861.2     102.96     0.25      
2861.4     87.81      0.237     
2861.6     72.35      0.214     
2861.8     61.79      0.183     
2862       55.81      0.18      
2862.2     51.69      0.164     
2862.4     49.9       0.145     
2862.6     51.6       0.148     
2862.8     58.13      0.157     
2863       66.13      0.184     
2863.2     74.93      0.191     
2863.4     87.73      0.211     
2863.6     91.06      0.215     
2863.8     89.18999   0.194     
2864       90.56      0.203     
2864.2     88.77      0.209     
2864.4     77.17      0.208     
2864.6     66.82      0.201     
2864.8     64.88      0.194     
2865       64.45      0.205     
2865.2     66.09      0.211     
2865.4     73.92      0.21      
2865.6     77.62      0.209     
2865.8     73.87      0.201     
2866       64.03      0.197     
2866.2     57.44      0.183     
2866.4     59.62      0.18      
2866.6     67.84      0.201     
2866.8     70.17999   0.206     
2867       67.67      0.202     
2867.2     66.48      0.187     
2867.4     68.07999   0.192     
2867.6     71.42      0.204     
2867.8     76.28999   0.215     
2868       79.82001   0.212     
2868.2     84.78      0.205     
2868.4     93.8       0.209     
2868.6     106.41     0.213     
2868.8     114.53     0.256     
2869       112.23     0.266     
2869.2     104.57     0.264     
2869.4     103.3      0.263     
2869.6     108.43     0.268     
2869.8     109.91     0.255     
2870       106.08     0.233     
2870.2     107.3      0.222     
2870.4     115.39     0.22      
2870.6     123.43     0.244     
2870.8     127.33     0.28      
2871       124.77     0.278     
2871.2     123        0.258     
2871.4     123.9      0.239     
2871.6     126        0.235     
2871.8     126.63     0.226     
2872       123.65     0.27      
2872.2     116.3      0.287     
2872.4     107.85     0.286     
2872.6     103.17     0.263     
2872.8     103.2      0.254     
2873       100.63     0.246     
2873.2     96.28999   0.227     
2873.4     101.06     0.216     
2873.6     117.56     0.223     
2873.8     130.15     0.239     
2874       135.36     0.249     
2874.2     142.69     0.258     
2874.4     150.36     0.286     
2874.6     155.31     0.292     
2874.8     155.16     0.267     
2875       154.56     0.275     
2875.2     157.14     0.277     
2875.4     154.94     0.282     
2875.6     148.33     0.276     
2875.8     141.33     0.277     
2876       132.67     0.276     
2876.2     125.33     0.272     
2876.4     122.63     0.264     
2876.6     123.59     0.239     
2876.8     127.39     0.249     
2877       129.87     0.244     
2877.2     130.43     0.246     
2877.4     134.02     0.271     
2877.6     144.17     0.276     
2877.8     156.41     0.274     
2878       175.97     0.278     
2878.2     201.86     0.3       
2878.4     223.38     0.31      
2878.6     227.13     0.305     
2878.8     217.98     0.307     
2879       218.2      0.308     
2879.2     230.3      0.303     
2879.4     242.09     0.317     
2879.6     250.68     0.313     
2879.8     255.14     0.301     
2880       247.23     0.316     
2880.2     231.79     0.304     
2880.4     225.16     0.305     
2880.6     226.09     0.321     
2880.8     227.85     0.353     
2881       223.62     0.338     
2881.2     218.52     0.319     
2881.4     222.15     0.322     
2881.6     236.39     0.335     
2881.8     249.14     0.316     
2882       261.45     0.356     
2882.2     265.83     0.399     
2882.4     265.36     0.379     
2882.6     263.27     0.353     
2882.8     255.46     0.369     
2883       249.49     0.356     
2883.2     246.82     0.338     
2883.4     238.44     0.32      
2883.6     216.84     0.292     
2883.8     200.84     0.3       
2884       196.78     0.281     
2884.2     195.36     0.281     
2884.4     195.31     0.29      
2884.6     206.12     0.295     
2884.8     219.75     0.309     
2885       233.41     0.313     
2885.2     250.7      0.341     
2885.4     265.28     0.332     
2885.6     276.18     0.292     
2885.8     296.62     0.301     
2886       329.17     0.313     
2886.2     358.42     0.335     
2886.4     369.87     0.349     
2886.6     373.42     0.343     
2886.8     375.39     0.39      
2887       376.6      0.349     
2887.2     384.19     0.322     
2887.4     396.99     0.36      
