~Version
 VERS              .         2.0                           : CWLS LOG ASCII STANDARD - VERSION 2.0
 WRAP              .         NO                            : ONE LINE PER DEPTH STEP
 DLM               .         SPACE                         : DELIMITING CHARACTER(SPACE TAB OR COMMA)
~Well Information
#_______________________________________________________________________________
#
#PARAMETER_NAME    .UNIT     VALUE                         : DESCRIPTION
#_______________________________________________________________________________
STRT               .m        2839                          : First reference value
STOP               .m        3000                          : Last reference value
STEP               .m        0.2                           : Step increment
NULL               .         -9999                         : Missing value
COMP               .                                       : Company
WELL               .         401                           : Well name
FLD                .                                       : Field
LOC                .                                       : Location
CNTY               .                                       : County
STAT               .                                       : State
CTRY               .                                       : Country
SRVC               .                                       : Service Company
DATE               .                                       : Date
API                .                                       : API number
EREF               .m        140.4                         : 
Pad                .         4                             : 
X                  .m        222100                        : 
Y                  .m        250025                        : 
group              .         Pad4                          : 
Интер-р            .         Старостина                    : 
Куст               .         4                             : 
Статус             .         Не проверено                  : 
Тип                .         Эксплуатация                  : 
~Parameter Information Block
#_______________________________________________________________________________
#
#PARAMETER_NAME    .UNIT     VALUE                         : DESCRIPTION
#_______________________________________________________________________________
SET                .         LAS1                          : 
REAL_CREATION_DATE .         Ср апр 11 2012-13_17_12       : 
TLFamily_DEPTH     .         Measured Depth                : 
TLFamily_KS        .         Potential Resistivity         : 
TLFamily_KS1       .         Extra Shallow Resistivity     : 
TLFamily_KS2       .         Shallow Resistivity           : 
TLFamily_KS3       .         Medium Resistivity            : 
TLFamily_KS4       .         Deep Resistivity              : 
TLFamily_KS5       .         Extra Deep Resistivity        : 
TLFamily_LLD       .         Lateral Log Resistivity       : 
TLFamily_OKS3      .         Medium Resistivity Inverted   : 
TLFamily_RM        .         Mud Resistivity               : 
group              .         INI                           : 
~Curve Information
#_______________________________________________________________________________
#
#LOGNAME           .UNIT     LOG_ID                        : DESCRIPTION
#_______________________________________________________________________________
DEPTH              .m                                      : Measured Depth 
KS                 .ohm.m                                  : Potential Resistivity 
KS1                .ohm.m                                  : Extra Shallow Resistivity 
KS2                .ohm.m                                  : Shallow Resistivity 
KS3                .ohm.m                                  : Medium Resistivity 
KS4                .ohm.m                                  : Deep Resistivity 
KS5                .ohm.m                                  : Extra Deep Resistivity 
LLD                .ohm.m                                  : Lateral Log Resistivity 
OKS3               .ohm.m                                  : Medium Resistivity Inverted 
RM                 .ohm.m                                  : Mud Resistivity 
~Ascii
# ...
2912       15.1176    3.6437     12.7231    20.4348    23.8784    22.8365    14.7269    34.4534    0.202     
2912.2     15.4297    3.6551     12.786     20.7304    24.3662    23.3626    15.0773    33.5362    0.197     
2912.4     15.6831    3.7264     13.3392    20.9419    24.8257    23.9418    13.5604    32.7773    0.196     
2912.6     15.9961    3.6474     13.3447    21.3286    25.4184    24.6301    15.2651    32.1872    0.201     
2912.8     16.3101    3.6245     13.5196    21.993     26.2167    25.4236    18.9397    31.589     0.204     
2913       16.612     3.7431     14.0176    23.0141    27.1653    26.3672    17.8552    30.4271    0.204     
2913.2     16.9441    3.8081     14.2362    24.082     28.1023    27.5136    20.0677    28.8966    0.201     
2913.4     17.1367    3.8972     14.6663    25.2281    29.1121    28.7325    21.6986    27.2172    0.202     
2913.6     17.2598    4.0668     15.5029    26.924     30.5194    29.9984    20.8714    25.5391    0.207     
2913.8     17.2708    4.1741     16.1152    29.0128    32.3199    31.2715    26.6373    24.0635    0.204     
2914       17.0623    4.3923     17.1715    31.3356    34.3043    32.446     35.0744    22.401     0.201     
2914.2     16.6611    4.7114     18.4316    33.9809    36.5305    33.1329    29.7334    20.2678    0.197     
2914.4     16.0708    5.0254     19.7142    36.2007    38.0469    33.1342    17.7284    17.9921    0.203     
2914.6     15.354     5.0998     20.1787    37.3706    38.7055    32.3004    12.6711    16.3202    0.207     
2914.8     14.5917    4.9868     19.8735    37.0176    38.2417    30.9972    10.1872    15.1536    0.205     
2915       13.8933    4.6703     18.8495    36.227     37.604     29.3467    10.8033    14.3493    0.204     
2915.2     13.189     4.5459     18.5097    35.82      37.49      27.5598    12.2496    13.5985    0.204     
2915.4     12.5833    4.5975     18.7275    35.9175    37.8351    25.9978    9.3383     12.7082    0.208     
2915.6     12.0173    4.4831     17.7421    35.4979    37.9805    24.5379    9.0853     12.0035    0.207     
2915.8     11.4146    4.3765     17.065     34.3096    37.3558    22.9766    8.6544     11.3712    0.201     
2916       10.8923    4.2279     16.1984    32.9381    36.4619    21.4551    8.1126     10.6957    0.198     
2916.2     10.3927    4.0731     15.3488    31.544     35.4037    19.9764    8.5011     10.0399    0.203     
2916.4     9.8623     4.0866     15.1153    30.5577    34.7619    18.4635    8.0334     9.4745     0.207     
2916.6     9.3877     4.1223     14.8584    29.0578    33.5879    17.2581    6.4111     8.8891     0.204     
2916.8     8.9161     3.8464     13.6767    26.9157    31.9338    16.1905    7.3159     8.3957     0.203     
2917       8.4197     3.8269     13.4394    24.8465    30.2794    14.991     6.2388     7.9246     0.203     
2917.2     7.9565     3.7384     12.8528    23.4612    29.0689    13.7885    5.5321     7.4885     0.206     
2917.4     7.4976     3.6626     12.4108    21.7427    27.1715    12.7384    4.9008     7.1051     0.208     
2917.6     7.1037     3.4545     11.5249    19.9388    25.0267    11.7197    4.4287     6.803      0.2       
2917.8     6.7863     3.2146     10.5586    17.9349    22.6874    10.8184    4.101      6.6451     0.195     
2918       6.4875     2.9844     9.7153     16.4011    21.0013    10.021     4.0951     6.7569     0.2       
2918.2     6.2296     2.9495     9.483      15.4641    20.0374    9.3979     3.9921     7.035      0.206     
2918.4     6.1283     2.8554     9.0044     14.528     18.9052    9.0328     3.6663     7.3155     0.206     
2918.6     6.0724     2.6576     8.1817     13.5677    17.8081    8.7768     4.2256     7.6432     0.204     
2918.8     6.0724     2.6913     7.9602     12.7291    16.8388    8.6116     4.154      7.8461     0.204     
2919       6.1503     2.6137     7.5161     12.1163    16.1429    8.5903     4.5819     7.9156     0.207     
2919.2     6.1872     2.6729     7.5331     11.6578    15.6161    8.6504     5.2842     7.8599     0.209     
2919.4     6.1686     2.8281     7.856      11.4306    15.3834    8.6592     5.2088     7.6207     0.204     
2919.6     6.0785     2.9397     8.0682     11.232     15.0279    8.6083     5.0723     7.2043     0.199     
2919.8     5.9226     3.1335     8.4272     10.7253    14.1627    8.4431     3.8313     6.8154     0.205     
2920       5.7739     3.0138     8.081      9.8265     12.8004    8.1899     3.504      6.5931     0.208     
2920.2     5.6181     2.8726     7.6883     8.8836     11.3828    7.8537     3.4391     6.5187     0.207     
2920.4     5.5455     2.6391     7.4499     8.2292     10.3692    7.5142     3.5161     6.6182     0.204     
2920.6     5.5558     2.515      7.1069     7.7412     9.5094     7.3117     3.4293     6.9791     0.205     
2920.8     5.5385     2.5132     6.8795     7.5508     8.8945     7.2495     3.8587     7.6507     0.213     
2921       5.4662     2.5898     7.0083     7.783      8.7647     7.3111     4.3044     8.2835     0.216     
2921.2     5.5085     2.757      7.2806     8.061      8.7034     7.4509     3.6497     8.6764     0.211     
2921.4     5.5625     2.7153     6.9275     8.115      8.4187     7.6076     4.1524     8.908      0.203     
2921.6     5.5831     2.8384     6.9872     7.9674     7.8917     7.7165     3.7734     8.9244     0.208     
2921.8     5.7084     2.6688     6.4476     7.6376     7.2849     7.7099     4.0441     8.8899     0.211     
2922       5.7194     2.654      6.378      7.1788     6.6721     7.5825     4.5077     8.7071     0.21      
2922.2     5.6998     2.8229     6.8259     6.8941     6.2379     7.4349     3.927      8.4359     0.207     
2922.4     5.7398     2.7514     6.6662     6.5602     5.8354     7.4548     3.7927     8.1659     0.206     
2922.6     5.7146     2.6528     6.5229     6.2573     5.6184     7.5816     3.8693     8.1744     0.212     
2922.8     5.6941     2.6514     6.6563     6.1074     5.6086     7.9785     3.61       8.411      0.208     
2923       5.7909     2.529      6.4058     6.0109     5.7488     8.8532     3.3014     9.0832     0.201     
2923.2     5.9021     2.3435     6.0167     6.1423     6.1887     10.1025    3.9287     10.4613    0.197     
2923.4     5.9881     2.3875     6.3532     6.7389     7.1095     11.7847    4.859      12.0117    0.203     
2923.6     6.2666     2.517      6.7694     7.6308     8.4268     13.9246    4.8517     13.0201    0.21      
2923.8     6.6413     2.5359     6.8327     8.6736     10.0213    15.7697    7.011      13.7267    0.208     
2924       6.828      2.7426     7.4396     9.7281     11.3592    16.6887    8.7104     13.8919    0.207     
2924.2     6.9811     3.2881     8.5351     10.2165    11.3495    16.8498    4.7635     13.1055    0.209     
2924.4     7.0395     3.2112     8.1864     10.004     10.2873    16.0305    5.0227     11.6752    0.211     
2924.6     6.9642     3.2769     8.6707     9.4815     9.3102     14.4021    4.9458     10.2851    0.21      
2924.8     6.98       3.1128     8.6943     9.0775     8.6326     12.8676    4.4998     9.3851     0.202     
2925       6.9741     3.0421     8.5461     8.5655     7.876      11.8196    4.5413     8.8558     0.203     
2925.2     6.9398     2.9823     8.5042     8.2219     7.3858     11.0627    4.6159     8.5726     0.209     
2925.4     6.9865     2.9282     8.2364     8.0891     7.1636     10.5861    4.6847     8.3883     0.209     
2925.6     7.0344     2.8984     8.2502     8.3248     7.1262     10.423     4.8132     8.4546     0.208     
2925.8     7.0656     2.9535     8.3568     8.9863     7.4502     10.6986    5.4534     8.6397     0.209     
2926       7.093      3.0446     8.6534     9.9109     8.0069     11.4462    5.3204     8.8289     0.211     
2926.2     7.1106     3.146      9.0435     11.3191    9.0254     12.1428    6.7984     9.0838     0.21      
2926.4     6.9276     3.3167     9.7895     13.0934    10.078     12.2561    6.8694     8.9461     0.203     
