~Version
 VERS              .         2.0                           : CWLS LOG ASCII STANDARD - VERSION 2.0
 WRAP              .         NO                            : ONE LINE PER DEPTH STEP
 DLM               .         SPACE                         : DELIMITING CHARACTER(SPACE TAB OR COMMA)
~Well Information
#_______________________________________________________________________________
#
#PARAMETER_NAME    .UNIT     VALUE                         : DESCRIPTION
#_______________________________________________________________________________
STRT               .m        2839                          : First reference value
STOP               .m        3000                          : Last reference value
STEP               .m        0.2                           : Step increment
NULL               .         -9999                         : Missing value
COMP               .                                       : Company
WELL               .         401                           : Well name
FLD                .                                       : Field
LOC                .                                       : Location
CNTY               .                                       : County
STAT               .                                       : State
CTRY               .                                       : Country
SRVC               .                                       : Service Company
DATE               .                                       : Date
API                .                                       : API number
EREF               .m        140.4                         : 
Pad                .         4                             : 
X                  .m        222100                        : 
Y                  .m        250025                        : 
group              .         Pad4                          : 
Интер-р            .         Старостина                    : 
Куст               .         4                             : 
Статус             .         Не проверено                  : 
Тип                .         Эксплуатация                  : 
~Parameter Information Block
#_______________________________________________________________________________
#
#PARAMETER_NAME    .UNIT     VALUE                         : DESCRIPTION
#_______________________________________________________________________________
SET                .         LAS1                          : 
REAL_CREATION_DATE .         Ср апр 11 2012-13_17_12       : 
TLFamily_DEPTH     .         Measured Depth                : 
TLFamily_KS        .         Potential Resistivity         : 
TLFamily_KS1       .         Extra Shallow Resistivity     : 
TLFamily_KS2       .         Shallow Resistivity           : 
TLFamily_KS3       .         Medium Resistivity            : 
TLFamily_KS4       .         Deep Resistivity              : 
TLFamily_KS5       .         Extra Deep Resistivity        : 
TLFamily_LLD       .         Lateral Log Resistivity       : 
TLFamily_OKS3      .         Medium Resistivity Inverted   : 
TLFamily_RM        .         Mud Resistivity               : 
group              .         INI                           : 
~Curve Information
#_______________________________________________________________________________
#
#LOGNAME           .UNIT     LOG_ID                        : DESCRIPTION
#_______________________________________________________________________________
DEPTH              .m                                      : Measured Depth 
KS                 .ohm.m                                  : Potential Resistivity 
KS1                .ohm.m                                  : Extra Shallow Resistivity 
KS2                .ohm.m                                  : Shallow Resistivity 
KS3                .ohm.m                                  : Medium Resistivity 
KS4                .ohm.m                                  : Deep Resistivity 
KS5                .ohm.m                                  : Extra Deep Resistivity 
LLD                .ohm.m                                  : Lateral Log Resistivity 
OKS3               .ohm.m                                  : Medium Resistivity Inverted 
RM                 .ohm.m                                  : Mud Resistivity 
~Ascii
2839.0     3.405      1.1644     0.0508     0          0          0.2874     1052.535   16.7637    0.184     
2839.2     4.0729     1.6657     0.0717     0          0          0.2908     124.3797   15.4691    0.185     
2839.4     4.5451     1.939      0.9281     0          0          0.2989     210.6566   14.6722    0.187     
2839.6     4.893      2.1366     3.0648     0          0          0.3111     111.9106   14.2773    0.187     
2839.8     5.1874     2.276      4.325      0          0          0.3157     73.8024    14.1738    0.188     
2840       5.4673     2.3437     5.0656     0          0          0.3233     73.55      14.1481    0.191     
2840.2     5.7548     2.4111     5.6147     0          0          0.3193     68.8395    14.1006    0.196     
2840.4     6.0203     2.493      6.007      0.0032     0          0.3248     8.4008     14.06      0.197     
2840.6     6.2471     2.5671     6.3414     0.7811     0          0.3248     0          14.1046    0.197     
2840.8     6.4352     2.6242     6.6781     3.0158     0          0.3248     0          14.2382    0.197     
2841       6.6062     2.6982     7.1176     4.5153     0          0.3248     0          14.4539    0.196     
2841.2     6.7621     2.7402     7.4103     5.6083     0          0.3248     0          14.6935    0.195     
2841.4     6.9352     2.8057     7.6678     6.4154     0          0.3248     3.8496     14.8962    0.197     
2841.6     7.1424     2.7627     7.6959     6.9934     0          0.3248     5.4357     15.1789    0.196     
2841.8     7.3308     2.7471     7.7613     7.4519     0          0.334      5.3781     15.611     0.197     
2842       7.5543     2.7724     7.9433     7.9525     0          0.3378     6.079      16.1787    0.199     
2842.2     7.7916     2.8009     8.1964     8.5731     0          0.3378     6.9505     16.5497    0.199     
2842.4     7.9568     2.9045     8.4768     9.2963     0          0.3378     7.7755     16.728     0.201     
2842.6     8.083      3.1553     9.1855     9.9375     0.6587     0.3366     6.394      16.594     0.202     
2842.8     8.1711     3.1858     9.2867     10.3494    2.548      0.3248     5.9009     16.5236    0.198     
2843       8.21       3.1193     9.2355     10.4135    3.7777     0.3318     5.764      16.9133    0.197     
2843.2     8.2534     3.0184     9.1464     10.4974    4.6462     0.3324     6.1281     17.8589    0.194     
2843.4     8.3056     3.008      9.3037     10.7044    5.3538     0.3248     6.1759     19.1869    0.192     
2843.6     8.4141     2.9978     9.3875     10.8975    5.8611     0.3248     6.2558     20.8513    0.191     
2843.8     8.5544     2.9217     9.1416     11.0259    6.2504     0.3248     7.2478     22.5419    0.191     
2844       8.718      2.9678     9.1581     11.1613    6.5912     0.322      6.988      23.6686    0.191     
2844.2     8.9117     2.9872     9.1245     11.3885    6.9452     0.3119     6.4775     24.8616    0.193     
2844.4     9.0771     3.0037     9.1162     11.5461    7.1915     0.3119     6.772      26.2995    0.199     
2844.6     9.2636     2.9551     9.021      11.6377    7.4329     0.3065     7.6547     28.4052    0.201     
2844.8     9.5002     2.9193     9.0476     11.807     7.7266     0.2989     7.2322     30.2437    0.201     
2845       9.8263     3.0386     9.3308     11.795     7.999      0.2976     5.7833     32.6415    0.199     
2845.2     10.322     2.8426     8.7779     11.3289    8.0579     0.2859     6.3973     35.341     0.194     
2845.4     11.1147    2.4928     7.8768     10.5933    8.0192     0.2859     8.0294     37.38      0.196     
2845.6     12.1876    2.2651     7.3859     10.4309    8.3668     0.2859     13.9438    38.1597    0.194     
2845.8     13.3303    2.2967     7.5772     10.9129    9.0205     0.2859     31.8091    37.0417    0.192     
2846       14.4625    2.5824     8.3638     12.0386    10.1168    0.2935     51.2726    33.4847    0.195     
2846.2     15.4372    3.0386     9.7936     13.7711    11.6077    0.2989     59.208     28.7822    0.198     
2846.4     15.9698    3.6253     11.6359    15.8497    13.3601    0.3094     32.0195    24.6695    0.203     
2846.6     16.3726    4.0434     13.3384    17.3642    14.7936    0.3156     12.4814    21.4306    0.2       
2846.8     16.6437    3.8        13.344     18.3803    16.048     0.7641     15.8874    20.1804    0.196     
2847       16.564     3.7793     14.2222    19.8973    17.9275    2.7889     63.3752    19.8579    0.198     
2847.2     16.257     4.4178     17.3643    24.2776    21.6136    4.6185     249.6749   18.1367    0.198     
2847.4     15.1307    5.3571     20.8307    31.1828    25.4789    6.9811     51.6883    14.5542    0.194     
2847.6     14.2864    5.6103     21.5352    33.8387    26.2924    7.7922     11.744     12.9602    0.193     
2847.8     13.0829    5.1304     20.2064    35.8511    26.8377    8.2587     17.1104    11.7972    0.191     
2848       11.7274    5.3378     21.907     38.5541    28.1641    8.3718     14.9228    10.8024    0.194     
2848.2     10.6063    5.347      22.0046    39.3056    28.5119    8.3148     6.4516     10.1634    0.194     
2848.4     9.6415     4.6908     19.1226    36.6648    26.5989    8.083      5.2033     10.0093    0.197     
2848.6     8.935      4.073      16.5026    32.4597    24.2563    7.5228     4.7624     10.2295    0.195     
2848.8     8.4863     3.5566     14.0267    28.3117    22.1954    6.9754     4.5982     10.7314    0.2       
2849       8.2174     3.2079     12.2338    25.0899    20.5294    6.5749     5.2052     11.2488    0.197     
2849.2     8.0871     3.0246     10.9747    22.9669    19.6266    6.323      5.695      11.51      0.196     
2849.4     8.0499     2.9892     10.1595    21.5208    19.5937    6.2111     5.8056     11.597     0.195     
2849.6     7.9927     3.0314     9.7923     20.2204    19.8473    6.2089     5.785      11.8475    0.197     
2849.8     7.9593     3.0276     9.486      18.9752    20.2711    6.2456     5.9041     12.1285    0.201     
2850       7.9281     3.0077     9.3669     17.7519    20.5064    6.3205     6.0281     12.2698    0.201     
2850.2     7.9168     3.0166     9.411      16.6734    20.4506    6.4061     6.2004     12.3683    0.201     
2850.4     7.8964     3.0301     9.4182     15.6625    20.221     6.503      6.3524     12.378     0.203     
2850.6     7.8626     3.0855     9.4833     14.82      19.7626    6.6028     6.3566     12.3971    0.199     
2850.8     7.8051     3.0918     9.4935     14.1239    19.1248    6.6732     6.2227     12.5072    0.199     
2851       7.7539     3.105      9.5021     13.5186    18.5151    6.725      6.1423     12.6947    0.196     
2851.2     7.6522     3.0902     9.4894     13.1488    18.0421    6.7285     6.1586     12.985     0.194     
2851.4     7.5785     3.1001     9.5222     12.9104    17.429     6.7321     5.5734     13.3769    0.191     
2851.6     7.5477     3.0292     9.3011     12.5446    16.5263    6.7708     5.1814     13.8474    0.191     
2851.8     7.5261     2.8761     8.9254     12.1819    15.6222    6.8204     5.9275     14.0928    0.194     
2852       7.5335     2.9        9.043      12.049     14.9036    6.8923     6.4167     14.0688    0.197     
2852.2     7.5634     2.9787     9.117      12.0794    14.2911    7.0149     5.6303     14.2086    0.197     
2852.4     7.5702     2.9438     8.8513     11.9962    13.5798    7.167      5.7755     14.5161    0.197     
2852.6     7.6458     2.9253     8.813      11.8366    12.9208    7.3667     5.5773     14.6924    0.2       
2852.8     7.7947     2.8431     8.6121     11.6004    12.3741    7.6443     5.3689     14.9961    0.198     
2853       8.0412     2.7389     8.3237     11.3256    11.9862    8.0895     5.3563     15.5232    0.194     
2853.2     8.4105     2.6151     7.9946     11.1984    12.0258    8.7141     5.7071     16.3717    0.194     
2853.4     8.7912     2.5316     8.0912     11.569     12.6794    9.4237     9.5252     16.8396    0.196     
