~Version
 VERS              .         2.0                           : CWLS LOG ASCII STANDARD - VERSION 2.0
 WRAP              .         NO                            : ONE LINE PER DEPTH STEP
 DLM               .         SPACE                         : DELIMITING CHARACTER(SPACE TAB OR COMMA)
~Well Information
#_______________________________________________________________________________
#
#PARAMETER_NAME    .UNIT     VALUE                         : DESCRIPTION
#_______________________________________________________________________________
STRT               .m        2839                          : First reference value
STOP               .m        3000                          : Last reference value
STEP               .m        0.2                           : Step increment
NULL               .         -9999                         : Missing value
COMP               .                                       : Company
WELL               .         401                           : Well name
FLD                .                                       : Field
LOC                .                                       : Location
CNTY               .                                       : County
STAT               .                                       : State
CTRY               .                                       : Country
SRVC               .                                       : Service Company
DATE               .                                       : Date
API                .                                       : API number
EREF               .m        140.4                         : 
Pad                .         4                             : 
X                  .m        222100                        : 
Y                  .m        250025                        : 
group              .         Pad4                          : 
Интер-р            .         Старостина                    : 
Куст               .         4                             : 
Статус             .         Не проверено                  : 
Тип                .         Эксплуатация                  : 
~Parameter Information Block
#_______________________________________________________________________________
#
#PARAMETER_NAME    .UNIT     VALUE                         : DESCRIPTION
#_______________________________________________________________________________
SET                .         LAS1                          : 
REAL_CREATION_DATE .         Ср апр 11 2012-13_17_12       : 
TLFamily_DEPTH     .         Measured Depth                : 
TLFamily_KS        .         Potential Resistivity         : 
TLFamily_KS1       .         Extra Shallow Resistivity     : 
TLFamily_KS2       .         Shallow Resistivity           : 
TLFamily_KS3       .         Medium Resistivity            : 
TLFamily_KS4       .         Deep Resistivity              : 
TLFamily_KS5       .         Extra Deep Resistivity        : 
TLFamily_LLD       .         Lateral Log Resistivity       : 
TLFamily_OKS3      .         Medium Resistivity Inverted   : 
TLFamily_RM        .         Mud Resistivity               : 
group              .         INI                           : 
~Curve Information
#_______________________________________________________________________________
#
#LOGNAME           .UNIT     LOG_ID                        : DESCRIPTION
#_______________________________________________________________________________
DEPTH              .m                                      : Measured Depth 
KS                 .ohm.m                                  : Potential Resistivity 
KS1                .ohm.m                                  : Extra Shallow Resistivity 
KS2                .ohm.m                                  : Shallow Resistivity 
KS3                .ohm.m                                  : Medium Resistivity 
KS4                .ohm.m                                  : Deep Resistivity 
KS5                .ohm.m                                  : Extra Deep Resistivity 
LLD                .ohm.m                                  : Lateral Log Resistivity 
OKS3               .ohm.m                                  : Medium Resistivity Inverted 
RM                 .ohm.m                                  : Mud Resistivity 
~Ascii
# ...
2897.4     12.1561    3.5081     12.2598    19.0387    19.3187    9.7576     12.3254    24.848     0.201     
2897.6     12.2089    3.6214     12.7017    19.1667    19.4995    9.8637     10.5936    25.0564    0.204     
2897.8     12.3153    3.6145     12.6832    19.2636    19.6454    10.0883    10.0006    25.492     0.199     
2898       12.4236    3.5361     12.3687    19.1381    19.6696    10.3879    10.6942    26.3634    0.196     
2898.2     12.5629    3.4237     12.1388    19.5164    20.0235    10.7733    12.1244    27.4454    0.191     
2898.4     12.7319    3.495      12.3993    20.1982    20.7074    11.3195    12.8165    28.422     0.194     
2898.6     12.9081    3.5247     12.5987    21.0249    21.5808    11.9481    14.3128    29.1402    0.2       
2898.8     13.0593    3.6082     12.9055    21.9904    22.7285    12.4686    15.3223    29.5871    0.198     
2899       13.1732    3.7474     13.4718    23.0061    23.7542    12.8497    14.5192    29.6016    0.197     
2899.2     13.2459    3.8391     13.7726    23.3698    24.0911    13.0933    12.7702    29.1609    0.197     
2899.4     13.3118    3.825      13.7981    23.259     23.8553    13.0923    12.4575    28.532     0.2       
2899.6     13.3391    3.8223     13.8873    23.0479    23.5406    12.8679    12.2632    28.2572    0.203     
2899.8     13.4004    3.7955     13.8517    22.8296    23.2252    12.6128    11.8948    28.0309    0.202     
2900       13.5079    3.7287     13.572     22.4089    22.8162    12.3656    10.9705    27.8876    0.196     
2900.2     13.6586    3.6593     13.3535    21.9838    22.6415    12.1305    11.9784    28.2108    0.193     
2900.4     13.8479    3.6033     13.0661    21.7515    22.5954    12.0131    14.2056    28.5224    0.196     
2900.6     14.0681    3.5555     12.9246    21.9075    22.8586    11.9941    15.1286    28.5765    0.2       
2900.8     14.284     3.7089     13.4018    22.3085    23.2236    12.0684    15.0568    28.279     0.201     
2901       14.4421    3.7576     13.4412    22.9677    23.7273    12.2173    15.9714    28.1012    0.197     
2901.2     14.5349    3.8578     13.7624    23.5207    24.0888    12.43      15.9321    27.7787    0.197     
2901.4     14.5788    3.9684     14.2314    24.1305    24.4999    12.6184    15.3721    27.3597    0.2       
2901.6     14.5552    3.983      14.4597    24.5734    24.8938    12.8233    14.7113    27.0037    0.203     
2901.8     14.5086    4.0303     14.7091    24.8578    25.2685    13.0069    13.071     26.8053    0.202     
2902       14.4482    3.988      14.7327    25.0237    25.4589    13.2023    12.3433    26.9799    0.196     
2902.2     14.4142    3.9066     14.5673    24.9324    25.5455    13.4375    12.7091    27.5009    0.191     
2902.4     14.4232    3.7861     14.2329    24.7992    25.7938    13.6797    14.0271    28.1957    0.196     
2902.6     14.4762    3.776      14.1333    24.933     26.2931    13.949     14.4241    28.6556    0.202     
2902.8     14.5633    3.8033     14.1692    25.2642    26.9906    14.2508    14.0334    28.7449    0.201     
2903       14.6264    3.8107     14.0529    25.4742    27.7388    14.6046    14.4855    28.8484    0.197     
2903.2     14.6597    3.8575     14.1549    25.7042    28.4725    14.9328    14.9175    28.8436    0.199     
2903.4     14.7095    3.888      14.3259    25.9176    29.1459    15.2708    14.548     28.6189    0.2       
2903.6     14.7625    3.8925     14.3959    25.9829    29.5847    15.6386    14.08      28.2945    0.203     
2903.8     14.7857    3.8776     14.3249    25.9709    30.0259    16.032     14.4509    28.1734    0.201     
2904       14.7908    3.9032     14.4847    26.0497    30.5715    16.4731    13.7022    28.2113    0.197     
2904.2     14.8422    3.9265     14.5894    25.9968    30.9433    17.008     12.5532    28.3316    0.194     
2904.4     14.9429    3.8028     14.2492    25.6803    31.0068    17.7202    12.9226    28.5308    0.198     
2904.6     15.1052    3.6921     13.8876    25.4983    31.3557    18.5384    16.7477    28.4953    0.203     
2904.8     15.25      3.7397     14.0081    25.9142    32.2891    19.3809    20.3582    27.7324    0.201     
2905       15.3594    3.9238     14.6036    26.9628    33.6032    20.3027    19.9632    26.3422    0.201     
2905.2     15.3805    4.1173     15.2537    27.9564    34.8517    21.1449    18.7816    25.0989    0.199     
2905.4     15.2775    4.2616     15.7257    28.7669    35.7593    21.6822    17.7204    23.9149    0.2       
2905.6     15.1161    4.3418     16.246     29.3139    36.1888    21.9773    14.0319    22.8958    0.203     
2905.8     14.9607    4.3013     16.1614    29.3201    35.8774    22.2341    12.2005    22.3909    0.204     
2906       14.7871    4.175      15.862     28.8626    35.2129    22.5306    12.9698    22.4182    0.202     
2906.2     14.5829    4.0753     15.7255    28.7878    35.183     22.8725    15.4868    22.7158    0.196     
2906.4     14.3694    4.1171     16.0011    29.4053    35.933     23.3603    19.0313    22.6035    0.192     
2906.6     14.0642    4.3076     16.6071    30.5042    36.9661    23.888     18.4323    21.8891    0.198     
2906.8     13.6114    4.4953     17.0556    31.6492    37.7863    24.1442    15.913     20.8433    0.204     
2907       13.089     4.6607     17.4106    32.0649    37.5805    24.0563    10.6101    19.669     0.202     
2907.2     12.6192    4.4954     16.8699    31.233     36.1749    23.5791    8.4763     18.9977    0.199     
2907.4     12.2235    4.2151     15.8637    29.3794    33.8889    22.8803    7.5445     19.0682    0.2       
2907.6     11.9946    3.8529     14.6262    27.3414    31.6622    22.1417    7.4836     19.8528    0.199     
2907.8     11.9302    3.5387     13.3933    25.3675    29.5418    21.6265    8.8455     20.8902    0.203     
2908       12.012     3.3862     12.697     23.9275    28.3947    21.3865    9.9273     21.8196    0.202     
2908.2     12.1915    3.3798     12.3906    23.3247    28.1375    21.4381    11.6947    22.5778    0.198     
2908.4     12.3937    3.4577     12.3277    23.3015    28.4017    21.7035    12.9699    22.9691    0.194     
2908.6     12.5641    3.5776     12.4511    23.5124    28.7657    22.0036    12.6898    22.8602    0.195     
2908.8     12.6771    3.6822     12.6394    23.6614    29.1137    22.2122    13.197     22.6685    0.203     
2909       12.6792    3.7868     13.0122    23.6668    29.4493    22.34      12.9067    22.6065    0.204     
2909.2     12.6207    3.9042     13.4867    23.5441    29.6556    22.3355    12.1893    22.6832    0.201     
2909.4     12.4537    3.9269     13.7501    23.352     29.7315    22.069     12.7167    22.7454    0.2       
2909.6     12.2389    4.055      14.3905    22.9715    29.34      21.6511    9.3493     22.7369    0.2       
2909.8     12.0848    3.9531     14.0125    22.2499    28.2649    21.1008    8.3543     23.1084    0.204     
2910       11.9549    3.7239     13.3312    21.0265    26.3491    20.493     7.7403     24.1509    0.203     
2910.2     11.9623    3.4847     12.6014    20.0794    24.779     19.8983    8.0436     25.9909    0.196     
2910.4     12.0859    3.2713     11.8817    19.4268    23.7015    19.6809    9.4967     28.1132    0.193     
2910.6     12.2663    3.2199     11.5504    19.4817    23.5559    19.6546    11.7974    30.1304    0.196     
2910.8     12.535     3.3451     11.7675    19.7426    23.5772    19.8814    9.7899     31.3439    0.203     
2911       12.9484    3.308      11.357     19.6204    23.14      20.3052    9.348      32.6446    0.202     
2911.2     13.3867    3.1599     10.7897    19.0182    22.5063    20.771     11.9523    34.5529    0.199     
2911.4     13.7922    3.1341     10.803     18.9413    22.5621    21.1894    16.7832    35.821     0.197     
2911.6     14.2876    3.3351     11.5754    19.3899    22.941     21.7097    16.8943    35.8612    0.201     
2911.8     14.7475    3.4606     12.1137    20.0744    23.4596    22.2794    16.5544    35.2388    0.207     
