~Version
 VERS              .         2.0                           : CWLS LOG ASCII STANDARD - VERSION 2.0
 WRAP              .         NO                            : ONE LINE PER DEPTH STEP
 DLM               .         SPACE                         : DELIMITING CHARACTER(SPACE TAB OR COMMA)
~Well Information
#_______________________________________________________________________________
#
#PARAMETER_NAME    .UNIT     VALUE                         : DESCRIPTION
#_______________________________________________________________________________
STRT               .m        2839                          : First reference value
STOP               .m        3000                          : Last reference value
STEP               .m        0.2                           : Step increment
NULL               .         -9999                         : Missing value
COMP               .                                       : Company
WELL               .         401                           : Well name
FLD                .                                       : Field
LOC                .                                       : Location
CNTY               .                                       : County
STAT               .                                       : State
CTRY               .                                       : Country
SRVC               .                                       : Service Company
DATE               .                                       : Date
API                .                                       : API number
EREF               .m        140.4                         : 
Pad                .         4                             : 
X                  .m        222100                        : 
Y                  .m        250025                        : 
group              .         Pad4                          : 
Интер-р            .         Старостина                    : 
Куст               .         4                             : 
Статус             .         Не проверено                  : 
Тип                .         Эксплуатация                  : 
~Parameter Information Block
#_______________________________________________________________________________
#
#PARAMETER_NAME    .UNIT     VALUE                         : DESCRIPTION
#_______________________________________________________________________________
SET                .         LAS1                          : 
REAL_CREATION_DATE .         Ср апр 11 2012-13_17_12       : 
TLFamily_DEPTH     .         Measured Depth                : 
TLFamily_KS        .         Potential Resistivity         : 
TLFamily_KS1       .         Extra Shallow Resistivity     : 
TLFamily_KS2       .         Shallow Resistivity           : 
TLFamily_KS3       .         Medium Resistivity            : 
TLFamily_KS4       .         Deep Resistivity              : 
TLFamily_KS5       .         Extra Deep Resistivity        : 
TLFamily_LLD       .         Lateral Log Resistivity       : 
TLFamily_OKS3      .         Medium Resistivity Inverted   : 
TLFamily_RM        .         Mud Resistivity               : 
group              .         INI                           : 
~Curve Information
#_______________________________________________________________________________
#
#LOGNAME           .UNIT     LOG_ID                        : DESCRIPTION
#_______________________________________________________________________________
DEPTH              .m                                      : Measured Depth 
KS                 .ohm.m                                  : Potential Resistivity 
KS1                .ohm.m                                  : Extra Shallow Resistivity 
KS2                .ohm.m                                  : Shallow Resistivity 
KS3                .ohm.m                                  : Medium Resistivity 
KS4                .ohm.m                                  : Deep Resistivity 
KS5                .ohm.m                                  : Extra Deep Resistivity 
LLD                .ohm.m                                  : Lateral Log Resistivity 
OKS3               .ohm.m                                  : Medium Resistivity Inverted 
RM                 .ohm.m                                  : Mud Resistivity 
~Ascii
# ...
2882.8     7.1191     3.0094     8.8693     11.4492    8.3703     5.6086     5.4462     11.89      0.197     
2883       7.1472     3.0165     8.9107     11.2441    8.528      5.4958     5.3201     12.0233    0.197     
2883.2     7.1858     2.9749     8.7883     10.9799    8.601      5.3876     5.4061     12.1283    0.197     
2883.4     7.1581     3.0523     8.9773     10.8609    8.7957     5.2253     5.6937     12.2496    0.201     
2883.6     7.0933     3.0945     9.107      10.928     8.9227     5.0705     5.6561     12.2207    0.204     
2883.8     7.0435     3.1336     9.1459     10.8365    8.8225     4.9059     5.5262     12.165     0.199     
2884       7.0123     3.0331     8.8396     10.5252    8.5266     4.7258     4.8521     12.1842    0.195     
2884.2     6.9535     2.9297     8.6127     10.2266    8.2346     4.5528     4.8073     12.4044    0.192     
2884.4     6.9694     2.8984     8.5433     10.0025    7.9836     4.4322     4.8533     12.7701    0.191     
2884.6     7.0503     2.7709     8.1815     9.769      7.7499     4.3971     4.6316     13.3398    0.195     
2884.8     7.181      2.6939     7.9386     9.5867     7.6215     4.4211     4.9528     13.983     0.2       
2885       7.3496     2.7119     7.8999     9.6312     7.6676     4.517      5.4509     14.6509    0.198     
2885.2     7.5333     2.7375     7.9149     9.8279     7.852      4.6775     5.6991     15.3022    0.197     
2885.4     7.6858     2.8778     8.2098     10.1624    8.1534     4.8517     6.2663     16.0588    0.197     
2885.6     7.8334     2.9586     8.5146     10.4989    8.4739     5.0787     6.2999     16.7474    0.197     
2885.8     8.0254     2.9665     8.5921     10.7139    8.7752     5.3573     6.0886     17.5564    0.198     
2886       8.1947     2.9392     8.6731     10.9491    9.2024     5.644      6.3882     18.4634    0.201     
2886.2     8.319      3.0532     9.1449     11.402     9.8669     5.8689     7.1874     19.484     0.202     
2886.4     8.45       3.19       9.6545     11.7895    10.2727    6.02       7.6277     19.7308    0.198     
2886.6     8.6176     3.1878     9.6691     11.8252    10.227     6.0948     7.326      19.5903    0.193     
2886.8     8.7503     3.1433     9.5659     11.644     9.9474     6.0755     6.6456     19.4266    0.191     
2887       8.8184     3.1327     9.6242     11.6123    9.797      6.0556     6.7529     19.6788    0.194     
2887.2     8.9325     3.1269     9.7771     11.6503    9.671      6.129      6.7093     20.1769    0.199     
2887.4     9.0734     3.0378     9.5989     11.6634    9.5848     6.2438     6.1653     21.0163    0.199     
2887.6     9.262      2.9774     9.5279     11.7693    9.5793     6.3862     6.6638     21.8818    0.199     
2887.8     9.5443     3.0113     9.6329     12.0074    9.6574     6.5448     7.4905     22.4764    0.198     
2888       9.8831     2.9938     9.5272     12.2584    9.7091     6.7892     7.6355     22.7727    0.197     
2888.2     10.2238    2.9987     9.5108     12.5389    9.8141     7.0468     8.3046     23.1048    0.194     
2888.4     10.5544    3.0918     9.8038     13.048     10.0383    7.2983     8.9861     23.3899    0.201     
2888.6     10.8508    3.1931     10.1391    13.7623    10.4101    7.5486     10.0127    23.5554    0.204     
2888.8     11.1684    3.2548     10.538     14.5215    10.8439    7.7789     10.9738    23.3313    0.2       
2889       11.3611    3.4756     11.3024    15.2304    11.3647    7.9598     12.0977    22.9448    0.195     
2889.2     11.4797    3.5653     11.6751    15.8934    11.8689    8.1136     10.9831    22.6159    0.192     
2889.4     11.5243    3.6364     12.0001    16.4431    12.3958    8.1714     10.6176    22.4634    0.193     
2889.6     11.5024    3.7354     12.5775    17.0275    12.942     8.184      10.7004    22.4141    0.199     
2889.8     11.4884    3.7129     12.7019    17.5394    13.3713    8.142      10.0074    22.3432    0.201     
2890       11.4735    3.6977     12.7803    17.9323    13.703     8.0632     9.7984     22.2298    0.201     
2890.2     11.454     3.664      12.724     18.2668    14.0414    7.9735     9.4344     22.2668    0.198     
2890.4     11.4534    3.6254     12.6635    18.5187    14.3911    7.9028     8.9461     22.6072    0.197     
2890.6     11.4657    3.5935     12.564     18.6029    14.602     7.8792     8.689      22.8563    0.197     
2890.8     11.5083    3.5294     12.4055    18.853     15.0379    7.8802     9.8144     23.2081    0.199     
2891       11.5896    3.5132     12.326     19.133     15.3894    7.8849     10.0449    23.3712    0.204     
2891.2     11.7078    3.5246     12.3117    19.3826    15.6958    7.8985     10.3205    23.4115    0.203     
2891.4     11.8019    3.5544     12.2962    19.588     15.9929    7.9301     10.3444    23.3262    0.198     
2891.6     11.8934    3.5675     12.3074    19.6809    16.2946    7.9709     10.0072    23.2266    0.195     
2891.8     11.9921    3.5773     12.336     19.7075    16.6632    8.0365     10.2456    23.2606    0.193     
2892       12.0663    3.5442     12.3486    19.7936    17.2077    8.1196     11.3026    23.2945    0.198     
2892.2     12.1199    3.6071     12.5703    20.0169    17.8879    8.2273     10.9099    23.2112    0.203     
2892.4     12.1865    3.6757     12.835     20.2672    18.5585    8.3477     11.0019    23.0893    0.201     
2892.6     12.2211    3.6835     12.8681    20.5135    19.2425    8.4488     11.4763    22.9564    0.201     
2892.8     12.2273    3.7671     13.2274    20.806     19.9833    8.5471     10.6866    22.7542    0.197     
2893       12.2296    3.7692     13.2976    21.1488    20.6489    8.6633     10.3961    22.5284    0.199     
2893.2     12.2271    3.7566     13.3695    21.3644    21.0965    8.7999     10.6366    22.4613    0.202     
2893.4     12.1946    3.7582     13.3861    21.6203    21.5692    8.9243     11.3402    22.42      0.204     
2893.6     12.176     3.7966     13.6028    21.9517    21.9991    9.0734     10.9663    22.3198    0.201     
2893.8     12.1523    3.81       13.5979    22.253     22.3377    9.21       11.0698    22.3901    0.195     
2894       12.103     3.8411     13.7263    22.4089    22.5281    9.3154     10.8231    22.3241    0.192     
2894.2     12.0439    3.8248     13.6536    22.4857    22.5229    9.4138     10.8482    22.1758    0.195     
2894.4     11.9804    3.8096     13.5866    22.3988    22.3181    9.4898     10.339     21.9451    0.2       
2894.6     11.8976    3.8086     13.5715    22.3141    22.12      9.5642     10.6718    21.7484    0.201     
2894.8     11.7786    3.8013     13.5361    22.2867    22.0543    9.6697     10.5796    21.7357    0.199     
2895       11.6373    3.8309     13.6628    22.3438    22.0969    9.806      9.9452     21.8028    0.198     
2895.2     11.4912    3.837      13.6804    22.318     22.1269    9.8813     9.4381     22.0778    0.198     
2895.4     11.3446    3.8238     13.6216    22.097     21.9455    9.8656     8.6024     22.4432    0.201     
2895.6     11.2753    3.7467     13.2559    21.6656    21.5049    9.8517     7.0961     23.1829    0.204     
2895.8     11.3301    3.5426     12.438     20.7958    20.7999    9.8397     8.9579     24.722     0.198     
2896       11.4118    3.3209     11.9323    20.2095    20.448     9.8396     11.9365    25.9021    0.192     
2896.2     11.6142    3.4236     12.1579    20.3163    20.6824    9.9067     11.7529    26.299     0.192     
2896.4     11.8213    3.5211     12.255     20.4859    20.8226    9.9832     12.1231    25.9864    0.198     
2896.6     11.9047    3.5793     12.2593    20.5783    20.8826    9.9731     12.5799    25.5842    0.199     
2896.8     11.9832    3.7688     12.6866    20.4081    20.6484    9.8873     10.079     24.9266    0.201     
2897       12.0861    3.665      12.4243    19.8776    19.9961    9.8149     9.7405     24.4392    0.197     
2897.2     12.1377    3.5565     12.2464    19.2227    19.4348    9.7662     10.7583    24.512     0.197     
