~Version
 VERS              .         2.0                           : CWLS LOG ASCII STANDARD - VERSION 2.0
 WRAP              .         NO                            : ONE LINE PER DEPTH STEP
 DLM               .         SPACE                         : DELIMITING CHARACTER(SPACE TAB OR COMMA)
~Well Information
#_______________________________________________________________________________
#
#PARAMETER_NAME    .UNIT     VALUE                         : DESCRIPTION
#_______________________________________________________________________________
STRT               .m        2839                          : First reference value
STOP               .m        3000                          : Last reference value
STEP               .m        0.2                           : Step increment
NULL               .         -9999                         : Missing value
COMP               .                                       : Company
WELL               .         401                           : Well name
FLD                .                                       : Field
LOC                .                                       : Location
CNTY               .                                       : County
STAT               .                                       : State
CTRY               .                                       : Country
SRVC               .                                       : Service Company
DATE               .                                       : Date
API                .                                       : API number
EREF               .m        140.4                         : 
Pad                .         4                             : 
X                  .m        222100                        : 
Y                  .m        250025                        : 
group              .         Pad4                          : 
Интер-р            .         Старостина                    : 
Куст               .         4                             : 
Статус             .         Не проверено                  : 
Тип                .         Эксплуатация                  : 
~Parameter Information Block
#_______________________________________________________________________________
#
#PARAMETER_NAME    .UNIT     VALUE                         : DESCRIPTION
#_______________________________________________________________________________
SET                .         LAS1                          : 
REAL_CREATION_DATE .         Ср апр 11 2012-13_17_12       : 
TLFamily_DEPTH     .         Measured Depth                : 
TLFamily_KS        .         Potential Resistivity         : 
TLFamily_KS1       .         Extra Shallow Resistivity     : 
TLFamily_KS2       .         Shallow Resistivity           : 
TLFamily_KS3       .         Medium Resistivity            : 
TLFamily_KS4       .         Deep Resistivity              : 
TLFamily_KS5       .         Extra Deep Resistivity        : 
TLFamily_LLD       .         Lateral Log Resistivity       : 
TLFamily_OKS3      .         Medium Resistivity Inverted   : 
TLFamily_RM        .         Mud Resistivity               : 
group              .         INI                           : 
~Curve Information
#_______________________________________________________________________________
#
#LOGNAME           .UNIT     LOG_ID                        : DESCRIPTION
#_______________________________________________________________________________
DEPTH              .m                                      : Measured Depth 
KS                 .ohm.m                                  : Potential Resistivity 
KS1                .ohm.m                                  : Extra Shallow Resistivity 
KS2                .ohm.m                                  : Shallow Resistivity 
KS3                .ohm.m                                  : Medium Resistivity 
KS4                .ohm.m                                  : Deep Resistivity 
KS5                .ohm.m                                  : Extra Deep Resistivity 
LLD                .ohm.m                                  : Lateral Log Resistivity 
OKS3               .ohm.m                                  : Medium Resistivity Inverted 
RM                 .ohm.m                                  : Mud Resistivity 
~Ascii
# ...
2970.4     15.3751    5.0731     22.1751    44.6106    39.5128    48.7126    10.0523    16.6857    0.241     
2970.6     14.8273    4.6098     19.2572    43.4539    36.0512    42.4486    11.8951    15.662     0.244     
2970.8     14.4109    4.4767     17.961     40.6585    34.227     36.719     12.2273    14.8333    0.241     
2971       14.0103    4.4817     17.27      37.7655    33.6021    32.5908    11.3981    14.2258    0.243     
2971.2     13.5813    4.5842     16.7901    37.2404    33.0271    29.6893    9.6816     13.9825    0.246     
2971.4     13.0777    4.4772     16.1601    36.8764    33.2112    27.6952    8.8858     14.5375    0.236     
2971.6     12.4404    4.4403     16.6005    37.5551    35.5988    26.6377    11.2509    15.9824    0.243     
2971.8     11.641     4.6032     18.0001    39.1878    40.9895    25.4695    18.5026    17.0028    0.241     
2972       10.8813    5.1054     19.8784    40.8688    46.0392    24.0543    9.0154     16.8396    0.243     
2972.2     10.3406    5.1682     19.6241    40.3657    49.0215    22.218     6.5959     15.4185    0.246     
2972.4     9.8441     4.6076     16.9155    35.6018    46.9679    19.9609    6.2344     13.693     0.238     
2972.6     9.3884     4.3331     15.3947    30.8288    43.8143    16.8517    5.9822     12.4406    0.237     
2972.8     9.0232     4.0123     14.0491    27.0092    38.2333    14.0743    5.8048     11.4508    0.241     
2973       8.7679     3.7978     12.9443    23.6812    32.2927    11.9867    5.8077     10.6426    0.238     
2973.2     8.5502     3.5977     11.8192    20.9476    28.9103    10.3151    6.1467     9.9063     0.241     
2973.4     8.3209     3.564      11.282     18.6908    25.9259    8.9938     5.7802     9.264      0.239     
2973.6     8.0832     3.5015     10.7314    17.002     22.9229    7.85       5.6427     8.871      0.231     
2973.8     7.8176     3.4729     10.4646    15.5725    19.6096    6.8676     5.2384     8.633      0.237     
2974       7.6646     3.3728     10.0902    14.3988    16.9858    6.0621     4.5298     8.4553     0.238     
2974.2     7.5833     3.0675     9.0772     13.2047    14.8921    5.4388     5.0534     8.4262     0.236     
2974.4     7.4529     2.969      8.6452     12.5483    13.4932    4.9177     5.8352     8.6274     0.239     
2974.6     7.454      3.0633     8.8331     12.1936    12.5691    4.5491     5.5688     8.7336     0.235     
2974.8     7.4314     3.002      8.5439     11.9532    11.8568    4.345      6.0083     8.6927     0.229     
2975       7.3378     3.1343     8.7192     11.7246    11.3505    4.2036     6.0335     8.6999     0.234     
2975.2     7.1914     3.2333     8.7291     11.6382    10.9429    4.0926     5.3829     8.6587     0.24      
2975.4     7.0065     3.3066     8.7868     11.4051    10.5265    4.0296     4.4541     8.6269     0.239     
2975.6     6.8923     3.2741     8.6151     10.9469    10.1635    4.0135     4.0483     8.9605     0.244     
2975.8     6.9277     2.9031     7.9249     10.3489    10.1041    4.1276     5.0688     9.6816     0.233     
2976       7.0588     2.6529     7.5295     10.1083    10.7404    4.377      7.5796     10.0934    0.231     
2976.2     7.1897     2.9192     8.0335     10.2994    11.7494    4.7879     6.8482     9.4088     0.24      
2976.4     7.3367     3.195      8.3533     10.4686    12.6734    5.5547     5.0389     8.147      0.238     
2976.6     7.4208     3.203      7.9455     10.6664    13.9202    6.7174     5.1635     8.077      0.241     
2976.8     7.3584     3.0562     8.3024     11.1636    15.6509    8.24       6.2977     8.7857     0.236     
2977       7.4121     3.1812     8.8862     11.7616    17.3786    9.9862     6.4937     9.6079     0.239     
2977.2     7.6116     3.1159     9.0242     12.3113    18.9604    11.278     7.1282     10.1521    0.243     
2977.4     7.5545     3.355      9.6902     13.5001    21.8596    12.5708    8.235      10.9068    0.241     
2977.6     7.4172     3.8992     11.0783    14.377     23.1539    13.6713    6.651      11.0111    0.243     
2977.8     7.3606     3.7615     10.75      14.0303    21.4034    14.4466    6.1529     10.2542    0.233     
2978       7.1545     3.662      10.5939    13.2973    19.2122    14.0166    6.295      9.1517     0.24      
2978.2     6.5187     3.8595     11.1767    13.7839    18.7249    12.8378    5.7259     8.6295     0.242     
2978.4     5.737      4.4908     13.5667    14.4659    17.2746    11.8844    2.995      8.4072     0.241     
2978.6     5.358      4.1216     11.6599    13.4828    13.711     10.7412    2.5113     7.8958     0.242     
2978.8     5.2474     3.0249     8.9333     10.4373    9.5078     8.9905     2.7713     7.3183     0.232     
2979       5.3338     2.4934     7.4626     8.1779     7.0947     6.9809     3.5548     7.2334     0.238     
2979.2     5.5855     2.1798     6.2425     7.2905     5.908      5.8323     4.8545     7.3515     0.236     
2979.4     5.9874     2.3476     6.3322     7.0973     5.3363     5.3152     6.4963     7.4525     0.242     
2979.6     6.2963     2.6688     6.5614     7.5747     5.1714     5.0527     7.2855     7.2733     0.242     
2979.8     6.3502     3.1059     7.0889     8.2395     5.071      4.9475     6.9447     6.8849     0.236     
2980       6.0549     3.6074     7.9741     8.8581     5.0708     4.7645     5.6251     6.3247     0.243     
2980.2     5.5531     3.9232     9.06       9.0845     4.9798     4.5551     3.5185     5.9891     0.248     
2980.4     5.1294     3.7656     9.2318     8.6081     4.6478     4.3379     2.9387     6.2181     0.243     
2980.6     4.8231     3.165      8.1774     7.6048     4.0038     4.0855     2.8045     7.0435     0.24      
2980.8     4.648      2.697      7.3224     6.774      3.5565     3.7238     3.3125     7.9105     0.241     
2981       4.644      2.5113     6.7936     6.2523     3.368      3.42       3.6035     8.6712     0.236     
2981.2     4.7421     2.4023     6.1658     5.9823     3.3475     3.2118     3.7776     8.9999     0.238     
2981.4     4.8274     2.5012     5.7948     5.9083     3.3693     3.0469     3.8078     9.0355     0.245     
2981.6     4.9096     2.544      5.544      5.9351     3.4808     2.9331     3.9724     9.0471     0.241     
2981.8     4.9773     2.5958     5.5336     5.9844     3.7171     2.821      4.0587     9.0612     0.24      
2982       5.0103     2.666      5.7823     5.9043     3.9266     2.7645     3.5487     9.084      0.244     
2982.2     5.134      2.7248     5.8022     5.6021     3.9979     2.8133     3.2305     9.087      0.24      
2982.4     5.4324     2.4877     5.3982     5.1471     4.0678     2.9487     3.3698     9.0996     0.235     
2982.6     6.1148     2.1671     4.9924     4.8213     4.4407     3.1449     4.5119     9.0873     0.241     
2982.8     7.3108     1.9526     4.6587     4.8137     5.1368     3.3962     7.103      9.0968     0.244     
2983       8.7685     2.1249     4.7173     5.1081     5.8406     3.6661     10.8561    9.0928     0.241     
2983.2     9.9724     2.5386     5.3177     5.6165     6.4978     3.8921     15.6434    9.0997     0.239     
2983.4     10.7619    3.068      6.41       6.3041     7.2282     4.05       19.0754    9.0959     0.244     
2983.6     11.1629    3.5283     8.4206     7.1232     7.9612     4.1757     16.4231    9.0997     0.244     
2983.8     11.2555    3.7751     10.4081    8.0317     8.6337     4.2978     16.3106    9.0896     0.244     
2984       11.2569    3.8324     12.6616    9.0827     9.2887     4.4071     23.1372    9.0869     0.244     
2984.2     11.2767    3.8365     14.867     10.5812    9.9577     4.4946     24.6709    9.0869     0.244     
2984.4     11.2727    3.8365     16.3357    12.8198    10.5689    4.5758     17.7357    9.0869     0.244     
2984.6     11.3011    3.8365     16.7872    15.8817    10.9835    4.6089     10.7431    9.0869     0.244     
2984.8     11.2828    3.8365     16.8264    19.0434    11.0046    4.4489     5.01       9.0858     0.244     
