~Version
 VERS              .         2.0                           : CWLS LOG ASCII STANDARD - VERSION 2.0
 WRAP              .         NO                            : ONE LINE PER DEPTH STEP
 DLM               .         SPACE                         : DELIMITING CHARACTER(SPACE TAB OR COMMA)
~Well Information
#_______________________________________________________________________________
#
#PARAMETER_NAME    .UNIT     VALUE                         : DESCRIPTION
#_______________________________________________________________________________
STRT               .m        2839                          : First reference value
STOP               .m        3000                          : Last reference value
STEP               .m        0.2                           : Step increment
NULL               .         -9999                         : Missing value
COMP               .                                       : Company
WELL               .         401                           : Well name
FLD                .                                       : Field
LOC                .                                       : Location
CNTY               .                                       : County
STAT               .                                       : State
CTRY               .                                       : Country
SRVC               .                                       : Service Company
DATE               .                                       : Date
API                .                                       : API number
EREF               .m        140.4                         : 
Pad                .         4                             : 
X                  .m        222100                        : 
Y                  .m        250025                        : 
group              .         Pad4                          : 
Интер-р            .         Старостина                    : 
Куст               .         4                             : 
Статус             .         Не проверено                  : 
Тип                .         Эксплуатация                  : 
~Parameter Information Block
#_______________________________________________________________________________
#
#PARAMETER_NAME    .UNIT     VALUE                         : DESCRIPTION
#_______________________________________________________________________________
SET                .         LAS1                          : 
REAL_CREATION_DATE .         Ср апр 11 2012-13_17_12       : 
TLFamily_DEPTH     .         Measured Depth                : 
TLFamily_KS        .         Potential Resistivity         : 
TLFamily_KS1       .         Extra Shallow Resistivity     : 
TLFamily_KS2       .         Shallow Resistivity           : 
TLFamily_KS3       .         Medium Resistivity            : 
TLFamily_KS4       .         Deep Resistivity              : 
TLFamily_KS5       .         Extra Deep Resistivity        : 
TLFamily_LLD       .         Lateral Log Resistivity       : 
TLFamily_OKS3      .         Medium Resistivity Inverted   : 
TLFamily_RM        .         Mud Resistivity               : 
group              .         INI                           : 
~Curve Information
#_______________________________________________________________________________
#
#LOGNAME           .UNIT     LOG_ID                        : DESCRIPTION
#_______________________________________________________________________________
DEPTH              .m                                      : Measured Depth 
KS                 .ohm.m                                  : Potential Resistivity 
KS1                .ohm.m                                  : Extra Shallow Resistivity 
KS2                .ohm.m                                  : Shallow Resistivity 
KS3                .ohm.m                                  : Medium Resistivity 
KS4                .ohm.m                                  : Deep Resistivity 
KS5                .ohm.m                                  : Extra Deep Resistivity 
LLD                .ohm.m                                  : Lateral Log Resistivity 
OKS3               .ohm.m                                  : Medium Resistivity Inverted 
RM                 .ohm.m                                  : Mud Resistivity 
~Ascii
# ...
2955.8     8.1226     2.7175     9.6514     11.5904    9.2173     14.6953    5.7764     24.3767    0.234     
2956       8.8322     2.9666     9.5288     12.1174    10.3986    16.7532    5.8311     24.6726    0.231     
2956.2     9.5307     2.931      8.4645     12.3087    11.4529    18.6826    8.0588     25.6029    0.231     
2956.4     10.1669    2.9606     8.2528     12.9619    12.7494    19.8462    14.9499    26.7957    0.228     
2956.6     10.7397    3.1832     9.2273     14.1502    13.9242    20.1332    13.1729    27.1381    0.226     
2956.8     11.2568    3.6882     10.7292    14.9923    14.1719    19.5751    9.5764     25.7477    0.225     
2957       11.5872    3.9026     11.5932    15.0074    13.6528    18.2566    8.5334     23.9002    0.237     
2957.2     11.7277    3.9181     11.958     14.3987    13.0676    16.4192    8.3622     22.5422    0.233     
2957.4     11.6567    3.9501     12.5556    13.7059    12.4767    14.7955    8.3304     22.6972    0.229     
2957.6     11.4491    4.0309     13.223     13.7664    12.2076    13.5412    9.9586     23.6724    0.236     
2957.8     11.1164    4.2055     14.3688    15.2493    12.3717    12.3554    8.3476     24.5494    0.237     
2958       10.8967    4.4003     15.8142    17.0715    12.3909    10.5832    8.4935     23.3064    0.229     
2958.2     10.8205    4.045      13.9824    17.4241    11.2485    8.9231     7.0351     18.2558    0.231     
2958.4     10.8468    3.6566     12.3513    16.8297    10.4522    7.5484     6.5721     15.2965    0.234     
2958.6     10.7452    3.4509     11.2962    16.2515    9.5924     6.4562     7.2951     13.9542    0.232     
2958.8     10.5962    3.45       11.2988    16.2965    9.0721     5.6213     7.9843     13.6391    0.237     
2959       10.4567    3.4726     11.329     16.5993    8.8296     5.0904     8.0524     13.7463    0.239     
2959.2     10.3013    3.5971     11.4112    16.5394    8.5098     4.8027     7.4449     14.0985    0.229     
2959.4     10.2222    3.5398     11.1091    16.2758    8.2747     4.7921     7.1135     14.5589    0.23      
2959.6     10.116     3.3693     10.5171    16.4885    8.8567     5.0445     7.208      15.5552    0.237     
2959.8     9.8232     3.4324     11.0103    18.1697    10.9235    5.6304     8.2211     17.3601    0.237     
2960       9.5012     3.7016     12.2435    21.5955    14.3587    6.3356     8.237      19.8914    0.234     
2960.2     9.1806     3.8301     13.4974    25.6839    18.7605    6.8515     11.1397    22.5222    0.236     
2960.4     8.9359     4.1751     14.9616    28.04      22.2632    7.0427     8.0809     23.4233    0.235     
2960.6     8.8821     4.0188     13.7157    26.9614    23.5072    6.8953     7.0359     21.76      0.231     
2960.8     8.8189     3.8055     12.4794    23.4695    22.5442    6.2328     6.5545     18.9858    0.236     
2961       8.6925     3.6395     11.683     20.684     21.2724    5.2948     5.7535     17.0365    0.236     
2961.2     8.6362     3.5853     11.4379    18.4063    19.6508    4.5508     6.1821     15.9597    0.233     
2961.4     8.6507     3.3631     10.768     16.5811    17.9653    4.0023     7.7316     15.0753    0.237     
2961.6     8.8081     3.367      10.6635    15.233     16.6563    3.6091     8.2056     14.0734    0.237     
2961.8     8.8854     3.4936     10.6761    14.6924    16.2013    3.2846     8.252      13.2401    0.23      
2962       8.7688     3.7935     11.1658    14.6112    16.0427    3.0297     6.9065     12.8301    0.236     
2962.2     8.6305     3.948      11.4082    14.488     15.3081    2.794      5.287      12.6833    0.236     
2962.4     8.5772     3.6561     10.6038    13.6463    13.49      2.5927     5.6028     12.6905    0.236     
2962.6     8.6246     3.1892     9.508      12.6831    11.4838    2.4105     6.9373     12.6525    0.239     
2962.8     8.797      3.1447     9.3987     12.05      10.1479    2.2458     6.5061     12.7478    0.232     
2963       8.913      3.1229     9.1069     11.8502    9.4586     2.1394     8.1333     13.3175    0.232     
2963.2     8.8224     3.3835     9.5365     11.8682    9.0932     2.0757     7.1863     13.8836    0.24      
2963.4     8.8023     3.5249     9.7437     12.0462    8.8986     2.0196     6.0096     14.6233    0.239     
2963.6     8.8197     3.5027     9.6377     12.0965    8.6804     1.9855     6.2434     15.7566    0.243     
2963.8     8.9623     3.308      9.3462     11.8841    8.4029     1.9971     6.8913     16.9397    0.237     
2964       9.2641     3.1794     9.0265     11.3832    8.1258     2.1073     6.9083     17.5834    0.232     
2964.2     9.6379     3.0687     8.5762     10.7754    8.0362     2.2712     7.09       18.0292    0.239     
2964.4     9.9916     3.0418     8.2857     10.3996    8.319      2.4591     8.1016     18.6753    0.237     
2964.6     10.3495    3.0663     8.2969     10.3487    9.1338     2.7281     8.8434     19.4013    0.241     
2964.8     10.7676    3.1474     8.5821     10.5108    10.0537    3.1185     9.4904     19.9312    0.241     
2965       11.1668    3.2267     8.9555     10.7499    10.7426    3.586      10.1236    20.3291    0.23      
2965.2     11.4988    3.332      9.3552     11.0112    11.3412    4.0982     11.065     20.6392    0.237     
2965.4     11.8168    3.4802     9.8944     11.5013    11.9697    4.646      11.3437    20.7536    0.24      
2965.6     12.1141    3.5898     10.4024    12.0677    12.7354    5.2347     11.594     20.8512    0.241     
2965.8     12.3932    3.6991     10.8874    12.628     13.4444    5.8678     11.7052    21.2987    0.238     
2966       12.5687    3.7778     11.2304    13.3154    13.9614    6.593      11.6723    21.8162    0.232     
2966.2     12.6771    3.8609     11.7617    14.0274    14.4295    7.424      11.1375    22.5854    0.239     
2966.4     12.7402    3.8661     12.0205    14.7061    15.0539    8.4106     11.3165    25.1056    0.239     
2966.6     12.7206    3.917      12.3704    15.4832    15.9151    9.5959     11.1096    27.6101    0.243     
2966.8     12.6926    3.9993     12.7565    16.4315    17.058     11.081     10.7909    29.6309    0.24      
2967       12.6666    4.0015     12.8216    17.2896    18.3608    13.0313    10.3044    32.2678    0.236     
2967.2     12.6043    4.0139     13.034     18.0601    19.8787    15.8976    9.5036     36.411     0.244     
2967.4     12.5728    3.9878     12.9336    18.8842    22.0112    20.0977    8.6756     41.5177    0.241     
2967.6     12.7334    3.9264     12.8273    19.747     25.547     25.1287    6.6192     47.3989    0.246     
2967.8     13.1939    3.4641     11.8712    20.5145    30.4563    31.0289    10.4251    44.8582    0.24      
2968       13.7929    3.1379     11.1575    21.5996    35.2842    33.8094    25.9238    48.6012    0.233     
2968.2     14.713     3.4577     12.4304    23.0279    37.1898    34.5638    32.5256    46.1641    0.244     
2968.4     16.8658    3.7075     11.8432    19.3598    28.6219    36.2326    16.0723    40.3043    0.231     
2968.6     18.5951    1.5062     5.4015     15.2699    21.9412    36.6268    19.7749    29.7364    0.219     
2968.8     18.6532    3.1465     10.2688    15.8393    24.2549    35.486     27.2944    29.5703    0.241     
2969       18.2998    3.6996     13.8577    20.4713    28.9631    35.9072    46.9236    34.0338    0.228     
2969.2     19.396     3.4742     14.6378    19.9236    25.8542    40.8216    78.1826    28.7138    0.239     
2969.4     20.2866    2.3689     10.4988    18.0608    22.8479    43.7155    71.5806    20.8818    0.238     
2969.6     19.7573    3.0979     13.4931    21.5701    26.2479    46.8921    46.31      19.1122    0.237     
2969.8     18.0329    5.3205     21.3888    32.2273    36.7649    49.6711    44.1049    21.1203    0.246     
2970       16.7122    5.9452     25.4877    41.1344    43.6831    51.995     14.5682    20.8981    0.245     
2970.2     16.0201    5.7126     25.1233    45.0491    43.6588    51.6697    9.6903     18.5268    0.239     
