~Version
 VERS              .         2.0                           : CWLS LOG ASCII STANDARD - VERSION 2.0
 WRAP              .         NO                            : ONE LINE PER DEPTH STEP
 DLM               .         SPACE                         : DELIMITING CHARACTER(SPACE TAB OR COMMA)
~Well Information
#_______________________________________________________________________________
#
#PARAMETER_NAME    .UNIT     VALUE                         : DESCRIPTION
#_______________________________________________________________________________
STRT               .m        2839                          : First reference value
STOP               .m        3000                          : Last reference value
STEP               .m        0.2                           : Step increment
NULL               .         -9999                         : Missing value
COMP               .                                       : Company
WELL               .         401                           : Well name
FLD                .                                       : Field
LOC                .                                       : Location
CNTY               .                                       : County
STAT               .                                       : State
CTRY               .                                       : Country
SRVC               .                                       : Service Company
DATE               .                                       : Date
API                .                                       : API number
EREF               .m        140.4                         : 
Pad                .         4                             : 
X                  .m        222100                        : 
Y                  .m        250025                        : 
group              .         Pad4                          : 
Интер-р            .         Старостина                    : 
Куст               .         4                             : 
Статус             .         Не проверено                  : 
Тип                .         Эксплуатация                  : 
~Parameter Information Block
#_______________________________________________________________________________
#
#PARAMETER_NAME    .UNIT     VALUE                         : DESCRIPTION
#_______________________________________________________________________________
SET                .         LAS3                          : 
REAL_CREATION_DATE .         Ср апр 11 2012-13_17_13       : 
TLFamily_DEPTH     .         Measured Depth                : 
TLFamily_GR        .         Gamma Ray                     : 
TLFamily_TNPH      .         Neutron Porosity              : 
group              .         INI                           : 
~Curve Information
#_______________________________________________________________________________
#
#LOGNAME           .UNIT     LOG_ID                        : DESCRIPTION
#_______________________________________________________________________________
DEPTH              .m                                      : Measured Depth 
GR                 .gAPI                                   :  
TNPH               .v/v                                    : Neutron Porosity 
~Ascii
# ...
2936.2     35.56      0.202     
2936.4     36.42      0.188     
2936.6     36.23      0.19      
2936.8     36.23      0.19      
2937       37.25      0.183     
2937.2     38.71      0.188     
2937.4     41.18      0.205     
2937.6     43.07      0.205     
2937.8     41.68      0.218     
2938       38.9       0.203     
2938.2     38.33      0.191     
2938.4     40         0.192     
2938.6     42.49      0.181     
2938.8     42.68      0.178     
2939       41.59      0.179     
2939.2     40.5       0.177     
2939.4     39.52      0.182     
2939.6     39.23      0.188     
2939.8     38.47      0.188     
2940       39.76      0.184     
2940.2     40.69      0.185     
2940.4     42.64      0.182     
2940.6     45.11      0.178     
2940.8     44.8       0.175     
2941       44.46      0.164     
2941.2     44.23      0.152     
2941.4     43.91      0.156     
2941.6     45.24      0.161     
2941.8     47.31      0.175     
2942       51.63      0.168     
2942.2     57.28      0.165     
2942.4     59.3       0.163     
2942.6     56.02      0.179     
2942.8     50.62      0.199     
2943       44.95      0.198     
2943.2     39         0.191     
2943.4     36.61      0.174     
2943.6     37.18      0.164     
2943.8     39.97      0.175     
2944       41.6       0.176     
2944.2     41.98      0.191     
2944.4     40.22      0.182     
2944.6     37.4       0.184     
2944.8     37.03      0.17      
2945       36.14      0.154     
2945.2     34.95      0.124     
2945.4     35.04      0.106     
2945.6     34.62      0.091     
2945.8     33.02      0.076     
2946       31.58      0.067     
2946.2     32.44      0.068     
2946.4     33.37      0.071     
2946.6     35.02      0.074     
2946.8     36.33      0.086     
2947       38.72      0.094     
2947.2     41.47      0.121     
2947.4     43.15      0.157     
2947.6     45.61      0.179     
2947.8     46.6       0.194     
2948       46.57      0.188     
2948.2     47.26      0.193     
2948.4     46.17      0.203     
2948.6     44.98      0.194     
2948.8     44.91      0.182     
2949       45.95      0.181     
2949.2     48.08      0.183     
2949.4     47.7       0.19      
2949.6     49.08      0.188     
2949.8     50.12      0.187     
2950       48.83      0.195     
2950.2     47.47      0.198     
2950.4     48.67      0.207     
2950.6     50.55      0.216     
2950.8     51.03      0.224     
2951       50.99      0.219     
2951.2     55.05      0.203     
2951.4     62         0.202     
2951.6     70.29      0.207     
2951.8     77.84      0.219     
2952       81.14      0.242     
2952.2     82.99      0.239     
2952.4     87.93      0.247     
2952.6     93.62      0.257     
2952.8     97.27      0.25      
2953       98.96      0.237     
2953.2     98.75      0.232     
2953.4     94.58      0.237     
2953.6     88.78      0.244     
2953.8     80.64      0.2       
2954       64.8       0.161     
2954.2     49.96      0.126     
2954.4     43.1       0.101     
2954.6     42.59      0.097     
2954.8     45.45      0.122     
2955       49.27      0.148     
2955.2     55.59      0.193     
2955.4     66.96      0.231     
2955.6     85.22      0.264     
2955.8     106.77     0.302     
2956       123.93     0.319     
2956.2     130.43     0.364     
2956.4     126.98     0.393     
2956.6     121.77     0.436     
2956.8     116.67     0.394     
2957       111.51     0.349     
2957.2     109.43     0.297     
2957.4     108.12     0.286     
2957.6     107.06     0.275     
2957.8     99.27      0.263     
2958       85.45999   0.27      
2958.2     75.23      0.239     
2958.4     74.49001   0.214     
2958.6     79.88      0.239     
2958.8     87.74001   0.247     
2959       92.76      0.248     
2959.2     94.25999   0.252     
2959.4     95.56      0.244     
2959.6     96.55      0.258     
2959.8     98.18      0.28      
2960       100.59     0.298     
2960.2     103.24     0.298     
2960.4     103.18     0.319     
2960.6     100.76     0.333     
2960.8     98.52      0.26      
2961       94.18      0.254     
2961.2     90.22      0.267     
2961.4     93.95      0.277     
2961.6     103.24     0.266     
2961.8     107.94     0.268     
2962       103.43     0.266     
2962.2     92.62      0.26      
2962.4     77.39      0.254     
2962.6     68.41      0.231     
2962.8     64.8       0.218     
2963       63.62      0.228     
2963.2     66.56      0.23      
2963.4     74.68001   0.229     
2963.6     83.39      0.228     
2963.8     87.72      0.257     
2964       92.67      0.265     
2964.2     96.42999   0.269     
2964.4     97.08      0.264     
2964.6     100.06     0.263     
2964.8     105.04     0.261     
2965       110.11     0.277     
2965.2     112.15     0.282     
2965.4     113.73     0.282     
2965.6     112.58     0.28      
2965.8     109.86     0.292     
2966       111.46     0.295     
2966.2     115.87     0.303     
2966.4     120.22     0.297     
2966.6     118.46     0.315     
2966.8     114.26     0.304     
2967       113.43     0.28      
2967.2     114.44     0.284     
2967.4     111.66     0.274     
2967.6     102.97     0.289     
2967.8     88.87      0.347     
2968       66.05      0.394     
2968.2     33.34      0.522     
2968.4     12.53      0.536     
2968.6     7.89       0.521     
2968.8     8.410001   0.537     
2969       7.969999   0.546     
2969.2     11.74      0.519     
2969.4     22.56      0.526     
2969.6     37.19      0.502     
2969.8     55.2       0.444     
2970       73.5       0.431     
2970.2     85.22      0.386     
2970.4     94.94      0.328     
2970.6     101.11     0.284     
2970.8     98.77      0.265     
2971       88.75      0.271     
2971.2     79.84      0.249     
2971.4     75.4       0.245     
2971.6     74.02      0.243     
2971.8     76.00999   0.268     
2972       83.58      0.312     
2972.2     92.07      0.311     
2972.4     98.83      0.266     
2972.6     105.06     0.215     
2972.8     109.71     0.218     
2973       108.64     0.231     
2973.2     103.94     0.232     
2973.4     101.12     0.225     
2973.6     97.08      0.23      
2973.8     92.14      0.222     
2974       90.41      0.235     
2974.2     87.69      0.246     
2974.4     86.53      0.237     
2974.6     88.96      0.226     
2974.8     93.34      0.232     
2975       92.49      0.24      
2975.2     87.77      0.22      
2975.4     83.14999   0.232     
2975.6     77.14      0.239     
2975.8     70.79001   0.234     
2976       68.82      0.222     
2976.2     69.74      0.209     
2976.4     74.11      0.205     
2976.6     81.42      0.226     
2976.8     89.93      0.289     
2977       102.64     0.321     
2977.2     111.94     0.321     
2977.4     113.43     0.298     
2977.6     113.6      0.297     
2977.8     108.49     0.287     
2978       100.86     0.244     
2978.2     96.36      0.23      
2978.4     93.32      0.24      
2978.6     87.57      0.248     
2978.8     75.02      0.204     
2979       74.04      0.179     
2979.2     84.89      0.202     
2979.4     97.08      0.212     
2979.6     106.02     0.224     
2979.8     108.44     0.224     
2980       101.77     0.228     
2980.2     92.36      0.237     
2980.4     81.14999   0.247     
2980.6     70.8       0.254     
2980.8     65.03999   0.241     
2981       66.02      0.245     
2981.2     71.28999   0.232     
2981.4     77.58      0.213     
2981.6     81.82999   0.204     
2981.8     81.25      0.2       
2982       79.56001   0.21      
2982.2     74.79      0.211     
2982.4     68.85001   0.203     
2982.6     66.2       0.197     
2982.8     61.73      0.199     
2983       56         0.184     
2983.2     52.86      0.162     
2983.4     51.54      0.155     
2983.6     50.61      0.147     
2983.8     49.68      0.142     
2984       48.98      0.133     
2984.2     47.61      0.127     
2984.4     44.88      0.133     
2984.6     44.02      0.137     
