~Version
 VERS              .         2.0                           : CWLS LOG ASCII STANDARD - VERSION 2.0
 WRAP              .         NO                            : ONE LINE PER DEPTH STEP
 DLM               .         SPACE                         : DELIMITING CHARACTER(SPACE TAB OR COMMA)
~Well Information
#_______________________________________________________________________________
#
#PARAMETER_NAME    .UNIT     VALUE                         : DESCRIPTION
#_______________________________________________________________________________
STRT               .m        2839                          : First reference value
STOP               .m        3000                          : Last reference value
STEP               .m        0.2                           : Step increment
NULL               .         -9999                         : Missing value
COMP               .                                       : Company
WELL               .         401                           : Well name
FLD                .                                       : Field
LOC                .                                       : Location
CNTY               .                                       : County
STAT               .                                       : State
CTRY               .                                       : Country
SRVC               .                                       : Service Company
DATE               .                                       : Date
API                .                                       : API number
EREF               .m        140.4                         : 
Pad                .         4                             : 
X                  .m        222100                        : 
Y                  .m        250025                        : 
group              .         Pad4                          : 
Интер-р            .         Старостина                    : 
Куст               .         4                             : 
Статус             .         Не проверено                  : 
Тип                .         Эксплуатация                  : 
~Parameter Information Block
#_______________________________________________________________________________
#
#PARAMETER_NAME    .UNIT     VALUE                         : DESCRIPTION
#_______________________________________________________________________________
SET                .         LAS1                          : 
REAL_CREATION_DATE .         Ср апр 11 2012-13_17_12       : 
TLFamily_DEPTH     .         Measured Depth                : 
TLFamily_KS        .         Potential Resistivity         : 
TLFamily_KS1       .         Extra Shallow Resistivity     : 
TLFamily_KS2       .         Shallow Resistivity           : 
TLFamily_KS3       .         Medium Resistivity            : 
TLFamily_KS4       .         Deep Resistivity              : 
TLFamily_KS5       .         Extra Deep Resistivity        : 
TLFamily_LLD       .         Lateral Log Resistivity       : 
TLFamily_OKS3      .         Medium Resistivity Inverted   : 
TLFamily_RM        .         Mud Resistivity               : 
group              .         INI                           : 
~Curve Information
#_______________________________________________________________________________
#
#LOGNAME           .UNIT     LOG_ID                        : DESCRIPTION
#_______________________________________________________________________________
DEPTH              .m                                      : Measured Depth 
KS                 .ohm.m                                  : Potential Resistivity 
KS1                .ohm.m                                  : Extra Shallow Resistivity 
KS2                .ohm.m                                  : Shallow Resistivity 
KS3                .ohm.m                                  : Medium Resistivity 
KS4                .ohm.m                                  : Deep Resistivity 
KS5                .ohm.m                                  : Extra Deep Resistivity 
LLD                .ohm.m                                  : Lateral Log Resistivity 
OKS3               .ohm.m                                  : Medium Resistivity Inverted 
RM                 .ohm.m                                  : Mud Resistivity 
~Ascii
# ...
2853.6     9.0726     2.8393     9.0576     12.565     13.6689    10.122     18.5073    16.4163    0.201     
2853.8     9.2849     3.3355     10.3451    13.7686    14.3868    10.6563    16.1753    14.9346    0.202     
2854       9.2556     3.7092     11.0744    14.5434    14.4372    10.8919    8.5673     13.3625    0.201     
2854.2     8.9796     3.8254     11.4661    14.5402    13.7539    10.8215    6.4695     12.4687    0.198     
2854.4     8.6097     3.5518     11.3203    14.1951    12.9395    10.4887    6.7409     11.944     0.197     
2854.6     8.1425     3.6157     11.7298    14.183     12.3166    9.7601     7.3991     11.2333    0.196     
2854.8     7.8574     3.5337     12.0362    14.2184    11.839     9.266      5.3064     11.0188    0.193     
2855       7.6512     3.2569     10.7367    13.7886    11.0018    8.8257     4.9227     11.1733    0.193     
2855.2     7.5158     3.0705     9.986      13.2879    10.303     8.397      5.5544     11.3576    0.192     
2855.4     7.4176     3.0478     9.7009     13.1934    9.932      8.0397     5.9715     11.5355    0.192     
2855.6     7.3413     3.1207     9.5109     13.4144    9.6532     7.7791     5.3772     11.7693    0.192     
2855.8     7.2947     3.0336     8.9145     13.3655    9.2945     7.5923     4.9738     12.2473    0.193     
2856       7.2924     2.8511     8.4282     12.8126    9.0272     7.4227     5.2396     13.0615    0.194     
2856.2     7.3417     2.8319     8.4299     12.2627    8.9691     7.2517     5.9406     13.8214    0.195     
2856.4     7.3747     2.823      8.4076     12.0666    9.1006     7.1513     6.2615     14.3803    0.2       
2856.6     7.4281     2.9408     8.5326     11.952     9.3109     7.0985     5.8057     14.5957    0.198     
2856.8     7.4326     2.9439     8.5309     11.7058    9.4786     7.0056     5.6896     14.6857    0.197     
2857       7.4631     2.958      8.4986     11.3516    9.6472     6.9009     5.9241     14.6497    0.194     
2857.2     7.5716     2.8729     8.4531     10.9754    9.7254     6.8134     5.3032     14.7061    0.197     
2857.4     7.6821     2.7564     8.0693     10.578     9.7933     6.7939     5.6844     14.9372    0.196     
2857.6     7.844      2.724      8.0368     10.4495    10.1328    6.8783     5.8448     15.2397    0.195     
2857.8     8.0955     2.7725     7.9781     10.3483    10.6933    7.1316     5.4821     15.7851    0.198     
2858       8.4305     2.652      7.6986     10.2865    11.3134    7.4043     5.5621     16.8384    0.204     
2858.2     8.7329     2.5499     7.5637     10.3223    11.7569    7.8214     7.675      17.5457    0.201     
2858.4     9.277      2.4522     7.5997     10.8014    12.8272    8.3819     16.5516    18.1087    0.201     
2858.6     9.7923     2.7425     8.4128     11.9624    14.0583    8.9384     27.8167    17.2043    0.2       
2858.8     10.0352    3.3224     9.8716     13.6458    15.2823    9.265      20.3175    15.5285    0.197     
2859       9.8799     4.0303     11.6679    15.0554    15.7331    9.3102     10.1442    14.0466    0.203     
2859.2     9.4934     4.2345     12.4356    15.5992    15.1911    9.0994     7.3876     12.9294    0.197     
2859.4     9.1161     4.0541     12.6103    15.1894    14.1541    8.735      5.9618     12.126     0.191     
2859.6     8.7811     3.6704     12.1845    14.5943    13.2005    8.2613     5.9086     11.825     0.193     
2859.8     8.4701     3.4438     11.8893    14.2289    12.5975    7.8461     6.2238     12.1149    0.194     
2860       8.2358     3.3473     11.5356    14.1343    12.1629    7.5401     6.0548     12.6545    0.2       
2860.2     8.1115     3.1962     10.8958    14.0803    11.7527    7.4028     5.9743     13.2384    0.198     
2860.4     8.0213     3.1141     10.3416    14.105     11.4355    7.3767     6.0549     13.7176    0.197     
2860.6     7.9226     3.0829     9.8482     14.5602    11.4641    7.3955     6.1462     14.1611    0.196     
2860.8     7.819      3.1361     9.9971     15.1652    11.6455    7.4462     6.1829     14.2716    0.197     
2861       7.7776     3.1208     9.8511     15.2911    11.5686    7.5243     5.9786     13.9735    0.197     
2861.2     7.789      3.0573     9.567      14.7765    11.3192    7.5727     5.6817     13.7275    0.195     
2861.4     7.7987     2.9291     9.0963     14.0832    11.1095    7.5999     5.8768     13.5115    0.194     
2861.6     7.8281     3.0002     9.2092     13.3352    10.8809    7.6903     4.779      13.5822    0.192     
2861.8     8.0942     2.7407     8.2942     12.0589    10.6415    8.1767     4.5847     14.708     0.201     
2862       8.4596     2.4865     7.7414     11.3853    10.7536    8.7688     5.4475     16.1384    0.198     
2862.2     8.9745     2.4052     7.7025     11.4658    11.5386    9.5269     9.9888     16.699     0.194     
2862.4     9.4735     2.7052     8.5324     12.3348    12.898     10.3295    23.25      16.1477    0.197     
2862.6     9.6242     3.3415     9.9315     13.897     14.7622    10.6868    35.4731    14.7463    0.197     
2862.8     9.2782     4.0938     11.7487    15.5906    16.3339    10.5944    17.4319    13.4605    0.194     
2863       8.7868     4.5349     13.1696    16.1392    16.4371    10.1435    6.0922     12.6823    0.192     
2863.2     8.3397     3.9252     12.148     15.147     14.9233    9.5057     4.5396     12.5931    0.192     
2863.4     8.0572     3.3844     11.3313    13.7692    13.3248    8.7609     5.1606     12.8849    0.196     
2863.6     7.8944     3.0689     10.7531    13.2494    12.4722    8.1647     6.353      13.1981    0.199     
2863.8     7.7657     3.1394     10.8458    13.0966    11.9583    7.7654     6.1483     13.4072    0.201     
2864       7.7364     3.145      10.1744    12.8857    11.2977    7.5269     5.0478     13.8082    0.199     
2864.2     7.6978     2.8586     8.978      12.6328    10.7059    7.3005     5.5141     14.3012    0.198     
2864.4     7.705      2.9226     9.0659     12.7684    10.3743    7.0743     5.621      14.6756    0.198     
2864.6     7.8268     2.8218     8.7861     12.9389    10.163     6.9826     5.6615     14.7425    0.198     
2864.8     8.032      2.7398     8.3849     12.574     9.836      7.1015     6.2211     14.5919    0.194     
2865       8.2552     2.7051     8.1665     12.3234    10.0201    7.267      6.3715     14.4496    0.198     
2865.2     8.351      2.8188     8.5443     12.4876    10.674     7.5171     7.8701     14.7173    0.197     
2865.4     8.3791     3.1434     9.3184     12.8942    11.38      7.8068     8.7833     14.6453    0.204     
2865.6     8.5339     3.2218     9.6348     12.9601    11.5638    8.155      5.8741     14.596     0.201     
2865.8     8.7616     3.0461     9.0767     12.5963    11.5449    8.5222     5.7056     14.9555    0.192     
2866       9.035      2.8069     8.712      12.3582    11.9212    8.9547     7.2855     15.5104    0.192     
2866.2     9.2935     2.8408     9.0876     12.9793    13.09      9.4417     12.8317    15.5504    0.191     
2866.4     9.3737     3.2307     10.1887    14.3198    14.7676    9.8149     23.3843    14.8186    0.191     
2866.6     9.2768     3.8058     11.7523    15.5315    15.8696    10.0059    13.964     13.4671    0.192     
2866.8     9.0113     4.0301     12.2002    16.0616    15.991     9.9376     7.2579     12.1391    0.195     
2867       8.5657     3.8953     12.0826    15.7195    15.1691    9.6032     6.0975     11.3763    0.198     
2867.2     8.1524     3.6911     12.0196    15.2043    14.1242    9.0313     5.5351     11.0319    0.203     
2867.4     7.8656     3.3792     11.5032    14.5772    12.9978    8.5087     5.2551     10.9199    0.2       
2867.6     7.6872     3.1775     10.9061    14.0393    12.0649    8.0505     5.293      10.8226    0.197     
2867.8     7.5596     3.0284     10.1197    13.5642    11.383     7.6525     5.138      10.8799    0.197     
2868       7.4513     2.9549     9.6145     13.2773    10.9633    7.3423     5.5346     11.0703    0.2       
