~Version
 VERS              .         2.0                           : CWLS LOG ASCII STANDARD - VERSION 2.0
 WRAP              .         NO                            : ONE LINE PER DEPTH STEP
 DLM               .         SPACE                         : DELIMITING CHARACTER(SPACE TAB OR COMMA)
~Well Information
#_______________________________________________________________________________
#
#PARAMETER_NAME    .UNIT     VALUE                         : DESCRIPTION
#_______________________________________________________________________________
STRT               .m        2839                          : First reference value
STOP               .m        3000                          : Last reference value
STEP               .m        0.2                           : Step increment
NULL               .         -9999                         : Missing value
COMP               .                                       : Company
WELL               .         401                           : Well name
FLD                .                                       : Field
LOC                .                                       : Location
CNTY               .                                       : County
STAT               .                                       : State
CTRY               .                                       : Country
SRVC               .                                       : Service Company
DATE               .                                       : Date
API                .                                       : API number
EREF               .m        140.4                         : 
Pad                .         4                             : 
X                  .m        222100                        : 
Y                  .m        250025                        : 
group              .         Pad4                          : 
Интер-р            .         Старостина                    : 
Куст               .         4                             : 
Статус             .         Не проверено                  : 
Тип                .         Эксплуатация                  : 
~Parameter Information Block
#_______________________________________________________________________________
#
#PARAMETER_NAME    .UNIT     VALUE                         : DESCRIPTION
#_______________________________________________________________________________
SET                .         LAS3                          : 
REAL_CREATION_DATE .         Ср апр 11 2012-13_17_13       : 
TLFamily_DEPTH     .         Measured Depth                : 
TLFamily_GR        .         Gamma Ray                     : 
TLFamily_TNPH      .         Neutron Porosity              : 
group              .         INI                           : 
~Curve Information
#_______________________________________________________________________________
#
#LOGNAME           .UNIT     LOG_ID                        : DESCRIPTION
#_______________________________________________________________________________
DEPTH              .m                                      : Measured Depth 
GR                 .gAPI                                   :  
TNPH               .v/v                                    : Neutron Porosity 
~Ascii
# ...
2887.6     402.57     0.387     
2887.8     400.98     0.391     
2888       400.62     0.362     
2888.2     415.3      0.346     
2888.4     432.72     0.363     
2888.6     426.55     0.382     
2888.8     412.29     0.382     
2889       409.67     0.336     
2889.2     402.28     0.321     
2889.4     385.79     0.327     
2889.6     369.75     0.357     
2889.8     349.63     0.355     
2890       335.48     0.32      
2890.2     329.21     0.333     
2890.4     335.22     0.382     
2890.6     349.21     0.42      
2890.8     359.35     0.444     
2891       368.19     0.447     
2891.2     375.31     0.448     
2891.4     377.47     0.408     
2891.6     375.62     0.391     
2891.8     378.65     0.396     
2892       376.41     0.422     
2892.2     362.86     0.4       
2892.4     347.59     0.382     
2892.6     332.33     0.386     
2892.8     321.02     0.376     
2893       319.92     0.387     
2893.2     321.93     0.407     
2893.4     315.97     0.418     
2893.6     312.89     0.413     
2893.8     307.03     0.412     
2894       284.67     0.428     
2894.2     258.39     0.411     
2894.4     242.6      0.407     
2894.6     235.9      0.417     
2894.8     233.89     0.393     
2895       233.94     0.385     
2895.2     228.57     0.359     
2895.4     221.08     0.36      
2895.6     216.21     0.358     
2895.8     210.97     0.38      
2896       196.95     0.4       
2896.2     175.47     0.362     
2896.4     158.68     0.364     
2896.6     151.31     0.345     
2896.8     149.97     0.321     
2897       149.22     0.329     
2897.2     149.22     0.323     
2897.4     153.33     0.325     
2897.6     164.9      0.329     
2897.8     173.81     0.324     
2898       175.27     0.309     
2898.2     175.03     0.314     
2898.4     171.85     0.311     
2898.6     175.52     0.295     
2898.8     180.63     0.325     
2899       166.98     0.328     
2899.2     148.61     0.325     
2899.4     144.27     0.304     
2899.6     142.62     0.297     
2899.8     134.89     0.286     
2900       132.33     0.302     
2900.2     130.31     0.314     
2900.4     127.96     0.304     
2900.6     126.48     0.31      
2900.8     121.96     0.316     
2901       115.58     0.293     
2901.2     115.11     0.275     
2901.4     121.28     0.272     
2901.6     124.15     0.263     
2901.8     125.34     0.268     
2902       125.04     0.275     
2902.2     124.63     0.293     
2902.4     127.71     0.283     
2902.6     133.4      0.287     
2902.8     135.5      0.282     
2903       133.9      0.286     
2903.2     127.99     0.296     
2903.4     123.82     0.309     
2903.6     126        0.308     
2903.8     134.92     0.326     
2904       144.94     0.328     
2904.2     147.8      0.326     
2904.4     148.43     0.334     
2904.6     148.72     0.339     
2904.8     147.9      0.314     
2905       147.04     0.306     
2905.2     141.32     0.296     
2905.4     132.7      0.305     
2905.6     127.94     0.317     
2905.8     127.83     0.309     
2906       133.15     0.314     
2906.2     138.73     0.307     
2906.4     139.56     0.326     
2906.6     134.31     0.33      
2906.8     122.7      0.293     
2907       114.01     0.267     
2907.2     112.21     0.267     
2907.4     116.28     0.284     
2907.6     122.21     0.287     
2907.8     128.14     0.298     
2908       142.15     0.322     
2908.2     156.04     0.364     
2908.4     163.16     0.375     
2908.6     169.01     0.347     
2908.8     168.9      0.344     
2909       159.88     0.344     
2909.2     150.15     0.34      
2909.4     139.47     0.335     
2909.6     125.96     0.317     
2909.8     120.92     0.315     
2910       123.5      0.31      
2910.2     131.17     0.308     
2910.4     143.31     0.31      
2910.6     154.96     0.32      
2910.8     162.48     0.292     
2911       180.44     0.343     
2911.2     202.91     0.38      
2911.4     217.69     0.369     
2911.6     222.42     0.384     
2911.8     215.96     0.405     
2912       207.77     0.381     
2912.2     209.83     0.372     
2912.4     217.49     0.381     
2912.6     229.13     0.383     
2912.8     230.96     0.387     
2913       220.46     0.365     
2913.2     209.97     0.335     
2913.4     215.66     0.327     
2913.6     236.63     0.325     
2913.8     247.5      0.364     
2914       227.08     0.398     
2914.2     187.13     0.392     
2914.4     157.85     0.381     
2914.6     137.8      0.346     
2914.8     127.58     0.35      
2915       127.18     0.331     
2915.2     130.69     0.328     
2915.4     135.62     0.321     
2915.6     137.35     0.288     
2915.8     134.31     0.284     
2916       128.64     0.281     
2916.2     125.93     0.276     
2916.4     127.33     0.265     
2916.6     128.33     0.25      
2916.8     132.66     0.254     
2917       144.49     0.273     
2917.2     152.93     0.273     
2917.4     156.08     0.264     
2917.6     157.21     0.259     
2917.8     155.76     0.266     
2918       151.07     0.285     
2918.2     146.56     0.313     
2918.4     144.88     0.34      
2918.6     145.43     0.356     
2918.8     145.93     0.342     
2919       145.78     0.348     
2919.2     143.31     0.34      
2919.4     140.93     0.315     
2919.6     139.13     0.293     
2919.8     137.56     0.29      
2920       138.58     0.301     
2920.2     140.74     0.306     
2920.4     141.58     0.334     
2920.6     142.86     0.313     
2920.8     144.64     0.307     
2921       142.8      0.288     
2921.2     143        0.302     
2921.4     144.38     0.291     
2921.6     145.66     0.304     
2921.8     146.24     0.285     
2922       144.17     0.288     
2922.2     141.17     0.336     
2922.4     138.45     0.342     
2922.6     134.98     0.344     
2922.8     133.47     0.312     
2923       137.01     0.313     
2923.2     141.87     0.307     
2923.4     140.85     0.332     
2923.6     130.93     0.332     
2923.8     121.59     0.322     
2924       122.33     0.318     
2924.2     129.52     0.287     
2924.4     134.88     0.28      
2924.6     140.27     0.274     
2924.8     144.19     0.29      
2925       144.26     0.287     
2925.2     144.73     0.286     
2925.4     145.15     0.289     
2925.6     142.7      0.286     
2925.8     139.21     0.294     
2926       133.22     0.304     
2926.2     122.62     0.293     
2926.4     115.34     0.27      
2926.6     126.95     0.25      
2926.8     140.45     0.29      
2927       142.86     0.297     
2927.2     139.92     0.3       
2927.4     137.38     0.28      
2927.6     136.25     0.283     
2927.8     135.06     0.292     
2928       135.09     0.298     
2928.2     136.2      0.301     
2928.4     136.5      0.293     
2928.6     135.6      0.281     
2928.8     133.95     0.282     
2929       129.95     0.28      
2929.2     131.24     0.287     
2929.4     131.26     0.328     
2929.6     131.59     0.309     
2929.8     133.2      0.297     
2930       135.98     0.272     
2930.2     139.03     0.273     
2930.4     138.6      0.287     
2930.6     139.71     0.3       
2930.8     138.59     0.342     
2931       135.51     0.317     
2931.2     134.55     0.312     
2931.4     137.37     0.321     
2931.6     141.26     0.315     
2931.8     141.4      0.3       
2932       139.82     0.29      
2932.2     143.51     0.286     
2932.4     146.07     0.287     
2932.6     142.32     0.299     
2932.8     131.24     0.308     
2933       116.13     0.299     
2933.2     106.62     0.26      
2933.4     111.32     0.21      
2933.6     129.72     0.196     
2933.8     147.17     0.199     
2934       141.42     0.19      
2934.2     103.02     0.194     
2934.4     63.24001   0.196     
2934.6     49.61      0.181     
2934.8     45.46      0.177     
2935       40.02      0.188     
2935.2     36.65      0.189     
2935.4     36.82      0.194     
2935.6     36.55      0.208     
2935.8     34.79      0.2       
2936       33.77      0.208     
