~Version
 VERS              .         2.0                           : CWLS LOG ASCII STANDARD - VERSION 2.0
 WRAP              .         NO                            : ONE LINE PER DEPTH STEP
 DLM               .         SPACE                         : DELIMITING CHARACTER(SPACE TAB OR COMMA)
~Well Information
#_______________________________________________________________________________
#
#PARAMETER_NAME    .UNIT     VALUE                         : DESCRIPTION
#_______________________________________________________________________________
STRT               .m        2839                          : First reference value
STOP               .m        3000                          : Last reference value
STEP               .m        0.2                           : Step increment
NULL               .         -9999                         : Missing value
COMP               .                                       : Company
WELL               .         401                           : Well name
FLD                .                                       : Field
LOC                .                                       : Location
CNTY               .                                       : County
STAT               .                                       : State
CTRY               .                                       : Country
SRVC               .                                       : Service Company
DATE               .                                       : Date
API                .                                       : API number
EREF               .m        140.4                         : 
Pad                .         4                             : 
X                  .m        222100                        : 
Y                  .m        250025                        : 
group              .         Pad4                          : 
Интер-р            .         Старостина                    : 
Куст               .         4                             : 
Статус             .         Не проверено                  : 
Тип                .         Эксплуатация                  : 
~Parameter Information Block
#_______________________________________________________________________________
#
#PARAMETER_NAME    .UNIT     VALUE                         : DESCRIPTION
#_______________________________________________________________________________
SET                .         LAS1                          : 
REAL_CREATION_DATE .         Ср апр 11 2012-13_17_12       : 
TLFamily_DEPTH     .         Measured Depth                : 
TLFamily_KS        .         Potential Resistivity         : 
TLFamily_KS1       .         Extra Shallow Resistivity     : 
TLFamily_KS2       .         Shallow Resistivity           : 
TLFamily_KS3       .         Medium Resistivity            : 
TLFamily_KS4       .         Deep Resistivity              : 
TLFamily_KS5       .         Extra Deep Resistivity        : 
TLFamily_LLD       .         Lateral Log Resistivity       : 
TLFamily_OKS3      .         Medium Resistivity Inverted   : 
TLFamily_RM        .         Mud Resistivity               : 
group              .         INI                           : 
~Curve Information
#_______________________________________________________________________________
#
#LOGNAME           .UNIT     LOG_ID                        : DESCRIPTION
#_______________________________________________________________________________
DEPTH              .m                                      : Measured Depth 
KS                 .ohm.m                                  : Potential Resistivity 
KS1                .ohm.m                                  : Extra Shallow Resistivity 
KS2                .ohm.m                                  : Shallow Resistivity 
KS3                .ohm.m                                  : Medium Resistivity 
KS4                .ohm.m                                  : Deep Resistivity 
KS5                .ohm.m                                  : Extra Deep Resistivity 
LLD                .ohm.m                                  : Lateral Log Resistivity 
OKS3               .ohm.m                                  : Medium Resistivity Inverted 
RM                 .ohm.m                                  : Mud Resistivity 
~Ascii
# ...
2941.2     6.8109     2.8677     7.6416     11.6201    14.2827    8.364      5.8128     11.0436    0.214     
2941.4     6.8952     2.9244     7.6619     11.4743    14.262     8.4852     5.1681     11.2679    0.216     
2941.6     6.998      3.048      7.9272     11.2516    14.0809    8.5506     4.9367     11.4769    0.21      
2941.8     7.0384     3.1054     7.9442     10.956     13.6386    8.5732     5.0792     11.7676    0.208     
2942       7.0586     3.1722     8.2406     10.6481    13.1829    8.5454     5.6186     12.2411    0.213     
2942.2     7.1086     3.0661     8.1514     10.4145    12.863     8.4169     5.2493     12.7592    0.214     
2942.4     7.1763     3.1735     8.4449     10.1534    12.4393    8.2215     5.1617     13.2486    0.213     
2942.6     7.2959     3.1698     8.4446     9.938      11.8785    8.0013     5.2376     13.8329    0.212     
2942.8     7.3689     3.1852     8.3416     9.6705     11.2507    7.83       5.0782     14.7452    0.217     
2943       7.4653     3.213      8.3812     9.4873     10.677     7.6302     5.2821     15.965     0.215     
2943.2     7.6698     3.132      8.3499     9.3558     10.1434    7.4635     6.1632     17.6803    0.209     
2943.4     7.9038     3.0616     8.2255     9.3026     9.7743     7.3163     6.5089     19.9887    0.209     
2943.6     8.1654     3.1128     8.384      9.3483     9.4566     7.2312     6.1667     22.2984    0.215     
2943.8     8.4471     3.2459     8.6132     9.4739     9.1704     7.1976     6.208      24.6595    0.214     
2944       8.7017     3.3735     8.8155     9.5061     8.8582     7.1628     6.6428     27.1936    0.217     
2944.2     9.0223     3.3485     8.9698     9.5001     8.5411     7.1566     7.6421     29.7835    0.219     
2944.4     9.47       3.2298     8.8307     9.4785     8.318      7.2265     8.13       31.6532    0.216     
2944.6     9.9233     3.2107     8.8909     9.5246     8.2477     7.4123     7.3961     32.1676    0.21      
2944.8     10.4013    3.357      9.3529     9.8378     8.4578     7.7454     6.4531     31.8645    0.208     
2945       10.9493    3.4011     9.5571     10.2398    8.8611     8.1453     6.7573     31.3885    0.216     
2945.2     11.6996    3.2927     9.5435     10.3909    9.2452     8.5867     10.4034    30.2941    0.219     
2945.4     12.8356    2.8502     8.7555     10.2481    9.41       9.1214     22.2694    27.9396    0.213     
2945.6     14.4501    2.5999     8.2402     10.3329    9.7465     9.6955     75.4587    24.3848    0.215     
2945.8     16.1642    2.8532     8.9336     11.3184    10.5389    10.2605    331.0228   20.3529    0.217     
2946       17.5634    3.4599     10.5267    13.2407    11.6829    10.8981    1080.687   16.6587    0.217     
2946.2     18.472     4.2179     12.6867    15.807     13.0148    11.6586    3135.268   13.2139    0.217     
2946.4     18.5883    4.9895     15.6226    18.8247    14.478     12.4789    3342.906   10.45      0.222     
2946.6     17.3656    6.1017     21.1411    24.5931    17.2358    13.3461    697.8546   7.7008     0.221     
2946.8     15.6385    6.9379     25.4395    29.824     19.7106    13.8163    79.2338    6.4286     0.224     
2947       13.0295    7.7545     29.806     36.0364    22.6258    13.7796    6.5194     5.4528     0.23      
2947.2     10.656     8.5244     34.4695    40.4693    23.8756    13.2074    3.5675     4.9871     0.223     
2947.4     8.7168     7.0271     29.0324    40.7291    22.5746    12.1594    3.2689     4.9354     0.215     
2947.6     7.2516     5.5109     23.3435    36.8191    19.3618    10.6256    3.2584     4.9773     0.216     
2947.8     6.3541     4.327      18.4705    32.6041    16.8659    8.7581     3.2074     4.9782     0.22      
2948       5.7875     3.7268     15.0656    28.7114    14.93      7.2859     3.0425     4.9795     0.22      
2948.2     5.4278     3.4144     12.1695    25.0167    13.4502    6.2412     2.9614     5.0502     0.218     
2948.4     5.2097     3.2        9.9054     21.3294    12.1937    5.5008     2.961      5.1964     0.219     
2948.6     5.0609     2.9829     8.3027     17.9095    11.1701    4.968      3.1269     5.3874     0.219     
2948.8     5.0069     2.8765     7.5339     14.8843    10.2369    4.5852     3.125      5.5829     0.215     
2949       5.0067     2.7924     6.9678     12.4861    9.5185     4.3258     3.0914     5.8547     0.216     
2949.2     5.0305     2.7538     6.5854     10.5878    8.9445     4.1752     3.2932     6.2336     0.219     
2949.4     5.0375     2.7116     6.3862     9.138      8.7057     4.0845     3.8291     6.6617     0.218     
2949.6     4.9977     2.7914     6.4967     8.1272     8.8222     4.0348     3.4025     6.9591     0.216     
2949.8     4.9841     2.9832     6.8179     7.4446     8.8401     3.9773     3.3617     7.0076     0.223     
2950       4.9233     2.9321     6.5633     6.7999     8.497      3.9178     2.911      6.945      0.221     
2950.2     4.844      2.9015     6.5144     6.1982     7.8878     3.8582     2.7866     7.0992     0.213     
2950.4     4.7936     2.7526     6.2264     5.7022     7.1536     3.8248     2.8454     7.5311     0.215     
2950.6     4.7579     2.6408     6.0699     5.349      6.5815     3.8956     2.8562     8.2516     0.22      
2950.8     4.8186     2.55       5.8871     5.1217     6.1376     4.1254     2.5818     9.118      0.223     
2951       5.0549     2.4169     5.4399     4.9188     5.8357     4.4948     3.1646     10.6022    0.218     
2951.2     5.396      2.1695     4.8793     4.787      5.7447     4.958      4.4013     12.2915    0.222     
2951.4     5.8394     2.2141     4.983      4.9274     5.9651     5.4997     5.2598     13.5976    0.218     
2951.6     6.4358     2.3762     5.2644     5.3549     6.4022     6.0509     6.2924     14.2173    0.216     
2951.8     6.9051     2.6134     5.7466     5.973      6.9671     6.4944     6.8742     14.6949    0.22      
2952       7.1654     3.0356     6.6946     6.6516     7.3098     6.8136     5.4089     14.9003    0.226     
2952.2     7.3462     3.2823     7.4164     7.0064     7.2834     6.9968     4.5332     14.7165    0.219     
2952.4     7.4685     3.2744     7.9092     6.9678     6.9131     6.9878     4.6263     14.5933    0.223     
2952.6     7.5251     3.1585     8.2039     6.8657     6.6047     6.8537     5.0248     14.6185    0.221     
2952.8     7.6258     3.0683     8.4306     6.91       6.3657     6.7544     5.2598     14.1518    0.218     
2953       7.7957     3.0642     8.636      7.0965     6.2149     6.6659     5.1748     12.9657    0.22      
2953.2     7.9953     3.0816     8.7698     7.351      6.0498     6.6061     5.2765     12.4183    0.224     
2953.4     8.1808     3.0743     8.5393     7.7592     5.8919     6.6067     5.4269     12.5863    0.224     
2953.6     8.3489     3.1219     8.692      8.3723     5.7737     6.7432     4.3857     12.8834    0.224     
2953.8     8.6626     3.2167     8.9258     8.9601     5.7617     7.0169     4.8433     13.7308    0.224     
2954       9.1387     2.9522     8.3834     9.2241     5.7972     7.3293     10.0448    15.5893    0.221     
2954.2     9.6603     2.8915     8.4335     9.5805     5.9246     7.697      24.0463    16.8894    0.218     
2954.4     10.3942    3.0777     9.1528     10.5805    6.2645     8.1071     39.4696    16.2276    0.225     
2954.6     10.6911    3.8143     10.7411    12.0176    6.7691     8.4958     25.1456    14.3213    0.229     
2954.8     10.0118    4.8121     12.9427    14.3003    7.5828     8.8392     6.999      12.4748    0.231     
2955       8.8265     5.959      15.9483    16.2658    8.1955     9.5083     2.6208     11.8311    0.237     
2955.2     8.0319     5.5797     16.2062    16.0619    8.2724     10.4227    2.4503     14.2036    0.226     
2955.4     7.6799     3.7808     12.5087    13.4576    7.8536     11.5934    4.0816     19.1451    0.219     
2955.6     7.6866     2.724      9.8602     11.5958    8.1775     12.9093    6.1873     22.9953    0.225     
