~Version
 VERS              .         2.0                           : CWLS LOG ASCII STANDARD - VERSION 2.0
 WRAP              .         NO                            : ONE LINE PER DEPTH STEP
 DLM               .         SPACE                         : DELIMITING CHARACTER(SPACE TAB OR COMMA)
~Well Information
#_______________________________________________________________________________
#
#PARAMETER_NAME    .UNIT     VALUE                         : DESCRIPTION
#_______________________________________________________________________________
STRT               .m        2839                          : First reference value
STOP               .m        3000                          : Last reference value
STEP               .m        0.2                           : Step increment
NULL               .         -9999                         : Missing value
COMP               .                                       : Company
WELL               .         401                           : Well name
FLD                .                                       : Field
LOC                .                                       : Location
CNTY               .                                       : County
STAT               .                                       : State
CTRY               .                                       : Country
SRVC               .                                       : Service Company
DATE               .                                       : Date
API                .                                       : API number
EREF               .m        140.4                         : 
Pad                .         4                             : 
X                  .m        222100                        : 
Y                  .m        250025                        : 
group              .         Pad4                          : 
Интер-р            .         Старостина                    : 
Куст               .         4                             : 
Статус             .         Не проверено                  : 
Тип                .         Эксплуатация                  : 
~Parameter Information Block
#_______________________________________________________________________________
#
#PARAMETER_NAME    .UNIT     VALUE                         : DESCRIPTION
#_______________________________________________________________________________
SET                .         LAS1                          : 
REAL_CREATION_DATE .         Ср апр 11 2012-13_17_12       : 
TLFamily_DEPTH     .         Measured Depth                : 
TLFamily_KS        .         Potential Resistivity         : 
TLFamily_KS1       .         Extra Shallow Resistivity     : 
TLFamily_KS2       .         Shallow Resistivity           : 
TLFamily_KS3       .         Medium Resistivity            : 
TLFamily_KS4       .         Deep Resistivity              : 
TLFamily_KS5       .         Extra Deep Resistivity        : 
TLFamily_LLD       .         Lateral Log Resistivity       : 
TLFamily_OKS3      .         Medium Resistivity Inverted   : 
TLFamily_RM        .         Mud Resistivity               : 
group              .         INI                           : 
~Curve Information
#_______________________________________________________________________________
#
#LOGNAME           .UNIT     LOG_ID                        : DESCRIPTION
#_______________________________________________________________________________
DEPTH              .m                                      : Measured Depth 
KS                 .ohm.m                                  : Potential Resistivity 
KS1                .ohm.m                                  : Extra Shallow Resistivity 
KS2                .ohm.m                                  : Shallow Resistivity 
KS3                .ohm.m                                  : Medium Resistivity 
KS4                .ohm.m                                  : Deep Resistivity 
KS5                .ohm.m                                  : Extra Deep Resistivity 
LLD                .ohm.m                                  : Lateral Log Resistivity 
OKS3               .ohm.m                                  : Medium Resistivity Inverted 
RM                 .ohm.m                                  : Mud Resistivity 
~Ascii
# ...
2926.6     6.7079     3.7574     10.9002    13.9665    10.2881    11.8239    4.5754     8.1554     0.2       
2926.8     6.4166     3.7601     10.6684    13.5935    9.3006     10.9082    3.8059     7.0711     0.208     
2927       5.9785     3.5793     10.1917    12.5669    8.1366     9.3758     3.5397     6.3102     0.208     
2927.2     5.5538     3.3424     9.8442     11.4877    7.2496     7.8046     3.0745     5.8088     0.205     
2927.4     5.259      3.0867     9.2911     10.5177    6.5148     6.623      2.9785     5.5298     0.204     
2927.6     5.021      2.7916     8.5268     9.5768     6.004      5.7725     3.0504     5.4918     0.208     
2927.8     4.8087     2.6839     8.0012     8.8705     5.7209     5.0697     2.9641     5.5811     0.209     
2928       4.6919     2.5832     7.4404     8.4257     5.5484     4.5125     2.9446     5.6807     0.203     
2928.2     4.6304     2.4673     6.8631     8.0446     5.4119     4.0937     3.1762     5.7516     0.199     
2928.4     4.5914     2.3836     6.4186     7.8227     5.3666     3.7425     3.4168     5.8092     0.205     
2928.6     4.5417     2.4659     6.3278     7.7329     5.2567     3.4696     2.9851     5.849      0.207     
2928.8     4.4706     2.5155     6.2075     7.6832     5.12       3.2548     2.9406     5.8492     0.207     
2929       4.3981     2.529      6.1963     7.3003     4.9348     3.0844     2.9049     5.8651     0.207     
2929.2     4.3615     2.3972     5.8488     6.8555     4.7666     2.9267     2.9464     5.9995     0.209     
2929.4     4.3424     2.4215     5.8746     6.4087     4.5894     2.8424     3.048      6.0899     0.209     
2929.6     4.3891     2.3394     5.759      6.1014     4.4936     2.8053     2.9784     6.1075     0.203     
2929.8     4.471      2.2966     5.4834     5.7751     4.452      2.7769     3.0975     6.2489     0.204     
2930       4.5375     2.2948     5.4529     5.5672     4.4856     2.7731     3.4537     6.5983     0.21      
2930.2     4.5931     2.3083     5.4826     5.5754     4.6775     2.8025     3.531      6.9298     0.207     
2930.4     4.672      2.4202     5.7212     5.65       4.9231     2.84       3.6197     7.0929     0.207     
2930.6     4.7878     2.4525     5.8627     5.7525     5.2232     2.8738     3.7079     7.2036     0.213     
2930.8     4.8554     2.5045     5.9473     5.808      5.5063     2.9091     3.611      7.5041     0.211     
2931       4.8665     2.5921     6.1242     5.8172     5.5779     2.9331     3.6066     7.9692     0.202     
2931.2     4.8793     2.6222     6.2774     5.8525     5.534      2.9504     3.5373     8.3876     0.203     
2931.4     4.8771     2.6244     6.3887     5.874      5.4294     2.945      3.5418     8.6953     0.21      
2931.6     4.8556     2.6412     6.5054     5.8838     5.281      2.9563     3.1684     8.9765     0.211     
2931.8     4.8713     2.6681     6.5485     5.8685     5.073      3.003      3.1637     9.3989     0.208     
2932       4.9217     2.5573     6.3093     5.7424     4.8403     3.0955     3.5112     10.2399    0.21      
2932.2     5.0014     2.49       6.2044     5.6439     4.706      3.2112     3.773      11.1412    0.214     
2932.4     5.1454     2.5101     6.2536     5.7084     4.6215     3.3246     3.721      11.9239    0.21      
2932.6     5.3486     2.5934     6.3145     5.7653     4.4692     3.4625     3.4778     12.537     0.204     
2932.8     5.6745     2.5472     6.0956     5.6382     4.2055     3.5532     3.7165     13.1622    0.205     
2933       6.1358     2.3279     5.5609     5.3069     3.8938     3.605      6.413      14.0423    0.208     
2933.2     6.5611     2.2495     5.4271     5.1872     3.7807     3.6174     11.7538    14.6786    0.207     
2933.4     6.8566     2.6977     6.4614     5.6246     3.9151     3.6064     8.289      14.4718    0.207     
2933.6     7.0038     3.2988     7.6848     6.2317     4.0283     3.5915     5.4852     13.6025    0.208     
2933.8     6.8985     3.5398     8.2277     6.5376     3.9675     3.597      3.2024     12.8559    0.213     
2934       6.8051     3.4101     8.2227     6.4109     3.777      3.6154     4.5266     13.3558    0.209     
2934.2     6.7016     2.7357     7.3543     6.2632     3.7078     3.6596     5.5739     14.6201    0.201     
2934.4     6.7705     2.7759     8.0217     6.4096     3.8134     3.8079     5.4939     15.6449    0.205     
2934.6     7.0382     2.6661     7.8325     6.7796     3.9828     4.0539     6.0644     16.0078    0.209     
2934.8     7.2943     2.6715     7.2815     7.0752     4.1747     4.3283     6.4602     16.3129    0.211     
2935       7.4724     2.7577     7.1087     7.4901     4.4472     4.6483     6.3332     16.6267    0.211     
2935.2     7.6609     2.8327     7.239      8.0548     4.7893     4.9784     6.5041     16.817     0.211     
2935.4     7.8628     2.8354     7.4059     8.5947     5.1555     5.2955     6.9351     16.6932    0.212     
2935.6     8.0662     2.7982     7.5576     9.1853     5.5794     5.5394     7.3447     16.4694    0.213     
2935.8     8.26       2.7928     7.7255     9.6695     6.1009     5.7838     7.5752     16.3579    0.207     
2936       8.4125     2.8257     7.9445     10.0014    6.6411     5.998      7.5381     16.3166    0.207     
2936.2     8.5511     2.9117     8.2858     10.2703    7.1501     6.1819     7.5241     16.0324    0.214     
2936.4     8.6835     2.9173     8.3958     10.6792    7.7593     6.3556     7.6207     15.5747    0.211     
2936.6     8.8131     2.9463     8.5432     11.1855    8.4589     6.4984     8.2766     15.2331    0.211     
2936.8     8.8706     2.9697     8.7023     11.7779    9.2186     6.6062     8.5768     15.2308    0.211     
2937       8.8583     3.0866     9.1995     12.4602    10.0396    6.7213     7.7241     14.9865    0.216     
2937.2     8.868      3.2179     9.6608     13.188     10.8854    6.8316     7.7236     14.2932    0.21      
2937.4     8.8936     3.1363     9.5175     13.6282    11.6177    6.8901     7.7545     13.5248    0.206     
2937.6     8.8251     3.1736     9.5707     13.9351    12.2873    6.897      7.3205     12.9076    0.205     
2937.8     8.7277     3.1765     9.6959     14.2926    12.7726    6.9201     6.8019     12.1728    0.213     
2938       8.64       3.1765     9.7719     14.6036    13.091     6.9553     6.3093     11.4439    0.212     
2938.2     8.5344     3.1533     9.7368     14.6988    13.262     7.0014     6.4602     10.9233    0.209     
2938.4     8.4465     3.0892     9.5634     14.7418    13.5061    7.0626     7.7193     10.6803    0.213     
2938.6     8.3003     3.093      9.7008     15.1219    14.1547    7.1766     6.5131     10.5505    0.211     
2938.8     8.2261     3.2385     10.0842    15.4682    14.8579    7.3368     6.929      10.351     0.207     
2939       8.1386     3.2077     9.7726     15.6463    15.2848    7.5034     6.6543     10.1564    0.207     
2939.2     7.9733     3.3355     9.9264     15.6835    15.6153    7.6131     6.5614     9.944      0.212     
2939.4     7.7924     3.3345     9.881      15.8907    16.0563    7.7158     5.8943     9.7074     0.211     
2939.6     7.5692     3.4277     10.0462    15.8814    16.3915    7.8271     5.5661     9.4034     0.211     
2939.8     7.3188     3.3634     9.9172     15.6741    16.6105    7.8952     4.5025     9.1709     0.211     
2940       7.0241     3.3801     9.8679     15.2301    16.5159    7.951      4.195      9.0949     0.213     
2940.2     6.7868     3.3287     9.7398     14.5899    16.1351    7.9758     4.8658     9.3062     0.212     
2940.4     6.5796     3.0181     9.0264     13.9341    15.8008    7.9964     4.1098     9.624      0.206     
2940.6     6.5341     3.0423     8.8695     13.2173    15.4131    8.0266     4.7192     10.0416    0.211     
2940.8     6.5831     2.8453     8.1464     12.5921    14.9082    8.1057     5.0204     10.3661    0.211     
2941       6.6615     2.8151     7.728      11.9859    14.4622    8.25       5.1601     10.7468    0.211     
