~Version
 VERS              .         2.0                           : CWLS LOG ASCII STANDARD - VERSION 2.0
 WRAP              .         NO                            : ONE LINE PER DEPTH STEP
 DLM               .         SPACE                         : DELIMITING CHARACTER(SPACE TAB OR COMMA)
~Well Information
#_______________________________________________________________________________
#
#PARAMETER_NAME    .UNIT     VALUE                         : DESCRIPTION
#_______________________________________________________________________________
STRT               .m        2906                          : First reference value
STOP               .m        3075                          : Last reference value
STEP               .m        0.2                           : Step increment
NULL               .         -9999                         : Missing value
COMP               .                                       : Company
WELL               .         402                           : Well name
FLD                .                                       : Field
LOC                .                                       : Location
CNTY               .                                       : County
STAT               .                                       : State
CTRY               .                                       : Country
SRVC               .                                       : Service Company
DATE               .                                       : Date
API                .                                       : API number
EREF               .m        140.4                         : 
Pad                .         4                             : 
X                  .m        222100                        : 
Y                  .m        250025                        : 
group              .         Pad4                          : 
Интер-р            .         Ярышев                        : 
Куст               .         4                             : 
Статус             .         Проверено                     : 
Тип                .         Нагнетательные                : 
~Parameter Information Block
#_______________________________________________________________________________
#
#PARAMETER_NAME    .UNIT     VALUE                         : DESCRIPTION
#_______________________________________________________________________________
SET                .         LAS1                          : 
REAL_CREATION_DATE .         Ср апр 11 2012-13_17_13       : 
TLFamily_DEPTH     .         Measured Depth                : 
TLFamily_KS        .         Potential Resistivity         : 
TLFamily_KS1       .         Extra Shallow Resistivity     : 
TLFamily_KS2       .         Shallow Resistivity           : 
TLFamily_KS3       .         Medium Resistivity            : 
TLFamily_KS4       .         Deep Resistivity              : 
TLFamily_KS5       .         Extra Deep Resistivity        : 
TLFamily_LLD       .         Lateral Log Resistivity       : 
TLFamily_OKS3      .         Medium Resistivity Inverted   : 
TLFamily_RM        .         Mud Resistivity               : 
group              .         INI                           : 
~Curve Information
#_______________________________________________________________________________
#
#LOGNAME           .UNIT     LOG_ID                        : DESCRIPTION
#_______________________________________________________________________________
DEPTH              .m                                      : Measured Depth 
KS                 .ohm.m                                  : Potential Resistivity 
KS1                .ohm.m                                  : Extra Shallow Resistivity 
KS2                .ohm.m                                  : Shallow Resistivity 
KS3                .ohm.m                                  : Medium Resistivity 
KS4                .ohm.m                                  : Deep Resistivity 
KS5                .ohm.m                                  : Extra Deep Resistivity 
LLD                .ohm.m                                  : Lateral Log Resistivity 
OKS3               .ohm.m                                  : Medium Resistivity Inverted 
RM                 .ohm.m                                  : Mud Resistivity 
~Ascii
# ...
2935.2     9.4568     2.1699     7.6077     12.0482    12.9095    7.0256     5.5976     13.5232    0.124     
2935.4     9.5051     2.1259     7.4355     11.7855    12.6451    7.0768     5.8501     13.9147    0.128     
2935.6     9.531      2.1257     7.4373     11.7403    12.5997    7.1542     6.4337     14.2864    0.13      
2935.8     9.5193     2.208      7.6467     11.8903    12.6604    7.2528     7.0994     14.5961    0.133     
2936       9.4665     2.2571     7.8146     12.0963    12.6838    7.3348     6.9259     14.7005    0.13      
2936.2     9.4184     2.3025     7.9113     11.9831    12.3697    7.3762     6.2142     14.6387    0.128     
2936.4     9.4431     2.1756     7.4903     11.4747    11.7672    7.3816     4.7246     14.9246    0.13      
2936.6     9.5083     2.0353     7.1285     10.8131    11.0833    7.3789     4.9419     15.4472    0.133     
2936.8     9.6859     1.9319     6.8769     10.4326    10.7286    7.407      5.4471     15.6534    0.134     
2937       9.9597     1.965      6.8096     10.2338    10.5721    7.5457     5.7994     15.7727    0.136     
2937.2     10.259     1.8992     6.5759     10.2086    10.5928    7.7837     5.8383     15.7513    0.133     
2937.4     10.6375    1.9666     6.7185     10.2938    10.6879    8.1227     7.6634     15.6895    0.132     
2937.6     11.0983    1.9782     6.6971     10.4295    10.8127    8.5952     7.0709     15.5522    0.13      
2937.8     11.5464    1.9296     6.6125     10.4863    10.9933    9.0462     6.7672     15.3754    0.128     
2938       11.8887    1.9408     6.7885     10.9105    11.5818    9.4444     11.0458    15.5288    0.126     
2938.2     12.1523    2.1732     7.7042     11.8381    12.4762    9.8667     25.2852    14.5822    0.126     
2938.4     12.232     2.4444     8.6862     13.0435    13.4762    10.2151    28.3407    11.9739    0.125     
2938.6     12.0602    2.7604     9.8552     13.8932    14.1488    10.4965    14.2863    11.0746    0.124     
2938.8     11.6978    2.7338     9.6166     14.5516    14.6439    10.6833    8.2457     11.3607    0.124     
2939       11.0382    2.7006     10.1473    15.2692    15.1717    10.6515    11.3422    11.6791    0.122     
2939.2     10.4546    2.9394     11.3376    15.8707    15.4353    10.4942    8.2089     11.6791    0.123     
2939.4     10.0091    2.5793     10.2972    15.5437    14.9012    10.3389    4.7178     11.6919    0.124     
2939.6     9.7306     2.2601     9.2317     14.7863    14.1942    10.0571    4.4826     11.8841    0.126     
2939.8     9.6503     2.2039     8.677      14.4546    13.9311    9.7464     5.7344     12.2591    0.13      
2940       9.6443     2.1394     8.2063     14.3458    13.8279    9.6003     5.9994     12.3601    0.133     
2940.2     9.6498     2.1394     7.8399     14.2452    13.6674    9.4903     6.0921     12.4179    0.134     
2940.4     9.6349     2.1394     7.6365     14.2308    13.5665    9.3854     6.4259     12.2723    0.132     
2940.6     9.6018     2.1663     7.5407     14.0372    13.4535    9.32       6.3852     12.0434    0.134     
2940.8     9.4868     2.1529     7.5355     13.6318    13.4588    9.2695     6.1186     12.0149    0.134     
2941       9.3534     2.1173     7.5546     13.0978    13.4111    9.2868     5.92       12.048     0.134     
2941.2     9.3608     2.0918     7.5832     12.5691    13.3778    9.3521     5.6184     12.0176    0.134     
2941.4     9.5117     1.9975     7.3549     12.115     13.5337    9.4267     5.9076     12.2514    0.134     
2941.6     9.531      1.9527     7.3326     11.8711    13.7789    9.5774     5.3076     12.6133    0.133     
2941.8     9.531      1.9508     6.9441     11.5835    13.747     9.8703     5.8295     13.0037    0.129     
2942       9.5359     1.9634     7.802      11.5302    13.8659    10.336     5.3966     13.4445    0.125     
2942.2     9.6393     1.9508     7.5411     11.4876    14.3298    10.8956    5.8257     14.1624    0.124     
2942.4     9.6833     1.9637     7.5096     11.5362    15.3707    11.2706    6.8536     14.5246    0.124     
2942.6     9.6953     2.3022     7.5096     12.4096    16.2557    11.4811    11.0306    14.2892    0.124     
2942.8     9.83       2.2444     7.4888     12.6688    16.1229    11.5346    7.1089     13.4888    0.124     
2943       9.8689     2.1907     7.5231     12.234     14.8976    11.2831    6.352      12.9134    0.123     
2943.2     9.7203     2.207      7.6436     11.4524    14.4442    10.7391    7.5462     12.3703    0.123     
2943.4     9.649      2.328      8.1281     11.3801    13.7695    10.375     7.8822     11.8903    0.123     
2943.6     9.5655     2.1499     7.7346     11.3782    12.9371    10.1364    4.9894     11.9313    0.123     
2943.8     9.5023     2.0849     7.5263     11.3782    12.4481    9.919      4.5955     12.4615    0.122     
2944       9.478      2.0537     7.4747     11.3782    12.4429    9.7162     5.9071     13.1773    0.126     
2944.2     9.6259     2.0698     7.4468     11.506     12.3819    9.6751     6.2959     13.3602    0.126     
2944.4     9.7425     2.1113     7.4972     11.6542    12.3474    9.6187     7.4219     13.2889    0.13      
2944.6     9.8673     2.1798     7.4599     11.869     12.2756    9.5279     6.4426     13.1946    0.128     
2944.8     9.9424     2.1819     7.3648     11.9837    11.9526    9.4641     7.0457     12.9276    0.126     
2945       9.975      2.1394     7.3315     12.0327    12.1311    9.4426     6.6386     12.6737    0.13      
2945.2     9.8752     2.3053     7.7166     12.2375    11.7812    9.3111     7.5411     12.5046    0.13      
2945.4     9.8149     2.307      8.027      12.314     11.9238    9.2764     6.7477     12.5152    0.13      
2945.6     9.804      2.1643     7.6417     12.0175    11.9219    9.2822     6.2307     12.2413    0.131     
2945.8     9.7325     2.1579     7.9897     11.7151    11.9219    9.2707     5.7125     12.4303    0.13      
2946       9.6851     2.1843     7.6375     11.6112    11.9141    9.253      5.0555     13.5747    0.133     
2946.2     9.7196     2.0319     7.314      11.5181    11.7916    9.4243     5.2948     14.0153    0.136     
2946.4     9.8995     2.0126     7.2635     11.4754    12.0209    9.5353     6.5568     14.0788    0.136     
2946.6     10.067     2.0036     7.2432     11.8151    12.4659    9.7395     8.0742     13.7836    0.131     
2946.8     10.077     2.1529     7.4679     12.4454    13.3029    9.832      9.5163     13.9015    0.122     
2947       10.0269    2.409      8.0923     12.6696    13.4986    9.855      7.3761     13.9316    0.126     
2947.2     9.8884     2.2424     7.6753     12.6466    13.3858    9.7415     5.9651     14.4704    0.124     
2947.4     9.8672     2.2019     7.888      12.109     12.8737    9.5883     6.1747     14.9322    0.124     
2947.6     9.8674     2.1392     7.5785     11.8791    12.5201    9.3458     5.158      15.787     0.121     
2947.8     9.8077     2.0872     7.5378     11.7374    12.4049    9.2126     6.4924     16.5048    0.123     
2948       9.8628     2.1473     7.672      11.5715    12.1954    9.2001     6.1885     17.0037    0.126     
2948.2     9.9526     2.0509     7.0747     11.3778    12.1279    9.224      5.4842     17.1973    0.127     
2948.4     10.2136    2.072      7.2364     11.1199    11.9726    9.2526     5.8721     17.6228    0.13      
2948.6     10.5968    1.9124     6.9516     11.0753    11.9452    9.2848     5.2671     17.9293    0.129     
2948.8     11.1337    1.8565     6.643      10.8264    11.7983    9.4154     6.6855     17.9354    0.127     
2949       11.519     1.7853     6.5623     10.6666    11.8769    10.1477    6.4671     17.8356    0.13      
2949.2     11.9456    1.7126     6.1969     10.4478    12.1204    11.5298    5.7475     18.4673    0.128     
2949.4     12.4555    1.6384     6.4533     10.6025    12.7529    12.8515    6.8807     19.6193    0.134     
2949.6     13.0875    1.8239     7.4651     11.0782    13.5904    13.4402    20.4722    19.4268    0.131     
