~Version
 VERS              .         2.0                           : CWLS LOG ASCII STANDARD - VERSION 2.0
 WRAP              .         NO                            : ONE LINE PER DEPTH STEP
 DLM               .         SPACE                         : DELIMITING CHARACTER(SPACE TAB OR COMMA)
~Well Information
#_______________________________________________________________________________
#
#PARAMETER_NAME    .UNIT     VALUE                         : DESCRIPTION
#_______________________________________________________________________________
STRT               .m        2906                          : First reference value
STOP               .m        3075                          : Last reference value
STEP               .m        0.2                           : Step increment
NULL               .         -9999                         : Missing value
COMP               .                                       : Company
WELL               .         402                           : Well name
FLD                .                                       : Field
LOC                .                                       : Location
CNTY               .                                       : County
STAT               .                                       : State
CTRY               .                                       : Country
SRVC               .                                       : Service Company
DATE               .                                       : Date
API                .                                       : API number
EREF               .m        140.4                         : 
Pad                .         4                             : 
X                  .m        222100                        : 
Y                  .m        250025                        : 
group              .         Pad4                          : 
Интер-р            .         Ярышев                        : 
Куст               .         4                             : 
Статус             .         Проверено                     : 
Тип                .         Нагнетательные                : 
~Parameter Information Block
#_______________________________________________________________________________
#
#PARAMETER_NAME    .UNIT     VALUE                         : DESCRIPTION
#_______________________________________________________________________________
SET                .         LAS1                          : 
REAL_CREATION_DATE .         Ср апр 11 2012-13_17_13       : 
TLFamily_DEPTH     .         Measured Depth                : 
TLFamily_KS        .         Potential Resistivity         : 
TLFamily_KS1       .         Extra Shallow Resistivity     : 
TLFamily_KS2       .         Shallow Resistivity           : 
TLFamily_KS3       .         Medium Resistivity            : 
TLFamily_KS4       .         Deep Resistivity              : 
TLFamily_KS5       .         Extra Deep Resistivity        : 
TLFamily_LLD       .         Lateral Log Resistivity       : 
TLFamily_OKS3      .         Medium Resistivity Inverted   : 
TLFamily_RM        .         Mud Resistivity               : 
group              .         INI                           : 
~Curve Information
#_______________________________________________________________________________
#
#LOGNAME           .UNIT     LOG_ID                        : DESCRIPTION
#_______________________________________________________________________________
DEPTH              .m                                      : Measured Depth 
KS                 .ohm.m                                  : Potential Resistivity 
KS1                .ohm.m                                  : Extra Shallow Resistivity 
KS2                .ohm.m                                  : Shallow Resistivity 
KS3                .ohm.m                                  : Medium Resistivity 
KS4                .ohm.m                                  : Deep Resistivity 
KS5                .ohm.m                                  : Extra Deep Resistivity 
LLD                .ohm.m                                  : Lateral Log Resistivity 
OKS3               .ohm.m                                  : Medium Resistivity Inverted 
RM                 .ohm.m                                  : Mud Resistivity 
~Ascii
2906.0     -9999      1.9398     5.8164     0          0          0.3814     -9999      11.8491    0.117     
2906.2     -9999      1.9508     6.0848     1.686      0          0.3767     -9999      11.6456    0.117     
2906.4     -9999      1.9678     6.2576     3.9612     0          0.3767     -9999      11.4964    0.12      
2906.6     7.9931     2.0066     6.4531     5.5125     0          0.3767     -9999      11.3795    0.12      
2906.8     8.0495     2.0239     6.5422     6.5866     0          0.3767     -9999      11.3231    0.12      
2907       8.0779     2.0316     6.6378     7.3862     0          0.3767     -9999      11.2948    0.122     
2907.2     8.1242     2.0336     6.6831     7.9651     0          0.3767     -9999      11.195     0.126     
2907.4     8.1629     2.0307     6.6829     8.3727     0          0.3767     -9999      11.1353    0.128     
2907.6     8.1809     2.0256     6.7164     8.6728     0          0.3767     -9999      11.1391    0.132     
2907.8     8.2136     2.0451     6.7627     8.8907     0          0.3767     4.5941     11.1271    0.13      
2908       8.2475     2.0362     6.7711     9.0413     0          0.3767     4.7479     11.0607    0.13      
2908.2     8.3073     2.0316     6.7631     9.1432     1.3254     0.3767     4.6685     11.0374    0.128     
2908.4     8.319      2.0214     6.7702     9.254      3.1881     0.3767     4.7603     11.0631    0.129     
2908.6     8.3493     2.0451     6.8478     9.3492     4.4982     0.3767     4.957      11.0315    0.13      
2908.8     8.3963     2.0196     6.7677     9.4135     5.4377     0.3767     4.7804     10.9695    0.134     
2909       8.424      2.0155     6.7933     9.4445     6.163      0.3767     4.7668     10.994     0.137     
2909.2     8.4254     2.0304     6.8743     9.5926     6.8092     0.3767     4.9459     11.014     0.136     
2909.4     8.4639     2.039      6.9258     9.6872     7.2979     0.3767     5.0979     10.9356    0.134     
2909.6     8.4921     2.0185     6.8402     9.7232     7.6384     0.3767     5.0018     10.903     0.13      
2909.8     8.4998     2.0451     6.9116     9.7659     7.9011     0.3767     5.1233     10.8834    0.128     
2910       8.5178     2.0436     6.894      9.8411     8.1223     0.3767     5.0248     10.9129    0.125     
2910.2     8.5178     2.049      6.9139     9.8772     8.2888     0.3767     4.9616     10.9733    0.124     
2910.4     8.5197     2.0451     6.9235     9.9072     8.4369     0.3767     5.0357     11.0161    0.124     
2910.6     8.5462     2.0343     6.9114     9.9157     8.5706     0.3767     5.0502     11.0988    0.124     
2910.8     8.5553     2.0451     6.9083     9.9773     8.7393     0.3767     5.0371     11.2207    0.124     
2911       8.5652     2.0586     6.962      10.0299    8.8944     0.3767     5.1864     11.3501    0.124     
2911.2     8.5929     2.0522     6.9258     10.1126    9.1053     0.3767     5.0791     11.5172    0.124     
2911.4     8.5929     2.0589     7.0075     10.3023    9.4263     0.3767     5.1572     11.7779    0.127     
2911.6     8.621      2.1045     7.2228     10.4387    9.5938     0.3767     5.4556     11.7571    0.128     
2911.8     8.6947     2.0605     7.0235     10.3944    9.5604     0.3767     5.1179     11.5777    0.131     
2912       8.7242     2.0586     7.0034     10.2455    9.4603     0.3767     5.0596     11.4639    0.136     
2912.2     8.7415     2.0477     6.9395     10.1539    9.4244     0.3801     5.0437     11.4866    0.135     
2912.4     8.8005     2.048      6.9332     10.0876    9.4082     0.9038     5.2064     11.5251    0.134     
2912.6     8.8374     2.05       7.0213     10.1012    9.4328     1.9934     5.3213     11.5294    0.13      
2912.8     8.8645     2.0586     7.0732     10.1837    9.5488     2.8385     5.4517     11.5545    0.129     
2913       8.8935     2.0933     7.1402     10.2545    9.6271     3.4879     5.6228     11.4656    0.129     
2913.2     8.9217     2.0855     7.1286     10.3259    9.638      4.0152     5.4663     11.3607    0.13      
2913.4     8.9306     2.0919     7.1324     10.3262    9.6299     4.4604     5.4276     11.2457    0.132     
2913.6     8.9306     2.0983     7.1518     10.4068    9.684      4.8134     5.4271     11.1854    0.133     
2913.8     8.9118     2.1024     7.2305     10.5233    9.7077     5.0913     5.4919     11.1401    0.134     
2914       8.8982     2.0855     7.2044     10.5675    9.7292     5.3243     5.4482     11.1582    0.133     
2914.2     8.8671     2.0855     7.2385     10.6057    9.7468     5.507      5.429      11.2309    0.13      
2914.4     8.8168     2.0956     7.2761     10.6901    9.8067     5.667      5.2733     11.4353    0.13      
2914.6     8.7533     2.1102     7.3303     10.7358    9.8439     5.8246     5.223      11.6874    0.132     
2914.8     8.7578     2.072      7.2022     10.7131    9.8384     5.9711     4.8362     12.1081    0.133     
2915       8.743      2.0332     7.0621     10.6737    9.8563     6.1009     4.8835     12.4776    0.132     
2915.2     8.7631     2.0504     7.0945     10.6591    9.9036     6.2281     5.1666     12.6625    0.134     
2915.4     8.8008     2.0316     7.0087     10.6989    10.025     6.3155     5.231      12.799     0.134     
2915.6     8.8603     2.0799     7.1569     10.6645    10.0854    6.389      5.3984     12.8212    0.134     
2915.8     8.94       2.0561     6.9551     10.5723    10.0582    6.4439     5.1355     12.8491    0.133     
2916       9.0448     2.0182     6.8602     10.337     9.9527     6.5185     5.0923     13.0067    0.134     
2916.2     9.1718     1.9946     6.7702     10.1721    9.932      6.6035     5.1224     13.3274    0.134     
2916.4     9.3281     1.9912     6.7454     10.0482    9.9908     6.805      5.2266     13.5263    0.135     
2916.6     9.5401     1.9643     6.6972     10.0232    10.1567    7.1437     5.2645     13.7911    0.134     
2916.8     9.8196     1.9513     6.7117     10.1103    10.5336    7.5759     5.4227     14.1894    0.131     
2917       10.0424    1.9229     6.741      10.6472    11.333     7.9618     6.6974     14.3971    0.128     
2917.2     10.1761    2.1768     7.6828     11.512     12.2587    8.2431     12.8765    13.8612    0.125     
2917.4     10.3095    2.3896     8.2216     12.1757    12.5985    8.4181     11.0581    12.9312    0.122     
2917.6     10.273     2.3926     8.143      12.4326    12.5419    8.3412     6.703      12.3232    0.12      
2917.8     10.0903    2.5251     8.8187     12.4174    12.2565    8.0763     6.9775     11.8803    0.123     
2918       9.9858     2.4092     8.4719     12.3654    11.8967    7.8871     5.3837     11.6943    0.124     
2918.2     9.9068     2.2583     8.1789     11.9716    11.4464    7.783      5.0156     11.7317    0.129     
2918.4     9.722      2.2496     8.3772     12.2573    11.651     7.6004     6.364      11.7756    0.13      
2918.6     9.5756     2.4646     9.0449     12.8461    11.9029    7.4744     9.0209     11.3204    0.129     
2918.8     9.4872     2.4377     8.7883     13.1299    11.7045    7.354      6.0194     10.6789    0.131     
2919       9.2759     2.3851     8.4816     12.9199    11.2196    7.1214     5.3825     10.2453    0.131     
2919.2     9.1136     2.3301     8.2695     12.7815    10.8236    6.8102     5.0697     10.0404    0.13      
2919.4     9.0193     2.2353     8.0216     12.5995    10.4597    6.5718     4.6698     9.9852     0.13      
2919.6     8.9791     2.1307     7.7124     12.2602    10.1848    6.4157     4.5949     10.0631    0.132     
2919.8     8.922      2.1053     7.6105     12.0838    10.2091    6.3162     5.4199     10.0544    0.13      
2920       8.8694     2.2234     7.9325     12.1945    10.4308    6.2916     6.8366     9.7689     0.131     
2920.2     8.822      2.2827     7.8722     12.2672    10.5711    6.2585     5.943      9.4658     0.133     
2920.4     8.6771     2.2913     7.8812     12.143     10.538     6.1757     5.4554     9.2444     0.134     
