~Version
 VERS              .         2.0                           : CWLS LOG ASCII STANDARD - VERSION 2.0
 WRAP              .         NO                            : ONE LINE PER DEPTH STEP
 DLM               .         SPACE                         : DELIMITING CHARACTER(SPACE TAB OR COMMA)
~Well Information
#_______________________________________________________________________________
#
#PARAMETER_NAME    .UNIT     VALUE                         : DESCRIPTION
#_______________________________________________________________________________
STRT               .m        2906                          : First reference value
STOP               .m        3075                          : Last reference value
STEP               .m        0.2                           : Step increment
NULL               .         -9999                         : Missing value
COMP               .                                       : Company
WELL               .         402                           : Well name
FLD                .                                       : Field
LOC                .                                       : Location
CNTY               .                                       : County
STAT               .                                       : State
CTRY               .                                       : Country
SRVC               .                                       : Service Company
DATE               .                                       : Date
API                .                                       : API number
EREF               .m        140.4                         : 
Pad                .         4                             : 
X                  .m        222100                        : 
Y                  .m        250025                        : 
group              .         Pad4                          : 
Интер-р            .         Ярышев                        : 
Куст               .         4                             : 
Статус             .         Проверено                     : 
Тип                .         Нагнетательные                : 
~Parameter Information Block
#_______________________________________________________________________________
#
#PARAMETER_NAME    .UNIT     VALUE                         : DESCRIPTION
#_______________________________________________________________________________
SET                .         LAS1                          : 
REAL_CREATION_DATE .         Ср апр 11 2012-13_17_13       : 
TLFamily_DEPTH     .         Measured Depth                : 
TLFamily_KS        .         Potential Resistivity         : 
TLFamily_KS1       .         Extra Shallow Resistivity     : 
TLFamily_KS2       .         Shallow Resistivity           : 
TLFamily_KS3       .         Medium Resistivity            : 
TLFamily_KS4       .         Deep Resistivity              : 
TLFamily_KS5       .         Extra Deep Resistivity        : 
TLFamily_LLD       .         Lateral Log Resistivity       : 
TLFamily_OKS3      .         Medium Resistivity Inverted   : 
TLFamily_RM        .         Mud Resistivity               : 
group              .         INI                           : 
~Curve Information
#_______________________________________________________________________________
#
#LOGNAME           .UNIT     LOG_ID                        : DESCRIPTION
#_______________________________________________________________________________
DEPTH              .m                                      : Measured Depth 
KS                 .ohm.m                                  : Potential Resistivity 
KS1                .ohm.m                                  : Extra Shallow Resistivity 
KS2                .ohm.m                                  : Shallow Resistivity 
KS3                .ohm.m                                  : Medium Resistivity 
KS4                .ohm.m                                  : Deep Resistivity 
KS5                .ohm.m                                  : Extra Deep Resistivity 
LLD                .ohm.m                                  : Lateral Log Resistivity 
OKS3               .ohm.m                                  : Medium Resistivity Inverted 
RM                 .ohm.m                                  : Mud Resistivity 
~Ascii
# ...
3037.4     10.5106    1.6757     5.5876     9.7973     12.0811    5.769      5.087      18.6233    0.12      
3037.6     10.959     1.6205     5.3445     9.2563     11.0149    5.7504     6.1445     20.132     0.121     
3037.8     11.4947    1.5573     5.1587     8.8387     10.1725    5.8365     7.407      21.8601    0.124     
3038       12.1481    1.5063     5.0616     8.666      9.9046     6.036      10.7039    23.1322    0.121     
3038.2     12.8301    1.5774     5.3038     8.7527     9.9737     6.3431     13.5161    23.8515    0.12      
3038.4     13.5237    1.717      5.7284     9.0823     10.3076    6.7699     14.6165    24.0113    0.124     
3038.6     14.1361    1.8441     6.1346     9.5079     10.7197    7.3078     14.98      24.0455    0.123     
3038.8     14.6228    1.958      6.6141     10.0098    11.2694    7.9146     15.5058    24.2761    0.116     
3039       15.0116    2.06       7.1617     10.5998    11.9892    8.6664     15.8251    24.7991    0.12      
3039.2     15.3395    2.1394     7.7026     11.2145    12.9449    9.5083     15.7792    25.2942    0.126     
3039.4     15.6104    2.1928     8.1191     11.9259    14.0339    10.4403    15.0868    25.9039    0.117     
3039.6     15.784     2.2888     8.5986     12.8115    15.3837    11.4433    14.826     26.7243    0.123     
3039.8     15.8898    2.3639     9.0365     13.8236    16.9388    12.5552    14.1112    27.651     0.125     
3040       16.0291    2.398      9.3179     14.933     18.6112    13.8307    13.0217    28.4858    0.118     
3040.2     16.2135    2.4088     9.4201     15.9214    20.2178    15.4307    12.2057    29.3693    0.124     
3040.4     16.4417    2.3641     9.3343     16.847     21.9991    17.4448    12.1124    30.4668    0.126     
3040.6     16.7744    2.3424     9.3049     17.6447    24.2225    19.668     11.3119    31.6478    0.12      
3040.8     17.2984    2.2543     9.1647     18.2779    26.869     21.7836    13.1435    33.1486    0.124     
3041       17.98      2.0706     8.7108     18.7477    29.1622    23.7366    44.2339    33.9516    0.125     
3041.2     18.7729    2.0613     8.8544     19.1923    30.4772    25.3309    125.9575   32.4258    0.122     
3041.4     19.5296    2.1738     9.2876     20.2681    31.4456    26.4414    96.7537    29.5109    0.127     
3041.6     19.8923    2.4944     10.2925    21.7437    32.7361    27.0868    39.6097    27.0358    0.121     
3041.8     19.9439    2.753      11.2849    23.2265    33.9664    27.7128    23.3784    25.5586    0.124     
3042       19.7869    2.8589     12.016     24.3134    34.9503    28.0999    39.585     24.6039    0.127     
3042.2     19.515     2.8716     12.4535    25.4746    36.279     28.2984    72.3476    23.4727    0.119     
3042.4     19.1157    3.1075     13.6527    26.7922    37.7155    28.2955    46.5433    21.7355    0.124     
3042.6     18.5259    3.1268     13.9705    28.18      38.8945    28.0442    12.9105    19.8221    0.124     
3042.8     17.8783    3.1975     14.2549    28.777     38.8627    27.5763    9.8396     18.8688    0.12      
3043       17.1418    3.0408     13.7277    29.0181    38.3432    26.9715    11.5862    19.242     0.125     
3043.2     16.4676    2.8966     13.4491    29.2457    37.6863    26.1813    12.251     19.3763    0.123     
3043.4     15.9663    2.8598     13.1385    29.7168    37.2417    25.4816    10.1985    18.8609    0.121     
3043.6     15.6048    2.7785     12.6868    29.0901    35.727     25.0075    9.2032     17.9926    0.123     
3043.8     15.3268    2.5808     11.5132    27.6501    33.893     24.4127    9.7437     17.2371    0.118     
3044       15.118     2.4812     10.8221    26.1889    32.4975    23.7913    10.7934    16.5931    0.122     
3044.2     14.939     2.4222     10.4729    25.2013    31.8039    23.1111    11.4206    16.0085    0.125     
3044.4     14.7945    2.4459     10.2556    24.4427    31.4152    22.3572    11.2172    15.4361    0.117     
3044.6     14.6499    2.4627     10.1316    23.7298    31.2442    21.4474    11.5935    14.908     0.123     
3044.8     14.4795    2.4627     10.0109    22.9328    31.1703    20.5066    11.012     14.4242    0.124     
3045       14.3262    2.4761     9.8992     21.847     31.0621    19.6366    10.7328    13.8376    0.118     
3045.2     14.0825    2.4352     9.8165     21.1449    31.3409    18.8691    12.7657    13.5179    0.126     
3045.4     13.7317    2.5474     10.1555    21.2704    32.7756    18.1224    12.9706    13.2466    0.121     
3045.6     13.4289    2.6291     10.4764    21.3645    33.5727    17.5174    9.7035     12.8025    0.121     
3045.8     13.1355    2.584      10.2763    20.9211    33.1604    17.0944    8.1934     12.5517    0.126     
3046       12.8389    2.5221     9.9091     20.2121    32.2205    16.8921    7.5684     12.7854    0.117     
3046.2     12.5845    2.3929     9.5827     19.932     32.1734    17.0284    7.5456     13.5221    0.122     
3046.4     12.3354    2.3382     9.4653     20.1798    33.4345    17.7073    7.746      14.5608    0.122     
3046.6     12.2078    2.3814     9.6872     20.8724    35.8044    18.9709    7.4072     16.021     0.122     
3046.8     12.1381    2.2351     9.5114     21.8112    38.6019    20.2345    20.0481    17.6713    0.126     
3047       11.9462    2.3195     9.8684     23.0184    40.9266    20.9583    19.1922    18.4217    0.117     
3047.2     11.8866    2.6236     10.7127    23.3056    40.6842    21.1307    8.1594     17.475     0.122     
3047.4     11.7828    2.5397     9.9657     22.043     37.5197    20.6249    7.1388     16.0928    0.125     
3047.6     11.61      2.4011     9.2787     19.8384    33.4423    19.3699    7.1104     14.8506    0.117     
3047.8     11.4571    2.291      8.9419     18.2126    30.2914    17.9349    6.9865     14.0737    0.123     
3048       11.3134    2.2071     8.7056     16.8748    27.6486    16.7723    6.8531     13.6409    0.121     
3048.2     11.1884    2.1995     8.5417     15.7898    25.4039    15.7636    6.6418     13.5096    0.124     
3048.4     11.0959    2.1497     8.2645     14.8493    23.249     14.9213    6.4888     13.5476    0.124     
3048.6     11.0307    2.0798     7.8362     14.0963    21.394     14.0982    7.0881     13.5911    0.118     
3048.8     11.0154    2.072      7.75       13.4567    19.598     13.392     6.5451     13.5501    0.123     
3049       11.0621    2.0075     7.3661     12.9876    17.9777    12.881     6.9673     13.4163    0.125     
3049.2     11.1301    1.9444     7.0427     12.6543    16.5465    12.5368    7.8817     13.2611    0.119     
3049.4     11.1969    1.9508     7.0388     12.4504    15.5616    12.3864    8.2828     12.9935    0.124     
3049.6     11.2392    1.9732     7.0028     12.3068    14.9572    12.5129    8.1515     12.6568    0.116     
3049.8     11.255     2.0182     7.0996     12.1486    14.5201    12.7092    8.0386     12.4039    0.123     
3050       11.2008    2.0421     7.2017     12.1154    14.1445    12.9225    7.2549     12.2235    0.123     
3050.2     11.203     2.0589     7.2416     12.025     13.9062    13.2932    6.8949     12.0672    0.118     
3050.4     11.2398    1.9453     7.0574     11.9427    13.9169    13.9203    8.2004     11.9999    0.126     
3050.6     11.2791    1.9508     7.1163     12.1025    14.41      14.8725    9.3631     11.8066    0.119     
3050.8     11.2946    1.9811     7.3009     12.6443    15.4855    16.1737    10.5318    11.319     0.123     
3051       11.2897    2.1107     7.7147     13.3676    16.9176    17.7391    9.784      10.8733    0.123     
3051.2     11.2569    2.1909     7.8857     14.0768    18.8622    19.5676    10.216     10.6731    0.12      
3051.4     11.1257    2.224      8.1485     14.7733    20.9707    22.0012    9.6867     10.5395    0.125     
3051.6     10.9322    2.306      8.4061     15.6114    23.3057    25.3748    9.0677     10.5766    0.117     
3051.8     10.6914    2.3676     8.8144     16.5408    26.2557    29.2879    7.8655     10.8446    0.121     
