~Version
 VERS              .         2.0                           : CWLS LOG ASCII STANDARD - VERSION 2.0
 WRAP              .         NO                            : ONE LINE PER DEPTH STEP
 DLM               .         SPACE                         : DELIMITING CHARACTER(SPACE TAB OR COMMA)
~Well Information
#_______________________________________________________________________________
#
#PARAMETER_NAME    .UNIT     VALUE                         : DESCRIPTION
#_______________________________________________________________________________
STRT               .m        2906                          : First reference value
STOP               .m        3075                          : Last reference value
STEP               .m        0.2                           : Step increment
NULL               .         -9999                         : Missing value
COMP               .                                       : Company
WELL               .         402                           : Well name
FLD                .                                       : Field
LOC                .                                       : Location
CNTY               .                                       : County
STAT               .                                       : State
CTRY               .                                       : Country
SRVC               .                                       : Service Company
DATE               .                                       : Date
API                .                                       : API number
EREF               .m        140.4                         : 
Pad                .         4                             : 
X                  .m        222100                        : 
Y                  .m        250025                        : 
group              .         Pad4                          : 
Интер-р            .         Ярышев                        : 
Куст               .         4                             : 
Статус             .         Проверено                     : 
Тип                .         Нагнетательные                : 
~Parameter Information Block
#_______________________________________________________________________________
#
#PARAMETER_NAME    .UNIT     VALUE                         : DESCRIPTION
#_______________________________________________________________________________
SET                .         LAS1                          : 
REAL_CREATION_DATE .         Ср апр 11 2012-13_17_13       : 
TLFamily_DEPTH     .         Measured Depth                : 
TLFamily_KS        .         Potential Resistivity         : 
TLFamily_KS1       .         Extra Shallow Resistivity     : 
TLFamily_KS2       .         Shallow Resistivity           : 
TLFamily_KS3       .         Medium Resistivity            : 
TLFamily_KS4       .         Deep Resistivity              : 
TLFamily_KS5       .         Extra Deep Resistivity        : 
TLFamily_LLD       .         Lateral Log Resistivity       : 
TLFamily_OKS3      .         Medium Resistivity Inverted   : 
TLFamily_RM        .         Mud Resistivity               : 
group              .         INI                           : 
~Curve Information
#_______________________________________________________________________________
#
#LOGNAME           .UNIT     LOG_ID                        : DESCRIPTION
#_______________________________________________________________________________
DEPTH              .m                                      : Measured Depth 
KS                 .ohm.m                                  : Potential Resistivity 
KS1                .ohm.m                                  : Extra Shallow Resistivity 
KS2                .ohm.m                                  : Shallow Resistivity 
KS3                .ohm.m                                  : Medium Resistivity 
KS4                .ohm.m                                  : Deep Resistivity 
KS5                .ohm.m                                  : Extra Deep Resistivity 
LLD                .ohm.m                                  : Lateral Log Resistivity 
OKS3               .ohm.m                                  : Medium Resistivity Inverted 
RM                 .ohm.m                                  : Mud Resistivity 
~Ascii
# ...
2949.8     13.6919    2.0893     8.264      12.0384    14.7048    13.4693    48.3967    17.9064    0.133     
2950       13.9705    2.4196     9.0343     13.4648    15.8692    13.4747    55.3971    16.0277    0.134     
2950.2     13.7686    2.7851     10.042     15.5597    17.2474    13.4822    46.0623    14.4744    0.131     
2950.4     13.166     3.1521     11.4986    17.744     18.6036    13.4793    35.0311    13.114     0.131     
2950.6     12.4865    3.2843     12.348     17.8869    19.0865    13.3663    12.9516    12.0837    0.131     
2950.8     11.8251    2.9924     11.7657    17.1152    18.3446    13.0226    6.031      11.8145    0.132     
2951       11.309     2.7181     11.1212    16.4911    17.1102    12.5455    4.7014     12.5958    0.13      
2951.2     10.9855    2.3764     9.928      16.1012    16.1887    12.0354    4.8707     13.297     0.129     
2951.4     10.8443    2.2077     9.3351     15.737     15.6336    11.6346    6.5974     13.4402    0.128     
2951.6     10.8411    2.1974     8.823      16.0037    15.4898    11.3091    6.4918     13.362     0.124     
2951.8     10.8443    2.2186     8.529      16.1462    15.2191    11.1272    6.507      13.3025    0.122     
2952       10.8676    2.1443     7.9929     16.2217    15.1214    10.9799    6.8005     13.2781    0.123     
2952.2     10.8818    2.1933     8.0324     16.157     15.2045    10.8142    7.1631     13.0998    0.124     
2952.4     10.863     2.2471     8.2588     16.062     15.5389    10.7459    7.0754     12.9707    0.123     
2952.6     10.8453    2.2568     8.2513     15.7723    15.7539    10.7145    7.4703     12.5835    0.126     
2952.8     10.822     2.2964     8.3392     15.2806    16.2187    10.6816    7.7638     12.1016    0.127     
2953       10.7287    2.3329     8.4306     14.878     16.4092    10.6136    7.0075     11.7141    0.127     
2953.2     10.5758    2.3564     8.5789     14.5364    16.6447    10.5857    7.0572     11.4282    0.129     
2953.4     10.4005    2.3612     8.6421     14.4629    16.87      10.503     6.9234     11.1332    0.129     
2953.6     10.2237    2.3809     8.7183     14.4496    17.1499    10.4082    6.1436     10.9349    0.129     
2953.8     10.1461    2.2825     8.4706     14.1761    17.2664    10.3548    5.2699     10.9117    0.13      
2954       10.1184    2.1462     8.0076     13.6968    17.1437    10.3128    5.2782     10.9733    0.13      
2954.2     10.0687    2.1341     7.9312     13.6123    17.2028    10.271     6.8236     10.8394    0.133     
2954.4     10.0165    2.2584     8.3183     13.9818    17.4954    10.2425    8.4083     10.4651    0.134     
2954.6     9.8787     2.3623     8.4743     14.3134    17.5671    10.2891    7.5951     10.0129    0.134     
2954.8     9.6733     2.4132     8.4751     14.3278    17.1584    10.3439    6.0711     9.7425     0.134     
2955       9.4175     2.3684     8.3814     14.1477    16.5585    10.3295    5.507      9.7128     0.134     
2955.2     9.1966     2.308      8.3268     13.8132    15.9645    10.2924    5.2405     9.7659     0.131     
2955.4     8.9861     2.2466     8.197      13.4904    15.5473    10.2049    5.1381     9.8979     0.13      
2955.6     8.8144     2.2117     8.0581     13.1622    15.2566    10.1544    5.0183     9.9974     0.13      
2955.8     8.6472     2.1798     7.8736     12.8491    14.9518    10.0764    4.7286     10.155     0.127     
2956       8.5235     2.1434     7.6355     12.5261    14.6211    9.9969     4.6343     10.3921    0.124     
2956.2     8.4445     2.1095     7.4167     12.2447    14.2462    9.9038     4.6268     10.5993    0.123     
2956.4     8.413      2.0885     7.2618     11.9814    13.7816    9.7688     4.5127     10.7123    0.123     
2956.6     8.4414     2.0357     7.0129     11.6132    13.2582    9.6054     4.6768     10.5853    0.124     
2956.8     8.4718     2.0047     6.835      11.2065    12.8466    9.5029     5.0739     10.4078    0.129     
2957       8.5185     2.0316     6.8408     10.8606    12.4947    9.5149     5.2866     10.1387    0.13      
2957.2     8.5194     2.0316     6.8013     10.6678    12.2457    9.5932     4.9773     10.1096    0.133     
2957.4     8.5359     2.0982     7.0011     10.4059    11.9595    9.6669     4.5406     10.251     0.13      
2957.6     8.5032     1.9957     6.7618     10.3296    11.8103    9.7992     5.3548     10.4026    0.128     
2957.8     8.4851     2.1341     7.216      10.3236    11.777     10.0288    5.2309     10.3848    0.127     
2958       8.5129     2.1323     7.2084     10.3504    11.654     10.4292    4.4828     10.4891    0.127     
2958.2     8.5428     2.0396     6.9533     10.2192    11.5757    10.9838    4.4136     10.8453    0.127     
2958.4     8.5337     2.0316     6.9551     10.3943    11.9286    11.3163    5.2043     11.2224    0.131     
2958.6     8.4603     2.1672     7.4454     11.009     12.4343    11.4613    7.642      11.1658    0.131     
2958.8     8.4275     2.2909     7.8172     11.3903    12.472     11.4091    6.489      10.6063    0.133     
2959       8.4113     2.2496     7.5478     11.1068    11.6087    11.0656    4.4398     10.0243    0.135     
2959.2     8.2902     2.1566     7.2081     10.5961    10.7633    10.439     4.1298     9.9343     0.134     
2959.4     8.2314     2.0315     6.9486     10.1452    10.1314    9.9093     4.2475     10.0199    0.13      
2959.6     8.1981     2.0182     7.0248     9.9034     9.7976     9.5296     4.3549     10.1324    0.129     
2959.8     8.1669     2.0182     7.0388     9.9285     9.6583     9.2724     4.5983     10.3263    0.127     
2960       8.181      2.0272     6.9518     9.9285     9.4877     9.096      4.7694     10.3732    0.124     
2960.2     8.1989     2.0342     6.8845     9.9157     9.3777     8.8774     4.7151     10.4059    0.123     
2960.4     8.208      2.0552     6.876      9.8945     9.2466     8.6266     4.8044     10.371     0.12      
2960.6     8.2195     2.0604     6.7998     9.9076     9.102      8.3623     4.7009     10.3445    0.121     
2960.8     8.2469     2.0586     6.7756     9.8795     8.9174     8.1189     4.6518     10.306     0.124     
2961       8.2532     2.0451     6.7669     9.8935     8.8237     7.8949     4.6581     10.3585    0.126     
2961.2     8.2569     2.0451     6.8129     9.7359     8.7432     7.7253     4.6113     10.4891    0.127     
2961.4     8.2488     2.0232     6.7707     9.669      8.7294     7.5405     4.5767     10.7166    0.13      
2961.6     8.2046     2.0786     6.9884     9.6867     8.7048     7.3518     5.584      10.6574    0.129     
2961.8     8.2307     2.1021     7.0256     9.7062     8.7042     7.1254     4.6048     10.6885    0.127     
2962       8.2189     2.0451     6.8206     9.5721     8.5286     6.9082     4.5244     10.6623    0.128     
2962.2     8.2176     2.0475     6.8649     9.4602     8.3856     6.6403     4.9282     10.5889    0.131     
2962.4     8.2181     2.0097     6.7153     9.4205     8.2758     6.4329     4.6902     10.539     0.134     
2962.6     8.2258     2.0189     6.7243     9.2746     8.1887     6.2611     4.5417     10.5921    0.134     
2962.8     8.2182     1.9578     6.5649     9.19       8.159      6.1201     4.4927     10.8562    0.133     
2963       8.238      1.9508     6.54       9.0823     8.1895     6.0358     4.5632     11.0947    0.133     
2963.2     8.279      1.9296     6.4732     9.0561     8.1578     6.0266     4.6123     11.3158    0.13      
2963.4     8.3258     1.9392     6.492      9.1055     8.233      6.0785     4.7287     11.6093    0.126     
2963.6     8.3842     1.9643     6.5497     9.2269     8.3743     6.2388     4.6172     11.9743    0.125     
2963.8     8.4803     1.9424     6.468      9.3196     8.5536     6.4952     4.5646     12.389     0.121     
2964       8.5996     1.9239     6.4272     9.4937     8.9251     6.7793     4.8397     12.8949    0.122     
2964.2     8.7114     2.0006     6.6806     9.8092     9.4539     7.0499     5.4264     13.3266    0.124     
