~Version
 VERS              .         2.0                           : CWLS LOG ASCII STANDARD - VERSION 2.0
 WRAP              .         NO                            : ONE LINE PER DEPTH STEP
 DLM               .         SPACE                         : DELIMITING CHARACTER(SPACE TAB OR COMMA)
~Well Information
#_______________________________________________________________________________
#
#PARAMETER_NAME    .UNIT     VALUE                         : DESCRIPTION
#_______________________________________________________________________________
STRT               .m        2906                          : First reference value
STOP               .m        3075                          : Last reference value
STEP               .m        0.2                           : Step increment
NULL               .         -9999                         : Missing value
COMP               .                                       : Company
WELL               .         402                           : Well name
FLD                .                                       : Field
LOC                .                                       : Location
CNTY               .                                       : County
STAT               .                                       : State
CTRY               .                                       : Country
SRVC               .                                       : Service Company
DATE               .                                       : Date
API                .                                       : API number
EREF               .m        140.4                         : 
Pad                .         4                             : 
X                  .m        222100                        : 
Y                  .m        250025                        : 
group              .         Pad4                          : 
Интер-р            .         Ярышев                        : 
Куст               .         4                             : 
Статус             .         Проверено                     : 
Тип                .         Нагнетательные                : 
~Parameter Information Block
#_______________________________________________________________________________
#
#PARAMETER_NAME    .UNIT     VALUE                         : DESCRIPTION
#_______________________________________________________________________________
SET                .         LAS3                          : 
REAL_CREATION_DATE .         Ср апр 11 2012-13_17_13       : 
TLFamily_DEPTH     .         Measured Depth                : 
TLFamily_GR        .         Gamma Ray                     : 
TLFamily_TNPH      .         Neutron Porosity              : 
group              .         INI                           : 
~Curve Information
#_______________________________________________________________________________
#
#LOGNAME           .UNIT     LOG_ID                        : DESCRIPTION
#_______________________________________________________________________________
DEPTH              .m                                      : Measured Depth 
GR                 .gAPI                                   :  
TNPH               .v/v                                    : Neutron Porosity 
~Ascii
2906.0     82.59      0.202     
2906.2     77.18001   0.204     
2906.4     79.34      0.198     
2906.6     84.81      0.199     
2906.8     89.98      0.207     
2907       91.72      0.225     
2907.2     94.6       0.217     
2907.4     85.55      0.206     
2907.6     89.46      0.204     
2907.8     91.99001   0.22      
2908       81.5       0.257     
2908.2     80.08      0.246     
2908.4     80.71999   0.209     
2908.6     78.21999   0.206     
2908.8     82.04001   0.208     
2909       85.06      0.192     
2909.2     87.39      0.202     
2909.4     94.42001   0.216     
2909.6     88.44      0.206     
2909.8     89.53      0.196     
2910       97.42      0.216     
2910.2     89.97      0.208     
2910.4     83.72      0.203     
2910.6     82.52      0.192     
2910.8     83.49      0.193     
2911       80.59      0.21      
2911.2     73.18      0.235     
2911.4     77.59      0.248     
2911.6     78.43001   0.256     
2911.8     75.4       0.217     
2912       71.96      0.208     
2912.2     77.03      0.215     
2912.4     77.28      0.196     
2912.6     73.09      0.189     
2912.8     67.32001   0.195     
2913       69.27      0.2       
2913.2     81.86      0.201     
2913.4     83.2       0.199     
2913.6     88.25      0.188     
2913.8     90.7       0.176     
2914       87.7       0.189     
2914.2     88.04      0.193     
2914.4     82.3       0.203     
2914.6     83.3       0.184     
2914.8     79.56001   0.191     
2915       71.49001   0.196     
2915.2     77.07      0.186     
2915.4     81.72      0.222     
2915.6     85.03      0.216     
2915.8     78.82      0.214     
2916       78.68      0.22      
2916.2     78.47      0.239     
2916.4     82.76      0.232     
2916.6     75.56      0.214     
2916.8     74.97      0.187     
2917       79.13      0.173     
2917.2     75.01      0.194     
2917.4     69.73      0.207     
2917.6     73.09      0.202     
2917.8     72.59      0.221     
2918       73.88      0.212     
2918.2     73.11      0.222     
2918.4     74.1       0.224     
2918.6     66.39      0.218     
2918.8     67.45      0.242     
2919       72.98      0.228     
2919.2     79.62      0.23      
2919.4     72.62      0.252     
2919.6     77.75      0.245     
2919.8     77.95      0.231     
2920       78.31001   0.196     
2920.2     75.37      0.224     
2920.4     86.04      0.241     
2920.6     99.85      0.245     
2920.8     100.95     0.258     
2921       97.39999   0.273     
2921.2     99.1       0.271     
2921.4     97.78      0.275     
2921.6     94.83      0.291     
2921.8     103.87     0.284     
2922       102.15     0.271     
2922.2     86.56999   0.269     
2922.4     91.95      0.251     
2922.6     92.51      0.218     
2922.8     99.17      0.223     
2923       100.6      0.209     
2923.2     96.38      0.197     
2923.4     95.36      0.203     
2923.6     82.64      0.202     
2923.8     81.86      0.199     
2924       95.02      0.204     
2924.2     95.89      0.205     
2924.4     92.61      0.204     
2924.6     89.59      0.243     
2924.8     89.92      0.247     
2925       90.71999   0.247     
2925.2     80.28      0.234     
2925.4     75.2       0.236     
2925.6     79.12      0.216     
2925.8     85.64999   0.237     
2926       84.25      0.229     
2926.2     89.16      0.224     
2926.4     82.64      0.235     
2926.6     81.26      0.246     
2926.8     82.5       0.218     
2927       88.89      0.19      
2927.2     93.21999   0.189     
2927.4     89.18999   0.164     
2927.6     94.09      0.168     
2927.8     77.75      0.158     
2928       68.94      0.162     
2928.2     66.67      0.174     
2928.4     71.35001   0.189     
2928.6     78.31001   0.171     
2928.8     76.14999   0.177     
2929       70.38      0.189     
2929.2     78.45      0.181     
2929.4     91.49001   0.2       
2929.6     94.62      0.183     
2929.8     98.35      0.194     
2930       97.25      0.198     
2930.2     95.73      0.195     
2930.4     86.36      0.195     
2930.6     87.11      0.199     
2930.8     94.1       0.212     
2931       99.05      0.202     
2931.2     86.68      0.198     
2931.4     90.81001   0.188     
2931.6     87.83      0.196     
2931.8     86.62      0.231     
2932       85.5       0.237     
2932.2     84.36      0.219     
2932.4     84.24      0.213     
2932.6     91.86      0.212     
2932.8     88.75      0.212     
2933       91.56999   0.201     
2933.2     95.41      0.222     
2933.4     97.44      0.198     
2933.6     106.49     0.209     
2933.8     91.96      0.209     
2934       93.54      0.237     
2934.2     90.57999   0.225     
2934.4     82.93      0.216     
2934.6     92.65      0.198     
2934.8     97.04001   0.205     
2935       99.88      0.206     
2935.2     100.91     0.202     
2935.4     102.83     0.172     
2935.6     106.29     0.189     
2935.8     93.49      0.178     
2936       99.23      0.166     
2936.2     92.85      0.173     
2936.4     76.58      0.148     
2936.6     71.5       0.145     
2936.8     69.57      0.146     
2937       77.69      0.147     
2937.2     66.04      0.177     
2937.4     68.59      0.142     
2937.6     74.35001   0.13      
2937.8     66.94      0.123     
2938       70.17999   0.128     
2938.2     52.83      0.131     
2938.4     48.84      0.139     
2938.6     47.25      0.16      
2938.8     52.26      0.18      
2939       50.96      0.173     
2939.2     55.18      0.146     
2939.4     60.08      0.177     
2939.6     66.03      0.177     
2939.8     72.77      0.192     
2940       89.58      0.236     
2940.2     87.24      0.262     
2940.4     81.44      0.25      
2940.6     81.24      0.231     
2940.8     86.67      0.213     
2941       85.22      0.177     
2941.2     73.55      0.19      
2941.4     73.29001   0.191     
2941.6     72.71      0.197     
2941.8     69.05      0.182     
2942       68.12      0.182     
2942.2     62.21      0.179     
2942.4     69.03      0.179     
2942.6     62.61      0.161     
2942.8     65.56      0.154     
2943       73.55      0.158     
2943.2     78.16      0.173     
2943.4     74.38      0.175     
2943.6     77.18001   0.168     
2943.8     69.01      0.162     
2944       73.19      0.156     
2944.2     81.65      0.198     
2944.4     77.41      0.208     
2944.6     70.71      0.225     
2944.8     74.95      0.249     
2945       68.17001   0.214     
2945.2     67.92      0.208     
2945.4     68.13      0.205     
2945.6     76.58      0.185     
2945.8     84.01      0.179     
2946       74.97      0.165     
2946.2     60.59      0.161     
2946.4     57.94      0.174     
2946.6     63.05      0.179     
2946.8     62.17      0.189     
2947       60.43999   0.205     
2947.2     59.77      0.2       
2947.4     57.8       0.19      
2947.6     65.98      0.204     
2947.8     64.98      0.207     
2948       70.66      0.165     
2948.2     72.42      0.179     
2948.4     79.65      0.173     
2948.6     79.20999   0.175     
2948.8     75.52      0.162     
2949       69.89      0.135     
2949.2     55.49      0.144     
2949.4     39.16      0.125     
2949.6     29.1       0.115     
2949.8     26.94      0.112     
2950       33.2       0.119     
2950.2     41.74      0.136     
2950.4     46.62      0.161     
2950.6     55.98      0.169     
2950.8     64.52      0.176     
2951       71.44      0.203     
2951.2     72.93      0.219     
2951.4     75.05      0.214     
2951.6     81.82      0.178     
2951.8     84.69      0.183     
2952       70.37      0.19      
2952.2     78.6       0.201     
2952.4     72.16      0.205     
2952.6     72.60001   0.177     
2952.8     75.34      0.182     
2953       79.87      0.183     
2953.2     88.86      0.213     
2953.4     86.64      0.23      
2953.6     91.06      0.219     
2953.8     96.22      0.202     
2954       95.97      0.191     
2954.2     86.89999   0.214     
2954.4     74.65      0.229     
