~Version
 VERS              .         2.0                           : CWLS LOG ASCII STANDARD - VERSION 2.0
 WRAP              .         NO                            : ONE LINE PER DEPTH STEP
 DLM               .         SPACE                         : DELIMITING CHARACTER(SPACE TAB OR COMMA)
~Well Information
#_______________________________________________________________________________
#
#PARAMETER_NAME    .UNIT     VALUE                         : DESCRIPTION
#_______________________________________________________________________________
STRT               .m        2906                          : First reference value
STOP               .m        3075                          : Last reference value
STEP               .m        0.2                           : Step increment
NULL               .         -9999                         : Missing value
COMP               .                                       : Company
WELL               .         402                           : Well name
FLD                .                                       : Field
LOC                .                                       : Location
CNTY               .                                       : County
STAT               .                                       : State
CTRY               .                                       : Country
SRVC               .                                       : Service Company
DATE               .                                       : Date
API                .                                       : API number
EREF               .m        140.4                         : 
Pad                .         4                             : 
X                  .m        222100                        : 
Y                  .m        250025                        : 
group              .         Pad4                          : 
Интер-р            .         Ярышев                        : 
Куст               .         4                             : 
Статус             .         Проверено                     : 
Тип                .         Нагнетательные                : 
~Parameter Information Block
#_______________________________________________________________________________
#
#PARAMETER_NAME    .UNIT     VALUE                         : DESCRIPTION
#_______________________________________________________________________________
SET                .         LAS1                          : 
REAL_CREATION_DATE .         Ср апр 11 2012-13_17_13       : 
TLFamily_DEPTH     .         Measured Depth                : 
TLFamily_KS        .         Potential Resistivity         : 
TLFamily_KS1       .         Extra Shallow Resistivity     : 
TLFamily_KS2       .         Shallow Resistivity           : 
TLFamily_KS3       .         Medium Resistivity            : 
TLFamily_KS4       .         Deep Resistivity              : 
TLFamily_KS5       .         Extra Deep Resistivity        : 
TLFamily_LLD       .         Lateral Log Resistivity       : 
TLFamily_OKS3      .         Medium Resistivity Inverted   : 
TLFamily_RM        .         Mud Resistivity               : 
group              .         INI                           : 
~Curve Information
#_______________________________________________________________________________
#
#LOGNAME           .UNIT     LOG_ID                        : DESCRIPTION
#_______________________________________________________________________________
DEPTH              .m                                      : Measured Depth 
KS                 .ohm.m                                  : Potential Resistivity 
KS1                .ohm.m                                  : Extra Shallow Resistivity 
KS2                .ohm.m                                  : Shallow Resistivity 
KS3                .ohm.m                                  : Medium Resistivity 
KS4                .ohm.m                                  : Deep Resistivity 
KS5                .ohm.m                                  : Extra Deep Resistivity 
LLD                .ohm.m                                  : Lateral Log Resistivity 
OKS3               .ohm.m                                  : Medium Resistivity Inverted 
RM                 .ohm.m                                  : Mud Resistivity 
~Ascii
# ...
2964.4     8.9403     2.0316     6.8107     10.0285    9.7693     7.3455     5.2942     13.4311    0.124     
2964.6     9.1899     1.9847     6.5939     9.9789     9.9027     7.621      5.1807     13.5142    0.127     
2964.8     9.4082     2.0059     6.7069     9.9175     10.0607    7.8266     5.8352     13.5219    0.128     
2965       9.5811     2.0238     6.7741     10.1818    10.4966    7.9798     7.0989     13.5444    0.129     
2965.2     9.6775     2.2366     7.5598     10.5748    10.9024    8.0877     9.121      13.0052    0.129     
2965.4     9.7165     2.3419     7.9303     11.0466    11.1507    8.0912     6.3466     12.407     0.129     
2965.6     9.643      2.3622     8.0155     11.1425    11.0611    8.0027     5.9092     11.9436    0.127     
2965.8     9.4911     2.3438     8.0513     11.1473    10.92      7.7767     5.6619     11.6721    0.129     
2966       9.3584     2.3361     8.2184     11.1858    10.7268    7.5677     5.1081     11.4778    0.132     
2966.2     9.2621     2.2751     8.1487     11.1397    10.4376    7.3708     4.7541     11.5247    0.133     
2966.4     9.1707     2.1995     7.8862     11.1667    10.195     7.2249     5.1989     11.6665    0.133     
2966.6     9.1423     2.1886     7.7803     11.2159    10.0073    7.1187     5.1059     11.793     0.134     
2966.8     9.1361     2.1678     7.7775     11.36      9.8894     7.0738     5.2049     11.9914    0.13      
2967       9.1182     2.1663     7.6203     11.5434    9.8845     7.0679     5.2669     12.3069    0.129     
2967.2     9.137      2.1635     7.5195     11.6651    9.7859     7.0805     5.4247     12.5343    0.128     
2967.4     9.1544     2.1663     7.5225     11.7608    9.718      7.0304     5.5747     12.6493    0.125     
2967.6     9.1844     2.1811     7.5503     11.7313    9.6646     6.9168     5.4535     12.7186    0.123     
2967.8     9.1725     2.1798     7.4645     11.6146    9.6472     6.7914     5.6955     12.7816    0.12      
2968       9.1437     2.2068     7.5654     11.5581    9.7258     6.6254     5.6958     12.8786    0.12      
2968.2     9.08       2.2474     7.6925     11.4721    9.7728     6.4463     5.5316     12.8849    0.123     
2968.4     9.0619     2.2444     7.6426     11.2109    9.7342     6.2807     4.7731     12.9054    0.124     
2968.6     9.0432     2.135      7.3148     10.8541    9.5888     6.1174     4.7782     13.0522    0.127     
2968.8     9.0595     2.1094     7.2631     10.5378    9.4787     5.9797     4.6762     13.4588    0.127     
2969       9.1408     2.0419     7.0399     10.3371    9.4733     5.8956     4.7525     14.2376    0.13      
2969.2     9.2878     2.0108     6.9692     10.1437    9.4691     5.9045     5.3825     14.8804    0.13      
2969.4     9.5163     1.9664     6.8203     10.1081    9.6248     5.9712     5.7343     15.4238    0.128     
2969.6     9.7285     2.0087     6.8348     10.2533    9.8829     6.0844     6.4476     15.8163    0.127     
2969.8     9.9187     2.099      7.0604     10.5449    10.2074    6.2559     6.3577     16.3558    0.129     
2970       10.1079    2.1052     7.1505     10.7245    10.4098    6.4853     6.1259     16.8777    0.132     
2970.2     10.2981    2.0863     7.1894     10.8968    10.6492    6.7097     6.8562     17.5405    0.133     
2970.4     10.4646    2.1425     7.5233     11.2237    11.0428    6.8572     7.6924     18.182     0.134     
2970.6     10.6132    2.2364     7.8689     11.6453    11.4292    6.9736     7.7958     18.5788    0.133     
2970.8     10.7563    2.2813     8.0186     11.8431    11.6009    7.0137     7.2262     18.6472    0.132     
2971       10.8957    2.2968     8.0723     11.7946    11.4832    6.9699     6.6154     18.7657    0.13      
2971.2     10.9939    2.2471     7.9379     11.7307    11.3809    6.8604     6.9542     19.0491    0.127     
2971.4     11.0999    2.2606     8.0185     11.8293    11.371     6.7684     6.858      19.4843    0.122     
2971.6     11.2585    2.2709     8.1397     11.8914    11.3104    6.7285     6.2048     20.0042    0.121     
2971.8     11.4724    2.1759     7.8713     11.8716    11.2313    6.7522     6.4369     20.7439    0.124     
2972       11.6922    2.1283     7.759      11.8953    11.2579    6.8167     7.5644     21.5409    0.127     
2972.2     12.0043    2.1529     7.8728     12.0927    11.3793    6.9283     7.776      22.0794    0.127     
2972.4     12.3757    2.1363     7.8227     12.2996    11.4921    7.0985     8.2835     22.3918    0.13      
2972.6     12.7791    2.1505     7.8505     12.4667    11.601     7.3056     8.7729     22.6173    0.128     
2972.8     13.1555    2.1499     7.9189     12.8333    11.8336    7.5552     10.1502    22.7768    0.129     
2973       13.4793    2.2313     8.219      13.2664    12.2265    7.8167     10.9968    22.8258    0.132     
2973.2     13.7838    2.2648     8.4808     13.8133    12.7506    8.0938     13.0417    22.561     0.137     
2973.4     14.0249    2.3821     8.9091     14.4016    13.3928    8.4        12.3919    22.1167    0.131     
2973.6     14.1748    2.4572     9.2291     15.0548    14.0983    8.6927     11.5218    21.7415    0.127     
2973.8     14.2214    2.5496     9.606      15.6615    14.7187    8.939      10.7071    21.6083    0.122     
2974       14.2268    2.5747     9.8448     16.1422    15.242     9.098      10.2236    21.5346    0.12      
2974.2     14.2533    2.5569     9.9378     16.5365    15.6779    9.1923     10.1885    21.4688    0.122     
2974.4     14.2414    2.5599     10.0241    16.9061    16.0749    9.2255     9.4653     21.5204    0.125     
2974.6     14.2611    2.5435     10.0213    17.2149    16.4963    9.2429     9.2345     21.6822    0.128     
2974.8     14.3165    2.5051     9.8799     17.4175    16.8848    9.2652     10.2216    21.9484    0.132     
2975       14.3776    2.4567     9.7623     17.6067    17.2841    9.3219     10.4975    22.1374    0.129     
2975.2     14.4896    2.4761     9.8613     17.9476    17.7182    9.3709     10.7777    22.2289    0.128     
2975.4     14.5863    2.4896     9.8923     18.2902    18.174     9.4525     10.7084    22.2908    0.13      
2975.6     14.6825    2.5018     9.9036     18.5429    18.5914    9.5804     10.2765    22.2379    0.133     
2975.8     14.778     2.4942     9.8831     18.6188    19.0008    9.7142     11.1141    22.2986    0.135     
2976       14.8706    2.4789     9.859      18.7532    19.4775    9.8591     11.8025    22.3237    0.13      
2976.2     14.9495    2.5165     10.0026    18.9333    20.1121    10.0268    11.4824    22.2763    0.125     
2976.4     15.0276    2.5337     10.0606    19.1375    20.8404    10.1866    12.1302    22.2085    0.122     
2976.6     15.0469    2.5934     10.2551    19.4015    21.6246    10.372     11.6726    22.1364    0.12      
2976.8     15.0653    2.6186     10.3893    19.6731    22.4444    10.5438    11.1027    22.0253    0.12      
2977       15.0731    2.637      10.4506    19.819     22.994     10.7029    11.5002    22.0294    0.122     
2977.2     15.0626    2.6108     10.4355    19.9749    23.5929    10.8681    11.9774    22.1634    0.127     
2977.4     15.0518    2.6496     10.5839    20.1878    24.182     11.035     11.7672    22.1815    0.129     
2977.6     15.0195    2.6512     10.684     20.4482    24.7748    11.2024    12.0355    22.1601    0.13      
2977.8     14.968     2.6819     10.8376    20.6313    25.1179    11.3621    11.5977    22.1121    0.128     
2978       14.9071    2.6757     10.8235    20.753     25.2535    11.4988    11.1921    21.9691    0.127     
2978.2     14.874     2.6603     10.7528    20.7158    25.2272    11.612     11.4807    21.8858    0.13      
2978.4     14.7991    2.6378     10.6964    20.709     25.1548    11.7223    11.248     21.8083    0.134     
2978.6     14.7057    2.6512     10.7054    20.7363    25.1799    11.8142    10.3434    21.8631    0.134     
2978.8     14.6399    2.6504     10.6583    20.6433    25.0218    11.919     9.7067     22.0609    0.132     
