~Version
 VERS              .         2.0                           : CWLS LOG ASCII STANDARD - VERSION 2.0
 WRAP              .         NO                            : ONE LINE PER DEPTH STEP
 DLM               .         SPACE                         : DELIMITING CHARACTER(SPACE TAB OR COMMA)
~Well Information
#_______________________________________________________________________________
#
#PARAMETER_NAME    .UNIT     VALUE                         : DESCRIPTION
#_______________________________________________________________________________
STRT               .m        2906                          : First reference value
STOP               .m        3075                          : Last reference value
STEP               .m        0.2                           : Step increment
NULL               .         -9999                         : Missing value
COMP               .                                       : Company
WELL               .         402                           : Well name
FLD                .                                       : Field
LOC                .                                       : Location
CNTY               .                                       : County
STAT               .                                       : State
CTRY               .                                       : Country
SRVC               .                                       : Service Company
DATE               .                                       : Date
API                .                                       : API number
EREF               .m        140.4                         : 
Pad                .         4                             : 
X                  .m        222100                        : 
Y                  .m        250025                        : 
group              .         Pad4                          : 
Интер-р            .         Ярышев                        : 
Куст               .         4                             : 
Статус             .         Проверено                     : 
Тип                .         Нагнетательные                : 
~Parameter Information Block
#_______________________________________________________________________________
#
#PARAMETER_NAME    .UNIT     VALUE                         : DESCRIPTION
#_______________________________________________________________________________
SET                .         LAS1                          : 
REAL_CREATION_DATE .         Ср апр 11 2012-13_17_13       : 
TLFamily_DEPTH     .         Measured Depth                : 
TLFamily_KS        .         Potential Resistivity         : 
TLFamily_KS1       .         Extra Shallow Resistivity     : 
TLFamily_KS2       .         Shallow Resistivity           : 
TLFamily_KS3       .         Medium Resistivity            : 
TLFamily_KS4       .         Deep Resistivity              : 
TLFamily_KS5       .         Extra Deep Resistivity        : 
TLFamily_LLD       .         Lateral Log Resistivity       : 
TLFamily_OKS3      .         Medium Resistivity Inverted   : 
TLFamily_RM        .         Mud Resistivity               : 
group              .         INI                           : 
~Curve Information
#_______________________________________________________________________________
#
#LOGNAME           .UNIT     LOG_ID                        : DESCRIPTION
#_______________________________________________________________________________
DEPTH              .m                                      : Measured Depth 
KS                 .ohm.m                                  : Potential Resistivity 
KS1                .ohm.m                                  : Extra Shallow Resistivity 
KS2                .ohm.m                                  : Shallow Resistivity 
KS3                .ohm.m                                  : Medium Resistivity 
KS4                .ohm.m                                  : Deep Resistivity 
KS5                .ohm.m                                  : Extra Deep Resistivity 
LLD                .ohm.m                                  : Lateral Log Resistivity 
OKS3               .ohm.m                                  : Medium Resistivity Inverted 
RM                 .ohm.m                                  : Mud Resistivity 
~Ascii
# ...
2920.6     8.4969     2.2828     7.7957     12.0508    10.5534    6.0805     5.2408     9.1584     0.135     
2920.8     8.3006     2.2593     7.7913     12.0335    10.5864    5.9855     5.0922     9.0997     0.137     
2921       8.0844     2.2741     7.9153     11.8375    10.6318    5.8731     4.9618     9.1328     0.136     
2921.2     7.9123     2.2107     7.6795     11.498     10.6318    5.765      4.3675     9.2924     0.133     
2921.4     7.7424     2.1601     7.4614     11.0756    10.5764    5.6668     4.338      9.5279     0.13      
2921.6     7.6547     2.098      7.2045     10.7405    10.4679    5.5606     4.1486     9.8897     0.128     
2921.8     7.5497     2.0451     6.9815     10.5119    10.2711    5.4501     4.1924     10.3117    0.125     
2922       7.5235     2.063      6.9073     10.2972    10.0028    5.3457     4.2696     10.6041    0.122     
2922.2     7.5504     1.9847     6.5724     9.9847     9.6017     5.2355     4.1083     10.8619    0.121     
2922.4     7.5992     1.9467     6.3795     9.5833     9.2157     5.1153     4.1499     11.1831    0.124     
2922.6     7.6665     1.9494     6.2873     9.2725     8.9953     4.997      4.4332     11.5056    0.124     
2922.8     7.7524     1.9432     6.248      9.0723     8.8783     4.9129     4.6113     11.7716    0.127     
2923       7.8743     1.9653     6.2742     8.8224     8.6165     4.8528     4.5608     12.0464    0.13      
2923.2     8.0371     1.9255     6.1416     8.5471     8.3177     4.8131     4.4573     12.3253    0.133     
2923.4     8.1958     1.8969     6.0883     8.3093     8.0758     4.7801     4.6071     12.6493    0.133     
2923.6     8.3734     1.9104     6.1336     8.1917     7.9578     4.7745     5.0326     12.8664    0.13      
2923.8     8.5772     1.9258     6.2036     8.1766     7.8973     4.8029     5.4298     12.9883    0.13      
2924       8.7658     1.9598     6.3289     8.2636     7.9127     4.8487     5.6487     13.0679    0.13      
2924.2     8.9259     2.0047     6.4534     8.4048     7.9593     4.9293     5.657      13.1726    0.13      
2924.4     9.0883     1.9811     6.4663     8.5373     7.9931     5.0342     5.6103     13.3155    0.134     
2924.6     9.2319     2.0316     6.6707     8.7285     8.0616     5.161      5.9619     13.5347    0.135     
2924.8     9.3738     2.0316     6.7824     8.9606     8.1549     5.3223     5.9541     13.7723    0.137     
2925       9.5152     2.0263     6.8123     9.208      8.2934     5.4945     6.0166     14.1458    0.137     
2925.2     9.6558     2.0543     7.0525     9.5048     8.4612     5.6794     6.7344     14.3124    0.136     
2925.4     9.7624     2.0855     7.145      9.9174     8.6806     5.8719     7.0391     14.4225    0.134     
2925.6     9.8447     2.1674     7.4209     10.2034    8.7796     6.0765     6.8326     14.549     0.13      
2925.8     9.8911     2.1638     7.4604     10.4459    8.8611     6.2503     6.1576     14.9613    0.13      
2926       9.9207     2.1139     7.3669     10.554     8.8935     6.3869     6.1321     15.3481    0.128     
2926.2     9.9688     2.1394     7.4606     10.7306    9.0545     6.4904     6.5996     15.634     0.124     
2926.4     10.0022    2.1635     7.5902     10.9382    9.2448     6.6178     6.5375     15.9313    0.123     
2926.6     10.0585    2.1771     7.5833     11.0318    9.373      6.7463     6.291      16.1753    0.124     
2926.8     10.1324    2.1302     7.4242     11.0267    9.4583     6.9226     6.0229     16.3923    0.126     
2927       10.2719    2.0627     7.2344     10.9218    9.5353     7.1613     5.8445     16.5239    0.13      
2927.2     10.4428    2.0218     7.1153     10.9022    9.7075     7.438      5.8675     16.9014    0.13      
2927.4     10.6692    2.0182     7.1811     10.9825    9.9994     7.7799     6.272      17.2758    0.134     
2927.6     11.0211    1.9912     7.1354     11.0089    10.2473    8.1913     6.4705     17.5       0.134     
2927.8     11.4511    1.8969     6.8291     11.0299    10.667     8.5926     6.9784     17.6716    0.13      
2928       11.7997    1.9823     7.0854     11.4916    11.3419    9.0304     11.2759    17.2773    0.13      
2928.2     12.1009    2.2089     7.8201     12.3278    12.2583    9.5737     15.083     16.4753    0.13      
2928.4     12.3309    2.3483     8.2432     12.9789    13.1008    10.2375    10.4275    15.9552    0.132     
2928.6     12.3615    2.3098     8.2965     13.548     13.982     11.0743    8.4086     15.9581    0.136     
2928.8     12.2691    2.4538     9.0394     14.4214    15.2845    11.7798    11.7353    16.1296    0.137     
2929       12.0441    2.5713     9.8631     15.8442    16.8264    12.2088    13.3922    15.6776    0.14      
2929.2     11.7923    2.8222     10.8044    16.8594    17.7948    12.2922    15.5106    14.9101    0.141     
2929.4     11.5537    2.6996     10.3643    16.9477    17.5511    12.0298    7.7033     13.9059    0.138     
2929.6     11.2327    2.6091     10.0483    16.5289    16.7921    11.3319    6.6896     13.4576    0.134     
2929.8     10.995     2.4768     9.6582     16.2106    16.1128    10.5483    6.0935     13.3227    0.132     
2930       10.8325    2.3891     9.325      15.8872    15.465     9.8584     6.0073     13.3918    0.131     
2930.2     10.7252    2.328      9.0483     15.6501    14.9342    9.2798     6.5892     13.304     0.127     
2930.4     10.6763    2.2548     8.5935     15.4056    14.6234    8.8357     6.5507     13.1168    0.125     
2930.6     10.5812    2.2932     8.5648     15.2212    14.5052    8.4737     6.8876     13.0193    0.122     
2930.8     10.4534    2.3375     8.6028     15.2271    14.5639    8.1909     7.1215     12.9268    0.122     
2931       10.3567    2.3434     8.513      15.1553    14.4936    7.9752     6.6004     12.8384    0.122     
2931.2     10.2768    2.3266     8.3858     14.8641    14.2788    7.7645     6.1647     12.8917    0.122     
2931.4     10.1947    2.2763     8.287      14.6176    14.1705    7.5454     6.2325     13.0081    0.123     
2931.6     10.1501    2.2676     8.1844     14.2434    14.1769    7.3383     6.3551     13.0055    0.124     
2931.8     10.1501    2.26       8.1603     13.8508    14.1621    7.1701     6.5448     12.8523    0.13      
2932       10.1494    2.2395     8.0327     13.5459    14.1932    7.0331     6.4953     12.6372    0.132     
2932.2     10.1313    2.2229     7.97       13.3328    14.3154    6.9338     6.6597     12.5078    0.135     
2932.4     10.1241    2.2517     8.0408     13.2563    14.4492    6.8648     6.6461     12.4064    0.132     
2932.6     10.058     2.2471     8.0341     13.2385    14.524     6.8384     6.6616     12.3427    0.129     
2932.8     10.0178    2.2967     8.1776     13.2257    14.5862    6.8264     7.01       12.1972    0.13      
2933       9.9411     2.293      8.2185     13.277     14.7429    6.8167     6.686      12.0984    0.13      
2933.2     9.876      2.3022     8.2453     13.1668    14.703     6.8121     6.3296     12.1058    0.13      
2933.4     9.8493     2.2349     8.0035     12.8865    14.5479    6.8502     5.6267     12.3302    0.133     
2933.6     9.8051     2.1511     7.7766     12.7644    14.4486    6.8894     5.6936     12.6305    0.135     
2933.8     9.7554     2.2376     8.1653     12.8916    14.5068    6.9478     7.317      12.5554    0.137     
2934       9.7373     2.2659     8.1372     13.1705    14.5763    7.0067     7.1619     12.2721    0.135     
2934.2     9.6872     2.2921     8.0657     13.0718    14.309     7.0443     6.3318     12.0521    0.132     
2934.4     9.5916     2.2713     7.9577     12.8724    14.0075    7.0258     5.9108     12.1718    0.128     
2934.6     9.5129     2.2471     7.91       12.6937    13.7604    6.9988     5.9116     12.4113    0.124     
2934.8     9.4394     2.2337     7.8899     12.5404    13.4887    6.9938     5.953      12.7333    0.122     
2935       9.4265     2.2221     7.8205     12.3357    13.2334    6.9933     5.7587     13.1105    0.123     
