~Version
 VERS              .         2.0                           : CWLS LOG ASCII STANDARD - VERSION 2.0
 WRAP              .         NO                            : ONE LINE PER DEPTH STEP
 DLM               .         SPACE                         : DELIMITING CHARACTER(SPACE TAB OR COMMA)
~Well Information
#_______________________________________________________________________________
#
#PARAMETER_NAME    .UNIT     VALUE                         : DESCRIPTION
#_______________________________________________________________________________
STRT               .m        2906                          : First reference value
STOP               .m        3075                          : Last reference value
STEP               .m        0.2                           : Step increment
NULL               .         -9999                         : Missing value
COMP               .                                       : Company
WELL               .         402                           : Well name
FLD                .                                       : Field
LOC                .                                       : Location
CNTY               .                                       : County
STAT               .                                       : State
CTRY               .                                       : Country
SRVC               .                                       : Service Company
DATE               .                                       : Date
API                .                                       : API number
EREF               .m        140.4                         : 
Pad                .         4                             : 
X                  .m        222100                        : 
Y                  .m        250025                        : 
group              .         Pad4                          : 
Интер-р            .         Ярышев                        : 
Куст               .         4                             : 
Статус             .         Проверено                     : 
Тип                .         Нагнетательные                : 
~Parameter Information Block
#_______________________________________________________________________________
#
#PARAMETER_NAME    .UNIT     VALUE                         : DESCRIPTION
#_______________________________________________________________________________
SET                .         LAS1                          : 
REAL_CREATION_DATE .         Ср апр 11 2012-13_17_13       : 
TLFamily_DEPTH     .         Measured Depth                : 
TLFamily_KS        .         Potential Resistivity         : 
TLFamily_KS1       .         Extra Shallow Resistivity     : 
TLFamily_KS2       .         Shallow Resistivity           : 
TLFamily_KS3       .         Medium Resistivity            : 
TLFamily_KS4       .         Deep Resistivity              : 
TLFamily_KS5       .         Extra Deep Resistivity        : 
TLFamily_LLD       .         Lateral Log Resistivity       : 
TLFamily_OKS3      .         Medium Resistivity Inverted   : 
TLFamily_RM        .         Mud Resistivity               : 
group              .         INI                           : 
~Curve Information
#_______________________________________________________________________________
#
#LOGNAME           .UNIT     LOG_ID                        : DESCRIPTION
#_______________________________________________________________________________
DEPTH              .m                                      : Measured Depth 
KS                 .ohm.m                                  : Potential Resistivity 
KS1                .ohm.m                                  : Extra Shallow Resistivity 
KS2                .ohm.m                                  : Shallow Resistivity 
KS3                .ohm.m                                  : Medium Resistivity 
KS4                .ohm.m                                  : Deep Resistivity 
KS5                .ohm.m                                  : Extra Deep Resistivity 
LLD                .ohm.m                                  : Lateral Log Resistivity 
OKS3               .ohm.m                                  : Medium Resistivity Inverted 
RM                 .ohm.m                                  : Mud Resistivity 
~Ascii
# ...
2993.6     18.4211    2.4913     9.9941     20.0586    29.3145    30.4031    15.3964    27.8949    0.128     
2993.8     18.7322    2.5493     10.3143    20.0781    29.1936    30.9229    14.8616    27.2601    0.127     
2994       19.0505    2.4921     10.2517    20.1626    29.2534    31.5455    18.1101    26.8368    0.13      
2994.2     19.3568    2.5208     10.4536    20.4898    29.775     32.3011    19.3213    26.2225    0.134     
2994.4     19.6001    2.6242     10.89      21.4099    30.9144    33.1883    22.3717    25.4547    0.13      
2994.6     19.7084    2.7613     11.3203    22.6091    32.2827    34.3103    22.4956    24.4669    0.122     
2994.8     19.7205    2.8667     11.7803    23.8048    33.6933    35.4852    22.8973    23.3697    0.121     
2995       19.6428    2.9345     12.2562    25.1096    35.2756    36.581     33.3273    22.2919    0.126     
2995.2     19.4129    3.0528     13.312     26.7191    37.2055    37.3029    31.168     20.9755    0.128     
2995.4     19.0461    3.2283     13.9918    28.2659    38.5361    37.612     17.2347    19.5496    0.127     
2995.6     18.6054    3.2304     14.0357    29.2654    38.9423    37.3751    14.6317    18.122     0.133     
2995.8     18.0389    3.2185     13.9851    29.5793    38.5494    36.6219    11.8308    16.8253    0.134     
2996       17.4617    3.1694     13.8657    29.4611    37.9431    35.5742    11.7511    15.7314    0.132     
2996.2     16.872     3.0702     13.4891    29.3522    37.6133    34.4078    13.0754    14.8819    0.128     
2996.4     16.2736    3.0948     13.6218    29.3908    37.5701    33.168     9.8759     13.9367    0.123     
2996.6     15.8055    3.0124     13.1823    29.0922    37.5992    31.9059    10.4237    13.1794    0.121     
2996.8     15.3163    2.961      12.8902    28.4951    37.0232    30.6148    9.3225     12.5455    0.127     
2997       14.8918    2.8879     12.4781    28.0816    36.7373    29.1992    9.3522     12.0499    0.128     
2997.2     14.4812    2.8176     12.0832    27.571     36.5305    28.0296    9.0426     11.5794    0.129     
2997.4     14.1308    2.8101     11.9078    26.7487    36.1288    27.3043    8.9924     11.1419    0.133     
2997.6     13.7066    2.6352     11.1194    26.5041    36.536     26.9529    21.8677    10.9591    0.128     
2997.8     13.0555    2.9372     12.0522    27.3093    38.3359    26.4013    37.2209    10.3937    0.121     
2998       12.419     3.3083     13.2723    28.5586    40.8029    25.7189    11.7469    9.3342     0.12      
2998.2     11.7534    3.2393     12.9332    28.0231    39.9676    24.8251    6.2857     8.3686     0.123     
2998.4     10.954     3.0912     12.2513    25.9273    36.2629    23.1898    5.3284     7.8972     0.129     
2998.6     10.2383    2.8458     11.4652    23.7775    32.8418    21.0826    4.669      7.7067     0.125     
2998.8     9.7248     2.5886     10.6135    21.4564    30.1457    19.1905    4.1047     7.6038     0.129     
2999       9.26       2.345      9.6009     19.5367    28.2555    17.6431    4.0887     7.81       0.134     
2999.2     8.9106     2.2862     9.0836     18.085     26.9542    16.3827    4.2274     8.2194     0.13      
2999.4     8.6545     2.1798     8.4601     17.0392    25.4038    15.4328    4.6296     8.4882     0.122     
2999.6     8.5206     2.1394     8.055      16.1038    23.9516    14.6525    4.2324     8.6091     0.122     
2999.8     8.4815     2.0795     7.5775     15.0746    22.2772    14.0344    4.1265     8.7525     0.126     
3000       8.4241     2.0097     7.1436     14.2987    20.7871    13.5083    4.6337     8.9054     0.126     
3000.2     8.4053     2.0316     7.0617     13.7231    19.8587    13.0524    4.7277     9.0781     0.129     
3000.4     8.3827     2.0303     6.9889     13.1087    19.087     12.7565    5.6621     9.0427     0.13      
3000.6     8.3011     2.1265     7.1642     12.6116    18.5454    12.4133    5.6656     8.8925     0.126     
3000.8     8.1616     2.2421     7.4093     12.1681    17.7977    12.0205    4.9037     8.5345     0.119     
3001       8.0036     2.2653     7.35       11.5247    16.6359    11.5756    3.8118     8.4134     0.118     
3001.2     7.838      2.1315     7.026      10.6253    15.1016    11.0903    3.7325     8.4452     0.122     
3001.4     7.6837     2.0374     6.8321     9.898      13.8065    10.6457    3.7326     8.7858     0.127     
3001.6     7.6278     1.954      6.6709     9.3999     12.7545    10.345     3.6938     9.2481     0.127     
3001.8     7.5827     1.8844     6.3584     9.1556     12.0921    10.1174    4.443      9.8227     0.132     
3002       7.5882     1.9523     6.4514     8.9608     11.5744    9.9488     4.0837     10.2078    0.124     
3002.2     7.6191     1.9016     6.1656     8.9175     11.1404    9.8186     4.3123     10.411     0.119     
3002.4     7.656      1.9713     6.2352     8.7215     10.4423    9.7048     4.0275     10.3403    0.123     
3002.6     7.6929     1.8571     5.9584     8.6685     9.8983     9.6352     4.5982     10.3847    0.127     
3002.8     7.7255     1.938      6.143      8.4944     9.308      9.7351     4.3474     10.2764    0.124     
3003       7.8088     1.8801     5.9456     8.3016     8.8455     10.0542    3.9773     10.2798    0.13      
3003.2     7.8333     1.8442     5.8289     8.015      8.5491     10.5444    4.0801     10.6159    0.126     
3003.4     7.9235     1.8615     5.8845     7.885      8.6418     11.2646    3.6229     11.2205    0.119     
3003.6     8.1305     1.7244     5.5687     7.8621     9.1022     12.6403    3.9656     12.2892    0.117     
3003.8     8.3741     1.6645     5.6014     8.1155     9.9565     14.5221    5.1951     13.3442    0.119     
3004       8.74       1.7152     5.8818     8.7713     11.2813    16.5334    6.3542     14.245     0.124     
3004.2     9.0588     1.7323     6.1489     9.9071     12.8779    17.9682    20.9062    14.2683    0.126     
3004.4     9.1432     2.1633     7.3453     11.2351    14.1897    18.5613    16.2439    13.269     0.13      
3004.6     9.2967     2.5004     8.12       11.815     13.9972    18.3243    5.088      11.6488    0.123     
3004.8     9.215      2.3623     7.6329     11.4889    12.9464    17.1588    5.276      10.2897    0.117     
3005       9.0417     2.3504     7.835      10.9711    11.881     15.4836    4.6069     9.5065     0.122     
3005.2     8.9159     2.2312     7.7677     10.5771    10.9533    13.8998    4.5654     8.9526     0.126     
3005.4     8.8051     2.1624     7.815      10.2053    10.1738    12.6177    4.6673     8.6052     0.127     
3005.6     8.7171     2.1163     7.6987     10.0313    9.5948     11.5773    4.7285     8.3613     0.125     
3005.8     8.6517     2.0956     7.4999     10.063     9.255      10.8327    5.3257     8.1579     0.128     
3006       8.5378     2.1532     7.5729     10.3915    9.1344     10.298     5.5127     7.9156     0.125     
3006.2     8.3496     2.1869     7.6579     11.2063    9.3451     9.8349     6.6657     7.7274     0.117     
3006.4     8.0452     2.3579     8.2202     12.0766    9.5113     9.3739     5.7018     7.3338     0.124     
3006.6     7.734      2.4035     8.3036     12.7022    9.4424     8.8078     4.1646     6.9398     0.127     
3006.8     7.3585     2.3554     8.1117     12.5519    9.0785     8.1149     3.6161     6.6215     0.126     
3007       7.0058     2.262      7.846      11.9112    8.6368     7.3602     3.1545     6.5916     0.13      
3007.2     6.7186     2.0872     7.2744     11.2047    8.1569     6.6447     3.2165     6.6622     0.122     
3007.4     6.4817     2.01       7.0075     10.4943    7.7276     6.0198     3.146      6.7948     0.117     
3007.6     6.3671     1.9176     6.594      9.8891     7.4158     5.5082     3.1891     6.9072     0.12      
3007.8     6.2564     1.8256     6.1645     9.4204     7.23       5.1042     3.5296     6.9419     0.126     
3008       6.175      1.8816     6.105      9.0224     7.1778     4.77       3.1613     6.9181     0.128     
