~Version
 VERS              .         2.0                           : CWLS LOG ASCII STANDARD - VERSION 2.0
 WRAP              .         NO                            : ONE LINE PER DEPTH STEP
 DLM               .         SPACE                         : DELIMITING CHARACTER(SPACE TAB OR COMMA)
~Well Information
#_______________________________________________________________________________
#
#PARAMETER_NAME    .UNIT     VALUE                         : DESCRIPTION
#_______________________________________________________________________________
STRT               .m        2906                          : First reference value
STOP               .m        3075                          : Last reference value
STEP               .m        0.2                           : Step increment
NULL               .         -9999                         : Missing value
COMP               .                                       : Company
WELL               .         402                           : Well name
FLD                .                                       : Field
LOC                .                                       : Location
CNTY               .                                       : County
STAT               .                                       : State
CTRY               .                                       : Country
SRVC               .                                       : Service Company
DATE               .                                       : Date
API                .                                       : API number
EREF               .m        140.4                         : 
Pad                .         4                             : 
X                  .m        222100                        : 
Y                  .m        250025                        : 
group              .         Pad4                          : 
Интер-р            .         Ярышев                        : 
Куст               .         4                             : 
Статус             .         Проверено                     : 
Тип                .         Нагнетательные                : 
~Parameter Information Block
#_______________________________________________________________________________
#
#PARAMETER_NAME    .UNIT     VALUE                         : DESCRIPTION
#_______________________________________________________________________________
SET                .         LAS1                          : 
REAL_CREATION_DATE .         Ср апр 11 2012-13_17_13       : 
TLFamily_DEPTH     .         Measured Depth                : 
TLFamily_KS        .         Potential Resistivity         : 
TLFamily_KS1       .         Extra Shallow Resistivity     : 
TLFamily_KS2       .         Shallow Resistivity           : 
TLFamily_KS3       .         Medium Resistivity            : 
TLFamily_KS4       .         Deep Resistivity              : 
TLFamily_KS5       .         Extra Deep Resistivity        : 
TLFamily_LLD       .         Lateral Log Resistivity       : 
TLFamily_OKS3      .         Medium Resistivity Inverted   : 
TLFamily_RM        .         Mud Resistivity               : 
group              .         INI                           : 
~Curve Information
#_______________________________________________________________________________
#
#LOGNAME           .UNIT     LOG_ID                        : DESCRIPTION
#_______________________________________________________________________________
DEPTH              .m                                      : Measured Depth 
KS                 .ohm.m                                  : Potential Resistivity 
KS1                .ohm.m                                  : Extra Shallow Resistivity 
KS2                .ohm.m                                  : Shallow Resistivity 
KS3                .ohm.m                                  : Medium Resistivity 
KS4                .ohm.m                                  : Deep Resistivity 
KS5                .ohm.m                                  : Extra Deep Resistivity 
LLD                .ohm.m                                  : Lateral Log Resistivity 
OKS3               .ohm.m                                  : Medium Resistivity Inverted 
RM                 .ohm.m                                  : Mud Resistivity 
~Ascii
# ...
2979       14.6       2.5973     10.496     20.3044    24.6384    12.0678    9.044      22.4771    0.129     
2979.2     14.6282    2.5142     10.1707    19.8991    24.2744    12.2268    11.011     23.2456    0.122     
2979.4     14.6587    2.4532     9.9262     19.765     24.2623    12.3621    12.7399    23.9139    0.12      
2979.6     14.7064    2.5435     10.2094    19.9492    24.6069    12.4691    12.5211    24.2817    0.124     
2979.8     14.7806    2.5435     10.2382    20.1151    24.7511    12.6097    11.9602    24.1235    0.127     
2980       14.8234    2.5659     10.231     20.06      24.6967    12.665     11.2828    23.8458    0.129     
2980.2     14.8881    2.5589     10.2026    19.7863    24.399     12.6656    10.5622    23.6081    0.129     
2980.4     14.9384    2.5031     9.9689     19.4199    24.0222    12.6907    10.5464    23.7102    0.129     
2980.6     15.0065    2.4761     9.866      19.0207    23.6205    12.7944    10.6325    24.0856    0.135     
2980.8     15.095     2.4416     9.7796     18.7663    23.4877    12.9623    11.7415    24.8149    0.131     
2981       15.2323    2.4367     9.7443     18.6329    23.4644    13.242     11.2829    25.3818    0.126     
2981.2     15.429     2.4142     9.6376     18.5576    23.5773    13.623     12.5811    26.0628    0.121     
2981.4     15.6375    2.3994     9.571      18.622     23.8202    14.1026    13.6846    26.6792    0.12      
2981.6     15.8558    2.4422     9.7455     19.0095    24.4403    14.697     15.0359    27.3072    0.124     
2981.8     16.0596    2.4572     9.883      19.59      25.2386    15.3463    15.8356    27.6432    0.128     
2982       16.2369    2.5254     10.1725    20.2307    26.1407    15.833     15.5989    27.7362    0.13      
2982.2     16.3979    2.5886     10.5181    20.734     26.7405    16.164     13.8094    27.4777    0.128     
2982.4     16.5526    2.561      10.4686    20.8339    26.8232    16.3355    13.7902    27.0632    0.128     
2982.6     16.7135    2.5569     10.4801    20.6421    26.535     16.3083    13.713     26.638     0.133     
2982.8     16.8575    2.5549     10.4885    20.5081    26.3665    16.1545    12.842     26.3581    0.133     
2983       17.0329    2.5209     10.3672    20.3159    26.016     16.0541    12.6982    26.3064    0.13      
2983.2     17.2645    2.4843     10.167     20.117     25.7331    16.0009    15.8863    26.5365    0.126     
2983.4     17.4638    2.4627     10.1415    20.1531    25.702     16.0685    17.3247    26.547     0.121     
2983.6     17.6702    2.5163     10.348     20.535     26.1633    16.2173    16.9235    26.2745    0.12      
2983.8     17.8072    2.5688     10.524     21.0637    26.8186    16.4749    17.4691    25.9236    0.126     
2984       17.9014    2.6163     10.7201    21.5428    27.4101    16.7649    17.4066    25.5974    0.127     
2984.2     17.955     2.6512     10.9289    22.0332    28.0111    17.0715    16.925     25.285     0.131     
2984.4     17.9698    2.6777     11.1524    22.5131    28.5633    17.3866    15.6369    24.9852    0.127     
2984.6     17.9345    2.7051     11.3158    22.8612    28.9918    17.7094    13.81      24.895     0.129     
2984.8     17.9174    2.7051     11.3461    23.0237    29.2865    18.0216    13.6061    25.141     0.133     
2985       17.9306    2.6605     11.2078    22.9941    29.4057    18.3454    14.5458    25.6228    0.132     
2985.2     17.9805    2.6018     11.0088    22.9857    29.7203    18.6875    15.8923    25.9889    0.127     
2985.4     18.0445    2.6346     11.0462    23.1636    30.2744    19.0426    15.8799    26.0428    0.121     
2985.6     18.1155    2.6486     11.0837    23.4757    30.9472    19.4734    16.3114    25.9907    0.121     
2985.8     18.1632    2.6512     11.0595    23.6999    31.6229    19.9257    16.7728    25.7566    0.125     
2986       18.1814    2.675      11.1658    23.9065    32.3227    20.4091    15.4768    25.4038    0.128     
2986.2     18.1989    2.6864     11.2634    24.0843    33.0921    20.932     14.999     25.1431    0.13      
2986.4     18.1973    2.6782     11.2939    24.1682    33.6795    21.4828    14.8661    25.0262    0.127     
2986.6     18.1996    2.6782     11.3317    24.161     34.2433    22.0524    13.7314    24.9742    0.129     
2986.8     18.2244    2.6616     11.2927    24.0484    34.5725    22.6416    13.2538    24.9122    0.13      
2987       18.3269    2.6073     11.1061    23.7413    34.6625    23.32      16.2643    24.919     0.132     
2987.2     18.4349    2.5478     10.8875    23.7342    35.096     24.0552    21.7489    24.6538    0.128     
2987.4     18.4893    2.6356     11.1636    24.3432    36.2224    24.884     22.6624    24.0575    0.125     
2987.6     18.5184    2.7655     11.6224    25.2121    37.6274    25.8137    20.5269    23.1935    0.12      
2987.8     18.4441    2.8491     11.8758    25.9806    38.7643    26.7047    19.4673    22.3764    0.122     
2988       18.251     2.9305     12.2623    26.5233    39.5502    27.4764    14.8839    21.7058    0.126     
2988.2     18.0817    2.9875     12.5455    26.6851    39.7162    28.1162    13.19      21.3266    0.129     
2988.4     17.86      2.8999     12.3452    26.5162    39.4975    28.6856    14.8403    21.3396    0.128     
2988.6     17.6333    2.8533     12.3398    26.4131    39.4183    29.16      18.237     21.3704    0.13      
2988.8     17.3728    2.8986     12.4876    26.7744    39.9244    29.5997    18.7453    21.0282    0.134     
2989       17.0741    3.0072     12.8128    27.3776    40.5982    29.9099    16.6324    20.3591    0.128     
2989.2     16.6898    3.0744     12.958     27.9002    40.899     29.9515    12.1914    19.5993    0.122     
2989.4     16.3243    3.0985     12.9558    27.6545    40.0341    29.6817    9.1236     18.9743    0.12      
2989.6     16.0301    2.9127     12.1896    26.6455    38.0465    29.1997    8.1709     18.8722    0.126     
2989.8     15.8365    2.7231     11.4869    25.105     35.9609    28.5895    8.7863     19.5734    0.127     
2990       15.7509    2.5471     10.8411    23.8008    34.3356    28.2313    10.305     20.7409    0.13      
2990.2     15.7818    2.4761     10.5427    23.0465    33.6171    28.2178    12.1221    21.7607    0.128     
2990.4     15.8788    2.4625     10.4152    22.7386    33.5107    28.5404    14.0417    22.1997    0.129     
2990.6     15.9575    2.5132     10.4129    22.7242    33.6932    29.0501    13.9051    22.4389    0.132     
2990.8     16.0225    2.5973     10.4972    22.8358    33.8962    29.5242    14.3442    22.5482    0.132     
2991       15.9973    2.6554     10.583     22.9557    34.0678    29.8738    13.3974    22.5633    0.128     
2991.2     15.9113    2.7186     10.8218    23.0213    34.2363    29.9344    13.3463    22.6303    0.122     
2991.4     15.7552    2.7616     11.0082    22.9663    34.2416    29.7285    10.4569    22.6254    0.121     
2991.6     15.6811    2.7838     11.1436    22.3375    33.5584    29.259     8.6978     22.9351    0.126     
2991.8     15.6485    2.6146     10.6158    21.2032    31.9992    28.7759    8.1593     24.0944    0.129     
2992       15.7072    2.468      10.035     19.9789    30.3962    28.339     9.267      26.0253    0.128     
2992.2     15.8709    2.3171     9.591      19.1557    29.3072    28.0488    11.6893    27.4855    0.128     
2992.4     16.0883    2.3134     9.5537     19.0834    29.0505    27.9386    10.8244    28.3076    0.133     
2992.6     16.5059    2.3789     9.6278     19.0264    28.6764    28.1987    10.4425    28.9272    0.128     
2992.8     16.9269    2.2492     9.0618     18.7904    28.1858    28.5935    15.6431    29.7653    0.122     
2993       17.3141    2.2944     9.0719     18.8071    28.2205    28.939     17.8771    30.2351    0.12      
2993.2     17.7229    2.377      9.4243     19.3503    28.8142    29.3573    18.1224    29.7919    0.123     
2993.4     18.1047    2.4707     9.8765     19.7312    29.1148    29.9272    15.9046    28.7288    0.127     
