~Version
 VERS              .         2.0                           : CWLS LOG ASCII STANDARD - VERSION 2.0
 WRAP              .         NO                            : ONE LINE PER DEPTH STEP
 DLM               .         SPACE                         : DELIMITING CHARACTER(SPACE TAB OR COMMA)
~Well Information
#_______________________________________________________________________________
#
#PARAMETER_NAME    .UNIT     VALUE                         : DESCRIPTION
#_______________________________________________________________________________
STRT               .m        2906                          : First reference value
STOP               .m        3075                          : Last reference value
STEP               .m        0.2                           : Step increment
NULL               .         -9999                         : Missing value
COMP               .                                       : Company
WELL               .         402                           : Well name
FLD                .                                       : Field
LOC                .                                       : Location
CNTY               .                                       : County
STAT               .                                       : State
CTRY               .                                       : Country
SRVC               .                                       : Service Company
DATE               .                                       : Date
API                .                                       : API number
EREF               .m        140.4                         : 
Pad                .         4                             : 
X                  .m        222100                        : 
Y                  .m        250025                        : 
group              .         Pad4                          : 
Интер-р            .         Ярышев                        : 
Куст               .         4                             : 
Статус             .         Проверено                     : 
Тип                .         Нагнетательные                : 
~Parameter Information Block
#_______________________________________________________________________________
#
#PARAMETER_NAME    .UNIT     VALUE                         : DESCRIPTION
#_______________________________________________________________________________
SET                .         LAS1                          : 
REAL_CREATION_DATE .         Ср апр 11 2012-13_17_13       : 
TLFamily_DEPTH     .         Measured Depth                : 
TLFamily_KS        .         Potential Resistivity         : 
TLFamily_KS1       .         Extra Shallow Resistivity     : 
TLFamily_KS2       .         Shallow Resistivity           : 
TLFamily_KS3       .         Medium Resistivity            : 
TLFamily_KS4       .         Deep Resistivity              : 
TLFamily_KS5       .         Extra Deep Resistivity        : 
TLFamily_LLD       .         Lateral Log Resistivity       : 
TLFamily_OKS3      .         Medium Resistivity Inverted   : 
TLFamily_RM        .         Mud Resistivity               : 
group              .         INI                           : 
~Curve Information
#_______________________________________________________________________________
#
#LOGNAME           .UNIT     LOG_ID                        : DESCRIPTION
#_______________________________________________________________________________
DEPTH              .m                                      : Measured Depth 
KS                 .ohm.m                                  : Potential Resistivity 
KS1                .ohm.m                                  : Extra Shallow Resistivity 
KS2                .ohm.m                                  : Shallow Resistivity 
KS3                .ohm.m                                  : Medium Resistivity 
KS4                .ohm.m                                  : Deep Resistivity 
KS5                .ohm.m                                  : Extra Deep Resistivity 
LLD                .ohm.m                                  : Lateral Log Resistivity 
OKS3               .ohm.m                                  : Medium Resistivity Inverted 
RM                 .ohm.m                                  : Mud Resistivity 
~Ascii
# ...
3008.2     6.1289     1.8343     5.7866     8.6444     7.1946     4.5147     3.0352     6.9331     0.129     
3008.4     6.0827     1.7838     5.5225     8.1519     7.1666     4.3124     3.0777     7.0369     0.127     
3008.6     6.0862     1.7384     5.3526     7.7898     7.2616     4.1628     3.1833     7.2358     0.117     
3008.8     6.0994     1.7084     5.2953     7.5192     7.3514     4.0759     3.5064     7.5129     0.118     
3009       6.1305     1.7353     5.3977     7.3257     7.371      4.0565     3.4894     7.7781     0.122     
3009.2     6.1894     1.7526     5.3732     7.1478     7.3315     4.037      3.4733     8.0244     0.125     
3009.4     6.2182     1.7622     5.3345     7.0117     7.2758     4.0134     3.6213     8.3209     0.13      
3009.6     6.2648     1.7933     5.3883     6.9098     7.1874     4.0063     3.6318     8.7094     0.123     
3009.8     6.3039     1.7785     5.3838     6.8879     7.1549     3.9995     3.7129     9.1559     0.118     
3010       6.3039     1.8193     5.536      6.8963     7.1062     3.988      3.7371     9.6931     0.123     
3010.2     6.3039     1.8337     5.6327     6.9392     7.0818     3.9804     3.6655     10.2291    0.124     
3010.4     6.3039     1.8524     5.6805     6.884      6.9522     3.9701     3.5597     10.6455    0.128     
3010.6     6.305      1.8183     5.5867     6.8199     6.8057     3.9467     3.4525     11.0222    0.121     
3010.8     6.3584     1.8204     5.6015     6.6683     6.5393     3.9232     3.1217     11.4655    0.117     
3011       6.4703     1.7154     5.3115     6.4907     6.2335     3.8868     3.3478     12.0741    0.123     
3011.2     6.6161     1.6372     5.1549     6.3223     5.927      3.8132     3.7355     12.6398    0.125     
3011.4     6.8826     1.6276     5.1183     6.1971     5.6403     3.7303     3.9106     12.9692    0.129     
3011.6     7.2698     1.584      4.9035     5.9957     5.2861     3.647      4.7924     12.9343    0.121     
3011.8     7.6564     1.5279     4.7109     5.814      4.9688     3.5819     5.2702     12.5367    0.116     
3012       8.0558     1.6075     4.8807     5.7935     4.8196     3.5963     5.0338     12.2407    0.122     
3012.2     8.3312     1.591      4.8703     6.0203     4.9043     3.7117     6.3022     12.3278    0.122     
3012.4     8.4551     1.8177     5.6365     6.5282     5.2071     3.9202     7.4178     12.7111    0.123     
3012.6     8.5137     2.0085     6.3206     7.2149     5.5741     4.1755     6.7515     12.7785    0.116     
3012.8     8.6204     2.0792     6.6555     7.6096     5.6915     4.4486     5.5956     12.5473    0.119     
3013       8.6935     2.0622     6.5756     7.7547     5.7055     4.6424     5.5458     12.2699    0.122     
3013.2     8.7583     2.0103     6.4748     7.8388     5.7393     4.7568     5.6353     12.0567    0.119     
3013.4     8.8057     1.9871     6.4043     8.0693     5.8685     4.8556     5.5687     11.9332    0.115     
3013.6     8.8523     1.9719     6.4589     8.3993     6.068      4.9555     5.4973     11.8999    0.115     
3013.8     8.8984     1.9239     6.3965     8.7265     6.336      5.0739     5.796      12.0096    0.121     
3014       8.946      1.9352     6.4808     9.0325     6.6686     5.1929     6.0628     12.0676    0.121     
3014.2     9.0109     1.9321     6.4905     9.3327     7.0556     5.3162     6.3088     12.0663    0.122     
3014.4     9.0779     1.9643     6.5497     9.5697     7.4425     5.4539     6.2837     11.9518    0.12      
3014.6     9.1219     1.9691     6.5538     9.8053     7.8642     5.6029     6.1856     11.7646    0.116     
3014.8     9.1304     1.9817     6.6283     10.1063    8.2998     5.7703     5.7219     11.6536    0.121     
3015       9.1557     1.9665     6.6704     10.3283    8.7931     5.9539     5.699      11.6692    0.124     
3015.2     9.1573     1.9383     6.657      10.5028    9.3463     6.1334     6.3298     11.7584    0.123     
3015.4     9.1776     1.9722     6.7702     10.7876    10.0646    6.2973     6.7002     11.7615    0.118     
3015.6     9.1762     2.0094     6.9114     11.0167    10.7784    6.4803     6.3974     11.525     0.116     
3015.8     9.211      2.0317     6.9453     11.1556    11.4057    6.6434     5.8687     11.2576    0.12      
3016       9.1757     1.9856     6.8578     11.2528    11.8998    6.7807     6.5054     10.9777    0.124     
3016.2     9.1557     2.0292     6.9922     11.3856    12.2795    6.9069     5.9391     10.6175    0.124     
3016.4     9.1509     1.9942     6.9086     11.5265    12.5932    7.0161     5.8829     10.3025    0.117     
3016.6     9.0663     2.0043     7.045      11.659     12.9342    7.1173     6.3221     10.0005    0.118     
3016.8     9.001      2.0436     7.1818     11.8437    13.41      7.205      5.718      9.7985     0.123     
3017       8.9215     2.0474     7.2287     11.9061    13.6588    7.3196     5.7585     9.5351     0.122     
3017.2     8.825      2.0855     7.2887     12.0112    13.8945    7.3957     5.4668     9.3564     0.126     
3017.4     8.7276     2.099      7.289      12.0597    13.9798    7.4909     5.5886     9.2912     0.12      
3017.6     8.6521     2.0884     7.2523     12.1052    13.9836    7.5973     5.6994     9.1675     0.116     
3017.8     8.5582     2.0942     7.2741     12.1426    13.9819    7.7045     5.768      8.976      0.122     
3018       8.4312     2.1605     7.3952     12.1818    14.0087    7.8028     5.4446     8.7904     0.122     
3018.2     8.2659     2.1633     7.3585     12.1915    13.9852    7.8748     5.3518     8.6265     0.125     
3018.4     8.0535     2.1798     7.3707     12.1098    13.8256    7.8864     5.1179     8.4582     0.119     
3018.6     7.8658     2.1798     7.3687     11.8457    13.4932    7.8849     4.4988     8.2223     0.118     
3018.8     7.7214     2.1209     7.173      11.3748    12.9276    7.9015     3.9068     8.0346     0.124     
3019       7.5315     1.9915     6.7631     11.0151    12.6308    7.8483     4.242      8.1136     0.123     
3019.2     7.3605     2.0612     6.9563     10.7436    12.3221    7.7958     4.3016     8.3129     0.123     
3019.4     7.3358     1.9382     6.498      10.4262    11.9205    7.7737     4.3634     8.2464     0.114     
3019.6     7.3503     1.8883     6.2861     9.8914     11.3403    7.7589     4.453      8.0293     0.12      
3019.8     7.2867     1.9224     6.2282     9.6811     11.1308    7.6733     4.3439     7.9186     0.123     
3020       7.2216     1.9373     6.1405     9.5265     10.9097    7.6798     4.2598     7.8934     0.123     
3020.2     7.1624     1.9373     6.1216     9.3408     10.6749    7.6655     4.2218     7.9019     0.118     
3020.4     7.1058     1.9041     6.1174     9.1286     10.4642    7.6268     4.2515     7.9344     0.114     
3020.6     7.0576     1.8969     6.0956     8.9327     10.2373    7.5776     4.2467     7.9672     0.119     
3020.8     7.0099     1.8969     6.0707     8.77       10.0289    7.5257     4.1831     8.0389     0.12      
3021       6.9774     1.9071     6.0299     8.5945     9.842      7.5095     4.09       8.1079     0.123     
3021.2     6.9404     1.8835     5.94       8.4264     9.6307     7.505      4.1678     8.1559     0.114     
3021.4     6.9043     1.8619     5.9193     8.3202     9.4584     7.4795     4.197      8.1758     0.12      
3021.6     6.8911     1.8705     5.927      8.3106     9.3173     7.4406     4.217      8.1561     0.122     
3021.8     6.8631     1.8835     5.9171     8.2444     9.1812     7.4099     4.0629     8.1321     0.125     
3022       6.848      1.882      5.8754     8.1467     9.0181     7.3696     3.9354     8.0417     0.118     
3022.2     6.848      1.8565     5.8237     8.0212     8.8255     7.3378     3.9381     7.9341     0.116     
3022.4     6.8661     1.8401     5.7672     7.8965     8.6815     7.3335     3.9067     7.8598     0.122     
3022.6     6.9341     1.8296     5.7282     7.7755     8.5307     7.3939     3.8418     7.8164     0.122     
