~Version
 VERS              .         2.0                           : CWLS LOG ASCII STANDARD - VERSION 2.0
 WRAP              .         NO                            : ONE LINE PER DEPTH STEP
 DLM               .         SPACE                         : DELIMITING CHARACTER(SPACE TAB OR COMMA)
~Well Information
#_______________________________________________________________________________
#
#PARAMETER_NAME    .UNIT     VALUE                         : DESCRIPTION
#_______________________________________________________________________________
STRT               .m        2906                          : First reference value
STOP               .m        3075                          : Last reference value
STEP               .m        0.2                           : Step increment
NULL               .         -9999                         : Missing value
COMP               .                                       : Company
WELL               .         402                           : Well name
FLD                .                                       : Field
LOC                .                                       : Location
CNTY               .                                       : County
STAT               .                                       : State
CTRY               .                                       : Country
SRVC               .                                       : Service Company
DATE               .                                       : Date
API                .                                       : API number
EREF               .m        140.4                         : 
Pad                .         4                             : 
X                  .m        222100                        : 
Y                  .m        250025                        : 
group              .         Pad4                          : 
Интер-р            .         Ярышев                        : 
Куст               .         4                             : 
Статус             .         Проверено                     : 
Тип                .         Нагнетательные                : 
~Parameter Information Block
#_______________________________________________________________________________
#
#PARAMETER_NAME    .UNIT     VALUE                         : DESCRIPTION
#_______________________________________________________________________________
SET                .         LAS3                          : 
REAL_CREATION_DATE .         Ср апр 11 2012-13_17_13       : 
TLFamily_DEPTH     .         Measured Depth                : 
TLFamily_GR        .         Gamma Ray                     : 
TLFamily_TNPH      .         Neutron Porosity              : 
group              .         INI                           : 
~Curve Information
#_______________________________________________________________________________
#
#LOGNAME           .UNIT     LOG_ID                        : DESCRIPTION
#_______________________________________________________________________________
DEPTH              .m                                      : Measured Depth 
GR                 .gAPI                                   :  
TNPH               .v/v                                    : Neutron Porosity 
~Ascii
# ...
2954.6     80.29      0.235     
2954.8     92.06001   0.245     
2955       105.72     0.215     
2955.2     107.87     0.251     
2955.4     115.4      0.248     
2955.6     112.62     0.228     
2955.8     111.21     0.23      
2956       105.19     0.228     
2956.2     95.69      0.216     
2956.4     92.81      0.226     
2956.6     99.96001   0.239     
2956.8     104.16     0.225     
2957       107.38     0.212     
2957.2     100.21     0.244     
2957.4     95.31      0.251     
2957.6     95.57999   0.248     
2957.8     91.18      0.21      
2958       83.64      0.202     
2958.2     87.18001   0.184     
2958.4     89.91      0.176     
2958.6     82.32001   0.174     
2958.8     83.43001   0.208     
2959       93.91      0.23      
2959.2     113.14     0.217     
2959.4     117.24     0.23      
2959.6     117.72     0.241     
2959.8     136.42     0.227     
2960       142.05     0.225     
2960.2     139.94     0.203     
2960.4     145.48     0.232     
2960.6     151.96     0.263     
2960.8     144.69     0.263     
2961       137.6      0.227     
2961.2     116.56     0.219     
2961.4     99.39      0.224     
2961.6     107.03     0.228     
2961.8     103.55     0.202     
2962       99.82001   0.194     
2962.2     87.03      0.209     
2962.4     97.8       0.215     
2962.6     113.03     0.209     
2962.8     107.31     0.196     
2963       104.97     0.246     
2963.2     115.88     0.322     
2963.4     128.69     0.3       
2963.6     126.89     0.25      
2963.8     142.76     0.231     
2964       161.2      0.238     
2964.2     183.69     0.27      
2964.4     196.29     0.257     
2964.6     180.36     0.261     
2964.8     180.68     0.261     
2965       184.14     0.308     
2965.2     199.83     0.279     
2965.4     203.13     0.276     
2965.6     206.08     0.226     
2965.8     208.7      0.233     
2966       198.39     0.271     
2966.2     194.28     0.27      
2966.4     194.07     0.28      
2966.6     196.81     0.301     
2966.8     202.62     0.332     
2967       214.27     0.301     
2967.2     228.42     0.265     
2967.4     223.49     0.257     
2967.6     219.45     0.283     
2967.8     216.18     0.258     
2968       214.39     0.259     
2968.2     195.63     0.266     
2968.4     177.37     0.252     
2968.6     167.62     0.22      
2968.8     161.11     0.222     
2969       166.43     0.213     
2969.2     173.03     0.219     
2969.4     187.44     0.25      
2969.6     201.85     0.26      
2969.8     224.79     0.275     
2970       225.98     0.312     
2970.2     246.25     0.286     
2970.4     259.65     0.312     
2970.6     310.19     0.32      
2970.8     333.82     0.318     
2971       320.31     0.321     
2971.2     296.61     0.323     
2971.4     322.78     0.311     
2971.6     318.88     0.253     
2971.8     313.79     0.229     
2972       332.94     0.262     
2972.2     339.73     0.259     
2972.4     333.49     0.262     
2972.6     337.08     0.283     
2972.8     350.57     0.258     
2973       355.96     0.286     
2973.2     361.2      0.257     
2973.4     365.98     0.262     
2973.6     374.63     0.289     
2973.8     336.68     0.292     
2974       323.53     0.277     
2974.2     308.81     0.295     
2974.4     290.85     0.289     
2974.6     263.19     0.294     
2974.8     271.97     0.279     
2975       281.16     0.317     
2975.2     293.44     0.348     
2975.4     297.32     0.278     
2975.6     309.61     0.348     
2975.8     312.32     0.294     
2976       318.72     0.262     
2976.2     313.22     0.317     
2976.4     296.41     0.336     
2976.6     278.53     0.297     
2976.8     274.69     0.286     
2977       274.23     0.328     
2977.2     255.82     0.345     
2977.4     252.66     0.316     
2977.6     254.25     0.318     
2977.8     244.52     0.304     
2978       213.52     0.297     
2978.2     197.89     0.305     
2978.4     186.18     0.273     
2978.6     179.19     0.272     
2978.8     178.81     0.263     
2979       187.64     0.281     
2979.2     187.71     0.272     
2979.4     179.35     0.285     
2979.6     177.95     0.285     
2979.8     174.58     0.244     
2980       155.91     0.238     
2980.2     138.93     0.245     
2980.4     129.27     0.22      
2980.6     124.48     0.215     
2980.8     133.59     0.257     
2981       138.76     0.258     
2981.2     149        0.243     
2981.4     147.88     0.217     
2981.6     135.42     0.222     
2981.8     148.01     0.236     
2982       139.8      0.222     
2982.2     145.22     0.237     
2982.4     115.53     0.22      
2982.6     109.89     0.252     
2982.8     117.1      0.238     
2983       111.49     0.235     
2983.2     110.04     0.233     
2983.4     102.42     0.242     
2983.6     90.99      0.255     
2983.8     94.36      0.265     
2984       100.33     0.255     
2984.2     102.81     0.256     
2984.4     112.01     0.287     
2984.6     115.31     0.292     
2984.8     120.84     0.268     
2985       119.52     0.246     
2985.2     112.37     0.246     
2985.4     118.18     0.257     
2985.6     135.56     0.232     
2985.8     134.84     0.246     
2986       127.31     0.232     
2986.2     120.22     0.256     
2986.4     117.41     0.286     
2986.6     112.67     0.301     
2986.8     119.93     0.291     
2987       122.72     0.302     
2987.2     130.22     0.292     
2987.4     129.29     0.259     
2987.6     120.12     0.234     
2987.8     125.24     0.22      
2988       116.81     0.231     
2988.2     104.23     0.229     
2988.4     112.5      0.239     
2988.6     118.92     0.244     
2988.8     129.97     0.223     
2989       126.79     0.188     
2989.2     124.01     0.207     
2989.4     111.96     0.248     
2989.6     92.76      0.232     
2989.8     100.83     0.227     
2990       102.8      0.265     
2990.2     111.08     0.292     
2990.4     132.58     0.302     
2990.6     144.07     0.225     
2990.8     151.8      0.239     
2991       145.68     0.26      
2991.2     149.52     0.263     
2991.4     142.6      0.256     
2991.6     132.85     0.284     
2991.8     109.82     0.27      
2992       113.36     0.265     
2992.2     123.11     0.266     
2992.4     136.74     0.301     
2992.6     152.76     0.294     
2992.8     175.88     0.305     
2993       197.81     0.294     
2993.2     205.22     0.277     
2993.4     199.64     0.281     
2993.6     171.1      0.279     
2993.8     176.11     0.312     
2994       172.27     0.3       
2994.2     184.89     0.266     
2994.4     190.05     0.248     
2994.6     176.12     0.25      
2994.8     173.62     0.294     
2995       184.45     0.29      
2995.2     197.27     0.243     
2995.4     177.86     0.221     
2995.6     148.22     0.272     
2995.8     129.04     0.288     
2996       130.81     0.287     
2996.2     119.92     0.287     
2996.4     118.89     0.278     
2996.6     117.31     0.258     
2996.8     118.51     0.234     
2997       123.96     0.224     
2997.2     106.71     0.223     
2997.4     97.52      0.194     
2997.6     85.15      0.221     
2997.8     70.98      0.23      
2998       76.87      0.263     
2998.2     101.13     0.238     
2998.4     120.87     0.241     
2998.6     132.1      0.228     
2998.8     130.7      0.254     
2999       131.22     0.261     
2999.2     126.71     0.226     
2999.4     126.81     0.246     
2999.6     130.52     0.249     
2999.8     134.13     0.261     
3000       131.77     0.209     
3000.2     132.54     0.189     
3000.4     128.23     0.189     
3000.6     118.02     0.201     
3000.8     121.32     0.224     
3001       102.69     0.232     
3001.2     109.15     0.226     
3001.4     109.53     0.22      
3001.6     125.49     0.232     
3001.8     120.35     0.226     
3002       129.95     0.239     
3002.2     132.76     0.231     
3002.4     124.41     0.233     
3002.6     127.57     0.24      
3002.8     138.32     0.24      
3003       145.95     0.249     
