~Version
 VERS              .         2.0                           : CWLS LOG ASCII STANDARD - VERSION 2.0
 WRAP              .         NO                            : ONE LINE PER DEPTH STEP
 DLM               .         SPACE                         : DELIMITING CHARACTER(SPACE TAB OR COMMA)
~Well Information
#_______________________________________________________________________________
#
#PARAMETER_NAME    .UNIT     VALUE                         : DESCRIPTION
#_______________________________________________________________________________
STRT               .m        2906                          : First reference value
STOP               .m        3075                          : Last reference value
STEP               .m        0.2                           : Step increment
NULL               .         -9999                         : Missing value
COMP               .                                       : Company
WELL               .         402                           : Well name
FLD                .                                       : Field
LOC                .                                       : Location
CNTY               .                                       : County
STAT               .                                       : State
CTRY               .                                       : Country
SRVC               .                                       : Service Company
DATE               .                                       : Date
API                .                                       : API number
EREF               .m        140.4                         : 
Pad                .         4                             : 
X                  .m        222100                        : 
Y                  .m        250025                        : 
group              .         Pad4                          : 
Интер-р            .         Ярышев                        : 
Куст               .         4                             : 
Статус             .         Проверено                     : 
Тип                .         Нагнетательные                : 
~Parameter Information Block
#_______________________________________________________________________________
#
#PARAMETER_NAME    .UNIT     VALUE                         : DESCRIPTION
#_______________________________________________________________________________
SET                .         LAS3                          : 
REAL_CREATION_DATE .         Ср апр 11 2012-13_17_13       : 
TLFamily_DEPTH     .         Measured Depth                : 
TLFamily_GR        .         Gamma Ray                     : 
TLFamily_TNPH      .         Neutron Porosity              : 
group              .         INI                           : 
~Curve Information
#_______________________________________________________________________________
#
#LOGNAME           .UNIT     LOG_ID                        : DESCRIPTION
#_______________________________________________________________________________
DEPTH              .m                                      : Measured Depth 
GR                 .gAPI                                   :  
TNPH               .v/v                                    : Neutron Porosity 
~Ascii
# ...
3003.2     137.36     0.249     
3003.4     126.5      0.261     
3003.6     125.86     0.248     
3003.8     110.18     0.226     
3004       98.99001   0.23      
3004.2     80.25      0.244     
3004.4     73.75      0.268     
3004.6     103.42     0.25      
3004.8     114.26     0.244     
3005       109.57     0.259     
3005.2     118.87     0.229     
3005.4     121.09     0.224     
3005.6     124.28     0.193     
3005.8     113.69     0.209     
3006       112.82     0.237     
3006.2     122.33     0.257     
3006.4     116.21     0.257     
3006.6     115.64     0.238     
3006.8     112.9      0.241     
3007       104.83     0.235     
3007.2     107.43     0.222     
3007.4     114.31     0.207     
3007.6     112.66     0.229     
3007.8     116.49     0.257     
3008       118.71     0.261     
3008.2     112.43     0.257     
3008.4     105.87     0.258     
3008.6     108.21     0.258     
3008.8     111.42     0.23      
3009       112.46     0.232     
3009.2     108.86     0.261     
3009.4     109.66     0.239     
3009.6     101.54     0.239     
3009.8     120.96     0.273     
3010       123.02     0.268     
3010.2     126.49     0.228     
3010.4     130.65     0.232     
3010.6     130.34     0.233     
3010.8     120.47     0.223     
3011       119.1      0.22      
3011.2     124.73     0.179     
3011.4     131.7      0.156     
3011.6     125.82     0.174     
3011.8     133.54     0.164     
3012       116.13     0.155     
3012.2     68.26      0.158     
3012.4     42.17      0.154     
3012.6     36.3       0.16      
3012.8     28.84      0.172     
3013       36.5       0.174     
3013.2     38.5       0.189     
3013.4     35.38      0.169     
3013.6     38.64      0.176     
3013.8     41.04      0.158     
3014       47.18      0.163     
3014.2     50.22      0.169     
3014.4     41.32      0.151     
3014.6     41.41      0.154     
3014.8     38.69      0.142     
3015       35.45      0.16      
3015.2     39.08      0.161     
3015.4     39.91      0.149     
3015.6     39.96      0.147     
3015.8     40.05      0.16      
3016       39.46      0.146     
3016.2     40.15      0.163     
3016.4     42.02      0.174     
3016.6     45.72      0.18      
3016.8     46.34      0.168     
3017       40.71      0.166     
3017.2     36.96      0.186     
3017.4     38.54      0.167     
3017.6     45.08      0.162     
3017.8     49.66      0.165     
3018       47.93      0.168     
3018.2     46.2       0.159     
3018.4     47.4       0.155     
3018.6     45.18      0.144     
3018.8     46.62      0.141     
3019       50.93      0.151     
3019.2     55.26      0.163     
3019.4     59.79      0.179     
3019.6     59.53      0.198     
3019.8     64.49001   0.208     
3020       53.51      0.205     
3020.2     52.59      0.192     
3020.4     44.54      0.193     
3020.6     43.35      0.188     
3020.8     49.48      0.188     
3021       53.26      0.173     
3021.2     51.24      0.163     
3021.4     50.01      0.185     
3021.6     44.68      0.169     
3021.8     45.55      0.165     
3022       47.61      0.182     
3022.2     51.78      0.157     
3022.4     40.66      0.161     
3022.6     36.99      0.172     
3022.8     37.55      0.15      
3023       37.31      0.143     
3023.2     42.06      0.149     
3023.4     32.49      0.145     
3023.6     37.48      0.158     
3023.8     36.93      0.184     
3024       40.72      0.186     
3024.2     37.93      0.165     
3024.4     46.39      0.166     
3024.6     51.34      0.178     
3024.8     49.03      0.201     
3025       52.4       0.211     
3025.2     54.19      0.22      
3025.4     57.76      0.197     
3025.6     50.71      0.186     
3025.8     55.08      0.182     
3026       53.47      0.182     
3026.2     56.06      0.199     
3026.4     51.86      0.205     
3026.6     56.67      0.207     
3026.8     67.22      0.178     
3027       70.83      0.193     
3027.2     65.45999   0.211     
3027.4     62.76      0.206     
3027.6     70.03      0.228     
3027.8     73.8       0.225     
3028       72.81999   0.214     
3028.2     71.72      0.225     
3028.4     76.45      0.212     
3028.6     69.46      0.205     
3028.8     63.11      0.221     
3029       53.47      0.264     
3029.2     60.95      0.252     
3029.4     59.22      0.251     
3029.6     56.92      0.261     
3029.8     69.18      0.274     
3030       80.50999   0.344     
3030.2     88.92999   0.296     
3030.4     95         0.291     
3030.6     90.28      0.248     
3030.8     102.39     0.239     
3031       80.99      0.205     
3031.2     75.21      0.192     
3031.4     78.43001   0.179     
3031.6     73.74      0.195     
3031.8     86.74      0.202     
3032       86.27      0.194     
3032.2     90.19      0.202     
3032.4     85.78      0.218     
3032.6     75.71999   0.191     
3032.8     67.93999   0.207     
3033       63.46      0.194     
3033.2     51.9       0.219     
3033.4     38.52      0.203     
3033.6     43.82      0.205     
3033.8     50.19      0.214     
3034       48.63      0.189     
3034.2     50.06      0.193     
3034.4     57.98      0.212     
3034.6     65.08      0.209     
3034.8     70.62      0.24      
3035       84.06      0.303     
3035.2     82.95      0.281     
3035.4     81.22      0.229     
3035.6     85.23      0.211     
3035.8     67.89      0.216     
3036       58.14      0.211     
3036.2     55.24      0.22      
3036.4     56.95      0.217     
3036.6     64.66      0.197     
3036.8     60.95      0.176     
3037       57.05      0.183     
3037.2     75.45999   0.165     
3037.4     76.4       0.163     
3037.6     91.64      0.193     
3037.8     93.98      0.239     
3038       99.7       0.243     
3038.2     97.58      0.237     
3038.4     97.33      0.252     
3038.6     94.86      0.266     
3038.8     96.23      0.249     
3039       95.88      0.231     
3039.2     97.29      0.265     
3039.4     94.32      0.31      
3039.6     91.45      0.302     
3039.8     84.17      0.282     
3040       80.11      0.278     
3040.2     78.37      0.306     
3040.4     54.78      0.348     
3040.6     46.91      0.363     
3040.8     27.12      0.396     
3041       9.27       0.332     
3041.2     2.409999   0.279     
3041.4     2.850001   0.265     
3041.6     7.3        0.306     
3041.8     11.31      0.36      
3042       12.28      0.328     
3042.2     28.88      0.284     
3042.4     47.83      0.243     
3042.6     70.21      0.216     
3042.8     88.58      0.231     
3043       88.2       0.203     
3043.2     90.24001   0.194     
3043.4     83.14999   0.191     
3043.6     77.31      0.168     
3043.8     85.24001   0.182     
3044       84.36      0.211     
3044.2     85.01      0.187     
3044.4     80.76      0.19      
3044.6     68.07999   0.207     
3044.8     68.02      0.216     
3045       64.6       0.191     
3045.2     70.5       0.173     
3045.4     68.07      0.175     
3045.6     71.13      0.178     
3045.8     57.63      0.194     
3046       62.61      0.19      
3046.2     50.06      0.218     
3046.4     54.26      0.205     
3046.6     57.19      0.233     
3046.8     59.9       0.259     
3047       73.07999   0.234     
3047.2     77.81      0.21      
3047.4     80.9       0.233     
3047.6     82.88      0.219     
3047.8     79.18      0.247     
3048       85.15      0.268     
3048.2     106.62     0.253     
3048.4     100.93     0.221     
3048.6     103.12     0.202     
3048.8     95.59      0.199     
3049       82.74001   0.191     
3049.2     77.86      0.211     
3049.4     69.3       0.217     
3049.6     66.84      0.193     
3049.8     62.02      0.174     
3050       62.82      0.199     
3050.2     69.3       0.194     
3050.4     73.42      0.217     
3050.6     78.57001   0.203     
3050.8     77.48      0.221     
3051       73.33      0.216     
3051.2     68.9       0.221     
3051.4     74.59      0.241     
3051.6     89.06999   0.267     
