~Version
 VERS              .         2.0                           : CWLS LOG ASCII STANDARD - VERSION 2.0
 WRAP              .         NO                            : ONE LINE PER DEPTH STEP
 DLM               .         SPACE                         : DELIMITING CHARACTER(SPACE TAB OR COMMA)
~Well Information
#_______________________________________________________________________________
#
#PARAMETER_NAME    .UNIT     VALUE                         : DESCRIPTION
#_______________________________________________________________________________
STRT               .m        2906                          : First reference value
STOP               .m        3075                          : Last reference value
STEP               .m        0.2                           : Step increment
NULL               .         -9999                         : Missing value
COMP               .                                       : Company
WELL               .         402                           : Well name
FLD                .                                       : Field
LOC                .                                       : Location
CNTY               .                                       : County
STAT               .                                       : State
CTRY               .                                       : Country
SRVC               .                                       : Service Company
DATE               .                                       : Date
API                .                                       : API number
EREF               .m        140.4                         : 
Pad                .         4                             : 
X                  .m        222100                        : 
Y                  .m        250025                        : 
group              .         Pad4                          : 
Интер-р            .         Ярышев                        : 
Куст               .         4                             : 
Статус             .         Проверено                     : 
Тип                .         Нагнетательные                : 
~Parameter Information Block
#_______________________________________________________________________________
#
#PARAMETER_NAME    .UNIT     VALUE                         : DESCRIPTION
#_______________________________________________________________________________
SET                .         LAS1                          : 
REAL_CREATION_DATE .         Ср апр 11 2012-13_17_13       : 
TLFamily_DEPTH     .         Measured Depth                : 
TLFamily_KS        .         Potential Resistivity         : 
TLFamily_KS1       .         Extra Shallow Resistivity     : 
TLFamily_KS2       .         Shallow Resistivity           : 
TLFamily_KS3       .         Medium Resistivity            : 
TLFamily_KS4       .         Deep Resistivity              : 
TLFamily_KS5       .         Extra Deep Resistivity        : 
TLFamily_LLD       .         Lateral Log Resistivity       : 
TLFamily_OKS3      .         Medium Resistivity Inverted   : 
TLFamily_RM        .         Mud Resistivity               : 
group              .         INI                           : 
~Curve Information
#_______________________________________________________________________________
#
#LOGNAME           .UNIT     LOG_ID                        : DESCRIPTION
#_______________________________________________________________________________
DEPTH              .m                                      : Measured Depth 
KS                 .ohm.m                                  : Potential Resistivity 
KS1                .ohm.m                                  : Extra Shallow Resistivity 
KS2                .ohm.m                                  : Shallow Resistivity 
KS3                .ohm.m                                  : Medium Resistivity 
KS4                .ohm.m                                  : Deep Resistivity 
KS5                .ohm.m                                  : Extra Deep Resistivity 
LLD                .ohm.m                                  : Lateral Log Resistivity 
OKS3               .ohm.m                                  : Medium Resistivity Inverted 
RM                 .ohm.m                                  : Mud Resistivity 
~Ascii
# ...
3022.8     7.0362     1.7921     5.5953     7.7347     8.4834     7.4559     4.2703     7.891      0.119     
3023       7.133      1.7871     5.6646     7.7769     8.4729     7.5361     4.9612     7.8084     0.116     
3023.2     7.2315     1.8556     5.8398     7.8832     8.4935     7.6273     4.6545     7.6168     0.123     
3023.4     7.3108     1.8991     5.9238     8.0187     8.5058     7.6958     4.9274     7.3698     0.121     
3023.6     7.3122     1.9997     6.1316     8.1621     8.5965     7.7514     4.7956     7.1459     0.122     
3023.8     7.2928     2.0182     6.2695     8.2946     8.5931     7.7832     4.9288     6.8787     0.116     
3024       7.1576     2.0476     6.4547     8.4687     8.5881     7.7349     5.1005     6.5621     0.122     
3024.2     6.9798     2.1595     6.8401     8.5999     8.5077     7.6212     4.1175     6.165      0.123     
3024.4     6.7963     2.1576     6.7952     8.5545     8.2271     7.4553     3.4087     5.8309     0.123     
3024.6     6.6135     2.0487     6.5236     8.3101     7.8224     7.2596     3.2781     5.576      0.118     
3024.8     6.4551     1.9371     6.284      8.0267     7.4644     7.0295     3.2779     5.3623     0.12      
3025       6.3531     1.8552     6.0513     7.833      7.2025     6.8304     3.27       5.2314     0.122     
3025.2     6.2895     1.8275     5.8562     7.6818     6.9468     6.6945     3.2188     5.1986     0.125     
3025.4     6.2418     1.7671     5.5504     7.5614     6.7484     6.6044     3.2359     5.232      0.115     
3025.6     6.1944     1.7519     5.4023     7.4139     6.6339     6.5452     3.2947     5.2979     0.121     
3025.8     6.1527     1.7703     5.3197     7.3252     6.5572     6.5211     3.1584     5.5482     0.122     
3026       6.0978     1.7218     5.1812     7.2856     6.5772     6.5053     3.5918     5.9131     0.124     
3026.2     6.0179     1.8144     5.3867     7.2109     6.5456     6.4797     3.679      6.2084     0.116     
3026.4     5.9185     1.8357     5.3873     7.1514     6.4763     6.446      3.4388     6.4511     0.12      
3026.6     5.7424     1.8835     5.4038     6.9776     6.4386     6.3077     3.1668     6.6774     0.122     
3026.8     5.4682     1.9221     5.4761     6.7989     6.3143     6.0896     2.5958     7.113      0.123     
3027       5.2816     1.8584     5.2965     6.4079     5.9505     5.932      2.2411     7.6448     0.115     
3027.2     5.2158     1.6572     4.7711     5.6484     5.2731     5.8585     1.9933     8.4178     0.122     
3027.4     5.2361     1.4183     4.1373     5.0049     4.8933     5.8511     2.1794     9.8136     0.124     
3027.6     5.3185     1.3707     3.9317     4.6019     4.7277     6.2444     2.4621     11.5894    0.126     
3027.8     5.5618     1.2976     3.6595     4.3733     4.7288     6.9155     2.181      13.6158    0.117     
3028       6.0075     1.1812     3.2432     4.2114     4.9664     7.6763     2.8053     16.6508    0.124     
3028.2     6.5347     1.1157     3.2029     4.217      5.3538     8.5084     5.197      19.0763    0.128     
3028.4     7.3409     1.1653     3.3127     4.4416     5.7412     9.4538     6.388      20.2216    0.121     
3028.6     8.2009     1.3292     3.6103     4.697      6.0876     10.3454    6.5877     20.0032    0.119     
3028.8     8.928      1.5067     4.0125     4.9779     6.5339     11.1974    7.0526     20.2981    0.12      
3029       9.5156     1.5705     4.3331     5.3587     7.025      12.0835    9.3361     20.7133    0.123     
3029.2     10.1715    1.7779     5.1419     5.7691     7.5492     13         9.8821     20.7573    0.116     
3029.4     10.7475    1.8135     5.7452     6.1615     7.902      14.0246    11.4393    20.0861    0.119     
3029.6     11.2185    2.0199     6.4762     6.5665     8.2956     15.0761    7.9286     19.9328    0.122     
3029.8     11.5793    1.993      6.6192     7.154      8.8135     16.4337    11.1351    20.3648    0.124     
3030       11.7508    2.1529     7.4152     7.9772     9.5102     18.1792    9.5625     20.8287    0.117     
3030.2     11.9605    2.2175     7.9605     9.0834     10.5349    20.0657    7.6387     21.7818    0.123     
3030.4     12.0925    2.204      8.2294     10.464     11.713     21.4493    11.8013    23.0939    0.123     
3030.6     12.1415    2.2229     8.6209     12.2093    12.7305    21.9244    14.0252    24.0123    0.118     
3030.8     12.2213    2.448      9.4916     13.6198    12.8547    21.4471    8.5254     23.477     0.117     
3031       12.3143    2.433      9.3453     14.2736    12.1328    19.9957    7.4633     21.8657    0.123     
3031.2     12.4216    2.2862     8.8196     14.1535    10.9681    17.8875    7.4075     20.0441    0.125     
3031.4     12.4839    2.1732     8.4332     14.1856    10.1677    15.5599    7.2337     18.4831    0.119     
3031.6     12.5688    2.1904     8.5395     14.0252    9.5132     13.7361    6.6598     17.548     0.121     
3031.8     12.7018    2.0763     8.0431     13.7687    9.145      12.3328    7.9792     17.0223    0.124     
3032       12.8515    2.0494     7.871      13.4412    9.0326     11.1912    8.7872     16.4798    0.126     
3032.2     13.0082    2.072      7.855      13.6381    9.322      10.2466    8.8706     16.0403    0.118     
3032.4     13.125     2.1391     8.004      13.8262    10.0176    9.6395     8.7854     15.8189    0.124     
3032.6     13.2057    2.1549     8.0662     14.2111    11.0528    9.1863     9.9917     15.8079    0.125     
3032.8     13.2522    2.2032     8.3606     15.002     12.1788    8.8817     10.7974    15.9273    0.118     
3033       13.2624    2.2642     8.7541     16.0014    13.4875    8.6668     13.146     15.9276    0.122     
3033.2     13.1694    2.3817     9.3042     17.0218    15.0396    8.4681     19.5554    15.4022    0.124     
3033.4     12.8783    2.5515     9.879      18.0523    16.7278    8.1977     13.4265    14.308     0.124     
3033.6     12.5356    2.783      10.52      18.5045    17.7017    7.8851     6.9503     13.2394    0.116     
3033.8     12.1656    2.6832     10.213     18.1225    17.8263    7.5683     6.95       12.76      0.125     
3034       11.8241    2.4334     9.5288     17.3558    17.6605    7.2801     7.317      12.5005    0.127     
3034.2     11.6019    2.3565     9.328      16.8058    17.829     7.1355     6.5984     12.5493    0.118     
3034.4     11.3921    2.2713     8.9591     16.5883    18.2886    7.2452     6.6573     12.9476    0.123     
3034.6     11.2383    2.236      8.695      16.5674    19.4821    7.5743     6.0825     13.9613    0.126     
3034.8     11.1808    2.1579     8.4447     16.8218    21.5867    8.1451     7.2823     15.4965    0.12      
3035       11.1445    2.0855     8.3478     17.5409    24.4669    8.8257     10.6316    17.0541    0.121     
3035.2     11.1425    2.1842     8.8434     18.8793    28.1995    9.376      16.0806    18.2945    0.124     
3035.4     11.043     2.3439     9.462      20.5063    31.3726    9.695      18.6346    18.7269    0.124     
3035.6     10.8682    2.5772     10.1522    21.2601    32.2256    9.7919     10.3318    18.2892    0.117     
3035.8     10.5624    2.6032     10.0442    20.9767    31.4481    9.4317     8.7344     17.0869    0.123     
3036       10.1316    2.6314     10.1685    20.0911    29.7829    8.7913     5.2844     16.0546    0.123     
3036.2     9.8139     2.6085     10.0156    18.5837    26.9565    8.1565     4.4443     15.596     0.117     
3036.4     9.6213     2.2813     8.9048     16.2594    22.8618    7.5004     4.6409     15.4391    0.124     
3036.6     9.6358     2.0313     8.0131     14.1008    19.5514    6.8713     4.6985     15.4391    0.125     
3036.8     9.7615     1.8532     7.0536     12.4406    16.9196    6.4682     4.7709     15.6196    0.12      
3037       9.9451     1.7863     6.4033     11.2179    14.9266    6.1421     5.0815     16.3354    0.123     
3037.2     10.1886    1.7453     5.9523     10.4058    13.396     5.9034     5.253      17.4118    0.127     
