~Version
 VERS              .         2.0                           : CWLS LOG ASCII STANDARD - VERSION 2.0
 WRAP              .         NO                            : ONE LINE PER DEPTH STEP
 DLM               .         SPACE                         : DELIMITING CHARACTER(SPACE TAB OR COMMA)
~Well Information
#_______________________________________________________________________________
#
#PARAMETER_NAME    .UNIT     VALUE                         : DESCRIPTION
#_______________________________________________________________________________
STRT               .m        2906                          : First reference value
STOP               .m        3075                          : Last reference value
STEP               .m        0.2                           : Step increment
NULL               .         -9999                         : Missing value
COMP               .                                       : Company
WELL               .         402                           : Well name
FLD                .                                       : Field
LOC                .                                       : Location
CNTY               .                                       : County
STAT               .                                       : State
CTRY               .                                       : Country
SRVC               .                                       : Service Company
DATE               .                                       : Date
API                .                                       : API number
EREF               .m        140.4                         : 
Pad                .         4                             : 
X                  .m        222100                        : 
Y                  .m        250025                        : 
group              .         Pad4                          : 
Интер-р            .         Ярышев                        : 
Куст               .         4                             : 
Статус             .         Проверено                     : 
Тип                .         Нагнетательные                : 
~Parameter Information Block
#_______________________________________________________________________________
#
#PARAMETER_NAME    .UNIT     VALUE                         : DESCRIPTION
#_______________________________________________________________________________
SET                .         LAS1                          : 
REAL_CREATION_DATE .         Ср апр 11 2012-13_17_13       : 
TLFamily_DEPTH     .         Measured Depth                : 
TLFamily_KS        .         Potential Resistivity         : 
TLFamily_KS1       .         Extra Shallow Resistivity     : 
TLFamily_KS2       .         Shallow Resistivity           : 
TLFamily_KS3       .         Medium Resistivity            : 
TLFamily_KS4       .         Deep Resistivity              : 
TLFamily_KS5       .         Extra Deep Resistivity        : 
TLFamily_LLD       .         Lateral Log Resistivity       : 
TLFamily_OKS3      .         Medium Resistivity Inverted   : 
TLFamily_RM        .         Mud Resistivity               : 
group              .         INI                           : 
~Curve Information
#_______________________________________________________________________________
#
#LOGNAME           .UNIT     LOG_ID                        : DESCRIPTION
#_______________________________________________________________________________
DEPTH              .m                                      : Measured Depth 
KS                 .ohm.m                                  : Potential Resistivity 
KS1                .ohm.m                                  : Extra Shallow Resistivity 
KS2                .ohm.m                                  : Shallow Resistivity 
KS3                .ohm.m                                  : Medium Resistivity 
KS4                .ohm.m                                  : Deep Resistivity 
KS5                .ohm.m                                  : Extra Deep Resistivity 
LLD                .ohm.m                                  : Lateral Log Resistivity 
OKS3               .ohm.m                                  : Medium Resistivity Inverted 
RM                 .ohm.m                                  : Mud Resistivity 
~Ascii
# ...
3052       10.4112    2.3552     8.9852     17.9197    30.3485    32.594     10.1022    11.6071    0.121     
3052.2     10.0482    2.4226     9.6671     19.4704    34.1519    35.097     12.5632    12.2325    0.12      
3052.4     9.6963     2.5601     10.3171    20.3267    35.34      36.4519    9.2804     12.207     0.124     
3052.6     9.2496     2.6058     10.2393    20.7095    34.9244    35.0906    9.8554     11.5379    0.118     
3052.8     8.588      2.8569     11.0686    20.6031    33.3087    31.7256    3.9889     10.5833    0.126     
3053       8.2334     2.8139     10.5123    19.2884    29.328     27.8511    3.0153     9.727      0.118     
3053.2     7.9868     2.2728     8.5928     16.2736    23.3516    23.8511    3.7077     9.1615     0.122     
3053.4     7.8616     1.9527     7.5438     13.7007    19.1873    19.4519    5.2358     8.8365     0.119     
3053.6     7.886      1.8758     7.0668     12.3516    16.7368    16.2071    4.6962     8.5814     0.119     
3053.8     7.9321     1.8932     6.6976     11.4711    14.961     14.0735    4.1997     8.2972     0.124     
3054       7.8663     1.9485     6.2961     10.6902    13.2953    12.4939    4.5445     8.3931     0.117     
3054.2     7.7474     1.8837     5.9515     10.0997    12.0647    11.0958    5.2197     8.7        0.121     
3054.4     7.6799     1.982      6.2402     9.5832     10.8085    9.962      3.9641     9.0118     0.117     
3054.6     7.6501     1.8863     5.9365     9.1346     9.7238     8.9997     3.9798     9.1977     0.119     
3054.8     7.5507     1.8161     5.664      8.4404     8.7999     8.2208     4.1305     9.8418     0.119     
3055       7.5312     1.8632     5.6878     7.9709     8.1638     7.5665     4.0381     10.8242    0.117     
3055.2     7.6265     1.7397     5.3556     7.3272     7.4379     7.2012     3.7259     11.5839    0.121     
3055.4     7.8435     1.612      4.8938     6.6856     6.8087     6.978      4.0066     12.2993    0.113     
3055.6     8.0774     1.5467     4.7271     6.3985     6.5191     6.9211     5.4954     12.9186    0.12      
3055.8     8.3151     1.5602     4.6687     6.4943     6.5945     7.0754     5.3444     13.0137    0.114     
3056       8.6924     1.6511     4.8726     6.417      6.6493     7.322      4.4756     13.0393    0.121     
3056.2     9.1654     1.5197     4.4568     6.3522     6.8687     7.6132     7.7491     13.0778    0.119     
3056.4     9.6833     1.4721     4.6035     6.4341     7.3888     7.9962     9.0406     13.1509    0.118     
3056.6     10.3467    1.5476     4.8926     6.7953     8.1166     8.4692     12.9073    13.3088    0.123     
3056.8     10.883     1.6698     5.2485     7.3025     9.0771     8.9141     16.618     13.3088    0.118     
3057       11.2703    1.9103     6.0101     7.9978     10.0057    9.4201     19.2641    13.3088    0.12      
3057.2     11.4342    2.1137     6.7686     8.9402     10.9159    9.9975     17.0595    13.3217    0.119     
3057.4     11.2993    2.3729     7.7996     9.9139     11.6244    10.7558    7.9179     13.3217    0.121     
3057.6     11.002     2.6163     8.8165     10.5436    12.2292    11.7816    6.7416     13.3217    0.124     
3057.8     10.7644    2.3953     8.3244     10.8009    12.8695    13.0923    6.5145     13.3217    0.119     
3058       10.6717    2.1367     8.3456     11.1776    13.7853    14.9068    7.7605     13.3217    0.125     
3058.2     10.6362    2.1239     8.0342     11.6598    15.0534    17.0623    7.5735     13.3217    0.121     
3058.4     10.6319    2.1529     8.1987     12.4458    16.8221    19.724     8.5719     13.3088    0.125     
3058.6     10.6191    2.1567     8.4196     13.7579    18.9652    23.3856    9.8737     13.3088    0.118     
3058.8     10.6175    2.1663     8.8618     15.1336    21.4135    26.8338    6.9115     13.3088    0.12      
3059       10.5847    2.1747     8.9624     16.7689    24.9039    28.6118    9.0015     13.3217    0.128     
3059.2     10.5852    2.1908     8.9624     18.5176    26.7609    29.0326    7.4488     13.3217    0.13      
3059.4     10.5911    2.1904     8.9624     18.5084    24.6622    28.0929    5.018      13.3217    0.128     
3059.6     10.5974    2.1798     8.9494     15.4365    20.4054    24.9772    4.637      13.3217    0.124     
3059.8     10.5816    2.1924     8.9389     12.7065    17.1246    20.9418    4.3678     13.3205    0.121     
3060       10.5816    2.1853     8.9494     11.4162    14.916     17.8528    5.1298     13.3088    0.12      
3060.2     10.577     2.192      8.9494     11.0118    13.2669    15.7638    5.9466     13.3088    0.12      
3060.4     10.5816    2.1896     8.9494     10.9512    12.0685    14.4929    6.0774     13.3088    0.12      
3060.6     10.5816    2.1881     8.9417     10.9035    11.5668    14.0356    6.3958     13.3088    0.12      
3060.8     10.5832    2.1798     8.9365     10.8234    11.4367    14.2075    7.662      13.3217    0.12      
3061       10.6004    2.1798     8.9365     10.5067    11.6709    14.7837    7.8066     13.3217    0.12      
3061.2     10.5864    2.1798     8.9415     10.4518    12.417     15.4423    10.3456    13.3217    0.12      
3061.4     10.5906    2.1798     8.9494     10.4545    13.9438    15.9039    16.0416    13.3217    0.12      
3061.6     10.5816    2.1798     8.9494     10.4545    15.2726    15.9885    14.9733    13.3217    0.12      
3061.8     10.5816    2.1923     8.9494     10.4545    15.0143    15.7032    10.5375    13.3217    0.12      
3062       10.5816    2.1933     8.9494     10.4545    14.6148    14.9663    9.8303     13.3217    0.12      
3062.2     10.5816    2.1918     8.9494     10.4545    14.4747    14.0595    9.8571     13.3172    0.12      
3062.4     10.5893    2.1933     8.9494     10.4545    14.4617    13.3335    9.0015     13.3088    0.12      
3062.6     10.5994    2.1859     8.9421     10.4545    14.4486    13.0029    8.3066     13.3088    0.12      
3062.8     10.5939    2.1925     8.948      10.4545    14.4145    13.0034    7.4251     13.3202    0.12      
3063       10.5845    2.185      8.9494     10.4441    14.2981    13.488     7.4633     13.3217    0.12      
3063.2     10.5816    2.1933     8.9494     10.4439    14.2691    14.2301    8.1006     13.3217    0.12      
3063.4     10.5816    2.1902     8.9494     10.4477    14.2663    14.4787    8.6431     13.3217    0.12      
3063.6     10.5816    2.1851     8.9494     10.4545    14.2663    14.35      8.9729     13.3157    0.12      
3063.8     10.5816    2.1933     8.9494     10.4545    14.2663    13.877     7.1851     13.3182    0.12      
3064       10.5816    2.1862     8.9494     10.4545    14.2533    13.0897    10.3802    13.3088    0.12      
3064.2     10.5816    2.1933     8.9494     10.4545    14.2533    12.1358    15.2453    13.3088    0.12      
3064.4     10.5816    2.1933     8.9494     10.4545    14.2583    11.6343    30.3031    13.3088    0.12      
3064.6     10.5827    2.1933     8.9365     10.4545    14.2663    11.3946    29.1586    13.3088    0.12      
3064.8     10.5889    2.1798     8.9365     10.4545    14.2793    11.3101    20.1843    13.3088    0.12      
3065       10.5862    2.1854     8.9395     10.4545    14.2793    11.216     15.1045    13.3088    0.12      
3065.2     10.5872    2.1933     8.9494     10.4545    14.2793    11.0265    14.5436    13.3088    0.12      
3065.4     10.5816    2.1902     8.9494     10.4545    14.2732    10.869     15.0229    13.3183    0.12      
3065.6     10.5816    2.187      8.9494     10.4545    14.2663    10.8286    17.511     0          0.12      
3065.8     10.5816    2.1933     8.9494     10.4612    14.259     11.1551    19.692     0          0.12      
3066       10.5816    2.1933     8.9494     10.4545    14.2547    11.7938    16.2701    0          0.12      
3066.2     10.583     2.1933     8.9494     10.4673    14.2663    12.38      15.3592    0          0.12      
3066.4     10.5895    2.1933     8.9494     10.4545    14.2722    12.7419    16.9057    0          0.12      
