~Version
 VERS              .         2.0                           : CWLS LOG ASCII STANDARD - VERSION 2.0
 WRAP              .         NO                            : ONE LINE PER DEPTH STEP
 DLM               .         SPACE                         : DELIMITING CHARACTER(SPACE TAB OR COMMA)
~Well Information
#_______________________________________________________________________________
#
#PARAMETER_NAME    .UNIT     VALUE                         : DESCRIPTION
#_______________________________________________________________________________
STRT               .m        2331.6                        : First reference value
STOP               .m        2561.999885                   : Last reference value
STEP               .m        0.1999999                     : Step increment
NULL               .         -9999                         : Missing value
COMP               .                                       : Company
WELL               .         403                           : Well name
FLD                .                                       : Field
LOC                .                                       : Location
CNTY               .                                       : County
STAT               .                                       : State
CTRY               .                                       : Country
SRVC               .                                       : Service Company
DATE               .                                       : Date
API                .                                       : API number
EREF               .m        140.4                         : 
Pad                .         4                             : 
X                  .m        222100                        : 
Y                  .m        250025                        : 
group              .         Pad4                          : 
Интер-р            .         Пузин                         : 
Куст               .         4                             : 
Статус             .         Не проверено                  : 
Тип                .         Разведка                      : 
~Parameter Information Block
#_______________________________________________________________________________
#
#PARAMETER_NAME    .UNIT     VALUE                         : DESCRIPTION
#_______________________________________________________________________________
SET                .         LAS1                          : 
REAL_CREATION_DATE .         Ср апр 11 2012-13_17_13       : 
TLFamily_DEPTH     .         Measured Depth                : 
TLFamily_KS        .         Potential Resistivity         : 
TLFamily_KS1       .         Extra Shallow Resistivity     : 
TLFamily_KS2       .         Shallow Resistivity           : 
TLFamily_KS3       .         Medium Resistivity            : 
TLFamily_KS4       .         Deep Resistivity              : 
TLFamily_KS5       .         Extra Deep Resistivity        : 
TLFamily_LLD       .         Lateral Log Resistivity       : 
TLFamily_OKS       .         Medium Resistivity Inverted   : 
TLFamily_RM        .         Mud Resistivity               : 
TLFamily_SP        .         Spontaneous Potential         : 
group              .         INI                           : 
~Curve Information
#_______________________________________________________________________________
#
#LOGNAME           .UNIT     LOG_ID                        : DESCRIPTION
#_______________________________________________________________________________
DEPTH              .m                                      : Measured Depth 
KS                 .ohm.m                                  : Potential Resistivity 
KS1                .ohm.m                                  : Extra Shallow Resistivity 
KS2                .ohm.m                                  : Shallow Resistivity 
KS3                .ohm.m                                  : Medium Resistivity 
KS4                .ohm.m                                  : Deep Resistivity 
KS5                .ohm.m                                  : Extra Deep Resistivity 
LLD                .ohm.m                                  : Lateral Log Resistivity 
OKS                .ohm.m                                  : Medium Resistivity Inverted 
RM                 .ohm.m                                  : Mud Resistivity 
SP                 .mV                                     : Spontaneous Potential 
~Ascii
# ...
2476.799927 10.7245    3.1739     13.7225    29.4274    35.762     27.6205    11.0695    11.8674    0.1251     75.3193   
2476.999927 10.3638    3.0925     13.0393    28.9419    35.453     26.5211    9.1786     11.2067    0.1251     75.6944   
2477.199927 10.1202    3.0557     12.7175    28.1392    35.3149    25.2777    9.0996     10.8479    0.1251     76.9167   
2477.399927 9.74       3.0043     12.2773    27.4206    35.1921    24.0605    8.6842     10.3453    0.1251     78.5      
2477.599927 9.3054     2.9636     12.1525    26.7409    35.0191    22.9219    9.223      9.8207     0.1251     80.4629   
2477.799927 8.8912     2.9839     11.9625    25.9352    34.5851    22.0188    8.6328     9.4061     0.1251     81.006    
2477.999927 8.4227     2.8482     11.5547    25.485     34.3615    21.5346    6.8803     9.0758     0.1251     82.7407   
2478.199927 7.9846     3.0246     11.6729    24.9607    34.3813    20.5399    12.0316    8.4735     0.1251     84.3333   
2478.399927 7.7302     2.9636     11.8437    24.281     33.8092    19.4798    6.51       8.0278     0.1251     83.3333   
2478.599927 7.2684     2.9229     11.1737    22.5461    32.6073    18.3019    5.7377     7.4631     0.1251     82.7222   
2478.799926 6.8339     2.794      10.4117    20.6752    30.5085    16.8099    5.2324     7.1069     0.1251     82.8459   
2478.999926 6.4808     2.5768     9.5409     18.9421    27.4709    15.3964    4.5186     6.9773     0.1285     83.8254   
2479.199926 6.1753     2.3665     9.0255     17.8787    24.8079    14.7289    4.0028     7.2105     0.1318     83.3254   
2479.399926 5.9444     2.2987     8.6183     16.5386    23.0129    13.5641    4.1897     7.5473     0.1336     82.5126   
2479.599926 5.8489     2.1833     8.0467     15.2893    21.31      12.7003    3.9194     7.7869     0.1352     82.0833   
2479.799926 5.795      2.0818     7.4029     14.0852    19.9867    12.0851    3.8708     8.0007     0.1352     80.3889   
2479.999926 5.7679     2.0951     7.1467     13.2048    19.2323    11.5354    4.5414     8.195      0.1318     79.9451   
2480.199926 5.7747     2.0612     6.884      12.6997    18.2263    11.2082    4.5884     8.2338     0.1318     80.254    
2480.399926 5.7339     2.1494     7.0192     12.4862    17.5227    11.0512    5.6493     8.1496     0.1318     79.0873   
2480.599925 5.6389     2.2512     7.1073     12.2208    16.7732    10.6978    5.5001     7.8387     0.1318     79.8895   
2480.799925 5.5344     2.3258     7.311      11.5735    15.5831    10.3444    4.5228     7.6574     0.1318     80.2222   
2480.999925 5.4487     2.2111     6.9891     10.6089    14.2977    9.8994     3.6847     7.6971     0.1285     79.0556   
2481.199925 5.3333     2.1426     6.7        9.599      13.387     9.389      3.7371     7.9359     0.1251     79.5833   
2481.399925 5.2654     2.0069     6.4438     8.8675     12.2298    9.0095     3.6748     8.3439     0.1251     81.0782   
2481.599925 5.2654     1.9594     6.2658     8.4523     11.237     8.8309     3.7368     8.9916     0.1251     80.8491   
2481.799925 5.2654     1.8983     6.0825     8.3302     10.5794    8.6823     4.223      9.4903     0.1251     80.856    
2481.999925 5.3028     1.9798     6.1876     8.1814     10.0271    8.5776     4.2817     9.9761     0.1251     81.6944   
2482.199925 5.3401     1.9221     5.8986     8.1101     9.4911     8.4859     4.1738     10.189     0.1251     82.8889   
2482.399925 5.374      1.9798     5.9643     7.9159     9.1527     8.3551     4.3592     10.3971    0.1251     83.9167   
2482.599924 5.4284     1.9051     5.7606     7.8059     8.6661     8.2373     4.0809     10.3582    0.1217     83.8695   
2482.799924 5.4555     1.973      5.9676     7.6419     8.1401     8.185      5.0546     10.2481    0.1217     83.5751   
2482.999924 5.537      1.9526     5.9249     7.5016     7.6272     8.1849     4.2788     10.1898    0.1217     83.5084   
2483.199924 5.5642     1.9119     5.6884     7.178      7.2459     8.342      4.09       10.572     0.1217     83.3889   
2483.399924 5.6401     1.8983     5.7672     6.9902     7.121      8.8917     4.2272     11.1413    0.1217     83.5833   
2483.599924 5.7611     1.7338     5.4453     6.8867     7.2875     9.9518     3.7108     11.8026    0.1217     83.9167   
2483.799924 5.9648     1.6609     5.3599     7.0614     7.6338     11.5223    3.8713     13.1627    0.1217     84.5428   
2483.999924 6.2296     1.7491     5.6752     7.5923     8.5609     13.2369    5.5397     14.4322    0.1217     86.4055   
2484.199924 6.6438     1.7287     5.7311     8.1425     9.8956     14.0745    5.5326     15.2224    0.1217     87.0428   
2484.399924 6.8882     1.9187     6.1548     9.2171     11.329     15.3571    15.4543    14.6718    0.1234     85.2222   
2484.599923 7.0235     2.4479     7.4686     10.5312    12.0786    15.8937    22.7217    12.7223    0.1251     83.8889   
2484.799923 7.0919     2.6014     8.073      11.0491    11.7974    15.5272    5.3725     11.5951    0.1217     84.3056   
2484.999923 6.9833     2.4954     7.8891     10.7319    11.1975    14.598     5.2811     10.4748    0.1217     85.6944   
2485.199923 6.8407     2.4547     8.0927     10.3629    10.323     13.4463    5.5553     9.7041     0.1217     86.247    
2485.399923 6.766      2.3258     8.0995     10.0597    9.6918     13.0144    4.9556     9.2248     0.1217     86.1319   
2485.599923 6.7117     2.2444     8.0205     9.9227     9.2381     12.4254    4.957      8.9981     0.1217     86.9692   
2485.799923 6.7049     2.1969     7.7971     9.8645     9.0409     12.0851    5.1285     8.8619     0.1217     87.2778   
2485.999923 6.715      2.1697     7.5869     10.0587    9.1198     12.1375    5.2185     8.8167     0.1217     86.8889   
2486.199923 6.7185     2.1765     7.6197     10.6931    9.3368     12.661     5.7886     8.7649     0.1217     86.6944   
2486.399923 6.7252     2.2376     7.784      11.6965    9.9219     13.1714    5.9545     8.7908     0.1217     86.4088   
2486.599923 6.5827     2.3054     8.3292     13.1505    10.8819    13.3023    7.3982     8.4929     0.1217     86.7316   
2486.799922 6.2907     2.7125     9.2053     14.2082    11.6775    13.1976    13.7689    7.7804     0.1217     87.1588   
2486.999922 5.958      2.8347     9.6233     14.9656    11.6117    12.6479    5.7007     6.9449     0.1217     87.25     
2487.199922 5.5751     2.6854     9.2489     14.3247    10.7899    11.4307    4.0028     6.5168     0.1217     87.3889   
2487.399922 5.3197     2.5348     8.881      13.2436    9.9312     9.9125     3.6533     6.3491     0.1251     87.3056   
2487.599922 5.0278     2.3869     8.1913     12.0849    9.3828     8.5252     3.2126     6.2454     0.1251     88.2917   
2487.799922 4.7833     2.1697     7.5672     11.0297    8.6003     7.3604     3.2286     6.2778     0.1251     89.5139   
2487.999922 4.6407     2.0747     7.0766     10.5058    8.0809     6.85       3.3044     6.3491     0.1217     89.2639   
2488.199922 4.5525     1.973      6.6606     9.858      7.7522     6.0647     3.2036     6.4333     0.1217     89.3056   
2488.399922 4.5014     1.9051     6.1548     9.243      7.5615     5.4103     3.3148     6.4721     0.1251     90.0278   
2488.599921 4.437      1.936      6.03       8.8611     7.5254     4.8868     3.832      6.4227     0.1285     88.5278   
2488.799921 4.3895     1.9458     5.8132     8.5374     7.4563     4.4941     3.3923     6.3491     0.1318     88.75     
2488.999921 4.3284     1.9119     5.6095     8.0648     7.0947     4.1669     3.1871     6.3814     0.1352     89.8159   
2489.199921 4.2809     1.8576     5.4943     7.5758     6.7067     4.023      3.1695     6.5045     0.1352     89.2465   
2489.399921 4.2741     1.8034     5.3796     7.2556     6.3845     3.7874     3.2039     6.6081     0.1318     91.1493   
2489.599921 4.2877     1.7966     5.3008     6.8672     6.1347     3.6303     3.4511     6.6573     0.1318     92.3333   
2489.799921 4.3115     1.7694     5.1957     6.5694     5.99       3.5125     3.118      6.783      0.1318     92.5      
