~Version
 VERS              .         2.0                           : CWLS LOG ASCII STANDARD - VERSION 2.0
 WRAP              .         NO                            : ONE LINE PER DEPTH STEP
 DLM               .         SPACE                         : DELIMITING CHARACTER(SPACE TAB OR COMMA)
~Well Information
#_______________________________________________________________________________
#
#PARAMETER_NAME    .UNIT     VALUE                         : DESCRIPTION
#_______________________________________________________________________________
STRT               .m        -10.04                        : First reference value
STOP               .m        2561.16                       : Last reference value
STEP               .m        0.2                           : Step increment
NULL               .         -9999                         : Missing value
COMP               .                                       : Company
WELL               .         403                           : Well name
FLD                .                                       : Field
LOC                .                                       : Location
CNTY               .                                       : County
STAT               .                                       : State
CTRY               .                                       : Country
SRVC               .                                       : Service Company
DATE               .                                       : Date
API                .                                       : API number
EREF               .m        140.4                         : 
Pad                .         4                             : 
X                  .m        222100                        : 
Y                  .m        250025                        : 
group              .         Pad4                          : 
Интер-р            .         Пузин                         : 
Куст               .         4                             : 
Статус             .         Не проверено                  : 
Тип                .         Разведка                      : 
~Parameter Information Block
#_______________________________________________________________________________
#
#PARAMETER_NAME    .UNIT     VALUE                         : DESCRIPTION
#_______________________________________________________________________________
SET                .         LAS4                          : 
REAL_CREATION_DATE .         Ср апр 11 2012-13_17_14       : 
TLFamily_DEPTH     .         Measured Depth                : 
TLFamily_RT        .         Resistivity 20                : 
TLFamily_SP        .         Spontaneous Potential         : 
group              .         INI                           : 
~Curve Information
#_______________________________________________________________________________
#
#LOGNAME           .UNIT     LOG_ID                        : DESCRIPTION
#_______________________________________________________________________________
DEPTH              .m                                      : Measured Depth 
RT                 .ohm.m                                  : Conductivity 
SP                 .mV                                     : Spontaneous Potential 
~Ascii
# ...
864.36     4.2545     -9999     
864.56     4.2545     -9999     
864.76     4.2545     -9999     
864.96     4.2545     -9999     
865.16     4.2545     -9999     
865.36     4.2545     -9999     
865.56     4.2545     -9999     
865.76     4.2545     -9999     
865.96     4.2545     -9999     
866.16     4.2545     -9999     
866.36     4.2545     -9999     
866.56     4.2545     -9999     
866.76     4.2545     -9999     
866.96     4.2545     -9999     
867.16     4.2545     -9999     
867.36     4.2545     -9999     
867.56     4.2545     -9999     
867.76     4.2545     -9999     
867.96     4.2545     -9999     
868.16     4.2545     -9999     
868.36     4.2545     -9999     
868.56     4.2545     -9999     
868.76     4.2545     -9999     
868.96     4.2545     -9999     
869.16     4.2545     -9999     
869.36     4.2545     -9999     
869.56     4.2545     -9999     
869.76     4.2545     -9999     
869.96     4.2545     -9999     
870.16     4.2545     -9999     
870.36     4.2545     -9999     
870.56     4.2545     -9999     
870.76     4.2545     -9999     
870.96     4.2545     -9999     
871.16     4.2545     -9999     
871.36     4.2545     -9999     
871.56     4.2545     -9999     
871.76     4.2545     -9999     
871.96     4.2545     -9999     
872.16     4.2545     -9999     
872.36     4.2545     -9999     
872.56     4.2545     -9999     
872.76     4.2545     -9999     
872.96     4.2545     -9999     
873.16     4.2545     -9999     
873.36     4.2545     -9999     
873.56     4.2545     -9999     
873.76     4.2545     -9999     
873.96     4.2545     -9999     
874.16     4.2545     -9999     
874.36     4.2545     -9999     
874.56     4.2545     -9999     
874.76     4.2545     -9999     
874.96     4.2545     -9999     
875.16     4.2545     -9999     
875.36     4.2545     -9999     
875.56     4.2545     -9999     
875.76     4.2545     -9999     
875.96     4.2545     -9999     
876.16     4.2545     -9999     
876.36     4.2545     -9999     
876.56     4.2545     -9999     
876.76     4.2545     -9999     
876.96     4.2545     -9999     
877.16     4.2545     -9999     
877.36     4.2545     -9999     
877.56     4.2545     -9999     
877.76     4.2545     -9999     
877.96     4.2545     -9999     
878.16     4.2545     -9999     
878.36     4.2545     -9999     
878.56     4.2545     -9999     
878.76     4.2545     -9999     
878.96     4.2545     -9999     
879.16     4.2545     -9999     
879.36     4.2545     -9999     
879.56     4.2545     -9999     
879.76     4.2545     -9999     
879.96     4.2545     -9999     
880.16     4.2545     -9999     
880.36     4.2545     -9999     
880.56     4.2545     -9999     
880.76     4.2545     -9999     
880.96     4.2545     -9999     
881.16     4.2545     -9999     
881.36     4.2545     -9999     
881.56     4.2545     -9999     
881.76     4.2545     -9999     
881.96     4.2545     -9999     
882.16     4.2545     -9999     
882.36     4.2545     -9999     
882.56     4.2545     -9999     
882.76     4.2545     -9999     
882.96     4.2545     -9999     
883.16     4.2545     -9999     
883.36     4.2545     -9999     
883.56     4.2545     -9999     
883.76     4.2545     -9999     
883.96     4.2545     -9999     
884.16     4.2545     -9999     
884.36     4.2545     -9999     
884.56     4.2545     -9999     
884.76     4.2545     -9999     
884.96     4.2545     -9999     
885.16     4.2545     -9999     
885.36     4.2545     -9999     
885.56     4.2545     -9999     
885.76     4.2545     -9999     
885.96     4.2545     -9999     
886.16     4.2545     -9999     
886.36     4.2545     -9999     
886.56     4.2545     -9999     
886.76     4.2545     -9999     
886.96     4.2545     -9999     
887.16     4.2545     -9999     
887.36     4.2545     -9999     
887.56     4.2545     -9999     
887.76     4.2545     -9999     
887.96     4.2545     -9999     
888.16     4.2545     -9999     
888.36     4.2545     -9999     
888.56     4.2545     -9999     
888.76     4.2545     -9999     
888.96     4.2545     -9999     
889.16     4.2545     -9999     
889.36     4.2545     -9999     
889.56     4.2545     -9999     
889.76     4.2545     -9999     
889.96     4.2545     -9999     
890.16     4.2545     -9999     
890.36     4.2545     -9999     
890.56     4.2545     -9999     
890.76     4.2545     -9999     
890.96     4.2545     -9999     
891.16     4.2545     -9999     
891.36     4.2545     -9999     
891.56     4.2545     -9999     
891.76     4.2545     -9999     
891.96     4.2545     -9999     
892.16     4.2545     -9999     
892.36     4.2545     -9999     
892.56     4.2545     -9999     
892.76     4.2545     -9999     
892.96     4.2545     -9999     
893.16     4.2545     -9999     
893.36     4.2545     -9999     
893.56     4.2545     -9999     
893.76     4.2545     -9999     
893.96     4.2545     -9999     
894.16     4.2545     -9999     
894.36     4.2545     -9999     
894.56     4.2545     -9999     
894.76     4.2545     -9999     
894.96     4.2545     -9999     
895.16     4.2545     -9999     
895.36     4.2545     -9999     
895.56     4.2545     -9999     
895.76     4.2545     -9999     
895.96     4.2545     -9999     
896.16     4.2545     -9999     
896.36     4.2545     -9999     
896.56     4.2545     -9999     
896.76     4.2545     -9999     
896.96     4.2545     -9999     
897.16     4.2545     -9999     
897.36     4.2545     -9999     
897.56     4.2545     -9999     
897.76     4.2545     -9999     
897.96     4.2545     -9999     
898.16     4.2545     -9999     
898.36     4.2545     -9999     
898.56     4.2545     -9999     
898.76     4.2545     -9999     
898.96     4.2545     -9999     
899.16     4.2545     -9999     
899.36     4.2545     -9999     
899.56     4.2545     -9999     
899.76     4.2545     -9999     
899.96     4.2545     -9999     
900.16     4.2545     -9999     
900.36     4.2545     -9999     
900.56     4.2545     -9999     
900.76     4.2545     -9999     
900.96     4.2545     -9999     
901.16     4.2545     -9999     
901.36     4.2545     -9999     
901.56     4.2545     -9999     
901.76     4.2545     -9999     
901.96     4.2545     -9999     
902.16     4.2545     -9999     
902.36     4.2545     -9999     
902.56     4.2545     -9999     
902.76     4.2545     -9999     
902.96     4.2545     -9999     
903.16     4.2545     -9999     
903.36     4.2545     -9999     
903.56     4.2545     -9999     
903.76     4.2545     -9999     
903.96     4.2545     -9999     
904.16     4.2545     -9999     
904.36     4.2545     -9999     
904.56     4.2545     -9999     
904.76     4.2545     -9999     
904.96     4.2545     -9999     
905.16     4.2545     -9999     
905.36     4.2545     -9999     
905.56     4.2545     -9999     
905.76     4.2545     -9999     
905.96     4.2545     -9999     
906.16     4.2545     -9999     
906.36     4.2545     -9999     
906.56     4.2545     -9999     
906.76     4.2545     -9999     
906.96     4.2545     -9999     
907.16     4.2545     -9999     
907.36     4.2545     -9999     
907.56     4.2545     -9999     
907.76     4.2545     -9999     
907.96     4.2545     -9999     
908.16     4.2545     -9999     
908.36     4.2545     -9999     
908.56     4.2545     -9999     
908.76     4.2545     -9999     
908.96     4.2545     -9999     
909.16     4.2545     -9999     
909.36     4.2545     -9999     
909.56     4.2545     -9999     
909.76     4.2545     -9999     
909.96     4.2545     -9999     
910.16     4.2545     -9999     
910.36     4.2545     -9999     
910.56     4.2545     -9999     
910.76     4.2545     -9999     
910.96     4.2545     -9999     
911.16     4.2545     -9999     
911.36     4.2545     -9999     
911.56     4.2545     -9999     
911.76     4.2545     -9999     
911.96     4.2545     -9999     
912.16     4.2545     -9999     
912.36     4.2545     -9999     
912.56     4.2545     -9999     
912.76     4.2545     -9999     
