~Version
 VERS              .         2.0                           : CWLS LOG ASCII STANDARD - VERSION 2.0
 WRAP              .         NO                            : ONE LINE PER DEPTH STEP
 DLM               .         SPACE                         : DELIMITING CHARACTER(SPACE TAB OR COMMA)
~Well Information
#_______________________________________________________________________________
#
#PARAMETER_NAME    .UNIT     VALUE                         : DESCRIPTION
#_______________________________________________________________________________
STRT               .m        2355.27                       : First reference value
STOP               .m        2564.47                       : Last reference value
STEP               .m        0.2                           : Step increment
NULL               .         -9999                         : Missing value
COMP               .                                       : Company
WELL               .         403                           : Well name
FLD                .                                       : Field
LOC                .                                       : Location
CNTY               .                                       : County
STAT               .                                       : State
CTRY               .                                       : Country
SRVC               .                                       : Service Company
DATE               .                                       : Date
API                .                                       : API number
EREF               .m        140.4                         : 
Pad                .         4                             : 
X                  .m        222100                        : 
Y                  .m        250025                        : 
group              .         Pad4                          : 
Интер-р            .         Пузин                         : 
Куст               .         4                             : 
Статус             .         Не проверено                  : 
Тип                .         Разведка                      : 
~Parameter Information Block
#_______________________________________________________________________________
#
#PARAMETER_NAME    .UNIT     VALUE                         : DESCRIPTION
#_______________________________________________________________________________
SET                .         LAS3                          : 
REAL_CREATION_DATE .         Ср апр 11 2012-13_17_14       : 
TLFamily_DEPTH     .         Measured Depth                : 
TLFamily_GR        .         Gamma Ray                     : 
TLFamily_TNPH      .         Neutron Porosity              : 
group              .         INI                           : 
~Curve Information
#_______________________________________________________________________________
#
#LOGNAME           .UNIT     LOG_ID                        : DESCRIPTION
#_______________________________________________________________________________
DEPTH              .m                                      : Measured Depth 
GR                 .gAPI                                   :  
TNPH               .v/v                                    : Neutron Porosity 
~Ascii
2355.27    44.744     -9999     
2355.47    48.615     -9999     
2355.67    46.359     -9999     
2355.87    42.256     -9999     
2356.07    37.333     -9999     
2356.27    23.59      -9999     
2356.47    15.705     -9999     
2356.67    17.692     -9999     
2356.87    23.692     -9999     
2357.07    30.051     0.3005    
2357.27    37.744     0.3013    
2357.47    38.051     0.2932    
2357.67    46.308     0.264     
2357.87    45.449     0.2637    
2358.07    46.09      0.2678    
2358.27    43.795     0.2754    
2358.47    41.795     0.2961    
2358.67    40.872     0.323     
2358.87    40.667     0.3281    
2359.07    41.282     0.3027    
2359.27    44.167     0.2806    
2359.47    41.538     0.2628    
2359.67    42.256     0.2628    
2359.87    39.231     0.2532    
2360.07    39.641     0.2642    
2360.27    41.949     0.2801    
2360.47    42.462     0.2818    
2360.67    43.974     0.301     
2360.87    44.615     0.3333    
2361.07    50.872     0.3268    
2361.27    45.128     0.2779    
2361.47    43.436     0.2539    
2361.67    39.59      0.2483    
2361.87    39.487     0.2325    
2362.07    38.013     0.2245    
2362.27    38.205     0.2198    
2362.47    38.821     0.2357    
2362.67    39.167     0.2554    
2362.87    37.692     0.2651    
2363.07    38.41      0.2741    
2363.27    41.128     0.2984    
2363.47    42.667     0.3228    
2363.67    40         0.3271    
2363.87    39.128     0.3051    
2364.07    42.179     0.2911    
2364.27    45.231     0.2759    
2364.47    46.872     0.28      
2364.67    42.359     0.2744    
2364.87    42.5       0.2513    
2365.07    40.667     0.2519    
2365.27    39.641     0.3071    
2365.47    37.949     0.3567    
2365.67    40.923     0.3573    
2365.87    44.667     0.3228    
2366.07    43.077     0.2965    
2366.27    40.718     0.2704    
2366.47    41.231     0.2473    
2366.67    42.564     0.2476    
2366.87    37.436     0.2502    
2367.07    38.91      0.2606    
2367.27    39.846     0.2883    
2367.47    43.436     0.2973    
2367.67    38.154     0.3072    
2367.87    42.154     0.3153    
2368.07    36.718     0.3031    
2368.27    35.128     0.2742    
2368.47    31.59      0.3018    
2368.67    22.564     0.3142    
2368.87    24.872     0.2592    
2369.07    36.615     0.2282    
2369.27    60.962     0.2232    
2369.47    66.71799   0.2142    
2369.67    68         0.1906    
2369.87    69.59      0.1967    
2370.07    79.231     0.222     
2370.27    78.718     0.2264    
2370.47    79.026     0.2406    
2370.67    83.436     0.2614    
2370.87    79.949     0.2799    
2371.07    80.41      0.2789    
2371.27    78.462     0.2539    
2371.47    81.077     0.2488    
2371.67    77.949     0.2454    
2371.87    75.231     0.2399    
2372.07    70.769     0.2627    
2372.27    70.38499   0.2853    
2372.47    77.179     0.2795    
2372.67    83.84599   0.2986    
2372.87    81.34599   0.3148    
2373.07    79.692     0.3027    
2373.27    82         0.2855    
2373.47    80.192     0.2397    
2373.67    80.103     0.2289    
2373.87    72.97401   0.2376    
2374.07    74.46201   0.2774    
2374.27    76.85899   0.2758    
2374.47    76.66701   0.2562    
2374.67    76.41      0.2437    
2374.87    77.02599   0.2474    
2375.07    71.692     0.2402    
2375.27    73.179     0.2407    
2375.47    75.38499   0.2638    
2375.67    82.244     0.2789    
2375.87    75.077     0.2825    
2376.07    74.769     0.2673    
2376.27    70.64101   0.2459    
2376.47    70.962     0.2523    
2376.67    74.231     0.2571    
2376.87    73.65401   0.2497    
2377.07    72.923     0.2519    
2377.27    74.41      0.2483    
2377.47    69.128     0.2598    
2377.67    72.821     0.2973    
2377.87    70.38499   0.2825    
2378.07    73.026     0.2699    
2378.27    72.756     0.2721    
2378.47    71.987     0.2587    
2378.67    69.295     0.2339    
2378.87    72.11501   0.2437    
2379.07    74.41      0.2443    
2379.27    69.179     0.2458    
2379.47    71.15401   0.303     
2379.67    69.35899   0.3011    
2379.87    69.35899   0.2823    
2380.07    73.205     0.2752    
2380.27    77.897     0.2609    
2380.47    81.923     0.2505    
2380.67    80.769     0.2644    
2380.87    74.205     0.2674    
2381.07    77.744     0.2622    
2381.27    75.064     0.2834    
2381.47    77.333     0.2839    
2381.67    78.821     0.2769    
2381.87    75.795     0.2847    
2382.07    71.538     0.2778    
2382.27    67.795     0.304     
2382.47    70.103     0.2881    
2382.67    72         0.2772    
2382.87    72.103     0.2918    
2383.07    75.064     0.2759    
2383.27    75.795     0.272     
2383.47    71.282     0.269     
2383.67    72.37199   0.2793    
2383.87    72.436     0.2829    
2384.07    73.692     0.2995    
2384.27    72.513     0.2984    
2384.47    67.38499   0.3068    
2384.67    76.923     0.2983    
2384.87    77.564     0.2534    
2385.07    70.38499   0.2489    
2385.27    73.231     0.2504    
2385.47    75.33301   0.2345    
2385.67    76.513     0.2446    
2385.87    77.128     0.2592    
2386.07    79.231     0.2569    
2386.27    78.462     0.2742    
2386.47    75.12801   0.2723    
2386.67    74.61501   0.2486    
2386.87    74.423     0.2445    
2387.07    73.744     0.241     
2387.27    73.077     0.2439    
2387.47    74.487     0.2497    
2387.67    75.83299   0.253     
2387.87    74.038     0.2726    
2388.07    65.513     0.273     
2388.27    65.84601   0.2443    
2388.47    65.705     0.241     
2388.67    67.11501   0.2437    
2388.87    69.103     0.215     
2389.07    74.66699   0.223     
2389.27    73.897     0.2243    
2389.47    70.321     0.2277    
2389.67    71.66701   0.2582    
2389.87    73.205     0.2833    
2390.07    74.564     0.2672    
2390.27    72.051     0.2446    
2390.47    74.103     0.2289    
2390.67    74.513     0.2344    
2390.87    76.71799   0.2369    
2391.07    71.15401   0.2247    
2391.27    68.462     0.2216    
2391.47    64         0.2397    
2391.67    63.64101   0.2684    
2391.87    61.59      0.2696    
2392.07    64.41      0.253     
2392.27    73.269     0.238     
2392.47    75.321     0.236     
2392.67    73.718     0.235     
2392.87    73.526     0.2553    
2393.07    71.026     0.2559    
2393.27    68.397     0.2484    
2393.47    70.962     0.2423    
2393.67    72.37199   0.2153    
2393.87    65.64101   0.205     
2394.07    65.436     0.2194    
2394.27    64.61501   0.2277    
2394.47    66.026     0.2302    
2394.67    71.85899   0.2527    
2394.87    68.769     0.2726    
2395.07    67.051     0.2881    
2395.27    72.513     0.2812    
2395.47    79.949     0.2567    
2395.67    79.795     0.2634    
2395.87    74.61501   0.2774    
2396.07    76.103     0.255     
2396.27    73.79501   0.2295    
2396.47    75.769     0.2308    
2396.67    75.83299   0.2619    
2396.87    80.064     0.2777    
2397.07    77.538     0.2594    
2397.27    80.577     0.2392    
2397.47    87.282     0.2215    
2397.67    91.641     0.2319    
2397.87    89.679     0.2396    
2398.07    91.026     0.2468    
2398.27    88.615     0.248     
2398.47    89.538     0.2439    
2398.67    89.16701   0.2119    
2398.87    87.308     0.226     
2399.07    88.718     0.2834    
2399.27    86.603     0.3008    
2399.47    83.94901   0.3019    
2399.67    77.795     0.3006    
2399.87    74.61501   0.2719    
2400.07    78.974     0.2553    
2400.27    75.64101   0.2394    
2400.47    75.64101   0.2259    
2400.67    76.731     0.2004    
2400.87    78.526     0.2012    
2401.07    72.564     0.1993    
2401.27    68.923     0.2121    
2401.47    72.62801   0.2606    
2401.67    82.436     0.2862    
2401.87    79.077     0.2949    
2402.07    74.744     0.275     
2402.27    75.12801   0.2661    
2402.47    77.949     0.2568    
2402.67    75.64101   0.2393    
2402.87    71.385     0.2293    
2403.07    69.295     0.2254    
2403.27    64.923     0.2194    
2403.47    60.641     0.2196    
2403.67    54.167     0.2322    
