~Version
 VERS              .         2.0                           : CWLS LOG ASCII STANDARD - VERSION 2.0
 WRAP              .         NO                            : ONE LINE PER DEPTH STEP
 DLM               .         SPACE                         : DELIMITING CHARACTER(SPACE TAB OR COMMA)
~Well Information
#_______________________________________________________________________________
#
#PARAMETER_NAME    .UNIT     VALUE                         : DESCRIPTION
#_______________________________________________________________________________
STRT               .m        2331.6                        : First reference value
STOP               .m        2561.999885                   : Last reference value
STEP               .m        0.1999999                     : Step increment
NULL               .         -9999                         : Missing value
COMP               .                                       : Company
WELL               .         403                           : Well name
FLD                .                                       : Field
LOC                .                                       : Location
CNTY               .                                       : County
STAT               .                                       : State
CTRY               .                                       : Country
SRVC               .                                       : Service Company
DATE               .                                       : Date
API                .                                       : API number
EREF               .m        140.4                         : 
Pad                .         4                             : 
X                  .m        222100                        : 
Y                  .m        250025                        : 
group              .         Pad4                          : 
Интер-р            .         Пузин                         : 
Куст               .         4                             : 
Статус             .         Не проверено                  : 
Тип                .         Разведка                      : 
~Parameter Information Block
#_______________________________________________________________________________
#
#PARAMETER_NAME    .UNIT     VALUE                         : DESCRIPTION
#_______________________________________________________________________________
SET                .         LAS1                          : 
REAL_CREATION_DATE .         Ср апр 11 2012-13_17_13       : 
TLFamily_DEPTH     .         Measured Depth                : 
TLFamily_KS        .         Potential Resistivity         : 
TLFamily_KS1       .         Extra Shallow Resistivity     : 
TLFamily_KS2       .         Shallow Resistivity           : 
TLFamily_KS3       .         Medium Resistivity            : 
TLFamily_KS4       .         Deep Resistivity              : 
TLFamily_KS5       .         Extra Deep Resistivity        : 
TLFamily_LLD       .         Lateral Log Resistivity       : 
TLFamily_OKS       .         Medium Resistivity Inverted   : 
TLFamily_RM        .         Mud Resistivity               : 
TLFamily_SP        .         Spontaneous Potential         : 
group              .         INI                           : 
~Curve Information
#_______________________________________________________________________________
#
#LOGNAME           .UNIT     LOG_ID                        : DESCRIPTION
#_______________________________________________________________________________
DEPTH              .m                                      : Measured Depth 
KS                 .ohm.m                                  : Potential Resistivity 
KS1                .ohm.m                                  : Extra Shallow Resistivity 
KS2                .ohm.m                                  : Shallow Resistivity 
KS3                .ohm.m                                  : Medium Resistivity 
KS4                .ohm.m                                  : Deep Resistivity 
KS5                .ohm.m                                  : Extra Deep Resistivity 
LLD                .ohm.m                                  : Lateral Log Resistivity 
OKS                .ohm.m                                  : Medium Resistivity Inverted 
RM                 .ohm.m                                  : Mud Resistivity 
SP                 .mV                                     : Spontaneous Potential 
~Ascii
# ...
2423.999954 6.7718     1.9526     6.2599     8.8119     8.722      7.7399     5.8086     13.5513    0.1251     188.9449  
2424.199954 6.9561     1.9154     6.0957     8.7187     8.7516     8.041      5.1873     14.1213    0.1285     187       
2424.399954 7.1462     1.9798     6.4241     8.997      9.1855     8.3716     6.1288     14.7431    0.1251     184.1944  
2424.599954 7.3499     2.0815     6.8971     9.5861     9.843      8.7608     6.8192     15.2701    0.1251     181.9484  
2424.799953 7.5332     2.1697     7.1254     10.227     10.5466    9.3367     7.4634     15.7146    0.1285     184.1204  
2424.999953 7.6656     2.2376     7.3701     10.7948    11.2075    9.8602     6.7281     15.9672    0.1285     185.5317  
2425.199953 7.6894     2.3152     7.7248     11.321     11.7301    10.1088    8.7303     15.3001    0.1285     187.25    
2425.399953 7.5672     2.5972     8.9993     12.305     12.4731    10.0041    9.7696     14.3796    0.1285     189.5833  
2425.599953 7.4721     2.7668     9.1372     12.7128    12.5191    9.8864     18.967     13.8946    0.1251     190.2527  
2425.799953 7.3499     2.5293     8.5173     12.0331    11.5723    9.5199     6.4015     14.0306    0.1266     189.8952  
2425.999953 7.3578     2.1833     7.9942     11.5091    10.8146    9.1142     4.7978     14.6848    0.1251     187.5305  
2426.199953 7.4246     2.0784     7.5343     11.0491    10.5268    8.9571     4.8002     14.6978    0.1251     183.3611  
2426.399953 7.5944     2.129      7.692      11.075     10.5334    8.9964     6.6756     14.2589    0.1251     181.9444  
2426.599952 7.8048     2.1358     7.3504     11.2433    10.7833    9.3105     6.8457     14.2897    0.1251     185.2398  
2426.799952 8.0357     1.9933     7.0463     11.5152    11.283     9.834      5.8744     14.7496    0.1251     188.7355  
2426.999952 8.1647     2.1901     7.3898     12.4393    12.1972    10.1743    5.888      14.3998    0.1251     191.1842  
2427.199952 8.2188     2.5904     8.6708     13.4249    12.861     10.4491    15.2433    12.9879    0.1251     193.0833  
2427.399952 8.2666     2.7357     9.1241     14.2341    13.1963    10.5146    22.4777    12.0355    0.1251     194.6667  
2427.599952 8.1104     2.5158     8.6839     14.3247    13.1766    10.5277    12.377     11.699     0.1251     197.4134  
2427.799952 7.8795     2.6583     9.4066     14.2082    13.4462    10.6193    5.89       11.7508    0.1251     198.8812  
2427.999952 7.795      2.4954     9.2671     14.3228    13.7628    10.9596    8.5175     12.6122    0.1285     199.1634  
2428.199952 7.6215     2.4143     9.1832     14.5383    14.3272    11.3391    5.0206     13.6355    0.1251     200.9722  
2428.399952 7.3499     2.4954     9.873      15.8589    15.7146    11.3391    6.0103     13.4283    0.1251     201.6944  
2428.599951 7.2141     2.9093     10.7664    16.6422    16.2735    11.1559    10.533     12.8223    0.1251     201.6587  
2428.799951 7.1259     2.6379     9.6982     15.5806    14.9913    10.6193    11.7927    12.3726    0.1251     200.0833  
2428.999951 7.035      2.319      8.3752     14.1952    13.5948    9.6639     4.0765     12.12      0.1251     195.7698  
2429.199951 6.9629     2.3119     8.2569     13.8989    13.2226    8.6299     5.3666     11.6666    0.1251     193.1111  
2429.399951 6.9425     2.3461     8.2569     13.7486    12.9136    8.2896     6.6794     11.3557    0.1251     192.1934  
2429.599951 6.861      2.3461     8.0861     13.1012    12.4139    7.8054     5.8882     11.3816    0.1217     193.0496  
2429.799951 6.8339     2.2715     7.8559     12.2079    11.638     7.3997     5.7628     11.7896    0.1217     194.9663  
2429.999951 6.8168     2.1358     7.3373     11.7436    11.0962    7.0594     4.6606     12.2495    0.1251     193.8323  
2430.199951 6.8271     2.1839     7.5146     11.3857    11.0068    6.7583     5.2729     12.5733    0.1217     191.7222  
2430.399951 6.895      2.2579     7.5343     11.3469    10.9542    6.6667     6.9962     12.632     0.1217     189.2222  
2430.59995 6.8814     2.2376     7.3701     11.4505    10.8556    6.5489     5.6612     12.8583    0.1217     185.6545  
2430.79995 6.9018     2.2512     7.3795     11.4052    10.8951    6.4573     6.4562     13.2469    0.1251     182.2678  
2430.99995 6.8678     2.2037     7.3373     11.3472    11.0923    6.4442     5.2884     13.3117    0.1251     176.8489  
2431.19995 6.8746     2.2684     7.5606     11.3728    11.259     6.4442     6.2143     13.0591    0.1251     169.8056  
2431.39995 6.9357     2.2851     7.5475     11.3081    11.3027    6.4573     6.5529     13.1055    0.1251     166.8611  
2431.59995 7.0444     2.0951     6.93       10.8873    11.0266    6.5228     5.4542     13.4089    0.1217     162.7297  
2431.79995 7.187      2.0544     6.9869     10.6607    10.9674    6.6275     4.6347     13.5513    0.1251     156.5914  
2431.99995 7.326      2.1358     7.1665     10.7559    11.1211    6.7714     6.6876     13.3635    0.1251     153.9519  
2432.19995 7.5265     2.146      7.1665     10.8225    11.1975    6.978      6.9076     13.1433    0.1251     153.25    
2432.39995 7.7505     2.1087     7.0351     10.8873    11.4539    7.2426     6.1986     13.1134    0.1251     148.9167  
2432.59995 7.9678     2.0951     7.1927     11.2433    12.3679    7.6091     6.6036     13.0526    0.1251     143.8763  
2432.799949 8.0221     2.2783     7.6782     12.2338    13.6632    8.0279     7.088      12.5669    0.1251     138.0357  
2432.999949 7.9812     2.6786     8.8088     13.2832    14.3868    8.3943     12.8104    11.414     0.1285     132.2857  
2433.199949 7.832      2.852      9.6693     13.9039    14.9387    8.6168     19.1568    10.3906    0.1251     124.6819  
2433.399949 7.5265     2.8482     9.6956     14.2082    14.827     8.6823     6.9334     10.0643    0.1285     113.6655  
2433.599949 7.1938     2.7125     9.5379     13.9298    14.3338    8.6299     5.73       9.9891     0.1268     106.0487  
2433.799949 7.0098     2.5226     9.3861     13.5608    13.6697    8.5514     5.1795     10.1251    0.1251     101.2709  
2433.999949 6.9222     2.3623     8.9204     13.3377    13.2352    8.4598     4.7856     10.2611    0.1251     95.9433   
2434.199949 6.8271     2.2851     8.4606     13.1659    12.8873    8.3551     5.3996     10.0992    0.1251     91.5833   
2434.399949 6.7592     2.3326     8.3686     13.2307    12.815     8.3289     6.1973     9.921      0.1285     87.9683   
2434.599948 6.6845     2.3801     8.2398     13.3148    12.6769    8.3289     6.11       9.7235     0.1285     86.5596   
2434.799948 6.5623     2.3461     8.073      13.2242    12.4731    8.3289     5.3285     9.6782     0.1285     87.2541   
2434.999948 6.4865     2.3529     7.9482     13.1787    12.2661    8.3551     5.5258     9.6069     0.1285     85.5794   
2435.199948 6.4197     2.3315     7.9022     13.0171    12.1772    8.3943     5.5709     9.5486     0.1285     83.7778   
2435.399948 6.3043     2.3122     7.9153     12.6028    12.0128    8.4784     5.1919     9.6034     0.1318     82.2051   
2435.599948 6.1821     2.2919     7.6986     12.1302    11.8616    8.5514     4.9252     9.7365     0.1352     77.7027   
2435.799948 6.1109     2.2444     7.5954     11.7434    11.7104    8.6561     4.874      9.8077     0.1386     74.4249   
2435.999948 6.0598     2.2376     7.5737     11.5217    11.6775    8.643      4.9757     9.7429     0.1386     73.5106   
2436.199948 5.9987     2.2308     7.4358     11.2627    11.6183    8.6689     4.7327     9.7429     0.1352     72.5833   
2436.399948 5.9512     2.1969     7.2519     11.0167    11.4737    8.6954     4.6627     9.7954     0.1352     72.4444   
2436.599947 5.9308     2.1562     7.1338     10.7772    11.3553    8.7346     4.5977     9.9113     0.1335     70.3512   
2436.799947 5.9376     2.1358     7.0679     10.46      11.1975    8.8786     4.5286     10.0279    0.1318     67.7454   
2436.999947 5.9716     2.0917     6.8905     10.2697    11.1085    9.0226     4.5713     10.1056    0.1318     68.6568   
