~Version
 VERS              .         2.0                           : CWLS LOG ASCII STANDARD - VERSION 2.0
 WRAP              .         NO                            : ONE LINE PER DEPTH STEP
 DLM               .         SPACE                         : DELIMITING CHARACTER(SPACE TAB OR COMMA)
~Well Information
#_______________________________________________________________________________
#
#PARAMETER_NAME    .UNIT     VALUE                         : DESCRIPTION
#_______________________________________________________________________________
STRT               .m        2331.6                        : First reference value
STOP               .m        2561.999885                   : Last reference value
STEP               .m        0.1999999                     : Step increment
NULL               .         -9999                         : Missing value
COMP               .                                       : Company
WELL               .         403                           : Well name
FLD                .                                       : Field
LOC                .                                       : Location
CNTY               .                                       : County
STAT               .                                       : State
CTRY               .                                       : Country
SRVC               .                                       : Service Company
DATE               .                                       : Date
API                .                                       : API number
EREF               .m        140.4                         : 
Pad                .         4                             : 
X                  .m        222100                        : 
Y                  .m        250025                        : 
group              .         Pad4                          : 
Интер-р            .         Пузин                         : 
Куст               .         4                             : 
Статус             .         Не проверено                  : 
Тип                .         Разведка                      : 
~Parameter Information Block
#_______________________________________________________________________________
#
#PARAMETER_NAME    .UNIT     VALUE                         : DESCRIPTION
#_______________________________________________________________________________
SET                .         LAS1                          : 
REAL_CREATION_DATE .         Ср апр 11 2012-13_17_13       : 
TLFamily_DEPTH     .         Measured Depth                : 
TLFamily_KS        .         Potential Resistivity         : 
TLFamily_KS1       .         Extra Shallow Resistivity     : 
TLFamily_KS2       .         Shallow Resistivity           : 
TLFamily_KS3       .         Medium Resistivity            : 
TLFamily_KS4       .         Deep Resistivity              : 
TLFamily_KS5       .         Extra Deep Resistivity        : 
TLFamily_LLD       .         Lateral Log Resistivity       : 
TLFamily_OKS       .         Medium Resistivity Inverted   : 
TLFamily_RM        .         Mud Resistivity               : 
TLFamily_SP        .         Spontaneous Potential         : 
group              .         INI                           : 
~Curve Information
#_______________________________________________________________________________
#
#LOGNAME           .UNIT     LOG_ID                        : DESCRIPTION
#_______________________________________________________________________________
DEPTH              .m                                      : Measured Depth 
KS                 .ohm.m                                  : Potential Resistivity 
KS1                .ohm.m                                  : Extra Shallow Resistivity 
KS2                .ohm.m                                  : Shallow Resistivity 
KS3                .ohm.m                                  : Medium Resistivity 
KS4                .ohm.m                                  : Deep Resistivity 
KS5                .ohm.m                                  : Extra Deep Resistivity 
LLD                .ohm.m                                  : Lateral Log Resistivity 
OKS                .ohm.m                                  : Medium Resistivity Inverted 
RM                 .ohm.m                                  : Mud Resistivity 
SP                 .mV                                     : Spontaneous Potential 
~Ascii
# ...
2503.199914 14.8121    3.8117     16.6694    25.9935    21.3166    13.8127    99.63      7.5408     0.1217     185.4414  
2503.399914 13.5763    4.1509     17.7758    30.6703    24.4989    14.5195    104.2036   6.4138     0.1217     184.5556  
2503.599914 11.9671    4.5513     19.9042    37.6423    28.4834    15.2655    470.6207   5.4876     0.1217     185.0278  
2503.799914 10.7924    4.9176     21.8947    45.417     32.2918    15.5534    117.4465   4.79       0.1251     184.3889  
2503.999914 9.0881     5.1483     23.9837    50.4469    34.5983    15.043     13.0806    4.5096     0.1251     184.1944  
2504.199914 7.3907     5.0669     21.737     48.835     35.3149    13.9305    3.4394     4.4125     0.1251     185.1054  
2504.399914 6.1277     3.9067     16.9809    41.9741    31.7907    13.1191    2.835      4.5614     0.1251     187.2551  
2504.599913 5.3537     2.9907     14.4714    36.9626    27.1618    11.0119    2.6991     4.7622     0.1217     188.772   
2504.799913 4.9259     2.4276     11.7255    29.777     23.5916    8.8131     2.7117     4.976      0.1251     188.7778  
2504.999913 4.6883     2.1426     9.308      24.1839    21.3889    7.2557     2.9068     5.1249     0.1217     189.6111  
2505.199913 4.5884     2.0544     7.7511     20.2544    20.6431    6.2087     3.2582     5.1379     0.1251     189.9167  
2505.399913 4.471      2.0372     6.8971     17.4579    20.1791    5.5019     3.4639     5.079      0.1285     188.75    
2505.599913 4.3284     2.0815     6.4635     15.108     19.7122    5.2401     3.3976     4.9436     0.1352     187.9722  
2505.799913 4.1722     2.0747     6.1548     13.6903    18.7654    4.769      3.2618     4.7234     0.1352     187.7778  
2505.999913 4.0364     2.0137     5.9236     11.8324    17.0559    4.3633     2.9395     4.6586     0.1318     188.4444  
2506.199913 3.9006     1.9051     5.6095     9.858      15.2346    3.9837     2.7533     4.7104     0.1285     190.3889  
2506.399913 3.8465     1.8441     5.4453     8.2655     13.7416    3.6565     2.7881     4.7987     0.1285     190.6667  
2506.599912 3.8192     1.7665     5.0709     7.0873     12.6966    3.434      2.5234     4.8853     0.1285     189.6559  
2506.799912 3.8327     1.6677     4.6833     6.304      11.1581    3.2639     2.59       5.0861     0.1251     190.7407  
2506.999912 3.8803     1.6134     4.5782     5.948      10.0995    3.1984     3.0687     5.2933     0.1217     189.324   
2507.199912 3.955      1.6744     4.6302     5.8827     9.4354     3.133      3.4877     5.4034     0.1217     187.017   
2507.399912 3.9821     1.7762     4.7424     5.8897     8.8568     3.1199     3.6139     5.5071     0.1217     185.5833  
2507.599912 3.9617     1.8576     4.8738     5.8509     8.2519     3.1199     3.5755     5.7014     0.1217     184.3611  
2507.799912 3.8661     1.9391     4.9263     5.812      7.8639     3.0806     3.5616     5.7986     0.1217     184.8889  
2507.999912 3.8192     1.9614     5.222      5.5984     7.2196     3.0283     3.1926     5.9281     0.1217     186.1825  
2508.199912 3.7852     1.8237     4.8147     5.1388     6.2859     3.0152     2.5868     6.226      0.1217     185.6296  
2508.399912 3.758      1.7016     4.6439     4.8938     5.5035     2.989      2.8168     6.796      0.1183     183.4047  
2508.599911 3.7377     1.6677     4.6476     4.7698     5.0761     2.9629     3.2743     7.353      0.1217     183.0278  
2508.799911 3.7445     1.7151     4.6701     4.7116     4.7671     3.0545     3.2219     7.8387     0.1217     182.1111  
2508.999911 3.7548     1.7219     4.5782     4.6145     4.4646     3.2246     2.9141     8.5447     0.1217     179.3333  
2509.199911 3.792      1.6462     4.2563     4.472      4.3077     3.5125     2.4464     9.2135     0.1217     174.9583  
2509.399911 3.9414     1.5455     3.9607     4.3102     4.2213     3.8103     2.4074     10.4554    0.1251     170.6944  
2509.599911 4.2605     1.342      3.6256     4.2455     4.3594     4.1539     2.4735     12.1718    0.1285     166.1111  
2509.799911 4.6883     1.3013     3.6602     4.3632     4.6224     4.7428     4.9851     12.7676    0.1318     156.2361  
2509.999911 5.2654     1.4641     3.9147     4.5173     4.8262     5.4496     5.6751     11.8479    0.1301     145.9167  
2510.199911 5.6695     1.6812     4.184      4.7828     5.0169     6.0254     6.0318     10.8311    0.1285     139.8056  
2510.399911 5.9105     1.7796     4.5388     5.0482     5.1477     6.5489     5.799      10.4263    0.1251     137.4444  
2510.599911 6.1956     1.8712     5.1168     5.3783     5.3588     7.0332     6.6995     10.3259    0.1217     136.8957  
2510.79991 6.4061     1.9933     5.892      5.825      5.5824     7.2557     6.9685     10.3453    0.1217     135.874   
2510.99991 6.5215     2.1222     6.5196     6.1293     5.8191     7.6352     7.2111     10.5202    0.1217     136.5407  
2511.19991 6.5351     2.2376     6.9037     6.5371     6.0558     8.0017     6.4811     10.7274    0.1217     137.6457  
2511.39991 6.4197     2.3054     7.2781     7.0873     6.3188     8.4074     6.8995     10.8181    0.1217     139.8056  
2511.59991 6.2759     2.4276     7.8891     7.7994     6.6278     8.9048     6.5902     11.2278    0.1217     145.5278  
2511.79991 6.1549     2.3426     7.9679     8.7445     7.0022     9.3367     4.2254     11.9775    0.1217     151.834   
2511.99991 5.8154     2.3665     8.3949     10.2205    7.3379     9.3563     5.702      13.1239    0.1217     156.3098  
2512.19991 5.4895     2.6175     9.2686     11.1787    7.5549     9.1927     7.024      13.2987    0.1217     158.5876  
2512.39991 5.3808     2.4954     7.9769     11.1074    6.7593     8.6954     2.8383     12.7288    0.1217     161.0563  
2512.599909 5.408      1.9798     6.8774     9.5796     5.3786     8.0279     2.435      13.1109    0.1217     163.2222  
2512.799909 5.5574     1.5523     5.4256     7.78       4.5041     7.4651     2.4152     15.7017    0.1217     164.3611  
2512.999909 5.7407     1.2809     4.4271     6.5953     4.3123     7.3866     2.7479     19.8504    0.1251     162.5833  
2513.199909 6.0938     1.2131     4.2366     6.3882     4.4646     7.7923     5.4498     22.47      0.1318     159.1111  
2513.399909 6.6438     1.342      4.7687     7.0873     5.0564     8.2631     15.1134    24.1799    0.1285     155.1509  
2513.599909 7.3363     1.7626     5.5176     7.7424     5.7862     8.7215     8.7951     24.0504    0.1285     151.3705  
2513.799909 7.9203     1.9458     5.488      8.0648     6.5095     9.2712     8.4724     23.8561    0.1217     148.8175  
2513.999909 8.382      2.0205     5.6621     8.2849     7.3182     9.7947     8.2693     24.0828    0.1217     146.3056  
2514.199909 8.6082     2.0612     6.1942     8.8287     8.1469     10.5015    12.2394    23.869     0.1217     143.3056  
2514.399909 8.9184     2.2156     7.2256     9.3919     8.6727     11.3129    8.2934     24.1009    0.1183     141.3889  
2514.599908 9.3462     2.0951     7.0942     9.858      9.6261     11.7942    7.7265     24.5102    0.1183     140.4167  
2514.799908 9.6381     2.034      7.6066     10.35      10.7109    12.1375    18.3776    24.5491    0.1217     140.0278  
2514.999908 9.9912     2.2579     8.3365     10.8096    11.6709    12.5694    17.2301    22.8457    0.1217     137.7222  
2515.199908 10.256     2.3597     8.7037     11.6447    12.4665    12.4908    13.4434    21.1293    0.1217     134.7222  
2515.399908 10.3171    2.604      9.5248     12.8876    12.8939    12.0197    10.8573    19.8534    0.1217     133.25    
2515.599908 10.3373    2.57       9.7613     14.3053    12.9213    11.4831    10.0581    18.7329    0.1217     130.6667  
2515.799908 10.3647    2.5226     9.7153     15.0368    12.7427    10.9857    10.3519    18.0356    0.1217     128.0006  
2515.999908 10.3239    2.5293     10.0044    15.9366    12.7624    10.5669    10.9944    17.5022    0.1251     127.9737  
2516.199908 10.2017    2.6243     10.3985    16.6309    13.3213    10.5146    11.3492    17.1784    0.1285     128.834   
