~Version
 VERS              .         2.0                           : CWLS LOG ASCII STANDARD - VERSION 2.0
 WRAP              .         NO                            : ONE LINE PER DEPTH STEP
 DLM               .         SPACE                         : DELIMITING CHARACTER(SPACE TAB OR COMMA)
~Well Information
#_______________________________________________________________________________
#
#PARAMETER_NAME    .UNIT     VALUE                         : DESCRIPTION
#_______________________________________________________________________________
STRT               .m        2331.6                        : First reference value
STOP               .m        2561.999885                   : Last reference value
STEP               .m        0.1999999                     : Step increment
NULL               .         -9999                         : Missing value
COMP               .                                       : Company
WELL               .         403                           : Well name
FLD                .                                       : Field
LOC                .                                       : Location
CNTY               .                                       : County
STAT               .                                       : State
CTRY               .                                       : Country
SRVC               .                                       : Service Company
DATE               .                                       : Date
API                .                                       : API number
EREF               .m        140.4                         : 
Pad                .         4                             : 
X                  .m        222100                        : 
Y                  .m        250025                        : 
group              .         Pad4                          : 
Интер-р            .         Пузин                         : 
Куст               .         4                             : 
Статус             .         Не проверено                  : 
Тип                .         Разведка                      : 
~Parameter Information Block
#_______________________________________________________________________________
#
#PARAMETER_NAME    .UNIT     VALUE                         : DESCRIPTION
#_______________________________________________________________________________
SET                .         LAS1                          : 
REAL_CREATION_DATE .         Ср апр 11 2012-13_17_13       : 
TLFamily_DEPTH     .         Measured Depth                : 
TLFamily_KS        .         Potential Resistivity         : 
TLFamily_KS1       .         Extra Shallow Resistivity     : 
TLFamily_KS2       .         Shallow Resistivity           : 
TLFamily_KS3       .         Medium Resistivity            : 
TLFamily_KS4       .         Deep Resistivity              : 
TLFamily_KS5       .         Extra Deep Resistivity        : 
TLFamily_LLD       .         Lateral Log Resistivity       : 
TLFamily_OKS       .         Medium Resistivity Inverted   : 
TLFamily_RM        .         Mud Resistivity               : 
TLFamily_SP        .         Spontaneous Potential         : 
group              .         INI                           : 
~Curve Information
#_______________________________________________________________________________
#
#LOGNAME           .UNIT     LOG_ID                        : DESCRIPTION
#_______________________________________________________________________________
DEPTH              .m                                      : Measured Depth 
KS                 .ohm.m                                  : Potential Resistivity 
KS1                .ohm.m                                  : Extra Shallow Resistivity 
KS2                .ohm.m                                  : Shallow Resistivity 
KS3                .ohm.m                                  : Medium Resistivity 
KS4                .ohm.m                                  : Deep Resistivity 
KS5                .ohm.m                                  : Extra Deep Resistivity 
LLD                .ohm.m                                  : Lateral Log Resistivity 
OKS                .ohm.m                                  : Medium Resistivity Inverted 
RM                 .ohm.m                                  : Mud Resistivity 
SP                 .mV                                     : Spontaneous Potential 
~Ascii
# ...
2397.599967 5.1839     2.1765     6.8577     9.2547     7.4563     4.9784     4.6434     8.5244     0.1285     73.2222   
2397.799967 5.1025     2.129      6.7066     9.0488     7.3182     4.7821     4.1311     8.7779     0.1285     71.5833   
2397.999967 5.0585     2.0612     6.5695     8.751      7.2515     4.6643     4.0995     9.1212     0.1285     69.8889   
2398.199967 5.0413     2.0275     6.411      8.4662     7.1604     4.5596     4.0573     9.5227     0.1285     69.4167   
2398.399967 5.0549     1.9933     6.2008     8.2267     7.0815     4.4811     4.0642     9.9696     0.1285     70.1111   
2398.599966 5.1025     1.9526     6.0103     8.0454     7.0289     4.4287     4.0264     10.3577    0.1251     70.3889   
2398.799966 5.1636     1.9594     5.9811     7.9159     6.9829     4.3763     4.0873     10.572     0.1285     71.8611   
2398.999966 5.2586     1.9798     5.9577     7.7929     6.904      4.3371     4.4815     10.7792    0.1285     73.4444   
2399.199966 5.3195     1.973      5.9183     7.6964     6.7856     4.3109     4.5285     10.9995    0.1285     74.8056   
2399.399966 5.4148     1.9459     5.8395     7.5146     6.6607     4.2847     4.3984     11.2456    0.1285     76.8462   
2399.599966 5.5574     1.9391     5.8526     7.3722     6.5918     4.2847     4.448      11.4086    0.1251     76.3553   
2399.799966 5.7        1.9662     5.9774     7.3204     6.5686     4.2847     4.8255     11.5047    0.1285     76.9386   
2399.999966 5.825      2.0069     6.0429     7.359      6.5555     4.324      5.1811     11.6342    0.1285     78.4018   
2400.199966 5.9105     2.034      6.1417     7.4045     6.5884     4.3894     5.2431     11.8479    0.1285     77.75     
2400.399966 6.0327     2.0408     6.2599     7.5534     6.6936     4.5203     5.2433     12.1588    0.1285     78.4167   
2400.599966 6.1549     2.0747     6.4438     7.7994     6.8908     4.7166     5.5804     12.4906    0.1285     80.9722   
2400.799965 6.2635     2.0951     6.6076     8.1555     7.1801     4.8868     5.5928     12.8259    0.1285     83.1111   
2400.999965 6.3314     2.1494     6.7395     8.6215     7.4892     5.0307     5.72       13.3247    0.1285     84.8056   
2401.199965 6.3816     2.2308     7.1008     8.912      7.6428     5.1485     6.2685     13.5643    0.1285     85.5198   
2401.399965 6.4469     2.2574     7.2519     9.1524     7.6535     5.2271     6.3988     13.4866    0.1285     86.0555   
2401.599965 6.5012     2.2376     7.1862     9.243      7.5483     5.2271     6.113      13.4444    0.1285     86.6031   
2401.799965 6.5351     2.1969     7.1467     9.2948     7.4366     5.2401     5.7493     13.3959    0.1285     86.25     
2401.999965 6.5759     2.1969     7.167      9.4265     7.4523     5.2663     5.5638     13.4671    0.1285     86.1111   
2402.199965 6.6034     2.2172     7.3307     9.5537     7.5089     5.3135     5.9223     13.6485    0.1285     86.3056   
2402.399965 6.6506     2.2169     7.3307     9.6638     7.5418     5.371      5.6522     14.0047    0.1318     87.6667   
2402.599964 6.7592     2.1562     7.1008     9.612      7.5023     5.4626     5.5743     14.2482    0.1318     89.4427   
2402.799964 6.9222     2.1087     6.9694     9.5473     7.5418     5.5935     5.2624     14.8014    0.1352     90.5176   
2402.999964 7.187      2.034      6.8732     9.4955     7.647      5.7506     5.463      15.5916    0.1352     92.1009   
2403.199964 7.3826     1.9458     6.6212     9.5328     7.7747     5.9338     5.4841     16.3299    0.1352     94.3316   
2403.399964 7.6351     2.0196     6.8774     9.9098     8.1269     6.117      5.9331     16.1291    0.1352     96.1944   
2403.599964 7.8048     2.2783     7.6789     10.8614    8.837      6.261      11.2196    15.5482    0.1352     98.939    
2403.799964 7.7777     2.6379     8.6445     11.7418    9.4617     6.3134     14.7969    14.6524    0.1352     99.7281   
2403.999964 7.6486     2.6854     8.7106     12.0266    9.6694     6.3134     12.4032    14.2379    0.1352     98.939    
2404.199964 7.5468     2.553      8.6117     11.8593    9.58       6.2872     7.3335     14.2379    0.1352     100.6389  
2404.399964 7.4518     2.4411     8.4737     11.554     9.4091     6.2217     5.7939     14.6913    0.1352     102.2778  
2404.599963 7.4721     2.2308     8.0007     11.2498    9.3368     6.1956     5.4848     15.0994    0.1352     103.8595  
2404.799963 7.5672     2.1901     7.9513     11.1527    9.442      6.2348     5.4171     15.203     0.1352     107.0457  
2404.999963 7.7048     2.1901     7.784      11.2757    9.6392     6.3919     7.1056     15.0605    0.1386     109.9901  
2405.199963 7.8184     2.177      7.4686     11.3045    9.7585     6.6275     7.4806     15.0086    0.1386     111.3039  
2405.399963 7.961      2.1426     7.2519     11.5605    10.2047    6.886      6.677      15.1188    0.1386     112.3611  
2405.599963 8.0561     2.2104     7.738      12.2079    10.9608    7.2557     6.7813     15.0413    0.1386     114.2153  
2405.799963 8.2122     2.2512     7.8764     12.9523    11.9076    7.8316     9.2465     15.2094    0.1386     114.4376  
2405.999963 8.2631     2.2512     7.9416     13.5744    13.0714    8.3943     6.9976     15.3649    0.1386     114.8264  
2406.199963 8.2258     2.4801     8.7037     14.2664    14.0054    8.6823     7.3621     14.8662    0.1386     116.3056  
2406.399963 8.1715     2.7261     9.7876     15.1468    14.7349    8.7739     13.9085    13.94      0.1352     115.9167  
2406.599962 8.0764     2.6583     9.3015     15.1015    14.7415    8.6954     13.1823    13.4736    0.1352     115.4872  
2406.799962 7.9746     2.5497     9.02       14.3312    14.0971    8.4205     6.0109     13.2081    0.1352     114.9788  
2406.999962 7.961      2.319      8.6642     14.0092    13.8341    8.1195     5.9097     13.1239    0.1318     116.5621  
2407.199962 7.944      2.3394     8.6183     13.9169    13.912     8.0148     5.6805     12.9037    0.1318     119.0983  
2407.399962 7.8999     2.3903     8.9007     14.3571    14.6034    7.9562     7.6021     12.243     0.1285     119.3889  
2407.599962 7.7437     2.6515     9.5708     15.0756    15.4056    7.9101     9.2231     11.7646    0.1285     115.6798  
2407.799962 7.5876     2.699      9.2883     15.2181    15.4056    7.7792     11.3053    11.3492    0.1285     110.0788  
2407.999962 7.4351     2.5022     8.8939     14.5608    14.6357    7.6221     5.7653     11.3233    0.1285     107.5233  
2408.199962 7.3703     2.3464     8.5197     14.124     14.1103    7.4127     5.3474     11.4334    0.1285     104.4854  
2408.399962 7.3363     2.2851     8.3292     13.8392    13.6434    7.3604     5.527      11.5176    0.1251     103.8611  
2408.599962 7.2752     2.2715     8.3161     13.9946    13.8144    7.3473     6.042      11.494     0.1285     105.2483  
2408.799961 7.1598     2.4683     8.7289     14.2988    14.2615    7.3997     6.8401     11.2391    0.1285     102.9895  
2408.999961 7.0817     2.5293     8.8219     14.3118    14.4272    7.4651     9.3366     11.0383    0.1285     101.5451  
2409.199961 6.9901     2.4581     8.4869     14.0559    14.2681    7.4913     5.8661     11.1031    0.1285     100.9705  
2409.399961 6.8543     2.4072     8.3095     13.7227    13.8999    7.447      5.5751     11.2844    0.1285     97.5833   
2409.599961 6.7728     2.3394     8.1781     13.4184    13.6434    7.4258     5.6216     11.382     0.1285     95.9325   
2409.799961 6.7252     2.2987     8.073      13.0688    13.5054    7.4389     5.6867     11.5047    0.1269     97.7685   
2409.999961 6.6984     2.2851     7.9679     12.7069    13.4496    7.4389     5.6919     11.686     0.1251     97.2103   
2410.199961 6.6641     2.3016     7.8562     12.5445    13.4725    7.4389     5.8394     11.7637    0.1251     96.1111   
2410.399961 6.6234     2.319      7.8497     12.3568    13.5382    7.4058     6.0631     11.7378    0.1251     96.7222   
2410.59996 6.5827     2.3326     7.8234     12.1496    13.3476    7.3735     5.888      11.6829    0.1251     95.611    
