~Version
 VERS              .         2.0                           : CWLS LOG ASCII STANDARD - VERSION 2.0
 WRAP              .         NO                            : ONE LINE PER DEPTH STEP
 DLM               .         SPACE                         : DELIMITING CHARACTER(SPACE TAB OR COMMA)
~Well Information
#_______________________________________________________________________________
#
#PARAMETER_NAME    .UNIT     VALUE                         : DESCRIPTION
#_______________________________________________________________________________
STRT               .m        2331.6                        : First reference value
STOP               .m        2561.999885                   : Last reference value
STEP               .m        0.1999999                     : Step increment
NULL               .         -9999                         : Missing value
COMP               .                                       : Company
WELL               .         403                           : Well name
FLD                .                                       : Field
LOC                .                                       : Location
CNTY               .                                       : County
STAT               .                                       : State
CTRY               .                                       : Country
SRVC               .                                       : Service Company
DATE               .                                       : Date
API                .                                       : API number
EREF               .m        140.4                         : 
Pad                .         4                             : 
X                  .m        222100                        : 
Y                  .m        250025                        : 
group              .         Pad4                          : 
Интер-р            .         Пузин                         : 
Куст               .         4                             : 
Статус             .         Не проверено                  : 
Тип                .         Разведка                      : 
~Parameter Information Block
#_______________________________________________________________________________
#
#PARAMETER_NAME    .UNIT     VALUE                         : DESCRIPTION
#_______________________________________________________________________________
SET                .         LAS1                          : 
REAL_CREATION_DATE .         Ср апр 11 2012-13_17_13       : 
TLFamily_DEPTH     .         Measured Depth                : 
TLFamily_KS        .         Potential Resistivity         : 
TLFamily_KS1       .         Extra Shallow Resistivity     : 
TLFamily_KS2       .         Shallow Resistivity           : 
TLFamily_KS3       .         Medium Resistivity            : 
TLFamily_KS4       .         Deep Resistivity              : 
TLFamily_KS5       .         Extra Deep Resistivity        : 
TLFamily_LLD       .         Lateral Log Resistivity       : 
TLFamily_OKS       .         Medium Resistivity Inverted   : 
TLFamily_RM        .         Mud Resistivity               : 
TLFamily_SP        .         Spontaneous Potential         : 
group              .         INI                           : 
~Curve Information
#_______________________________________________________________________________
#
#LOGNAME           .UNIT     LOG_ID                        : DESCRIPTION
#_______________________________________________________________________________
DEPTH              .m                                      : Measured Depth 
KS                 .ohm.m                                  : Potential Resistivity 
KS1                .ohm.m                                  : Extra Shallow Resistivity 
KS2                .ohm.m                                  : Shallow Resistivity 
KS3                .ohm.m                                  : Medium Resistivity 
KS4                .ohm.m                                  : Deep Resistivity 
KS5                .ohm.m                                  : Extra Deep Resistivity 
LLD                .ohm.m                                  : Lateral Log Resistivity 
OKS                .ohm.m                                  : Medium Resistivity Inverted 
RM                 .ohm.m                                  : Mud Resistivity 
SP                 .mV                                     : Spontaneous Potential 
~Ascii
# ...
2357.999987 -9999      0          0          0          0          39.9231    96.8828    0.0535     0          -9999     
2358.199987 -9999      0          0          0          0          39.9362    97.7544    0.0535     0          -9999     
2358.399987 -9999      0          0          0          0          39.9362    96.8828    0.0535     0          -9999     
2358.599986 -9999      0          0          0          0          39.9362    96.8828    0.0535     0          -9999     
2358.799986 -9999      0          0          0          0          39.9362    96.8828    0.0535     0          -9999     
2358.999986 -9999      0          0          0          0          39.9231    96.8828    0.0535     0.1082     -9999     
2359.199986 -9999      0          0          0          0          39.9362    97.5648    0.0535     0.1116     -9999     
2359.399986 -9999      0          0          0          0          39.9362    96.6949    0.0535     0.1082     -9999     
2359.599986 -9999      0          0          0          0          39.9362    97.7544    0.0535     0.1082     -9999     
2359.799986 -9999      0          0          0          0          39.9362    97.5648    0.0471     0.1116     -9999     
2359.999986 -9999      0          0.0391     0          0          39.9362    97.5648    0.0535     0.1082     -9999     
2360.199986 -9999      0          0.0717     0          0          39.9231    98.4506    0.0535     0.1116     -9999     
2360.399986 -9999      0          0.0651     0          0          39.9362    97.7544    0.0535     0.1116     -9999     
2360.599986 -9999      0          0.0717     0          0          39.9231    97.7544    0.0535     0.1082     -9999     
2360.799985 -9999      0          0.0651     0          0          39.9362    97.5648    0.0535     0.1082     -9999     
2360.999985 -9999      0          0.0651     0          0          39.9231    96.8828    0.0535     0.1116     -9999     
2361.199985 -9999      0          0.0717     0          0          39.9231    97.5648    0.0535     0.1116     -9999     
2361.399985 -9999      0          0.0717     0          0          39.9231    97.5648    0.0535     0.1116     -9999     
2361.599985 -9999      0          0.0651     0          0          39.91      97.2223    0.0535     0.1116     -9999     
2361.799985 -9999      0          0.0651     0          0          39.766     98.4506    0.0535     0.1082     -9999     
2361.999985 -9999      0          0.0651     0          0          0          97.7544    0.0535     0.1116     -9999     
2362.199985 -9999      0          0.0717     0          0          0          97.7544    0.0471     0.1116     -9999     
2362.399985 -9999      0          0.0717     0          0          0          97.6596    0.0535     0.1116     -9999     
2362.599985 -9999      0          0.0651     0          0          0          97.5648    0.0535     0.1082     -9999     
2362.799984 -9999      0          0.0651     0          0          0          97.5648    0.0535     0.1116     -9999     
2362.999984 -9999      0          0.0717     0          0          0          98.4506    0.0535     0.1082     -9999     
2363.199984 -9999      0          0.0651     0          0          0          98.4506    0.0535     0.1116     -9999     
2363.399984 -9999      0          0.0651     0          0          0          98.4506    0.0535     0.1082     -9999     
2363.599984 -9999      0          0.0717     0          0          0          98.4506    0.0535     0.1116     -9999     
2363.799984 -9999      0          0.0717     0          0          0          97.5648    0.0535     0.1082     -9999     
2363.999984 -9999      0          0.0651     0          0          0          99.3525    0.0535     0.1082     -9999     
2364.199984 -9999      0          0.0651     0          0          0          100.2712   0.0535     0.1082     -9999     
2364.399984 -9999      0          0.0717     0          0          0          109.1604   0.0535     0.1082     -9999     
2364.599983 -9999      0          0.0717     0          0          0          0          0.0535     0.1116     -9999     
2364.799983 -9999      0          0.0717     0          0          0          0          0.0535     0.1082     -9999     
2364.999983 -9999      0          0.0651     0          0          0          0          0.0535     0.1082     -9999     
2365.199983 -9999      0          0.0651     0          0          0          0          0.0535     0.1082     -9999     
2365.399983 -9999      0          0.0651     0          0          0          0          0.0535     0.1082     -9999     
2365.599983 -9999      0          0.0717     0          0          0          0          0.0535     0.1082     -9999     
2365.799983 -9999      0          0.0651     0          0          0          0          0.0535     0.1082     -9999     
2365.999983 -9999      0          0.0651     0          0          0          0          0.0535     0.1082     -9999     
2366.199983 -9999      0          0.0651     0          0          0          0          0.0535     0.1116     -9999     
2366.399983 -9999      0          0.0651     0          0          0          0          0.0535     0.1116     -9999     
2366.599982 -9999      0          0.0651     0          0          0          0          0.0535     0.1116     -9999     
2366.799982 -9999      0          0.0651     0          0          0          0          0.0535     0.1116     -9999     
2366.999982 -9999      0          0.0717     0          0          0          0          0.0535     0.1082     -9999     
2367.199982 -9999      0          0.0684     0          0          0          0          0.0503     0.1116     -9999     
2367.399982 -9999      0          0.0717     0          0          0.2798     0          0.0535     0.1116     -9999     
2367.599982 -9999      0          0.0651     0          0          0.3845     0          0.06       0.1116     -9999     
2367.799982 -9999      0          0.0651     0          0          0.5023     0          0.0665     0.1116     -9999     
2367.999982 -9999      0          0.0651     0          0          0.4107     0          0.0665     0.1116     -9999     
2368.199982 -9999      0          0.0651     0          0          0.3714     0          0.0406     0.1116     -9999     
2368.399982 -9999      0          0.098      0          0          0.3584     0          0.06       0.1048     -9999     
2368.599982 -9999      0          0.0487     0          0          0.4631     0          0.2414     0.1116     -9999     
2368.799981 -9999      0          0.0717     0          0          0.5154     0          7.1101     0.1015     -9999     
2368.999981 -9999      0          0.0848     0          0          0.3976     0          16.8675    0.1183     -9999     
2369.199981 -9999      0          0.0651     0          0          0.5809     0          18.9984    0.1217     -9999     
2369.399981 -9999      0.1214     0.0651     0          0          0.6332     0          16.4206    0.1234     -9999     
2369.599981 -9999      0.7313     0.0717     0          0          0.4762     0          14.6524    0.1251     -9999     
2369.799981 -9999      1.2232     0.0782     0          0          0.4631     0          13.2728    0.1285     -9999     
2369.999981 -9999      1.6066     0.6695     0          0          0.4631     0          12.1005    0.1285     -9999     
2370.199981 -9999      1.783      2.568      0          0          0.4631     148.834    11.1549    0.1251     -9999     
2370.399981 -9999      1.8848     3.9574     0          0          0.45       132.5759   10.4684    0.1217     -9999     
2370.599981 -9999      1.9255     4.9592     0          0          0.45       128.554    9.8369     0.1217     -9999     
2370.79998 -9999      1.973      5.4256     0          0          0.45       200.6711   9.5033     0.1217     -9999     
2370.99998 -9999      1.9798     5.6884     0          0          0.4369     293.5555   9.2896     0.1251     -9999     
