~Version
 VERS              .         2.0                           : CWLS LOG ASCII STANDARD - VERSION 2.0
 WRAP              .         NO                            : ONE LINE PER DEPTH STEP
 DLM               .         SPACE                         : DELIMITING CHARACTER(SPACE TAB OR COMMA)
~Well Information
#_______________________________________________________________________________
#
#PARAMETER_NAME    .UNIT     VALUE                         : DESCRIPTION
#_______________________________________________________________________________
STRT               .m        -10.04                        : First reference value
STOP               .m        2561.16                       : Last reference value
STEP               .m        0.2                           : Step increment
NULL               .         -9999                         : Missing value
COMP               .                                       : Company
WELL               .         403                           : Well name
FLD                .                                       : Field
LOC                .                                       : Location
CNTY               .                                       : County
STAT               .                                       : State
CTRY               .                                       : Country
SRVC               .                                       : Service Company
DATE               .                                       : Date
API                .                                       : API number
EREF               .m        140.4                         : 
Pad                .         4                             : 
X                  .m        222100                        : 
Y                  .m        250025                        : 
group              .         Pad4                          : 
Интер-р            .         Пузин                         : 
Куст               .         4                             : 
Статус             .         Не проверено                  : 
Тип                .         Разведка                      : 
~Parameter Information Block
#_______________________________________________________________________________
#
#PARAMETER_NAME    .UNIT     VALUE                         : DESCRIPTION
#_______________________________________________________________________________
SET                .         LAS4                          : 
REAL_CREATION_DATE .         Ср апр 11 2012-13_17_14       : 
TLFamily_DEPTH     .         Measured Depth                : 
TLFamily_RT        .         Resistivity 20                : 
TLFamily_SP        .         Spontaneous Potential         : 
group              .         INI                           : 
~Curve Information
#_______________________________________________________________________________
#
#LOGNAME           .UNIT     LOG_ID                        : DESCRIPTION
#_______________________________________________________________________________
DEPTH              .m                                      : Measured Depth 
RT                 .ohm.m                                  : Conductivity 
SP                 .mV                                     : Spontaneous Potential 
~Ascii
# ...
524.16     4.2545     -9999     
524.36     4.2545     -9999     
524.56     4.2545     -9999     
524.76     4.2545     -9999     
524.96     4.2545     -9999     
525.16     4.2545     -9999     
525.36     4.2545     -9999     
525.56     4.2545     -9999     
525.76     4.2545     -9999     
525.96     4.2545     -9999     
526.16     4.2545     -9999     
526.36     4.2545     -9999     
526.56     4.2545     -9999     
526.76     4.2545     -9999     
526.96     4.2545     -9999     
527.16     4.2545     -9999     
527.36     4.2545     -9999     
527.56     4.2545     -9999     
527.76     4.2545     -9999     
527.96     4.2545     -9999     
528.16     4.2545     -9999     
528.36     4.2545     -9999     
528.56     4.2545     -9999     
528.76     4.2545     -9999     
528.96     4.2545     -9999     
529.16     4.2545     -9999     
529.36     4.2545     -9999     
529.56     4.2545     -9999     
529.76     4.2545     -9999     
529.96     4.2545     -9999     
530.16     4.2545     -9999     
530.36     4.2545     -9999     
530.56     4.2545     -9999     
530.76     4.2545     -9999     
530.96     4.2545     -9999     
531.16     4.2545     -9999     
531.36     4.2545     -9999     
531.56     4.2545     -9999     
531.76     4.2545     -9999     
531.96     4.2545     -9999     
532.16     4.2545     -9999     
532.36     4.2545     -9999     
532.56     4.2545     -9999     
532.76     4.2545     -9999     
532.96     4.2545     -9999     
533.16     4.2545     -9999     
533.36     4.2545     -9999     
533.56     4.2545     -9999     
533.76     4.2545     -9999     
533.96     4.2545     -9999     
534.16     4.2545     -9999     
534.36     4.2545     -9999     
534.56     4.2545     -9999     
534.76     4.2545     -9999     
534.96     4.2545     -9999     
535.16     4.2545     -9999     
535.36     4.2545     -9999     
535.56     4.2545     -9999     
535.76     4.2545     -9999     
535.96     4.2545     -9999     
536.16     4.2545     -9999     
536.36     4.2545     -9999     
536.56     4.2545     -9999     
536.76     4.2545     -9999     
536.96     4.2545     -9999     
537.16     4.2545     -9999     
537.36     4.2545     -9999     
537.56     4.2545     -9999     
537.76     4.2545     -9999     
537.96     4.2545     -9999     
538.16     4.2545     -9999     
538.36     4.2545     -9999     
538.56     4.2545     -9999     
538.76     4.2545     -9999     
538.96     4.2545     -9999     
539.16     4.2545     -9999     
539.36     4.2545     -9999     
539.56     4.2545     -9999     
539.76     4.2545     -9999     
539.96     4.2545     -9999     
540.16     4.2545     -9999     
540.36     4.2545     -9999     
540.56     4.2545     -9999     
540.76     4.2545     -9999     
540.96     4.2545     -9999     
541.16     4.2545     -9999     
541.36     4.2545     -9999     
541.56     4.2545     -9999     
541.76     4.2545     -9999     
541.96     4.2545     -9999     
542.16     4.2545     -9999     
542.36     4.2545     -9999     
542.56     4.2545     -9999     
542.76     4.2545     -9999     
542.96     4.2545     -9999     
543.16     4.2545     -9999     
543.36     4.2545     -9999     
543.56     4.2545     -9999     
543.76     4.2545     -9999     
543.96     4.2545     -9999     
544.16     4.2545     -9999     
544.36     4.2545     -9999     
544.56     4.2545     -9999     
544.76     4.2545     -9999     
544.96     4.2545     -9999     
545.16     4.2545     -9999     
545.36     4.2545     -9999     
545.56     4.2545     -9999     
545.76     4.2545     -9999     
545.96     4.2545     -9999     
546.16     4.2545     -9999     
546.36     4.2545     -9999     
546.56     4.2545     -9999     
546.76     4.2545     -9999     
546.96     4.2545     -9999     
547.16     4.2545     -9999     
547.36     4.2545     -9999     
547.56     4.2545     -9999     
547.76     4.2545     -9999     
547.96     4.2545     -9999     
548.16     4.2545     -9999     
548.36     4.2545     -9999     
548.56     4.2545     -9999     
548.76     4.2545     -9999     
548.96     4.2545     -9999     
549.16     4.2545     -9999     
549.36     4.2545     -9999     
549.56     4.2545     -9999     
549.76     4.2545     -9999     
549.96     4.2545     -9999     
550.16     4.2545     -9999     
550.36     4.2545     -9999     
550.56     4.2545     -9999     
550.76     4.2545     -9999     
550.96     4.2545     -9999     
551.16     4.2545     -9999     
551.36     4.2545     -9999     
551.56     4.2545     -9999     
551.76     4.2545     -9999     
551.96     4.2545     -9999     
552.16     4.2545     -9999     
552.36     4.2545     -9999     
552.56     4.2545     -9999     
552.76     4.2545     -9999     
552.96     4.2545     -9999     
553.16     4.2545     -9999     
553.36     4.2545     -9999     
553.56     4.2545     -9999     
553.76     4.2545     -9999     
553.96     4.2545     -9999     
554.16     4.2545     -9999     
554.36     4.2545     -9999     
554.56     4.2545     -9999     
554.76     4.2545     -9999     
554.96     4.2545     -9999     
555.16     4.2545     -9999     
555.36     4.2545     -9999     
555.56     4.2545     -9999     
555.76     4.2545     -9999     
555.96     4.2545     -9999     
556.16     4.2545     -9999     
556.36     4.2545     -9999     
556.56     4.2545     -9999     
556.76     4.2545     -9999     
556.96     4.2545     -9999     
557.16     4.2545     -9999     
557.36     4.2545     -9999     
557.56     4.2545     -9999     
557.76     4.2545     -9999     
557.96     4.2545     -9999     
558.16     4.2545     -9999     
558.36     4.2545     -9999     
558.56     4.2545     -9999     
558.76     4.2545     -9999     
558.96     4.2545     -9999     
559.16     4.2545     -9999     
559.36     4.2545     -9999     
559.56     4.2545     -9999     
559.76     4.2545     -9999     
559.96     4.2545     -9999     
560.16     4.2545     -9999     
560.36     4.2545     -9999     
560.56     4.2545     -9999     
560.76     4.2545     -9999     
560.96     4.2545     -9999     
561.16     4.2545     -9999     
561.36     4.2545     -9999     
561.56     4.2545     -9999     
561.76     4.2545     -9999     
561.96     4.2545     -9999     
562.16     4.2545     -9999     
562.36     4.2545     -9999     
562.56     4.2545     -9999     
562.76     4.2545     -9999     
562.96     4.2545     -9999     
563.16     4.2545     -9999     
563.36     4.2545     -9999     
563.56     4.2545     -9999     
563.76     4.2545     -9999     
563.96     4.2545     -9999     
564.16     4.2545     -9999     
564.36     4.2545     -9999     
564.56     4.2545     -9999     
564.76     4.2545     -9999     
564.96     4.2545     -9999     
565.16     4.2545     -9999     
565.36     4.2545     -9999     
565.56     4.2545     -9999     
565.76     4.2545     -9999     
565.96     4.2545     -9999     
566.16     4.2545     -9999     
566.36     4.2545     -9999     
566.56     4.2545     -9999     
566.76     4.2545     -9999     
566.96     4.2545     -9999     
567.16     4.2545     -9999     
567.36     4.2545     -9999     
567.56     4.2545     -9999     
567.76     4.2545     -9999     
567.96     4.2545     -9999     
568.16     4.2545     -9999     
568.36     4.2545     -9999     
568.56     4.2545     -9999     
568.76     4.2545     -9999     
568.96     4.2545     -9999     
569.16     4.2545     -9999     
569.36     4.2545     -9999     
569.56     4.2545     -9999     
569.76     4.2545     -9999     
569.96     4.2545     -9999     
570.16     4.2545     -9999     
570.36     4.2545     -9999     
570.56     4.2545     -9999     
570.76     4.2545     -9999     
570.96     4.2545     -9999     
571.16     4.2545     -9999     
571.36     4.2545     -9999     
571.56     4.2545     -9999     
571.76     4.2545     -9999     
571.96     4.2545     -9999     
572.16     4.2545     -9999     
572.36     4.2545     -9999     
572.56     4.2545     -9999     
