~Version
 VERS              .         2.0                           : CWLS LOG ASCII STANDARD - VERSION 2.0
 WRAP              .         NO                            : ONE LINE PER DEPTH STEP
 DLM               .         SPACE                         : DELIMITING CHARACTER(SPACE TAB OR COMMA)
~Well Information
#_______________________________________________________________________________
#
#PARAMETER_NAME    .UNIT     VALUE                         : DESCRIPTION
#_______________________________________________________________________________
STRT               .m        -10.04                        : First reference value
STOP               .m        2561.16                       : Last reference value
STEP               .m        0.2                           : Step increment
NULL               .         -9999                         : Missing value
COMP               .                                       : Company
WELL               .         403                           : Well name
FLD                .                                       : Field
LOC                .                                       : Location
CNTY               .                                       : County
STAT               .                                       : State
CTRY               .                                       : Country
SRVC               .                                       : Service Company
DATE               .                                       : Date
API                .                                       : API number
EREF               .m        140.4                         : 
Pad                .         4                             : 
X                  .m        222100                        : 
Y                  .m        250025                        : 
group              .         Pad4                          : 
Интер-р            .         Пузин                         : 
Куст               .         4                             : 
Статус             .         Не проверено                  : 
Тип                .         Разведка                      : 
~Parameter Information Block
#_______________________________________________________________________________
#
#PARAMETER_NAME    .UNIT     VALUE                         : DESCRIPTION
#_______________________________________________________________________________
SET                .         LAS4                          : 
REAL_CREATION_DATE .         Ср апр 11 2012-13_17_14       : 
TLFamily_DEPTH     .         Measured Depth                : 
TLFamily_RT        .         Resistivity 20                : 
TLFamily_SP        .         Spontaneous Potential         : 
group              .         INI                           : 
~Curve Information
#_______________________________________________________________________________
#
#LOGNAME           .UNIT     LOG_ID                        : DESCRIPTION
#_______________________________________________________________________________
DEPTH              .m                                      : Measured Depth 
RT                 .ohm.m                                  : Conductivity 
SP                 .mV                                     : Spontaneous Potential 
~Ascii
# ...
2370.96    4.2545     27.85     
2371.16    4.2545     32.05     
2371.36    4.3743     38.8      
2371.56    4.4287     53.65     
2371.76    4.3739     38.65     
2371.96    4.3738     59.8      
2372.16    4.4247     62.8      
2372.36    4.6117     72.4      
2372.56    4.5017     76.9      
2372.76    4.0117     78.1      
2372.96    3.5602     82        
2373.16    3.4757     83.5      
2373.36    3.6443     89.8      
2373.56    3.7361     101.725   
2373.76    3.8837     92.8      
2373.96    4.0203     96.7      
2374.16    4.099      92.95     
2374.36    4.0212     95.95     
2374.56    3.977      95.8      
2374.76    3.9824     98.8      
2374.96    3.9989     99.25     
2375.16    4.0897     103.45    
2375.36    4.2078     103.525   
2375.56    4.1923     85        
2375.76    4.1179     103.15    
2375.96    4.1009     103.6     
2376.16    4.1103     107.2     
2376.36    4.202      108.85    
2376.56    4.2624     107.05    
2376.76    4.3058     108.1     
2376.96    4.483      113.65    
2377.16    4.5727     111.25    
2377.36    4.6456     109.9     
2377.56    4.6477     110.35    
2377.76    4.6781     114.4     
2377.96    4.722      110.95    
2378.16    4.7485     114.55    
2378.36    4.6978     113.05    
2378.56    4.7066     113.95    
2378.76    4.7641     113.65    
2378.96    4.8337     112.6     
2379.16    4.893      114.7     
2379.36    4.9277     113.95    
2379.56    4.9555     115.45    
2379.76    4.9509     113.8     
2379.96    4.8792     115       
2380.16    4.7656     115.6     
2380.36    4.7154     115.15    
2380.56    4.7641     113.725   
2380.76    4.7529     112.75    
2380.96    4.6025     111.25    
2381.16    4.5094     112.15    
2381.36    4.3782     93.4      
2381.56    4.3296     113.2     
2381.76    4.2998     111.7     
2381.96    4.3037     115       
2382.16    4.2859     104.35    
2382.36    4.3841     118.45    
2382.56    4.4042     114.4     
2382.76    4.4886     116.35    
2382.96    4.5073     122.65    
2383.16    4.5712     97.75     
2383.36    4.6261     106.9     
2383.56    4.624      107.05    
2383.76    4.6477     109.75    
2383.96    4.6781     106.6     
2384.16    4.6369     104.95    
2384.36    4.6586     105.1     
2384.56    4.6672     106.6     
2384.76    4.6197     101.8     
2384.96    4.5283     101.5     
2385.16    4.5073     99.7      
2385.36    4.5346     99.7      
2385.56    4.5642     100.3     
2385.76    4.5346     100.15    
2385.96    4.4865     98.35     
2386.16    4.4761     100.75    
2386.36    4.4886     95.35     
2386.56    4.4886     97.3      
2386.76    4.5955     96.7      
2386.96    4.6132     94.75     
2387.16    4.5748     97.3      
2387.36    4.65       93.25     
2387.56    4.6326     95.05     
2387.76    4.6283     91.9      
2387.96    4.6781     92.95     
2388.16    4.7044     91.9      
2388.36    4.6738     89.65     
2388.56    4.6672     91        
2388.76    4.6219     95.5      
2388.96    4.624      94.6      
2389.16    4.6398     90.4      
2389.36    4.6369     92.2      
2389.56    4.6434     93.25     
2389.76    4.6542     89.35     
2389.96    4.6025     85.9      
2390.16    4.594      87.55     
2390.36    4.5473     91.15     
2390.56    4.609      87.7      
2390.76    4.6629     86.8      
2390.96    4.8224     89.2      
2391.16    4.861      87.4      
2391.36    4.7999     85.3      
2391.56    4.7441     81.85     
2391.76    4.7552     88.75     
2391.96    4.8111     85.225    
2392.16    4.9462     85.45     
2392.36    4.9323     85        
2392.56    4.7803     80.2      
2392.76    4.4602     80.35     
2392.96    4.5283     78.85     
2393.16    4.6521     83.5      
2393.36    4.6068     82.3      
2393.56    4.6025     80.8      
2393.76    4.5557     83.65     
2393.96    4.6781     79.9      
2394.16    4.8614     81.55     
2394.36    5.0477     79.9      
2394.56    5.1442     77.35     
2394.76    5.3722     80.95     
2394.96    5.0547     77.8      
2395.16    4.7754     81.325    
2395.36    4.7552     74.05     
2395.56    4.8021     79.45     
2395.76    4.83       74.95     
2395.96    4.5918     74.95     
2396.16    4.4783     77.8      
2396.36    4.2411     77.05     
2396.56    4.2388     76.3      
2396.76    4.4454     76        
2396.96    4.5705     77.2      
2397.16    4.4928     73.3      
2397.36    4.358      75.7      
2397.56    4.286      74.35     
2397.76    4.1636     72.1      
2397.96    3.873      70        
2398.16    3.7225     68.5      
2398.36    3.682      69.85     
2398.56    3.6686     71.05     
2398.76    3.652      69.4      
2398.96    3.6586     75.85     
2399.16    3.7819     72.85     
2399.36    3.9033     79.15     
2399.56    3.8607     75.7      
2399.76    3.8943     75.3895   
2399.96    4.0542     79.9      
2400.16    4.3317     77.8      
2400.36    4.4658     76.45     
2400.56    4.5325     82.3      
2400.76    4.7647     81.55     
2400.96    4.8817     85.75     
2401.16    5.0309     85.3      
2401.36    5.3259     85.8569   
2401.56    5.532      88.3      
2401.76    5.2792     85.45     
2401.96    5.1661     86.2      
2402.16    5.1003     85.45     
2402.36    5.2377     87.4      
2402.56    5.2253     89.2      
2402.76    5.0455     90.1      
2402.96    5.0475     91.8816   
2403.16    5.1761     95.05     
2403.36    5.4683     94.3      
2403.56    5.9841     98.65     
2403.76    7.5859     101.1707  
2403.96    7.9846     97.6      
2404.16    7.4491     99.85     
2404.36    6.1657     102.25    
2404.56    5.4676     102.7     
2404.76    5.4896     106       
2404.96    5.6378     110.7822  
2405.16    6.1866     109.9     
2405.36    6.6193     113.05    
2405.56    6.5618     112.75    
2405.76    7.1956     116.4628  
2405.96    7.7396     113.05    
2406.16    8.1045     117.7     
2406.36    9.0094     115.3     
2406.56    10.2694    117.25    
2406.76    8.3904     114.1     
2406.96    7.254      114.4118  
2407.16    6.6673     119.2     
2407.36    6.9733     119.95    
2407.56    7.7199     119.95    
2407.76    8.4441     108.55    
2407.96    8.1172     107.6419  
2408.16    6.8436     106       
2408.36    5.9697     101.8     
2408.56    6.1354     106.3     
2408.76    6.6643     102.85    
2408.96    6.8863     101.6312  
2409.16    7.0553     102.55    
2409.36    6.1044     99.55     
2409.56    5.49       94.3      
2409.76    5.5135     97.5357   
2409.96    5.5668     97.3      
2410.16    5.583      94.6      
2410.36    5.6841     98.35     
2410.56    5.8018     95.65     
2410.76    5.6678     94.2996   
2410.96    5.4927     98.8      
2411.16    5.2008     95.35     
2411.36    5.0427     101.65    
2411.56    5.3369     103.15    
2411.76    5.8431     106       
2411.96    5.8734     105.55    
2412.16    5.6103     109.6     
2412.36    5.3005     108.55    
2412.56    5.3388     108.7     
2412.76    5.4762     109.6     
2412.96    5.3748     111.1025  
2413.16    5.0863     112.3     
2413.36    4.7999     115.9     
2413.56    4.8201     121.75    
2413.76    4.9491     132.1633  
2413.96    5.1571     140.05    
2414.16    5.7053     153.55    
2414.36    6.1197     162.4     
2414.56    6.0264     167.95    
2414.76    5.9024     175.9     
2414.96    6.174      176.65    
2415.16    7.0382     180.7     
2415.36    7.3568     184.15    
2415.56    6.9122     185.05    
2415.76    6.9403     185.3926  
2415.96    7.3483     184.6     
2416.16    8.7026     187.75    
2416.36    10.3045    186.25    
2416.56    10.3555    187.9     
2416.76    8.4932     182.3368  
2416.96    7.6194     179.65    
2417.16    6.7487     184.75    
2417.36    6.403      187.75    
2417.56    6.0955     190.3     
2417.76    6.2153     186.6027  
2417.96    6.1504     182.2     
2418.16    5.9786     179.8     
2418.36    6.135      170.2     
2418.56    6.0203     158.95    
2418.76    5.7261     152.4524  
2418.96    5.6538     144.25    
2419.16    5.7118     133.9     
2419.36    5.8821     129.7     
