~Version
 VERS              .         2.0                           : CWLS LOG ASCII STANDARD - VERSION 2.0
 WRAP              .         NO                            : ONE LINE PER DEPTH STEP
 DLM               .         SPACE                         : DELIMITING CHARACTER(SPACE TAB OR COMMA)
~Well Information
#_______________________________________________________________________________
#
#PARAMETER_NAME    .UNIT     VALUE                         : DESCRIPTION
#_______________________________________________________________________________
STRT               .m        2331.6                        : First reference value
STOP               .m        2561.999885                   : Last reference value
STEP               .m        0.1999999                     : Step increment
NULL               .         -9999                         : Missing value
COMP               .                                       : Company
WELL               .         403                           : Well name
FLD                .                                       : Field
LOC                .                                       : Location
CNTY               .                                       : County
STAT               .                                       : State
CTRY               .                                       : Country
SRVC               .                                       : Service Company
DATE               .                                       : Date
API                .                                       : API number
EREF               .m        140.4                         : 
Pad                .         4                             : 
X                  .m        222100                        : 
Y                  .m        250025                        : 
group              .         Pad4                          : 
Интер-р            .         Пузин                         : 
Куст               .         4                             : 
Статус             .         Не проверено                  : 
Тип                .         Разведка                      : 
~Parameter Information Block
#_______________________________________________________________________________
#
#PARAMETER_NAME    .UNIT     VALUE                         : DESCRIPTION
#_______________________________________________________________________________
SET                .         LAS1                          : 
REAL_CREATION_DATE .         Ср апр 11 2012-13_17_13       : 
TLFamily_DEPTH     .         Measured Depth                : 
TLFamily_KS        .         Potential Resistivity         : 
TLFamily_KS1       .         Extra Shallow Resistivity     : 
TLFamily_KS2       .         Shallow Resistivity           : 
TLFamily_KS3       .         Medium Resistivity            : 
TLFamily_KS4       .         Deep Resistivity              : 
TLFamily_KS5       .         Extra Deep Resistivity        : 
TLFamily_LLD       .         Lateral Log Resistivity       : 
TLFamily_OKS       .         Medium Resistivity Inverted   : 
TLFamily_RM        .         Mud Resistivity               : 
TLFamily_SP        .         Spontaneous Potential         : 
group              .         INI                           : 
~Curve Information
#_______________________________________________________________________________
#
#LOGNAME           .UNIT     LOG_ID                        : DESCRIPTION
#_______________________________________________________________________________
DEPTH              .m                                      : Measured Depth 
KS                 .ohm.m                                  : Potential Resistivity 
KS1                .ohm.m                                  : Extra Shallow Resistivity 
KS2                .ohm.m                                  : Shallow Resistivity 
KS3                .ohm.m                                  : Medium Resistivity 
KS4                .ohm.m                                  : Deep Resistivity 
KS5                .ohm.m                                  : Extra Deep Resistivity 
LLD                .ohm.m                                  : Lateral Log Resistivity 
OKS                .ohm.m                                  : Medium Resistivity Inverted 
RM                 .ohm.m                                  : Mud Resistivity 
SP                 .mV                                     : Spontaneous Potential 
~Ascii
# ...
2437.199947 6.0259     2.068      6.8249     10.104     11.0068    9.0936     4.8596     10.0668    0.1318     68.8889   
2437.399947 6.1074     2.1222     6.8117     9.9875     10.849     9.1273     5.3975     10.0766    0.1285     67.8613   
2437.599947 6.1481     2.1222     6.8841     9.9033     10.6583    9.2189     4.7095     9.9826     0.1285     67.9175   
2437.799947 6.1551     2.1697     7.0285     10.0515    10.6982    9.2189     5.764      9.879      0.1285     67.7231   
2437.999947 6.1074     2.3246     7.3504     10.2593    10.7438    9.1142     5.9723     9.4839     0.1285     67.5835   
2438.199947 6.0055     2.414      7.738      10.4665    10.6912    8.9478     6.0165     9.2475     0.1251     67.5      
2438.399947 5.8901     2.3461     7.4949     10.227     10.231     8.7739     4.7354     9.173      0.1251     66.4312   
2438.599946 5.7747     2.2104     7.3017     9.8774     9.7115     8.4467     4.1164     9.296      0.1251     64.6428   
2438.799946 5.7236     2.129      7.2124     9.6961     9.3631     8.1457     4.2108     9.4968     0.1251     64.0595   
2438.999946 5.7135     2.1019     7.1073     9.6444     9.2097     7.9493     4.2771     9.73       0.1251     63.2923   
2439.199946 5.7203     2.1019     6.9628     9.612      9.0475     7.7792     4.4602     9.8173     0.1251     63.0556   
2439.399946 5.7407     2.0951     6.8051     9.599      8.8568     7.7007     4.5506     9.853      0.1251     63.2832   
2439.599946 5.7543     2.1155     6.7879     9.5667     8.6529     7.5305     4.6155     9.866      0.1251     63.1794   
2439.799946 5.7849     2.1155     6.7395     9.5283     8.4726     7.3604     4.6603     9.879      0.1251     63.8943   
2439.999946 5.795      2.1155     6.6935     9.4631     8.3505     7.2164     4.5735     9.9502     0.1251     64.1111   
2440.199946 5.8222     2.1155     6.7132     9.3531     8.1993     7.1315     4.5881     10.0976    0.1251     62.8056   
2440.399946 5.8222     2.0883     6.7066     9.2818     8.1861     7.0725     4.5493     10.1963    0.1251     61.7418   
2440.599946 5.8222     2.1765     6.9689     9.2689     8.219      6.9547     5.0936     10.2611    0.1251     61.0339   
2440.799945 5.8222     2.1969     6.9825     9.2124     8.1433     6.8107     4.8088     10.2417    0.1251     61.8395   
2440.999945 5.8426     2.1697     6.838      9.0682     8.002      6.6536     4.3602     10.3388    0.1251     61.8251   
2441.199945 5.829      2.068      6.6803     8.9193     7.8376     6.4958     4.423      10.3       0.1251     61.8333   
2441.399945 5.829      2.163      6.9234     8.9323     7.7653     6.3395     5.2235     10.264     0.1251     62.9324   
2441.599945 5.8493     2.1426     6.8544     8.9129     7.6272     6.1563     4.8013     10.2676    0.1251     62.6849   
2441.799945 5.8358     2.1155     6.746      8.783      7.4733     5.96       4.4563     10.4813    0.1251     61.6546   
2441.999945 5.8358     2.0918     6.6343     8.6992     7.3905     5.8291     4.527      10.7857    0.1251     61.0556   
2442.199945 5.8561     2.068      6.5752     8.6215     7.3182     5.7898     4.5783     10.9993    0.1251     60.8056   
2442.399945 5.8901     2.0544     6.5752     8.6151     7.2853     5.7768     4.6983     11.1419    0.1251     60.3613   
2442.599944 5.9512     2.0544     6.549      8.6669     7.3314     5.9076     4.6064     11.4787    0.1251     60.6394   
2442.799944 6.0027     2.0273     6.4767     8.7348     7.498      6.1825     4.5471     11.9386    0.1251     59.9724   
2442.999944 6.087      2.0101     6.457      8.9064     7.7522     6.4704     4.7688     12.5086    0.1251     58.3056   
2443.199944 6.1888     2.0612     6.7395     9.256      8.2453     6.6791     5.231      12.7972    0.1251     58.1111   
2443.399944 6.3518     2.1019     6.8249     9.5149     8.574      6.863      5.4348     12.8454    0.1251     57.7433   
2443.599944 6.5623     2.0747     6.6947     9.5214     8.7055     7.0725     5.1474     12.8389    0.1251     57.0863   
2443.799944 6.7271     2.0951     6.7066     9.5116     8.884      7.1772     5.8261     12.8065    0.1251     57.5767   
2443.999944 6.8271     2.1636     6.9759     9.6638     9.1001     7.2688     6.5162     12.5604    0.1217     58.1111   
2444.199944 6.9222     2.2376     7.3898     10.0522    9.488      7.308      7.2609     12.2297    0.1251     57        
2444.399944 6.9357     2.414      7.9548     10.5053    9.7904     7.2949     7.1915     11.7573    0.1251     55.3647   
2444.599943 6.8678     2.4751     8.1429     10.719     9.8365     7.2164     6.1268     11.3363    0.1251     53.5731   
2444.799943 6.7898     2.4547     8.1059     10.7875    9.8134     7.0594     5.9611     11.0254    0.1251     53.0869   
2444.999943 6.6709     2.4751     8.4277     10.8937    9.7378     6.8107     5.544      10.8634    0.1251     53.3889   
2445.199943 6.5419     2.4547     8.4015     11.0103    9.5669     6.6929     5.3802     10.7568    0.1251     53.7222   
2445.399943 6.4604     2.3665     8.073      10.952     9.2184     6.4966     4.8855     10.7987    0.1251     54.3463   
2445.599943 6.4061     2.2512     7.8301     10.8743    8.9225     6.3134     4.6592     10.9282    0.1251     54.0395   
2445.799943 6.3823     2.2308     7.7051     10.899     8.7946     6.1956     5.2621     11.1031    0.1251     53.4574   
2445.999943 6.379      2.2104     7.5737     11.0167    8.7516     6.1432     5.1568     11.278     0.1251     53.7222   
2446.199943 6.3654     2.2579     7.6132     11.198     8.7516     6.117      5.434      11.4524    0.1251     53.1111   
2446.399943 6.3857     2.2376     7.4949     11.2692    8.7253     6.0778     5.1979     11.6342    0.1251     52.6944   
2446.599942 6.4097     2.2308     7.4257     11.1786    8.6924     6.0254     5.1982     11.822     0.1251     53.0556   
2446.799942 6.4197     2.2547     7.4489     11.0881    8.6758     5.9076     5.438      11.9386    0.1251     52.6389   
2446.999942 6.4401     2.2579     7.4489     10.952     8.6858     5.7898     5.3153     12.0487    0.1251     53.5278   
2447.199942 6.4401     2.2579     7.4555     10.8225    8.7516     5.7375     5.5061     12.0942    0.1251     54.5979   
2447.399942 6.4197     2.2919     7.5769     10.7384    8.916      5.5935     5.7169     12.1459    0.1251     55.5874   
2447.599942 6.3654     2.3258     7.6263     10.6283    9.0343     5.4365     5.7216     12.1264    0.1251     55.9485   
2447.799942 6.3518     2.2919     7.6329     10.4887    8.9727     5.2794     4.9314     12.1847    0.1251     55.1257   
2447.999942 6.3314     2.2334     7.3504     10.214     8.8502     5.1224     4.6949     12.4568    0.1251     54.7778   
2448.199942 6.3382     2.1901     7.2321     9.8968     8.6727     5.0569     4.795      12.7369    0.1251     55.5278   
2448.399942 6.4197     2.1019     6.9365     9.6508     8.528      4.9653     4.6047     13.2923    0.1251     56.4722   
2448.599942 6.5179     2.0408     6.8071     9.4951     8.4491     4.9915     4.8809     13.9723    0.1251     57.1667   
2448.799941 6.6098     2.0578     6.7854     9.5019     8.4983     5.07       5.5063     14.6654    0.1251     57.1944   
2448.999941 6.7728     2.0612     6.792      9.7091     8.6727     5.2074     5.9655     15.219     0.1251     54.8889   
2449.199941 6.9357     2.1426     7.0285     9.9939     8.9554     5.3449     6.2622     15.598     0.1251     54.0833   
2449.399941 7.0987     2.1833     7.1336     10.2464    9.1987     5.5935     6.1819     16.2133    0.1251     55.6238   
2449.599941 7.2517     2.1833     7.1467     10.4471    9.4748     5.8422     6.0203     16.9776    0.1251     55.7704   
2449.799941 7.3295     2.2208     7.3438     10.6614    9.752      6.0385     6.9077     17.7548    0.1251     55.4849   
2449.999941 7.4586     2.2851     7.7774     10.9844    10.1455    6.1233     7.5762     18.0847    0.1251     55.3056   
2450.199941 7.5808     2.3394     7.9416     11.198     10.323     6.1825     7.3987     18.1499    0.1251     55.5698   
