~Version
 VERS              .         2.0                           : CWLS LOG ASCII STANDARD - VERSION 2.0
 WRAP              .         NO                            : ONE LINE PER DEPTH STEP
 DLM               .         SPACE                         : DELIMITING CHARACTER(SPACE TAB OR COMMA)
~Well Information
#_______________________________________________________________________________
#
#PARAMETER_NAME    .UNIT     VALUE                         : DESCRIPTION
#_______________________________________________________________________________
STRT               .m        -10.04                        : First reference value
STOP               .m        2561.16                       : Last reference value
STEP               .m        0.2                           : Step increment
NULL               .         -9999                         : Missing value
COMP               .                                       : Company
WELL               .         403                           : Well name
FLD                .                                       : Field
LOC                .                                       : Location
CNTY               .                                       : County
STAT               .                                       : State
CTRY               .                                       : Country
SRVC               .                                       : Service Company
DATE               .                                       : Date
API                .                                       : API number
EREF               .m        140.4                         : 
Pad                .         4                             : 
X                  .m        222100                        : 
Y                  .m        250025                        : 
group              .         Pad4                          : 
Интер-р            .         Пузин                         : 
Куст               .         4                             : 
Статус             .         Не проверено                  : 
Тип                .         Разведка                      : 
~Parameter Information Block
#_______________________________________________________________________________
#
#PARAMETER_NAME    .UNIT     VALUE                         : DESCRIPTION
#_______________________________________________________________________________
SET                .         LAS4                          : 
REAL_CREATION_DATE .         Ср апр 11 2012-13_17_14       : 
TLFamily_DEPTH     .         Measured Depth                : 
TLFamily_RT        .         Resistivity 20                : 
TLFamily_SP        .         Spontaneous Potential         : 
group              .         INI                           : 
~Curve Information
#_______________________________________________________________________________
#
#LOGNAME           .UNIT     LOG_ID                        : DESCRIPTION
#_______________________________________________________________________________
DEPTH              .m                                      : Measured Depth 
RT                 .ohm.m                                  : Conductivity 
SP                 .mV                                     : Spontaneous Potential 
~Ascii
# ...
1010.16    4.2545     -9999     
1010.36    4.2545     -9999     
1010.56    4.2545     -9999     
1010.76    4.2545     -9999     
1010.96    4.2545     -9999     
1011.16    4.2545     -9999     
1011.36    4.2545     -9999     
1011.56    4.2545     -9999     
1011.76    4.2545     -9999     
1011.96    4.2545     -9999     
1012.16    4.2545     -9999     
1012.36    4.2545     -9999     
1012.56    4.2545     -9999     
1012.76    4.2545     -9999     
1012.96    4.2545     -9999     
1013.16    4.2545     -9999     
1013.36    4.2545     -9999     
1013.56    4.2545     -9999     
1013.76    4.2545     -9999     
1013.96    4.2545     -9999     
1014.16    4.2545     -9999     
1014.36    4.2545     -9999     
1014.56    4.2545     -9999     
1014.76    4.2545     -9999     
1014.96    4.2545     -9999     
1015.16    4.2545     -9999     
1015.36    4.2545     -9999     
1015.56    4.2545     -9999     
1015.76    4.2545     -9999     
1015.96    4.2545     -9999     
1016.16    4.2545     -9999     
1016.36    4.2545     -9999     
1016.56    4.2545     -9999     
1016.76    4.2545     -9999     
1016.96    4.2545     -9999     
1017.16    4.2545     -9999     
1017.36    4.2545     -9999     
1017.56    4.2545     -9999     
1017.76    4.2545     -9999     
1017.96    4.2545     -9999     
1018.16    4.2545     -9999     
1018.36    4.2545     -9999     
1018.56    4.2545     -9999     
1018.76    4.2545     -9999     
1018.96    4.2545     -9999     
1019.16    4.2545     -9999     
1019.36    4.2545     -9999     
1019.56    4.2545     -9999     
1019.76    4.2545     -9999     
1019.96    4.2545     -9999     
1020.16    4.2545     -9999     
1020.36    4.2545     -9999     
1020.56    4.2545     -9999     
1020.76    4.2545     -9999     
1020.96    4.2545     -9999     
1021.16    4.2545     -9999     
1021.36    4.2545     -9999     
1021.56    4.2545     -9999     
1021.76    4.2545     -9999     
1021.96    4.2545     -9999     
1022.16    4.2545     -9999     
1022.36    4.2545     -9999     
1022.56    4.2545     -9999     
1022.76    4.2545     -9999     
1022.96    4.2545     -9999     
1023.16    4.2545     -9999     
1023.36    4.2545     -9999     
1023.56    4.2545     -9999     
1023.76    4.2545     -9999     
1023.96    4.2545     -9999     
1024.16    4.2545     -9999     
1024.36    4.2545     -9999     
1024.56    4.2545     -9999     
1024.76    4.2545     -9999     
1024.96    4.2545     -9999     
1025.16    4.2545     -9999     
1025.36    4.2545     -9999     
1025.56    4.2545     -9999     
1025.76    4.2545     -9999     
1025.96    4.2545     -9999     
1026.16    4.2545     -9999     
1026.36    4.2545     -9999     
1026.56    4.2545     -9999     
1026.76    4.2545     -9999     
1026.96    4.2545     -9999     
1027.16    4.2545     -9999     
1027.36    4.2545     -9999     
1027.56    4.2545     -9999     
1027.76    4.2545     -9999     
1027.96    4.2545     -9999     
1028.16    4.2545     -9999     
1028.36    4.2545     -9999     
1028.56    4.2545     -9999     
1028.76    4.2545     -9999     
1028.96    4.2545     -9999     
1029.16    4.2545     -9999     
1029.36    4.2545     -9999     
1029.56    4.2545     -9999     
1029.76    4.2545     -9999     
1029.96    4.2545     -9999     
1030.16    4.2545     -9999     
1030.36    4.2545     -9999     
1030.56    4.2545     -9999     
1030.76    4.2545     -9999     
1030.96    4.2545     -9999     
1031.16    4.2545     -9999     
1031.36    4.2545     -9999     
1031.56    4.2545     -9999     
1031.76    4.2545     -9999     
1031.96    4.2545     -9999     
1032.16    4.2545     -9999     
1032.36    4.2545     -9999     
1032.56    4.2545     -9999     
1032.76    4.2545     -9999     
1032.96    4.2545     -9999     
1033.16    4.2545     -9999     
1033.36    4.2545     -9999     
1033.56    4.2545     -9999     
1033.76    4.2545     -9999     
1033.96    4.2545     -9999     
1034.16    4.2545     -9999     
1034.36    4.2545     -9999     
1034.56    4.2545     -9999     
1034.76    4.2545     -9999     
1034.96    4.2545     -9999     
1035.16    4.2545     -9999     
1035.36    4.2545     -9999     
1035.56    4.2545     -9999     
1035.76    4.2545     -9999     
1035.96    4.2545     -9999     
1036.16    4.2545     -9999     
1036.36    4.2545     -9999     
1036.56    4.2545     -9999     
1036.76    4.2545     -9999     
1036.96    4.2545     -9999     
1037.16    4.2545     -9999     
1037.36    4.2545     -9999     
1037.56    4.2545     -9999     
1037.76    4.2545     -9999     
1037.96    4.2545     -9999     
1038.16    4.2545     -9999     
1038.36    4.2545     -9999     
1038.56    4.2545     -9999     
1038.76    4.2545     -9999     
1038.96    4.2545     -9999     
1039.16    4.2545     -9999     
1039.36    4.2545     -9999     
1039.56    4.2545     -9999     
1039.76    4.2545     -9999     
1039.96    4.2545     -9999     
1040.16    4.2545     -9999     
1040.36    4.2545     -9999     
1040.56    4.2545     -9999     
1040.76    4.2545     -9999     
1040.96    4.2545     -9999     
1041.16    4.2545     -9999     
1041.36    4.2545     -9999     
1041.56    4.2545     -9999     
1041.76    4.2545     -9999     
1041.96    4.2545     -9999     
1042.16    4.2545     -9999     
1042.36    4.2545     -9999     
1042.56    4.2545     -9999     
1042.76    4.2545     -9999     
1042.96    4.2545     -9999     
1043.16    4.2545     -9999     
1043.36    4.2545     -9999     
1043.56    4.2545     -9999     
1043.76    4.2545     -9999     
1043.96    4.2545     -9999     
1044.16    4.2545     -9999     
1044.36    4.2545     -9999     
1044.56    4.2545     -9999     
1044.76    4.2545     -9999     
1044.96    4.2545     -9999     
1045.16    4.2545     -9999     
1045.36    4.2545     -9999     
1045.56    4.2545     -9999     
1045.76    4.2545     -9999     
1045.96    4.2545     -9999     
1046.16    4.2545     -9999     
1046.36    4.2545     -9999     
1046.56    4.2545     -9999     
1046.76    4.2545     -9999     
1046.96    4.2545     -9999     
1047.16    4.2545     -9999     
1047.36    4.2545     -9999     
1047.56    4.2545     -9999     
1047.76    4.2545     -9999     
1047.96    4.2545     -9999     
1048.16    4.2545     -9999     
1048.36    4.2545     -9999     
1048.56    4.2545     -9999     
1048.76    4.2545     -9999     
1048.96    4.2545     -9999     
1049.16    4.2545     -9999     
1049.36    4.2545     -9999     
1049.56    4.2545     -9999     
1049.76    4.2545     -9999     
1049.96    4.2545     -9999     
1050.16    4.2545     -9999     
1050.36    4.2545     -9999     
1050.56    4.2545     -9999     
1050.76    4.2545     -9999     
1050.96    4.2545     -9999     
1051.16    4.2545     -9999     
1051.36    4.2545     -9999     
1051.56    4.2545     -9999     
1051.76    4.2545     -9999     
1051.96    4.2545     -9999     
1052.16    4.2545     -9999     
1052.36    4.2545     -9999     
1052.56    4.2545     -9999     
1052.76    4.2545     -9999     
1052.96    4.2545     -9999     
1053.16    4.2545     -9999     
1053.36    4.2545     -9999     
1053.56    4.2545     -9999     
1053.76    4.2545     -9999     
1053.96    4.2545     -9999     
1054.16    4.2545     -9999     
1054.36    4.2545     -9999     
1054.56    4.2545     -9999     
1054.76    4.2545     -9999     
1054.96    4.2545     -9999     
1055.16    4.2545     -9999     
1055.36    4.2545     -9999     
1055.56    4.2545     -9999     
1055.76    4.2545     -9999     
1055.96    4.2545     -9999     
1056.16    4.2545     -9999     
1056.36    4.2545     -9999     
1056.56    4.2545     -9999     
1056.76    4.2545     -9999     
1056.96    4.2545     -9999     
1057.16    4.2545     -9999     
1057.36    4.2545     -9999     
1057.56    4.2545     -9999     
1057.76    4.2545     -9999     
1057.96    4.2545     -9999     
1058.16    4.2545     -9999     
1058.36    4.2545     -9999     
1058.56    4.2545     -9999     
