~Version
 VERS              .         2.0                           : CWLS LOG ASCII STANDARD - VERSION 2.0
 WRAP              .         NO                            : ONE LINE PER DEPTH STEP
 DLM               .         SPACE                         : DELIMITING CHARACTER(SPACE TAB OR COMMA)
~Well Information
#_______________________________________________________________________________
#
#PARAMETER_NAME    .UNIT     VALUE                         : DESCRIPTION
#_______________________________________________________________________________
STRT               .m        2331.6                        : First reference value
STOP               .m        2561.999885                   : Last reference value
STEP               .m        0.1999999                     : Step increment
NULL               .         -9999                         : Missing value
COMP               .                                       : Company
WELL               .         403                           : Well name
FLD                .                                       : Field
LOC                .                                       : Location
CNTY               .                                       : County
STAT               .                                       : State
CTRY               .                                       : Country
SRVC               .                                       : Service Company
DATE               .                                       : Date
API                .                                       : API number
EREF               .m        140.4                         : 
Pad                .         4                             : 
X                  .m        222100                        : 
Y                  .m        250025                        : 
group              .         Pad4                          : 
Интер-р            .         Пузин                         : 
Куст               .         4                             : 
Статус             .         Не проверено                  : 
Тип                .         Разведка                      : 
~Parameter Information Block
#_______________________________________________________________________________
#
#PARAMETER_NAME    .UNIT     VALUE                         : DESCRIPTION
#_______________________________________________________________________________
SET                .         LAS1                          : 
REAL_CREATION_DATE .         Ср апр 11 2012-13_17_13       : 
TLFamily_DEPTH     .         Measured Depth                : 
TLFamily_KS        .         Potential Resistivity         : 
TLFamily_KS1       .         Extra Shallow Resistivity     : 
TLFamily_KS2       .         Shallow Resistivity           : 
TLFamily_KS3       .         Medium Resistivity            : 
TLFamily_KS4       .         Deep Resistivity              : 
TLFamily_KS5       .         Extra Deep Resistivity        : 
TLFamily_LLD       .         Lateral Log Resistivity       : 
TLFamily_OKS       .         Medium Resistivity Inverted   : 
TLFamily_RM        .         Mud Resistivity               : 
TLFamily_SP        .         Spontaneous Potential         : 
group              .         INI                           : 
~Curve Information
#_______________________________________________________________________________
#
#LOGNAME           .UNIT     LOG_ID                        : DESCRIPTION
#_______________________________________________________________________________
DEPTH              .m                                      : Measured Depth 
KS                 .ohm.m                                  : Potential Resistivity 
KS1                .ohm.m                                  : Extra Shallow Resistivity 
KS2                .ohm.m                                  : Shallow Resistivity 
KS3                .ohm.m                                  : Medium Resistivity 
KS4                .ohm.m                                  : Deep Resistivity 
KS5                .ohm.m                                  : Extra Deep Resistivity 
LLD                .ohm.m                                  : Lateral Log Resistivity 
OKS                .ohm.m                                  : Medium Resistivity Inverted 
RM                 .ohm.m                                  : Mud Resistivity 
SP                 .mV                                     : Spontaneous Potential 
~Ascii
# ...
2384.399974 5.666      2.1562     6.8774     9.0164     7.6864     5.515      4.9948     9.5098     0.1285     105.8056  
2384.599974 5.6524     2.1426     6.8446     9.01       7.6338     5.515      4.8684     9.5616     0.1285     104.3333  
2384.799973 5.6456     2.1222     6.792      9.0035     7.5746     5.515      4.8174     9.594      0.1285     101.7222  
2384.999973 5.6321     2.1155     6.7592     9.0035     7.5549     5.5019     4.8384     9.6328     0.1285     101.0556  
2385.199973 5.6321     2.129      6.792      9.0164     7.5418     5.4888     4.8809     9.6523     0.1285     100.7778  
2385.399973 5.6321     2.1222     6.7526     9.01       7.5286     5.4757     5.0028     9.649      0.1285     99.9167   
2385.599973 5.6321     2.129      6.7197     8.9776     7.4924     5.4496     4.8772     9.6458     0.1285     100.4167  
2385.799973 5.6389     2.1155     6.6803     8.9388     7.4694     5.4234     4.8825     9.6782     0.1251     99.8056   
2385.999973 5.6524     2.0951     6.6343     8.8611     7.4497     5.4103     4.8109     9.7235     0.1285     98.5833   
2386.199973 5.6626     2.0883     6.6212     8.8222     7.4694     5.3972     4.7853     9.7688     0.1285     98.3611   
2386.399973 5.6932     2.1087     6.6803     8.8158     7.5023     5.3841     4.9163     9.7818     0.1285     97.3611   
2386.599972 5.7135     2.1019     6.6541     8.8093     7.5352     5.3972     5.1028     9.8012     0.1251     97.8056   
2386.799972 5.7203     2.1087     6.6475     8.8222     7.5746     5.3972     4.9394     9.8336     0.1285     97.0556   
2386.999972 5.7339     2.129      6.7066     8.8352     7.6009     5.3972     5.0274     9.8336     0.1285     95.5556   
2387.199972 5.7543     2.1155     6.6869     8.8352     7.6207     5.3972     5.1129     9.8466     0.1285     95.1667   
2387.399972 5.7679     2.1155     6.6935     8.8546     7.647      5.3972     4.9666     9.8401     0.1285     94.0833   
2387.599972 5.7747     2.1358     6.7854     8.8934     7.6864     5.3841     5.0556     9.8142     0.1251     93.1667   
2387.799972 5.7814     2.1358     6.7723     8.9258     7.6996     5.371      5.2743     9.7883     0.1285     92.9444   
2387.999972 5.795      2.1358     6.7986     8.9193     7.6864     5.3514     5.0784     9.7818     0.1285     92.8611   
2388.199972 5.795      2.1426     6.7986     8.9355     7.6733     5.3187     5.1129     9.7915     0.1285     91.8889   
2388.399972 5.795      2.129      6.792      8.9452     7.6535     5.3056     5.0556     9.8271     0.1285     91.1944   
2388.599971 5.795      2.129      6.7986     8.9582     7.6437     5.2925     5.0285     9.853      0.1285     92.6528   
2388.799971 5.8086     2.1222     6.7789     8.9646     7.647      5.2925     5.0566     9.8919     0.1251     93.9722   
2388.999971 5.8086     2.1155     6.7657     8.9711     7.6404     5.2925     5.0071     9.9308     0.1285     92.9722   
2389.199971 5.8154     2.1155     6.746      8.9905     7.6667     5.2925     5.0744     9.9891     0.1268     92.125    
2389.399971 5.8222     2.1222     6.7657     9.0164     7.6996     5.3187     5.0631     10.0409    0.1285     92.6667   
2389.599971 5.829      2.1256     6.7789     9.0423     7.7259     5.3318     5.0809     10.0927    0.1285     91.75     
2389.799971 5.8493     2.1087     6.7329     9.0423     7.7259     5.3645     5.0593     10.138     0.1251     88.9722   
2389.999971 5.8697     2.0883     6.6869     9.0035     7.739      5.4103     4.9397     10.1704    0.1285     87.5556   
2390.199971 5.9105     2.0883     6.677      9.0035     7.7883     5.4496     4.961      10.2222    0.1285     88.4444   
2390.399971 5.9512     2.0951     6.7066     9.0488     7.9034     5.5019     5.122      10.2417    0.1285     89.1944   
2390.59997 5.9784     2.1155     6.7592     9.1135     7.9954     5.5673     5.2621     10.2028    0.1285     88.5278   
2390.79997 6.0157     2.1426     6.8314     9.1653     8.048      5.6066     5.3912     10.1186    0.1285     88.5556   
2390.99997 6.0463     2.1562     6.8446     9.1912     8.0612     5.659      5.3351     10.0927    0.1285     88.3333   
2391.19997 6.0734     2.1494     6.8511     9.1783     8.0941     5.7113     5.2982     10.1704    0.1285     86.6111   
2391.39997 6.0938     2.1426     6.8577     9.2268     8.173      5.7964     5.2031     10.2611    0.1251     85.1667   
2391.59997 6.1006     2.1833     7.0186     9.3336     8.265      5.9076     5.2382     10.2676    0.1285     84.8611   
2391.79997 6.1006     2.1765     7.0351     9.5278     8.4294     5.9862     5.6673     10.287     0.1285     86.4861   
2391.99997 6.0598     2.2715     7.3701     9.6444     8.5642     6.0647     5.4348     10.1445    0.1285     86.3472   
2392.19997 6.0327     2.2783     7.2321     9.7285     8.5872     6.1301     6.0127     10.1056    0.1285     85.6528   
2392.39997 5.9784     2.2138     7.1467     9.6638     8.5346     6.1956     4.6688     10.1575    0.1285     84.3056   
2392.59997 5.9784     2.1697     7.1402     9.6444     8.5346     6.2348     5.1459     10.2158    0.1285     81.2222   
2392.799969 5.9784     2.163      7.0613     9.667      8.5543     6.2741     5.0228     10.2028    0.1285     79.5556   
2392.999969 6.0055     2.1765     7.0712     9.6573     8.5412     6.3526     5.1402     10.1575    0.1285     80.75     
2393.199969 6.0327     2.1494     6.93       9.5796     8.4886     6.4573     5.1573     10.1445    0.1285     82.7778   
2393.399969 6.0598     2.1358     6.8708     9.5214     8.4984     6.5751     5.0849     10.2287    0.1251     82.2361   
2393.599969 6.087      2.1358     6.93       9.599      8.6924     6.7453     4.9874     10.4036    0.1251     81.8611   
2393.799969 6.1345     2.1697     7.0679     9.7156     8.8765     7.007      5.0897     10.5202    0.1251     81.7778   
2393.999969 6.1481     2.1765     7.0679     9.9033     9.1855     7.2164     5.5374     10.6821    0.1285     81.0694   
2394.199969 6.1142     2.2802     7.5475     10.3047    9.5077     7.3473     5.3467     10.559     0.1285     80.9722   
2394.399969 6.1074     2.3461     7.6066     10.5248    9.6721     7.3735     6.6699     10.2093    0.1285     79.9167   
2394.599968 6.0734     2.3258     7.5935     10.3823    9.4946     7.2688     5.6209     9.8411     0.1285     79.3333   
2394.799968 6.0259     2.3054     7.4724     10.1881    9.1625     7.0463     5.3108     9.6976     0.1285     79.4444   
2394.999968 5.9512     2.2512     7.3701     10.0716    8.9423     6.7976     5.0316     9.445      0.1285     79.2917   
2395.199968 5.8765     2.2851     7.5737     10.0392    8.7976     6.5751     5.0141     9.1406     0.1285     78.0417   
2395.399968 5.8154     2.2512     7.4358     9.9098     8.5609     6.3919     5.2988     8.7973     0.1285     76.6806   
2395.599968 5.7342     2.2444     7.3635     9.7738     8.3373     6.1825     5.0185     8.6655     0.1285     76.7778   
2395.799968 5.7        2.2176     7.2321     9.6185     8.1335     5.9731     4.8199     8.5382     0.1285     76.3056   
2395.999968 5.6524     2.1697     6.9957     9.52       7.9165     5.816      4.6326     8.5577     0.1285     76.6944   
2396.199968 5.6253     2.1087     6.9037     9.4178     7.6963     5.6524     4.3734     8.5512     0.1285     77.2222   
2396.399968 5.6049     2.129      6.8902     9.4566     7.6141     5.5281     4.6976     8.5059     0.1285     77.2778   
2396.599967 5.5913     2.1562     6.9103     9.5537     7.6141     5.4626     4.9529     8.4671     0.1285     76.7778   
2396.799967 5.537      2.1697     6.8905     9.5796     7.647      5.3972     4.957      8.4217     0.1285     76.3056   
2396.999967 5.4555     2.2104     6.9562     9.599      7.6864     5.3187     5.0808     8.3698     0.1285     75.7778   
2397.199967 5.388      2.2308     7.0285     9.6055     7.693      5.2271     5.0335     8.331      0.1285     75.3056   
2397.399967 5.2926     2.2376     7.0548     9.4761     7.6009     5.1093     4.9101     8.4152     0.1285     74.6944   
