~Version
 VERS              .         2.0                           : CWLS LOG ASCII STANDARD - VERSION 2.0
 WRAP              .         NO                            : ONE LINE PER DEPTH STEP
 DLM               .         SPACE                         : DELIMITING CHARACTER(SPACE TAB OR COMMA)
~Well Information
#_______________________________________________________________________________
#
#PARAMETER_NAME    .UNIT     VALUE                         : DESCRIPTION
#_______________________________________________________________________________
STRT               .m        2355.27                       : First reference value
STOP               .m        2564.47                       : Last reference value
STEP               .m        0.2                           : Step increment
NULL               .         -9999                         : Missing value
COMP               .                                       : Company
WELL               .         403                           : Well name
FLD                .                                       : Field
LOC                .                                       : Location
CNTY               .                                       : County
STAT               .                                       : State
CTRY               .                                       : Country
SRVC               .                                       : Service Company
DATE               .                                       : Date
API                .                                       : API number
EREF               .m        140.4                         : 
Pad                .         4                             : 
X                  .m        222100                        : 
Y                  .m        250025                        : 
group              .         Pad4                          : 
Интер-р            .         Пузин                         : 
Куст               .         4                             : 
Статус             .         Не проверено                  : 
Тип                .         Разведка                      : 
~Parameter Information Block
#_______________________________________________________________________________
#
#PARAMETER_NAME    .UNIT     VALUE                         : DESCRIPTION
#_______________________________________________________________________________
SET                .         LAS3                          : 
REAL_CREATION_DATE .         Ср апр 11 2012-13_17_14       : 
TLFamily_DEPTH     .         Measured Depth                : 
TLFamily_GR        .         Gamma Ray                     : 
TLFamily_TNPH      .         Neutron Porosity              : 
group              .         INI                           : 
~Curve Information
#_______________________________________________________________________________
#
#LOGNAME           .UNIT     LOG_ID                        : DESCRIPTION
#_______________________________________________________________________________
DEPTH              .m                                      : Measured Depth 
GR                 .gAPI                                   :  
TNPH               .v/v                                    : Neutron Porosity 
~Ascii
# ...
2501.07    32.115     0.1242    
2501.27    29.897     0.1121    
2501.47    27.487     0.1125    
2501.67    23.333     0.0959    
2501.87    28.615     0.0945    
2502.07    30.154     0.097     
2502.27    25.962     0.0965    
2502.47    25.897     0.094     
2502.67    23.205     0.0998    
2502.87    22.692     0.1092    
2503.07    22.256     0.1136    
2503.27    14.462     0.1165    
2503.47    13.91      0.113     
2503.67    19.038     0.105     
2503.87    23.179     0.1169    
2504.07    26.718     0.1418    
2504.27    32.41      0.1851    
2504.47    34.872     0.1746    
2504.67    31.59      0.1677    
2504.87    33.897     0.1719    
2505.07    33.538     0.1908    
2505.27    28.077     0.1905    
2505.47    27.846     0.1745    
2505.67    28.667     0.1732    
2505.87    29.333     0.1818    
2506.07    30.359     0.2023    
2506.27    30.321     0.2114    
2506.47    27.308     0.2052    
2506.67    30.256     0.1948    
2506.87    34.974     0.187     
2507.07    36.513     0.1814    
2507.27    36.923     0.181     
2507.47    32.872     0.1942    
2507.67    37.885     0.2084    
2507.87    36.513     0.205     
2508.07    33.128     0.199     
2508.27    32.872     0.2127    
2508.47    34.923     0.2139    
2508.67    36.564     0.2136    
2508.87    36.256     0.1977    
2509.07    37.692     0.211     
2509.27    38.256     0.2257    
2509.47    39.551     0.2324    
2509.67    50.513     0.2581    
2509.87    64.936     0.2404    
2510.07    73.79501   0.2242    
2510.27    75.64101   0.2212    
2510.47    78.513     0.2164    
2510.67    82.821     0.2176    
2510.87    80.205     0.2196    
2511.07    81.077     0.239     
2511.27    83.077     0.2609    
2511.47    77.436     0.2735    
2511.67    64.61501   0.2351    
2511.87    45.692     0.2242    
2512.07    25.897     0.2111    
2512.27    22.692     0.1909    
2512.47    28.205     0.1919    
2512.67    31.603     0.1956    
2512.87    32.179     0.193     
2513.07    31.026     0.1747    
2513.27    30.923     0.178     
2513.47    32.308     0.2219    
2513.67    39.359     0.2604    
2513.87    51.41      0.2878    
2514.07    54         0.3071    
2514.27    46.769     0.3071    
2514.47    42.359     0.3118    
2514.67    52.718     0.3212    
2514.87    50.821     0.3109    
2515.07    49.359     0.2622    
2515.27    66.35899   0.2117    
2515.47    81.949     0.2169    
2515.67    87.949     0.2322    
2515.87    82.462     0.2374    
2516.07    80.064     0.2415    
2516.27    74.16701   0.2257    
2516.47    70.615     0.2246    
2516.67    74.513     0.2442    
2516.87    76.46201   0.2953    
2517.07    78.821     0.3296    
2517.27    71.85899   0.3067    
2517.47    75.064     0.3068    
2517.67    84.231     0.3191    
2517.87    79.744     0.2891    
2518.07    83.487     0.2609    
2518.27    78.103     0.2087    
2518.47    74.231     0.2215    
2518.67    72.051     0.2237    
2518.87    68.462     0.2274    
2519.07    62.628     0.2454    
2519.27    71.231     0.2393    
2519.47    75.69199   0.2213    
2519.67    54.051     0.1985    
2519.87    41.897     0.186     
2520.07    38.654     0.1918    
2520.27    38.846     0.1973    
2520.47    42.692     0.213     
2520.67    47.821     0.2331    
2520.87    64.16701   0.2454    
2521.07    68.718     0.2265    
2521.27    65.897     0.2137    
2521.47    64.41      0.2267    
2521.67    69.026     0.2308    
2521.87    71.744     0.226     
2522.07    79.017     0.2434    
2522.27    79.795     0.2618    
2522.47    77.02599   0.2938    
2522.67    75.231     0.3063    
2522.87    81.179     0.2952    
2523.07    84.744     0.2455    
2523.27    80.449     0.2291    
2523.47    78.564     0.2492    
2523.67    80.83299   0.2831    
2523.87    82.61501   0.3073    
2524.07    82.513     0.3169    
2524.27    81.66701   0.3191    
2524.47    81.85899   0.2859    
2524.67    81.66701   0.3111    
2524.87    81.15401   0.3357    
2525.07    76.20499   0.3399    
2525.27    66.513     0.3496    
2525.47    47.641     0.3864    
2525.67    17.692     0.4437    
2525.87    1.640999   0.4157    
2526.07    -0.7690001 0.3692    
2526.27    -0.1919997 0.3491    
2526.47    1.603      0.3903    
2526.67    10.705     0.3815    
2526.87    26.538     0.3686    
2527.07    52.718     0.3879    
2527.27    70.154     0.4002    
2527.47    60.974     0.389     
2527.67    55.128     0.3503    
2527.87    61.385     0.3227    
2528.07    64.231     0.3173    
2528.27    58.615     0.3092    
2528.47    62.667     0.3156    
2528.67    63.28201   0.31      
2528.87    60.103     0.28      
2529.07    62.205     0.2495    
2529.27    57.628     0.2159    
2529.47    56.051     0.2181    
2529.67    51.128     0.2243    
2529.87    49.846     0.2226    
2530.07    42.821     0.2142    
2530.27    36.282     0.2007    
2530.47    37.308     0.1896    
2530.67    33.013     0.1999    
2530.87    34.038     0.2046    
2531.07    35.333     0.206     
2531.27    36.872     0.1906    
2531.47    37.949     0.1933    
2531.67    30.513     0.2016    
2531.87    32.436     0.1959    
2532.07    33.077     0.1794    
2532.27    32.256     0.1649    
2532.47    30.385     0.1676    
2532.67    28.718     0.1998    
2532.87    30.564     0.2324    
2533.07    30.962     0.2313    
2533.27    28.923     0.2237    
2533.47    30.154     0.202     
2533.67    32.513     0.1879    
2533.87    30.769     0.1919    
2534.07    34.423     0.1938    
2534.27    39.538     0.2028    
2534.47    43.026     0.2231    
2534.67    48.769     0.2318    
2534.87    56.308     0.2194    
2535.07    63.179     0.2527    
2535.27    71.474     0.297     
2535.47    75.026     0.2515    
2535.67    71.282     0.2302    
2535.87    56.103     0.2237    
2536.07    55.128     0.218     
2536.27    73.462     0.2295    
2536.47    90.513     0.2475    
2536.67    98.718     0.2557    
2536.87    95.12801   0.2343    
2537.07    79.436     0.2094    
2537.27    63.744     0.2114    
2537.47    57.756     0.2111    
2537.67    58.974     0.2054    
2537.87    69.231     0.2013    
2538.07    62         0.214     
2538.27    52.974     0.2064    
2538.47    44.808     0.1915    
2538.67    41.667     0.1685    
2538.87    42.513     0.167     
2539.07    48.013     0.1698    
2539.27    49.026     0.1896    
2539.47    57.538     0.1942    
2539.67    67.128     0.2286    
2539.87    77.62801   0.2382    
2540.07    75.179     0.2438    
2540.27    66.256     0.2609    
2540.47    53.077     0.2717    
2540.67    50         0.2637    
2540.87    44.205     0.2383    
2541.07    37.564     0.215     
2541.27    40.462     0.2161    
2541.47    46.872     0.2143    
2541.67    52.667     0.2124    
2541.87    58.526     0.2108    
2542.07    63.026     0.2092    
2542.27    64.718     0.2211    
2542.47    72         0.2416    
2542.67    78.769     0.2413    
2542.87    84.30801   0.2287    
2543.07    77.821     0.2246    
2543.27    75.231     0.2176    
2543.47    73.79501   0.2107    
2543.67    69.038     0.219     
2543.87    72.756     0.2315    
2544.07    79.282     0.2348    
2544.27    85.94901   0.2457    
2544.47    89.897     0.2429    
2544.67    88.077     0.2483    
2544.87    75.38499   0.2545    
2545.07    66.474     0.2451    
2545.27    71.333     0.2341    
2545.47    81.026     0.2393    
2545.67    64.87199   0.2335    
2545.87    50.897     0.2157    
2546.07    39.692     0.2152    
2546.27    41.385     0.2078    
2546.47    47.436     0.1887    
2546.67    43.718     0.1878    
2546.87    43.333     0.1876    
2547.07    41.436     0.1815    
2547.27    39.641     0.2031    
2547.47    40.577     0.2111    
2547.67    47.115     0.2233    
2547.87    52.308     0.2292    
2548.07    55.897     0.2589    
2548.27    55.449     0.274     
2548.47    62.436     0.2827    
2548.67    68.65401   0.3165    
2548.87    69.35899   0.3104    
2549.07    65.12801   0.2798    
2549.27    60.359     0.2667    
2549.47    55.449     0.2697    
