~Version
 VERS              .         2.0                           : CWLS LOG ASCII STANDARD - VERSION 2.0
 WRAP              .         NO                            : ONE LINE PER DEPTH STEP
 DLM               .         SPACE                         : DELIMITING CHARACTER(SPACE TAB OR COMMA)
~Well Information
#_______________________________________________________________________________
#
#PARAMETER_NAME    .UNIT     VALUE                         : DESCRIPTION
#_______________________________________________________________________________
STRT               .m        2331.6                        : First reference value
STOP               .m        2561.999885                   : Last reference value
STEP               .m        0.1999999                     : Step increment
NULL               .         -9999                         : Missing value
COMP               .                                       : Company
WELL               .         403                           : Well name
FLD                .                                       : Field
LOC                .                                       : Location
CNTY               .                                       : County
STAT               .                                       : State
CTRY               .                                       : Country
SRVC               .                                       : Service Company
DATE               .                                       : Date
API                .                                       : API number
EREF               .m        140.4                         : 
Pad                .         4                             : 
X                  .m        222100                        : 
Y                  .m        250025                        : 
group              .         Pad4                          : 
Интер-р            .         Пузин                         : 
Куст               .         4                             : 
Статус             .         Не проверено                  : 
Тип                .         Разведка                      : 
~Parameter Information Block
#_______________________________________________________________________________
#
#PARAMETER_NAME    .UNIT     VALUE                         : DESCRIPTION
#_______________________________________________________________________________
SET                .         LAS1                          : 
REAL_CREATION_DATE .         Ср апр 11 2012-13_17_13       : 
TLFamily_DEPTH     .         Measured Depth                : 
TLFamily_KS        .         Potential Resistivity         : 
TLFamily_KS1       .         Extra Shallow Resistivity     : 
TLFamily_KS2       .         Shallow Resistivity           : 
TLFamily_KS3       .         Medium Resistivity            : 
TLFamily_KS4       .         Deep Resistivity              : 
TLFamily_KS5       .         Extra Deep Resistivity        : 
TLFamily_LLD       .         Lateral Log Resistivity       : 
TLFamily_OKS       .         Medium Resistivity Inverted   : 
TLFamily_RM        .         Mud Resistivity               : 
TLFamily_SP        .         Spontaneous Potential         : 
group              .         INI                           : 
~Curve Information
#_______________________________________________________________________________
#
#LOGNAME           .UNIT     LOG_ID                        : DESCRIPTION
#_______________________________________________________________________________
DEPTH              .m                                      : Measured Depth 
KS                 .ohm.m                                  : Potential Resistivity 
KS1                .ohm.m                                  : Extra Shallow Resistivity 
KS2                .ohm.m                                  : Shallow Resistivity 
KS3                .ohm.m                                  : Medium Resistivity 
KS4                .ohm.m                                  : Deep Resistivity 
KS5                .ohm.m                                  : Extra Deep Resistivity 
LLD                .ohm.m                                  : Lateral Log Resistivity 
OKS                .ohm.m                                  : Medium Resistivity Inverted 
RM                 .ohm.m                                  : Mud Resistivity 
SP                 .mV                                     : Spontaneous Potential 
~Ascii
# ...
2542.799894 6.2839     2.034      7.0022     9.7674     10.4677    3.7743     7.4654     9.9372     0.1251     135.4722  
2542.999894 6.3654     2.0408     7.0416     9.5861     10.2638    3.8267     6.4608     9.9372     0.1217     132.6389  
2543.199894 6.4061     2.034      7.0416     9.6638     10.0403    3.9575     6.2205     9.9372     0.1251     132.3611  
2543.399894 6.3959     2.034      7.0482     9.6573     9.6852     4.1539     7.1485     9.9372     0.1234     132.7778  
2543.599894 6.4061     2.034      7.0285     9.968      9.3894     4.5334     8.0449     9.9372     0.1217     131.1389  
2543.799894 6.4061     2.034      6.9234     10.5377    9.2316     5.0438     7.0767     9.9372     0.1251     130.4167  
2543.999894 6.4061     2.034      6.9103     11.0297    9.1527     5.515      7.2043     9.9372     0.1217     131.9167  
2544.199894 6.4061     2.034      6.9004     11.1462    9.2316     5.9469     6.5287     9.9372     0.1217     131.0278  
2544.399894 6.4061     2.034      6.9103     11.1527    9.314      6.2087     7.7067     9.9372     0.1251     129.0556  
2544.599893 6.4061     2.034      6.9103     11.1527    9.3828     6.2999     7.4715     9.9372     0.1251     130.8056  
2544.799893 6.4061     2.034      6.9103     11.2045    9.4814     6.3395     6.925      9.9372     0.1217     133.6111  
2544.999893 6.3993     2.034      6.9103     11.4246    9.6129     6.3264     6.6162     9.9372     0.1251     138.3611  
2545.199893 6.4061     2.034      6.9103     11.4699    9.9154     6.2741     7.8144     9.9372     0.1251     143.1944  
2545.399893 6.4061     2.034      6.9037     11.4699    10.4085    6.1825     7.2643     9.9372     0.1251     146.6667  
2545.599893 6.4061     2.034      6.9103     11.4699    9.9614     6.0778     4.2536     9.9372     0.1251     152.7222  
2545.799893 6.4061     2.034      6.9037     11.4699    8.574      5.96       3.6089     -9999      0.1251     161.1398  
2545.999893 6.3993     2.034      6.9103     11.4699    8.0809     5.8553     4.1952     -9999      0.1251     167.839   
2546.199893 6.4061     2.034      6.9103     11.4699    8.0415     5.8291     4.967      -9999      0.1251     171.7556  
2546.399893 6.4061     2.034      6.9103     11.4699    8.0415     5.8553     5.5282     -9999      0.1251     173.8065  
2546.599892 6.4061     2.034      6.9037     11.4699    8.048      6.0254     5.5327     -9999      0.1251     172.6111  
2546.799892 6.4061     2.034      6.9103     11.4699    8.0546     6.2741     5.599      -9999      0.1217     168.9444  
2546.999892 6.4061     2.034      6.9103     11.4699    8.0678     6.6144     5.8828     -9999      0.1251     166.4722  
2547.199892 6.4061     2.034      6.9103     11.4699    8.0941     7.1117     4.4318     -9999      0.1251     165.1667  
2547.399892 6.4061     2.034      6.9103     11.4699    8.0941     7.7268     3.8537     -9999      0.1217     164.6111  
2547.599892 6.4061     2.034      6.9037     11.4699    8.0941     8.3812     6.6667     -9999      0.1251     161.3889  
2547.799892 6.3993     2.034      6.9103     11.4634    8.0941     9.2843     7.9935     -9999      0.1217     162.3056  
2547.999892 6.4061     2.034      6.9103     11.4699    8.0941     10.436     8.4901     -9999      -9999      166.8333  
2548.199892 -9999      2.034      6.9037     11.4699    8.0941     11.8234    9.465      -9999      -9999      169.75    
2548.399892 -9999      -9999      6.9103     11.4699    8.0941     12.9882    14.4138    -9999      -9999      167.5     
2548.599892 -9999      -9999      6.907      11.4699    8.0941     13.692     16.9099    -9999      -9999      160.4722  
2548.799891 -9999      -9999      6.9103     11.4699    8.0941     14.2839    12.8541    -9999      -9999      153.5412  
2548.999891 -9999      -9999      -9999      11.4699    8.0941     14.7943    10.0943    -9999      -9999      156.3581  
2549.199891 -9999      -9999      -9999      11.4699    8.0941     15.2786    9.1411     -9999      -9999      160.5765  
2549.399891 -9999      -9999      -9999      11.4699    8.0941     16.4696    9.4634     -9999      -9999      159.6431  
2549.599891 -9999      -9999      -9999      11.4699    8.0941     18.9824    11.0507    -9999      -9999      158.5186  
2549.799891 -9999      -9999      -9999      11.4667    8.0941     22.8041    12.7217    -9999      -9999      161.3712  
2549.999891 -9999      -9999      -9999      11.4634    8.0941     27.3456    12.3293    -9999      -9999      162.9444  
2550.199891 -9999      -9999      -9999      -9999      8.0941     31.6123    9.4721     -9999      -9999      164.5833  
2550.399891 -9999      -9999      -9999      -9999      8.0941     33.4315    9.2942     -9999      -9999      164.9167  
2550.599891 -9999      -9999      -9999      -9999      8.0941     33.4707    10.097     -9999      -9999      162.3333  
2550.79989 -9999      -9999      -9999      -9999      8.0941     33.5362    12.7994    -9999      -9999      161.3056  
2550.99989 -9999      -9999      -9999      -9999      8.0941     33.6671    13.682     -9999      -9999      153.8333  
2551.19989 -9999      -9999      -9999      -9999      8.0941     34.9104    80.3895    -9999      -9999      148.5833  
2551.39989 -9999      -9999      -9999      -9999      8.0941     35.2507    87.0029    -9999      -9999      155.6389  
2551.59989 -9999      -9999      -9999      -9999      8.0941     35.2507    12.9459    -9999      -9999      156.5278  
2551.79989 -9999      -9999      -9999      -9999      8.0875     35.2638    8.1945     -9999      -9999      149.8611  
2551.99989 -9999      -9999      -9999      -9999      8.0941     35.2638    5.7865     -9999      -9999      152.6111  
2552.19989 -9999      -9999      -9999      -9999      -9999      35.2769    5.5752     -9999      -9999      159.6667  
2552.39989 -9999      -9999      -9999      -9999      -9999      35.2638    5.3486     -9999      -9999      164.9444  
2552.599889 -9999      -9999      -9999      -9999      -9999      35.2769    5.4853     -9999      -9999      165.1111  
2552.799889 -9999      -9999      -9999      -9999      -9999      35.2638    5.2366     -9999      -9999      163.5     
2552.999889 -9999      -9999      -9999      -9999      -9999      35.29      4.5651     -9999      -9999      157.7778  
2553.199889 -9999      -9999      -9999      -9999      -9999      35.2769    5.4682     -9999      -9999      151.5833  
2553.399889 -9999      -9999      -9999      -9999      -9999      35.29      5.7607     -9999      -9999      153.5556  
2553.599889 -9999      -9999      -9999      -9999      -9999      35.2769    5.845      -9999      -9999      156.0833  
2553.799889 -9999      -9999      -9999      -9999      -9999      35.2769    6.1252     -9999      -9999      152.8681  
2553.999889 -9999      -9999      -9999      -9999      -9999      35.2769    6.3209     -9999      -9999      -9999     
2554.199889 -9999      -9999      -9999      -9999      -9999      35.2769    6.3867     -9999      -9999      -9999     
2554.399889 -9999      -9999      -9999      -9999      -9999      35.2769    6.5799     -9999      -9999      -9999     
2554.599888 -9999      -9999      -9999      -9999      -9999      35.2769    6.798      -9999      -9999      -9999     
2554.799888 -9999      -9999      -9999      -9999      -9999      35.2769    6.575      -9999      -9999      -9999     
2554.999888 -9999      -9999      -9999      -9999      -9999      35.29      6.1136     -9999      -9999      -9999     
2555.199888 -9999      -9999      -9999      -9999      -9999      35.29      6.476      -9999      -9999      -9999     
2555.399888 -9999      -9999      -9999      -9999      -9999      35.29      6.7347     -9999      -9999      -9999     
2555.599888 -9999      -9999      -9999      -9999      -9999      35.29      7.2668     -9999      -9999      -9999     
2555.799888 -9999      -9999      -9999      -9999      -9999      35.29      6.7134     -9999      -9999      -9999     
