~Version
 VERS              .         2.0                           : CWLS LOG ASCII STANDARD - VERSION 2.0
 WRAP              .         NO                            : ONE LINE PER DEPTH STEP
 DLM               .         SPACE                         : DELIMITING CHARACTER(SPACE TAB OR COMMA)
~Well Information
#_______________________________________________________________________________
#
#PARAMETER_NAME    .UNIT     VALUE                         : DESCRIPTION
#_______________________________________________________________________________
STRT               .m        -10.04                        : First reference value
STOP               .m        2561.16                       : Last reference value
STEP               .m        0.2                           : Step increment
NULL               .         -9999                         : Missing value
COMP               .                                       : Company
WELL               .         403                           : Well name
FLD                .                                       : Field
LOC                .                                       : Location
CNTY               .                                       : County
STAT               .                                       : State
CTRY               .                                       : Country
SRVC               .                                       : Service Company
DATE               .                                       : Date
API                .                                       : API number
EREF               .m        140.4                         : 
Pad                .         4                             : 
X                  .m        222100                        : 
Y                  .m        250025                        : 
group              .         Pad4                          : 
Интер-р            .         Пузин                         : 
Куст               .         4                             : 
Статус             .         Не проверено                  : 
Тип                .         Разведка                      : 
~Parameter Information Block
#_______________________________________________________________________________
#
#PARAMETER_NAME    .UNIT     VALUE                         : DESCRIPTION
#_______________________________________________________________________________
SET                .         LAS4                          : 
REAL_CREATION_DATE .         Ср апр 11 2012-13_17_14       : 
TLFamily_DEPTH     .         Measured Depth                : 
TLFamily_RT        .         Resistivity 20                : 
TLFamily_SP        .         Spontaneous Potential         : 
group              .         INI                           : 
~Curve Information
#_______________________________________________________________________________
#
#LOGNAME           .UNIT     LOG_ID                        : DESCRIPTION
#_______________________________________________________________________________
DEPTH              .m                                      : Measured Depth 
RT                 .ohm.m                                  : Conductivity 
SP                 .mV                                     : Spontaneous Potential 
~Ascii
# ...
2030.76    4.2545     -9999     
2030.96    4.2545     -9999     
2031.16    4.2545     -9999     
2031.36    4.2545     -9999     
2031.56    4.2545     -9999     
2031.76    4.2545     -9999     
2031.96    4.2545     -9999     
2032.16    4.2545     -9999     
2032.36    4.2545     -9999     
2032.56    4.2545     -9999     
2032.76    4.2545     -9999     
2032.96    4.2545     -9999     
2033.16    4.2545     -9999     
2033.36    4.2545     -9999     
2033.56    4.2545     -9999     
2033.76    4.2545     -9999     
2033.96    4.2545     -9999     
2034.16    4.2545     -9999     
2034.36    4.2545     -9999     
2034.56    4.2545     -9999     
2034.76    4.2545     -9999     
2034.96    4.2545     -9999     
2035.16    4.2545     -9999     
2035.36    4.2545     -9999     
2035.56    4.2545     -9999     
2035.76    4.2545     -9999     
2035.96    4.2545     -9999     
2036.16    4.2545     -9999     
2036.36    4.2545     -9999     
2036.56    4.2545     -9999     
2036.76    4.2545     -9999     
2036.96    4.2545     -9999     
2037.16    4.2545     -9999     
2037.36    4.2545     -9999     
2037.56    4.2545     -9999     
2037.76    4.2545     -9999     
2037.96    4.2545     -9999     
2038.16    4.2545     -9999     
2038.36    4.2545     -9999     
2038.56    4.2545     -9999     
2038.76    4.2545     -9999     
2038.96    4.2545     -9999     
2039.16    4.2545     -9999     
2039.36    4.2545     -9999     
2039.56    4.2545     -9999     
2039.76    4.2545     -9999     
2039.96    4.2545     -9999     
2040.16    4.2545     -9999     
2040.36    4.2545     -9999     
2040.56    4.2545     -9999     
2040.76    4.2545     -9999     
2040.96    4.2545     -9999     
2041.16    4.2545     -9999     
2041.36    4.2545     -9999     
2041.56    4.2545     -9999     
2041.76    4.2545     -9999     
2041.96    4.2545     -9999     
2042.16    4.2545     -9999     
2042.36    4.2545     -9999     
2042.56    4.2545     -9999     
2042.76    4.2545     -9999     
2042.96    4.2545     -9999     
2043.16    4.2545     -9999     
2043.36    4.2545     -9999     
2043.56    4.2545     -9999     
2043.76    4.2545     -9999     
2043.96    4.2545     -9999     
2044.16    4.2545     -9999     
2044.36    4.2545     -9999     
2044.56    4.2545     -9999     
2044.76    4.2545     -9999     
2044.96    4.2545     -9999     
2045.16    4.2545     -9999     
2045.36    4.2545     -9999     
2045.56    4.2545     -9999     
2045.76    4.2545     -9999     
2045.96    4.2545     -9999     
2046.16    4.2545     -9999     
2046.36    4.2545     -9999     
2046.56    4.2545     -9999     
2046.76    4.2545     -9999     
2046.96    4.2545     -9999     
2047.16    4.2545     -9999     
2047.36    4.2545     -9999     
2047.56    4.2545     -9999     
2047.76    4.2545     -9999     
2047.96    4.2545     -9999     
2048.16    4.2545     -9999     
2048.36    4.2545     -9999     
2048.56    4.2545     -9999     
2048.76    4.2545     -9999     
2048.96    4.2545     -9999     
2049.16    4.2545     -9999     
2049.36    4.2545     -9999     
2049.56    4.2545     -9999     
2049.76    4.2545     -9999     
2049.96    4.2545     -9999     
2050.16    4.2545     -9999     
2050.36    4.2545     -9999     
2050.56    4.2545     -9999     
2050.76    4.2545     -9999     
2050.96    4.2545     -9999     
2051.16    4.2545     -9999     
2051.36    4.2545     -9999     
2051.56    4.2545     -9999     
2051.76    4.2545     -9999     
2051.96    4.2545     -9999     
2052.16    4.2545     -9999     
2052.36    4.2545     -9999     
2052.56    4.2545     -9999     
2052.76    4.2545     -9999     
2052.96    4.2545     -9999     
2053.16    4.2545     -9999     
2053.36    4.2545     -9999     
2053.56    4.2545     -9999     
2053.76    4.2545     -9999     
2053.96    4.2545     -9999     
2054.16    4.2545     -9999     
2054.36    4.2545     -9999     
2054.56    4.2545     -9999     
2054.76    4.2545     -9999     
2054.96    4.2545     -9999     
2055.16    4.2545     -9999     
2055.36    4.2545     -9999     
2055.56    4.2545     -9999     
2055.76    4.2545     -9999     
2055.96    4.2545     -9999     
2056.16    4.2545     -9999     
2056.36    4.2545     -9999     
2056.56    4.2545     -9999     
2056.76    4.2545     -9999     
2056.96    4.2545     -9999     
2057.16    4.2545     -9999     
2057.36    4.2545     -9999     
2057.56    4.2545     -9999     
2057.76    4.2545     -9999     
2057.96    4.2545     -9999     
2058.16    4.2545     -9999     
2058.36    4.2545     -9999     
2058.56    4.2545     -9999     
2058.76    4.2545     -9999     
2058.96    4.2545     -9999     
2059.16    4.2545     -9999     
2059.36    4.2545     -9999     
2059.56    4.2545     -9999     
2059.76    4.2545     -9999     
2059.96    4.2545     -9999     
2060.16    4.2545     -9999     
2060.36    4.2545     -9999     
2060.56    4.2545     -9999     
2060.76    4.2545     -9999     
2060.96    4.2545     -9999     
2061.16    4.2545     -9999     
2061.36    4.2545     -9999     
2061.56    4.2545     -9999     
2061.76    4.2545     -9999     
2061.96    4.2545     -9999     
2062.16    4.2545     -9999     
2062.36    4.2545     -9999     
2062.56    4.2545     -9999     
2062.76    4.2545     -9999     
2062.96    4.2545     -9999     
2063.16    4.2545     -9999     
2063.36    4.2545     -9999     
2063.56    4.2545     -9999     
2063.76    4.2545     -9999     
2063.96    4.2545     -9999     
2064.16    4.2545     -9999     
2064.36    4.2545     -9999     
2064.56    4.2545     -9999     
2064.76    4.2545     -9999     
2064.96    4.2545     -9999     
2065.16    4.2545     -9999     
2065.36    4.2545     -9999     
2065.56    4.2545     -9999     
2065.76    4.2545     -9999     
2065.96    4.2545     -9999     
2066.16    4.2545     -9999     
2066.36    4.2545     -9999     
2066.56    4.2545     -9999     
2066.76    4.2545     -9999     
2066.96    4.2545     -9999     
2067.16    4.2545     -9999     
2067.36    4.2545     -9999     
2067.56    4.2545     -9999     
2067.76    4.2545     -9999     
2067.96    4.2545     -9999     
2068.16    4.2545     -9999     
2068.36    4.2545     -9999     
2068.56    4.2545     -9999     
2068.76    4.2545     -9999     
2068.96    4.2545     -9999     
2069.16    4.2545     -9999     
2069.36    4.2545     -9999     
2069.56    4.2545     -9999     
2069.76    4.2545     -9999     
2069.96    4.2545     -9999     
2070.16    4.2545     -9999     
2070.36    4.2545     -9999     
2070.56    4.2545     -9999     
2070.76    4.2545     -9999     
2070.96    4.2545     -9999     
2071.16    4.2545     -9999     
2071.36    4.2545     -9999     
2071.56    4.2545     -9999     
2071.76    4.2545     -9999     
2071.96    4.2545     -9999     
2072.16    4.2545     -9999     
2072.36    4.2545     -9999     
2072.56    4.2545     -9999     
2072.76    4.2545     -9999     
2072.96    4.2545     -9999     
2073.16    4.2545     -9999     
2073.36    4.2545     -9999     
2073.56    4.2545     -9999     
2073.76    4.2545     -9999     
2073.96    4.2545     -9999     
2074.16    4.2545     -9999     
2074.36    4.2545     -9999     
2074.56    4.2545     -9999     
2074.76    4.2545     -9999     
2074.96    4.2545     -9999     
2075.16    4.2545     -9999     
2075.36    4.2545     -9999     
2075.56    4.2545     -9999     
2075.76    4.2545     -9999     
2075.96    4.2545     -9999     
2076.16    4.2545     -9999     
2076.36    4.2545     -9999     
2076.56    4.2545     -9999     
2076.76    4.2545     -9999     
2076.96    4.2545     -9999     
2077.16    4.2545     -9999     
2077.36    4.2545     -9999     
2077.56    4.2545     -9999     
2077.76    4.2545     -9999     
2077.96    4.2545     -9999     
2078.16    4.2545     -9999     
2078.36    4.2545     -9999     
2078.56    4.2545     -9999     
2078.76    4.2545     -9999     
2078.96    4.2545     -9999     
2079.16    4.2545     -9999     
