~Version
 VERS              .         2.0                           : CWLS LOG ASCII STANDARD - VERSION 2.0
 WRAP              .         NO                            : ONE LINE PER DEPTH STEP
 DLM               .         SPACE                         : DELIMITING CHARACTER(SPACE TAB OR COMMA)
~Well Information
#_______________________________________________________________________________
#
#PARAMETER_NAME    .UNIT     VALUE                         : DESCRIPTION
#_______________________________________________________________________________
STRT               .m        2331.6                        : First reference value
STOP               .m        2561.999885                   : Last reference value
STEP               .m        0.1999999                     : Step increment
NULL               .         -9999                         : Missing value
COMP               .                                       : Company
WELL               .         403                           : Well name
FLD                .                                       : Field
LOC                .                                       : Location
CNTY               .                                       : County
STAT               .                                       : State
CTRY               .                                       : Country
SRVC               .                                       : Service Company
DATE               .                                       : Date
API                .                                       : API number
EREF               .m        140.4                         : 
Pad                .         4                             : 
X                  .m        222100                        : 
Y                  .m        250025                        : 
group              .         Pad4                          : 
Интер-р            .         Пузин                         : 
Куст               .         4                             : 
Статус             .         Не проверено                  : 
Тип                .         Разведка                      : 
~Parameter Information Block
#_______________________________________________________________________________
#
#PARAMETER_NAME    .UNIT     VALUE                         : DESCRIPTION
#_______________________________________________________________________________
SET                .         LAS1                          : 
REAL_CREATION_DATE .         Ср апр 11 2012-13_17_13       : 
TLFamily_DEPTH     .         Measured Depth                : 
TLFamily_KS        .         Potential Resistivity         : 
TLFamily_KS1       .         Extra Shallow Resistivity     : 
TLFamily_KS2       .         Shallow Resistivity           : 
TLFamily_KS3       .         Medium Resistivity            : 
TLFamily_KS4       .         Deep Resistivity              : 
TLFamily_KS5       .         Extra Deep Resistivity        : 
TLFamily_LLD       .         Lateral Log Resistivity       : 
TLFamily_OKS       .         Medium Resistivity Inverted   : 
TLFamily_RM        .         Mud Resistivity               : 
TLFamily_SP        .         Spontaneous Potential         : 
group              .         INI                           : 
~Curve Information
#_______________________________________________________________________________
#
#LOGNAME           .UNIT     LOG_ID                        : DESCRIPTION
#_______________________________________________________________________________
DEPTH              .m                                      : Measured Depth 
KS                 .ohm.m                                  : Potential Resistivity 
KS1                .ohm.m                                  : Extra Shallow Resistivity 
KS2                .ohm.m                                  : Shallow Resistivity 
KS3                .ohm.m                                  : Medium Resistivity 
KS4                .ohm.m                                  : Deep Resistivity 
KS5                .ohm.m                                  : Extra Deep Resistivity 
LLD                .ohm.m                                  : Lateral Log Resistivity 
OKS                .ohm.m                                  : Medium Resistivity Inverted 
RM                 .ohm.m                                  : Mud Resistivity 
SP                 .mV                                     : Spontaneous Potential 
~Ascii
# ...
2516.399908 10.0048    2.7125     10.6271    17.678     14.1892    10.6455    9.4072     17.1914    0.1352     129.4444  
2516.599907 9.7128     2.7465     10.8912    19.0504    15.2938    10.7502    10.1227    17.7095    0.1318     129.8611  
2516.799907 9.3597     2.8754     11.5547    20.6817    16.2669    10.6062    11.6898    18.0722    0.1318     128.6944  
2516.999907 9.2022     2.8957     12.054     22.0088    16.5036    10.3444    7.7831     17.8585    0.1251     129.8333  
2517.199907 9.1017     2.7583     11.0817    21.6851    16.2275    10.0571    5.6945     17.852     0.1217     131.3725  
2517.399907 8.8777     2.5361     10.3919    21.0572    16.405     9.6769     8.9959     18.2212    0.1183     129.9525  
2517.599907 8.6264     2.6447     10.7335    21.2777    18.0948    9.0749     9.4935     18.8689    0.1217     127.7614  
2517.799907 8.4024     2.76       11.0248    21.9829    19.7911    8.5514     11.678     18.6292    0.1217     125.8889  
2517.999907 8.2666     2.7532     11.2065    21.6592    20.2251    8.0802     7.4675     17.4699    0.1217     126.9167  
2518.199907 8.1493     2.5633     10.2146    20.2609    19.8052    7.6221     7.5328     15.8442    0.1217     129.4722  
2518.399907 8.0561     2.4917     9.7087     18.9015    19.298     6.9808     8.3689     14.8046    0.1217     131.5     
2518.599907 7.8931     2.4886     9.6628     18.1829    19.2849    6.6798     8.7595     14.2897    0.1217     134.9167  
2518.799906 7.7641     2.5565     9.6496     17.3737    18.9627    6.2087     6.1031     13.8428    0.1251     138.4444  
2518.999906 7.6826     2.414      8.9706     16.8179    18.5485    5.8945     6.2237     13.9659    0.1318     140.8889  
2519.199906 7.5468     2.3597     8.881      16.2927    18.4696    5.5804     11.2901    13.8104    0.1318     143.6111  
2519.399906 7.4518     2.5293     9.2883     16.4545    18.726     5.1616     8.4757     13.1239    0.1285     146.5556  
2519.599906 7.428      2.6379     9.6496     15.9496    18.1283    4.8213     4.5203     12.7991    0.1217     150.6686  
2519.799906 7.3907     2.3735     8.1781     14.37      16.2801    4.468      5.4096     12.9296    0.1217     154.8725  
2519.999906 7.3907     2.1155     7.3701     12.8746    14.1366    4.2586     6.0695     13.4348    0.1217     155.2058  
2520.199906 7.4925     2.0612     7.3307     12.3632    13.17      3.8397     7.5244     13.9594    0.1217     154.5575  
2520.399906 7.6079     2.163      7.439      12.1949    12.6835    3.6434     7.2287     14.4063    0.1217     155.1667  
2520.599905 7.7913     2.1697     7.2781     11.8518    12.118     3.5911     5.39       15.5009    0.1251     152.8611  
2520.799905 7.9339     2.034      6.8117     11.5023    11.8156    3.5649     9.1669     16.4789    0.1285     149.6111  
2520.999905 8.0391     2.1358     7.1336     11.4699    11.9158    3.4995     9.3312     16.7833    0.1318     146.9452  
2521.199905 8.2122     2.2206     7.4489     11.4505    11.9799    3.4864     6.8971     16.8263    0.1318     146.2265  
2521.399905 8.3956     2.1765     7.173      11.2627    11.7235    3.5125     7.0798     17.2173    0.1251     146.8376  
2521.599905 8.6061     2.1087     6.9628     11.0266    11.5197    3.6434     6.8783     18.2017    0.1183     145.6952  
2521.799905 8.8641     2.0137     6.8873     10.7772    11.763     3.9183     8.178      19.2963    0.1217     142.1667  
2521.999905 9.1764     2.0069     6.9957     10.6801    12.2758    4.2716     9.8894     20.0412    0.1217     139.0833  
2522.199905 9.3872     2.068      7.1533     10.8484    12.7684    4.7035     9.9895     20.4298    0.1217     136.2222  
2522.399905 9.706      2.0946     7.219      11.1333    13.078     5.0398     10.9976    20.7051    0.1217     133.693   
2522.599904 10.0116    2.1562     7.4621     11.4958    13.5382    5.4103     11.3       20.9285    0.1251     130.3805  
2522.799904 10.3103    2.2037     7.7445     11.923     14.084     5.96       11.866     21.2977    0.1285     127.6583  
2522.999904 10.5683    2.2715     7.9489     12.2791    14.6363    6.5228     12.4179    21.7705    0.1318     126.3875  
2523.199904 10.7924    2.3326     8.3029     12.8811    15.2872    7.2688     12.5815    22.4182    0.1318     124.4444  
2523.399904 10.9893    2.3936     8.6511     13.4702    16.0696    8.1849     11.4665    23.2731    0.1267     121.2778  
2523.599904 11.1494    2.3869     8.8088     13.9557    16.5395    9.2189     12.7446    24.0439    0.1251     118.3889  
2523.799904 11.2338    2.421      9.0518     14.4801    17.1217    10.036     12.5358    24.8567    0.1217     116.1895  
2523.999904 11.3628    2.4479     9.2423     15.1598    17.7989    10.9465    12.3069    26.3885    0.1217     116.2755  
2524.199904 11.4375    2.4751     9.4197     15.6066    18.6274    12.2814    11.8639    27.4961    0.1217     117.0506  
2524.399904 11.5122    2.4954     9.5053     16.2214    19.5742    13.9305    11.2743    28.6554    0.1217     116.5     
2524.599903 11.5936    2.4886     9.5314     16.7393    20.6722    16.1424    10.2418    29.8277    0.1217     117.2778  
2524.799903 11.7294    2.4276     9.4591     17.1536    22.0596    19.1264    9.9415     31.1102    0.1217     117.0556  
2524.999903 11.8516    2.3529     9.2752     17.4708    23.1839    23.3145    9.2236     32.7942    0.1285     118.0695  
2525.199903 12.1232    2.2817     9.0387     17.7492    25.163     27.0307    10.0348    34.8678    0.1318     120.2502  
2525.399903 12.6053    2.1087     8.546      18.2088    27.7799    31.0102    39.5468    36.5184    0.1318     122.3058  
2525.599903 13.1214    2.068      8.9204     18.9862    30.331     32.2274    54.3312    36.6868    0.1285     126.4584  
2525.799903 14.1263    2.3394     9.5938     18.1829    27.0303    35.2769    23.2399    30.6892    0.1251     130.3333  
2525.999903 14.9546    1.3148     6.5424     16.3315    24.6962    37.528     20.6266    23.72      0.1133     131.8333  
2526.199903 15.1753    2.2647     8.4672     16.8947    24.9679    39.2033    31.8376    22.9882    0.1116     133.0278  
2526.399903 14.8256    2.6956     11.062     21.821     31.2187    41.8601    85.8122    25.0025    0.1217     134.3194  
2526.599903 14.6559    2.76       12.4021    24.2421    34.2037    46.1529    133.9226   23.5288    0.1217     134.9167  
2526.799902 14.6084    2.9907     13.7028    26.6049    36.5708    48.6134    21.8784    20.5982    0.1217     136.4444  
2526.999902 14.3368    3.3367     14.813     27.7378    38.0896    48.1423    13.8871    17.4375    0.1285     137.2361  
2527.199902 13.9769    3.296      14.3269    28.6117    37.774     47.5402    15.7499    15.2742    0.1352     138.3889  
2527.399902 13.5152    3.0518     13.7685    28.7024    37.5307    46.2838    24.497     13.2858    0.1217     141.0278  
2527.599902 12.9312    3.3707     14.2021    30.5862    38.9105    44.0196    23.003     11.4593    0.1217     141.8017  
2527.799902 12.5009    3.5403     15.6539    33.8035    40.6342    42.4308    11.9274    10.1186    0.1251     141.6989  
2527.999902 11.9263    3.4923     15.3123    34.6774    40.9498    41.7554    9.8152     9.5119     0.1217     143.4489  
2528.199902 11.1523    3.3435     14.6291    34.645     40.7723    40.2372    12.7939    9.1535     0.1217     146.2183  
2528.399902 10.2356    3.3571     15.1875    34.166     42.1991    38.3394    15.1025    9.1276     0.1217     149.3889  
2528.599901 9.2986     3.5403     15.6125    35.7973    44.7502    36.3763    14.1255    8.9787     0.1217     152.8611  
2528.799901 8.511      3.6421     16.2254    37.2085    45.3091    34.4393    7.7025     8.3828     0.1234     157.8889  
2528.999901 7.8808     3.3978     15.0495    35.7844    44.3097    31.8217    6.9465     7.489      0.1285     163.75    
2529.199901 7.4586     3.2386     13.8605    33.0849    42.3371    29.4135    6.5942     6.6276     0.1318     169.5429  
2529.399901 6.7796     3.1468     13.0196    30.735     40.6934    26.9137    5.9274     6.0155     0.1251     173.6556  
