~Version
 VERS              .         2.0                           : CWLS LOG ASCII STANDARD - VERSION 2.0
 WRAP              .         NO                            : ONE LINE PER DEPTH STEP
 DLM               .         SPACE                         : DELIMITING CHARACTER(SPACE TAB OR COMMA)
~Well Information
#_______________________________________________________________________________
#
#PARAMETER_NAME    .UNIT     VALUE                         : DESCRIPTION
#_______________________________________________________________________________
STRT               .m        2331.6                        : First reference value
STOP               .m        2561.999885                   : Last reference value
STEP               .m        0.1999999                     : Step increment
NULL               .         -9999                         : Missing value
COMP               .                                       : Company
WELL               .         403                           : Well name
FLD                .                                       : Field
LOC                .                                       : Location
CNTY               .                                       : County
STAT               .                                       : State
CTRY               .                                       : Country
SRVC               .                                       : Service Company
DATE               .                                       : Date
API                .                                       : API number
EREF               .m        140.4                         : 
Pad                .         4                             : 
X                  .m        222100                        : 
Y                  .m        250025                        : 
group              .         Pad4                          : 
Интер-р            .         Пузин                         : 
Куст               .         4                             : 
Статус             .         Не проверено                  : 
Тип                .         Разведка                      : 
~Parameter Information Block
#_______________________________________________________________________________
#
#PARAMETER_NAME    .UNIT     VALUE                         : DESCRIPTION
#_______________________________________________________________________________
SET                .         LAS1                          : 
REAL_CREATION_DATE .         Ср апр 11 2012-13_17_13       : 
TLFamily_DEPTH     .         Measured Depth                : 
TLFamily_KS        .         Potential Resistivity         : 
TLFamily_KS1       .         Extra Shallow Resistivity     : 
TLFamily_KS2       .         Shallow Resistivity           : 
TLFamily_KS3       .         Medium Resistivity            : 
TLFamily_KS4       .         Deep Resistivity              : 
TLFamily_KS5       .         Extra Deep Resistivity        : 
TLFamily_LLD       .         Lateral Log Resistivity       : 
TLFamily_OKS       .         Medium Resistivity Inverted   : 
TLFamily_RM        .         Mud Resistivity               : 
TLFamily_SP        .         Spontaneous Potential         : 
group              .         INI                           : 
~Curve Information
#_______________________________________________________________________________
#
#LOGNAME           .UNIT     LOG_ID                        : DESCRIPTION
#_______________________________________________________________________________
DEPTH              .m                                      : Measured Depth 
KS                 .ohm.m                                  : Potential Resistivity 
KS1                .ohm.m                                  : Extra Shallow Resistivity 
KS2                .ohm.m                                  : Shallow Resistivity 
KS3                .ohm.m                                  : Medium Resistivity 
KS4                .ohm.m                                  : Deep Resistivity 
KS5                .ohm.m                                  : Extra Deep Resistivity 
LLD                .ohm.m                                  : Lateral Log Resistivity 
OKS                .ohm.m                                  : Medium Resistivity Inverted 
RM                 .ohm.m                                  : Mud Resistivity 
SP                 .mV                                     : Spontaneous Potential 
~Ascii
# ...
2463.599934 12.5714    2.6793     10.681     20.8953    24.9489    14.5456    15.142     24.9895    0.1251     69.9615   
2463.799934 12.6393    2.7193     10.8978    21.452     25.3931    14.7262    15.9208    24.6592    0.1251     70.6944   
2463.999934 12.6529    2.7736     11.154     22.0152    25.952     14.9121    15.598     24.3936    0.1251     70.297    
2464.199934 12.6325    2.8143     11.3692    22.436     26.4714    15.187     15.1016    24.2641    0.1251     69.4431   
2464.399934 12.6121    2.8279     11.4496    22.571     26.7147    15.4356    13.6573    24.3872    0.1251     70.797    
2464.599933 12.6121    2.7872     11.3839    22.5655    26.8922    15.6974    12.3517    24.7063    0.1251     70.9444   
2464.799933 12.6189    2.7365     11.2065    22.436     27.0566    15.8283    12.6219    24.996     0.1217     70.6389   
2464.999933 12.6529    2.7193     11.1737    22.4943    27.5629    16.1031    13.5533    25.3263    0.1251     70.0509   
2465.199933 12.6936    2.7397     11.2262    22.7726    28.3125    16.4565    14.4277    25.3846    0.1251     69.5555   
2465.399933 12.7615    2.7465     11.2197    22.9918    28.7989    16.8753    14.3026    25.2551    0.1251     69.6666   
2465.599933 12.7887    2.76       11.2131    23.1093    29.4565    17.3203    14.5822    25.0025    0.1251     69.4676   
2465.799933 12.8089    2.7736     11.2722    23.2711    30.2521    17.7784    14.7949    24.8061    0.1251     70.625    
2465.999933 12.8294    2.7804     11.3248    23.3876    30.9425    18.0401    14.341     24.6268    0.1251     71        
2466.199933 12.8362    2.7804     11.3248    23.4523    31.5277    18.5244    13.9459    24.4973    0.1251     70.2778   
2466.399933 12.8498    2.8007     11.4627    23.4782    31.7916    19.0479    14.1987    24.3677    0.1251     68.9583   
2466.599932 12.9041    2.76       11.3217    23.4043    32.0603    19.6499    12.4588    24.2835    0.1251     67.1111   
2466.799932 12.9788    2.699      11.1934    23.1934    32.2641    20.0033    12.4911    24.1929    0.1251     67.0288   
2466.999932 13.0467    2.7193     11.1605    23.3358    32.9939    20.7886    15.0494    23.5517    0.1251     68.4226   
2467.199932 13.0707    2.8347     11.5875    24.0414    34.3287    21.7047    20.0593    22.912     0.1251     68.4504   
2467.399932 13.0738    2.9141     12.0211    24.8959    35.4804    22.7125    19.3628    21.9519    0.1251     67.7788   
2467.599932 12.972     2.9907     12.343     25.6533    36.1105    23.5239    18.3946    21.0775    0.1251     68.0556   
2467.799932 12.809     3.0721     12.6518    26.0351    36.7089    23.9933    16.0087    20.4363    0.1251     67.2619   
2467.999932 12.6325    3.0518     12.596     26.0482    36.6563    24.4139    13.3784    20.2355    0.1269     65.9048   
2468.199932 12.4749    2.9704     12.435     25.8152    36.3209    24.872     12.1869    20.3132    0.1285     66.2104   
2468.399932 12.3473    2.9604     12.4415    25.9123    36.5248    25.2777    13.8314    20.2905    0.1285     66.0953   
2468.599931 12.13      2.9975     12.7175    26.4949    36.9239    25.6507    17.5447    19.9116    0.1318     67.6389   
2468.799931 11.8652    3.1128     13.0525    27.1876    37.5242    25.9845    17.0995    19.1215    0.1318     68.6667   
2468.999931 11.5189    3.201      13.2243    27.4983    37.82      26.1284    15.5544    18.2471    0.1352     68.9051   
2469.199931 11.1998    3.1943     13.1773    27.2699    36.9916    25.8929    10.9109    17.7872    0.1386     70.973    
2469.399931 10.935     2.9839     12.389     26.2813    35.0322    25.4479    8.2742     18.0269    0.1352     72.0162   
2469.599931 10.7957    2.7465     11.5744    24.4622    32.6849    25.0017    7.2913     18.6007    0.1352     70.8889   
2469.799931 10.7585    2.5732     10.7335    22.8827    31.1252    24.6364    7.7895     19.5425    0.1318     69.3889   
2469.999931 10.7924    2.509      10.3131    21.9181    30.4757    24.5579    8.97       20.5529    0.1318     69.1828   
2470.199931 10.8943    2.4886     10.1029    21.5774    30.1338    24.8458    10.3777    21.1293    0.1318     69.1524   
2470.399931 11.0097    2.5565     10.1425    21.5427    30.2981    25.3301    12.6914    21.2653    0.1318     68.4302   
2470.599931 11.0912    2.6379     10.2277    21.6657    30.5546    25.6461    12.7943    21.2783    0.1285     68.3495   
2470.79993 11.1013    2.7057     10.3657    21.821     30.765     25.8929    12.9525    21.2914    0.1285     67.75     
2470.99993 11.0776    2.7838     10.7073    21.834     30.9491    26.1153    13.2951    21.3301    0.1285     67.7778   
2471.19993 10.969     2.8007     10.9175    21.8016    31.0827    25.9583    11.9309    21.3819    0.1251     67.8333   
2471.39993 10.8332    2.8754     11.2657    21.3226    30.857     25.5657    11.9711    21.4661    0.1251     69.2253   
2471.59993 10.7517    2.7872     10.7858    20.518     29.7656    25.0291    8.0385     22.0749    0.1251     69.9794   
2471.79993 10.7177    2.6447     10.5168    19.7042    27.9443    24.7542    8.228      23.4351    0.1251     69.1975   
2471.99993 10.7832    2.4615     9.9255     18.6684    26.5438    24.2176    7.4995     24.9918    0.1251     69.5278   
2472.19993 10.8671    2.3833     9.4985     18.1505    25.8323    23.982     8.8633     26.0582    0.1217     69.1944   
2472.39993 11.0572    2.3801     9.4985     18.1894    25.6824    23.9297    11.2692    27.2953    0.1251     67.7222   
2472.59993 11.3628    2.4344     9.3409     18.0988    25.3208    24.1783    9.4058     28.3445    0.1251     66.5      
2472.799929 11.7158    2.3122     8.8954     17.775     24.7816    24.4316    9.4189     29.614     0.1217     66.6667   
2472.999929 12.0553    2.2987     8.8416     17.7362    24.7488    24.6626    12.3123    29.9832    0.1217     68.1944   
2473.199929 12.4288    2.4208     9.2752     18.1311    25.2024    25.0683    16.7691    29.2578    0.1251     69.6667   
2473.399929 12.6303    2.5429     9.7153     18.6943    25.5378    25.618     16.8652    28.6424    0.1251     70.3333   
2473.599929 12.8837    2.5871     10.0241    19.0374    25.6925    26.0761    13.8047    27.9171    0.1251     71.0833   
2473.799929 13.1146    2.6108     10.2671    19.1539    25.7482    26.5734    14.6719    27.1657    0.1251     70.0922   
2473.999929 13.3522    2.6108     10.3788    19.3404    25.998     27.0839    13.2419    26.5893    0.1251     68.8263   
2474.199929 13.5423    2.6108     10.511     19.5553    26.5569    27.398     14.8922    25.9157    0.1251     69.2311   
2474.399929 13.7392    2.6922     10.8846    20.2027    27.4117    28.0131    17.9164    24.9766    0.1251     69.8611   
2474.599928 13.8546    2.7057     11.0686    21.0507    28.3125    28.8507    17.1671    24.2426    0.1251     71.0556   
2474.799928 13.9633    2.7363     11.3708    21.9764    29.2798    29.8323    18.2273    23.2861    0.1251     71.5278   
2474.999928 14.0244    2.8279     11.8372    23.3229    30.2061    30.8532    18.5524    22.1526    0.1251     70.5      
2475.199928 13.909     2.9636     12.5861    25.252     32.0208    31.7562    26.6789    20.6824    0.1251     71.9404   
2475.399928 13.651     3.201      13.1604    26.6109    33.9605    32.2189    29.1204    18.7652    0.1251     73.1851   
2475.599928 13.3115    3.3639     13.9196    28.1068    35.0322    32.4892    19.6713    16.9517    0.1251     72.9682   
2475.799928 12.9329    3.3367     14.0576    29.039     35.3084    32.3321    14.5821    16.1255    0.1217     74.8889   
2475.999928 12.6257    3.3503     14.2678    29.4144    35.3184    31.5076    14.1319    15.1965    0.1251     74.5278   
2476.199928 12.13      3.33       14.1495    29.4727    35.2558    30.5391    11.6499    14.2703    0.1217     73.9722   
2476.399928 11.6344    3.1943     13.7291    29.408     35.1834    29.4266    10.2838    13.4866    0.1217     75.4859   
2476.599927 11.1319    3.2078     13.8545    29.4726    35.5516    28.8376    12.3944    12.6252    0.1251     75.7357   
