~Version
 VERS              .         2.0                           : CWLS LOG ASCII STANDARD - VERSION 2.0
 WRAP              .         NO                            : ONE LINE PER DEPTH STEP
 DLM               .         SPACE                         : DELIMITING CHARACTER(SPACE TAB OR COMMA)
~Well Information
#_______________________________________________________________________________
#
#PARAMETER_NAME    .UNIT     VALUE                         : DESCRIPTION
#_______________________________________________________________________________
STRT               .m        2355.27                       : First reference value
STOP               .m        2564.47                       : Last reference value
STEP               .m        0.2                           : Step increment
NULL               .         -9999                         : Missing value
COMP               .                                       : Company
WELL               .         403                           : Well name
FLD                .                                       : Field
LOC                .                                       : Location
CNTY               .                                       : County
STAT               .                                       : State
CTRY               .                                       : Country
SRVC               .                                       : Service Company
DATE               .                                       : Date
API                .                                       : API number
EREF               .m        140.4                         : 
Pad                .         4                             : 
X                  .m        222100                        : 
Y                  .m        250025                        : 
group              .         Pad4                          : 
Интер-р            .         Пузин                         : 
Куст               .         4                             : 
Статус             .         Не проверено                  : 
Тип                .         Разведка                      : 
~Parameter Information Block
#_______________________________________________________________________________
#
#PARAMETER_NAME    .UNIT     VALUE                         : DESCRIPTION
#_______________________________________________________________________________
SET                .         LAS3                          : 
REAL_CREATION_DATE .         Ср апр 11 2012-13_17_14       : 
TLFamily_DEPTH     .         Measured Depth                : 
TLFamily_GR        .         Gamma Ray                     : 
TLFamily_TNPH      .         Neutron Porosity              : 
group              .         INI                           : 
~Curve Information
#_______________________________________________________________________________
#
#LOGNAME           .UNIT     LOG_ID                        : DESCRIPTION
#_______________________________________________________________________________
DEPTH              .m                                      : Measured Depth 
GR                 .gAPI                                   :  
TNPH               .v/v                                    : Neutron Porosity 
~Ascii
# ...
2452.47    376.051    0.3219    
2452.67    367.231    0.3224    
2452.87    325.897    0.3344    
2453.07    296        0.3257    
2453.27    290.667    0.3096    
2453.47    280.564    0.3106    
2453.67    272.103    0.3178    
2453.87    267.885    0.3227    
2454.07    279.295    0.3231    
2454.27    286.359    0.343     
2454.47    285.128    0.3525    
2454.67    304.923    0.3443    
2454.87    324.487    0.3432    
2455.07    313.91     0.3681    
2455.27    311.333    0.3529    
2455.47    308.769    0.3383    
2455.67    291.846    0.3328    
2455.87    293.333    0.3588    
2456.07    283.692    0.3688    
2456.27    269.026    0.3354    
2456.47    264        0.3425    
2456.67    263.077    0.3632    
2456.87    254.821    0.3649    
2457.07    256.513    0.3557    
2457.27    232.051    0.3495    
2457.47    207.795    0.3806    
2457.67    192.436    0.3432    
2457.87    183.179    0.3018    
2458.07    188.333    0.3363    
2458.27    187.231    0.3982    
2458.47    173.846    0.3779    
2458.67    171.859    0.3168    
2458.87    173.795    0.2877    
2459.07    167.538    0.2939    
2459.27    145.231    0.3074    
2459.47    133.91     0.299     
2459.67    129.487    0.3021    
2459.87    127.897    0.3064    
2460.07    133.59     0.3205    
2460.27    131.333    0.3212    
2460.47    131.41     0.2881    
2460.67    137.538    0.2656    
2460.87    134.154    0.2571    
2461.07    137.026    0.275     
2461.27    136        0.2668    
2461.47    141.603    0.2653    
2461.67    148.718    0.2625    
2461.87    127.538    0.2637    
2462.07    120.821    0.2833    
2462.27    117.692    0.2647    
2462.47    108.821    0.2822    
2462.67    102.564    0.2729    
2462.87    94.66699   0.2482    
2463.07    88.154     0.2684    
2463.27    94.256     0.2829    
2463.47    90         0.2851    
2463.67    93.782     0.2853    
2463.87    98.154     0.2829    
2464.07    103.846    0.2754    
2464.27    108.718    0.2691    
2464.47    106.308    0.269     
2464.67    105.577    0.2816    
2464.87    105.231    0.2561    
2465.07    107.885    0.2426    
2465.27    106.615    0.236     
2465.47    104.051    0.2439    
2465.67    101.487    0.3073    
2465.87    107.641    0.3034    
2466.07    117.308    0.2975    
2466.27    121.282    0.3287    
2466.47    124.923    0.3446    
2466.67    123.744    0.3211    
2466.87    123.179    0.3035    
2467.07    120.667    0.2911    
2467.27    114.718    0.2714    
2467.47    110.667    0.2686    
2467.67    104.051    0.2857    
2467.87    95.769     0.2911    
2468.07    103.077    0.3051    
2468.27    117.692    0.3287    
2468.47    127.897    0.337     
2468.67    117.436    0.3393    
2468.87    107.231    0.3133    
2469.07    89.949     0.2889    
2469.27    79.179     0.287     
2469.47    81.026     0.2969    
2469.67    87.179     0.3292    
2469.87    96.923     0.3747    
2470.07    110        0.3406    
2470.27    125.59     0.3366    
2470.47    141.231    0.3569    
2470.67    142.756    0.3632    
2470.87    131.231    0.3261    
2471.07    121.692    0.2796    
2471.27    112.769    0.2697    
2471.47    97.846     0.2921    
2471.67    92.667     0.2988    
2471.87    103.91     0.3094    
2472.07    112.923    0.2806    
2472.27    126.41     0.275     
2472.47    131.385    0.2903    
2472.67    148.654    0.3224    
2472.87    171.897    0.3473    
2473.07    180.872    0.3045    
2473.27    184.513    0.2995    
2473.47    177.628    0.326     
2473.67    173.641    0.3609    
2473.87    176.923    0.3904    
2474.07    196.538    0.4082    
2474.27    195.795    0.3769    
2474.47    180.821    0.36      
2474.67    172.949    0.3593    
2474.87    191.744    0.3414    
2475.07    199.808    0.3309    
2475.27    172.103    0.3288    
2475.47    140.154    0.3183    
2475.67    118.769    0.3142    
2475.87    108.051    0.3177    
2476.07    96.538     0.3314    
2476.27    98.667     0.3236    
2476.47    98.615     0.3112    
2476.67    100.641    0.3078    
2476.87    97.641     0.2796    
2477.07    101.09     0.2736    
2477.27    99.385     0.2743    
2477.47    94.87199   0.2731    
2477.67    91.282     0.2623    
2477.87    91.897     0.2584    
2478.07    89.936     0.2627    
2478.27    110.985    0.2793    
2478.47    119.744    0.2787    
2478.67    124.667    0.257     
2478.87    128.872    0.2678    
2479.07    126.564    0.2807    
2479.27    119.295    0.2547    
2479.47    109.282    0.2547    
2479.67    115.282    0.2861    
2479.87    107.385    0.2746    
2480.07    105.641    0.2653    
2480.27    109.179    0.3023    
2480.47    112        0.3061    
2480.67    107.744    0.3099    
2480.87    103.795    0.3209    
2481.07    103.462    0.3056    
2481.27    107.179    0.3023    
2481.47    110.256    0.2784    
2481.67    114.615    0.2689    
2481.87    117.744    0.2608    
2482.07    116.859    0.2904    
2482.27    111.859    0.2989    
2482.47    115.641    0.2874    
2482.67    114.154    0.2812    
2482.87    109.436    0.2857    
2483.07    105.321    0.2879    
2483.27    102.821    0.2648    
2483.47    103.077    0.2562    
2483.67    106.026    0.2672    
2483.87    98.154     0.2766    
2484.07    83.59      0.2698    
2484.27    63.28201   0.2713    
2484.47    83.278     0.2763    
2484.67    103.282    0.2748    
2484.87    118.718    0.2781    
2485.07    114.551    0.3002    
2485.27    113.397    0.335     
2485.47    113.744    0.3392    
2485.67    112.051    0.3062    
2485.87    102.359    0.2889    
2486.07    105.897    0.269     
2486.27    98.205     0.2526    
2486.47    92.359     0.2734    
2486.67    102.769    0.293     
2486.87    119.167    0.3151    
2487.07    115.487    0.3036    
2487.27    113.269    0.302     
2487.47    110.667    0.2703    
2487.67    109.59     0.2634    
2487.87    108.462    0.2685    
2488.07    108        0.2684    
2488.27    101.538    0.2924    
2488.47    103.846    0.2945    
2488.67    105.179    0.294     
2488.87    102.718    0.2892    
2489.07    101.333    0.262     
2489.27    99.385     0.2465    
2489.47    101.026    0.2792    
2489.67    100.667    0.2933    
2489.87    101.897    0.2931    
2490.07    97.846     0.2782    
2490.27    102.923    0.2729    
2490.47    109.167    0.299     
2490.67    109.423    0.297     
2490.87    108.974    0.2884    
2491.07    110.577    0.284     
2491.27    104.974    0.2995    
2491.47    103.385    0.3303    
2491.67    105.692    0.3361    
2491.87    105.231    0.3071    
2492.07    106.205    0.305     
2492.27    97.538     0.2807    
2492.47    91.487     0.2853    
2492.67    88.667     0.2841    
2492.87    102.359    0.2527    
2493.07    106.462    0.242     
2493.27    108.923    0.2241    
2493.47    115.833    0.1944    
2493.67    108.333    0.1871    
2493.87    78.205     0.2081    
2494.07    39.538     0.1939    
2494.27    26.872     0.2085    
2494.47    26.821     0.204     
2494.67    26.256     0.1976    
2494.87    25.179     0.1883    
2495.07    25.795     0.1744    
2495.27    28.103     0.1683    
2495.47    26.026     0.1825    
2495.67    26.346     0.1792    
2495.87    23.59      0.1706    
2496.07    24.462     0.1703    
2496.27    27.538     0.1646    
2496.47    29.487     0.1623    
2496.67    28.308     0.1757    
2496.87    28.205     0.1781    
2497.07    26.282     0.1799    
2497.27    25.641     0.1811    
2497.47    26.051     0.1782    
2497.67    26.667     0.1797    
2497.87    22.769     0.1796    
2498.07    21.09      0.1956    
2498.27    21.538     0.1951    
2498.47    24.872     0.1918    
2498.67    24.359     0.1892    
2498.87    25.897     0.1876    
2499.07    26.859     0.1843    
2499.27    29.744     0.19      
2499.47    30.205     0.1823    
2499.67    25.192     0.1812    
2499.87    22.179     0.1737    
2500.07    24.923     0.151     
2500.27    23.59      0.1626    
2500.47    25.846     0.1651    
2500.67    32.513     0.16      
2500.87    34.615     0.1545    
