~Version
 VERS              .         2.0                           : CWLS LOG ASCII STANDARD - VERSION 2.0
 WRAP              .         NO                            : ONE LINE PER DEPTH STEP
 DLM               .         SPACE                         : DELIMITING CHARACTER(SPACE TAB OR COMMA)
~Well Information
#_______________________________________________________________________________
#
#PARAMETER_NAME    .UNIT     VALUE                         : DESCRIPTION
#_______________________________________________________________________________
STRT               .m        -10.04                        : First reference value
STOP               .m        2561.16                       : Last reference value
STEP               .m        0.2                           : Step increment
NULL               .         -9999                         : Missing value
COMP               .                                       : Company
WELL               .         403                           : Well name
FLD                .                                       : Field
LOC                .                                       : Location
CNTY               .                                       : County
STAT               .                                       : State
CTRY               .                                       : Country
SRVC               .                                       : Service Company
DATE               .                                       : Date
API                .                                       : API number
EREF               .m        140.4                         : 
Pad                .         4                             : 
X                  .m        222100                        : 
Y                  .m        250025                        : 
group              .         Pad4                          : 
Интер-р            .         Пузин                         : 
Куст               .         4                             : 
Статус             .         Не проверено                  : 
Тип                .         Разведка                      : 
~Parameter Information Block
#_______________________________________________________________________________
#
#PARAMETER_NAME    .UNIT     VALUE                         : DESCRIPTION
#_______________________________________________________________________________
SET                .         LAS4                          : 
REAL_CREATION_DATE .         Ср апр 11 2012-13_17_14       : 
TLFamily_DEPTH     .         Measured Depth                : 
TLFamily_RT        .         Resistivity 20                : 
TLFamily_SP        .         Spontaneous Potential         : 
group              .         INI                           : 
~Curve Information
#_______________________________________________________________________________
#
#LOGNAME           .UNIT     LOG_ID                        : DESCRIPTION
#_______________________________________________________________________________
DEPTH              .m                                      : Measured Depth 
RT                 .ohm.m                                  : Conductivity 
SP                 .mV                                     : Spontaneous Potential 
~Ascii
# ...
1690.56    4.2545     -9999     
1690.76    4.2545     -9999     
1690.96    4.2545     -9999     
1691.16    4.2545     -9999     
1691.36    4.2545     -9999     
1691.56    4.2545     -9999     
1691.76    4.2545     -9999     
1691.96    4.2545     -9999     
1692.16    4.2545     -9999     
1692.36    4.2545     -9999     
1692.56    4.2545     -9999     
1692.76    4.2545     -9999     
1692.96    4.2545     -9999     
1693.16    4.2545     -9999     
1693.36    4.2545     -9999     
1693.56    4.2545     -9999     
1693.76    4.2545     -9999     
1693.96    4.2545     -9999     
1694.16    4.2545     -9999     
1694.36    4.2545     -9999     
1694.56    4.2545     -9999     
1694.76    4.2545     -9999     
1694.96    4.2545     -9999     
1695.16    4.2545     -9999     
1695.36    4.2545     -9999     
1695.56    4.2545     -9999     
1695.76    4.2545     -9999     
1695.96    4.2545     -9999     
1696.16    4.2545     -9999     
1696.36    4.2545     -9999     
1696.56    4.2545     -9999     
1696.76    4.2545     -9999     
1696.96    4.2545     -9999     
1697.16    4.2545     -9999     
1697.36    4.2545     -9999     
1697.56    4.2545     -9999     
1697.76    4.2545     -9999     
1697.96    4.2545     -9999     
1698.16    4.2545     -9999     
1698.36    4.2545     -9999     
1698.56    4.2545     -9999     
1698.76    4.2545     -9999     
1698.96    4.2545     -9999     
1699.16    4.2545     -9999     
1699.36    4.2545     -9999     
1699.56    4.2545     -9999     
1699.76    4.2545     -9999     
1699.96    4.2545     -9999     
1700.16    4.2545     -9999     
1700.36    4.2545     -9999     
1700.56    4.2545     -9999     
1700.76    4.2545     -9999     
1700.96    4.2545     -9999     
1701.16    4.2545     -9999     
1701.36    4.2545     -9999     
1701.56    4.2545     -9999     
1701.76    4.2545     -9999     
1701.96    4.2545     -9999     
1702.16    4.2545     -9999     
1702.36    4.2545     -9999     
1702.56    4.2545     -9999     
1702.76    4.2545     -9999     
1702.96    4.2545     -9999     
1703.16    4.2545     -9999     
1703.36    4.2545     -9999     
1703.56    4.2545     -9999     
1703.76    4.2545     -9999     
1703.96    4.2545     -9999     
1704.16    4.2545     -9999     
1704.36    4.2545     -9999     
1704.56    4.2545     -9999     
1704.76    4.2545     -9999     
1704.96    4.2545     -9999     
1705.16    4.2545     -9999     
1705.36    4.2545     -9999     
1705.56    4.2545     -9999     
1705.76    4.2545     -9999     
1705.96    4.2545     -9999     
1706.16    4.2545     -9999     
1706.36    4.2545     -9999     
1706.56    4.2545     -9999     
1706.76    4.2545     -9999     
1706.96    4.2545     -9999     
1707.16    4.2545     -9999     
1707.36    4.2545     -9999     
1707.56    4.2545     -9999     
1707.76    4.2545     -9999     
1707.96    4.2545     -9999     
1708.16    4.2545     -9999     
1708.36    4.2545     -9999     
1708.56    4.2545     -9999     
1708.76    4.2545     -9999     
1708.96    4.2545     -9999     
1709.16    4.2545     -9999     
1709.36    4.2545     -9999     
1709.56    4.2545     -9999     
1709.76    4.2545     -9999     
1709.96    4.2545     -9999     
1710.16    4.2545     -9999     
1710.36    4.2545     -9999     
1710.56    4.2545     -9999     
1710.76    4.2545     -9999     
1710.96    4.2545     -9999     
1711.16    4.2545     -9999     
1711.36    4.2545     -9999     
1711.56    4.2545     -9999     
1711.76    4.2545     -9999     
1711.96    4.2545     -9999     
1712.16    4.2545     -9999     
1712.36    4.2545     -9999     
1712.56    4.2545     -9999     
1712.76    4.2545     -9999     
1712.96    4.2545     -9999     
1713.16    4.2545     -9999     
1713.36    4.2545     -9999     
1713.56    4.2545     -9999     
1713.76    4.2545     -9999     
1713.96    4.2545     -9999     
1714.16    4.2545     -9999     
1714.36    4.2545     -9999     
1714.56    4.2545     -9999     
1714.76    4.2545     -9999     
1714.96    4.2545     -9999     
1715.16    4.2545     -9999     
1715.36    4.2545     -9999     
1715.56    4.2545     -9999     
1715.76    4.2545     -9999     
1715.96    4.2545     -9999     
1716.16    4.2545     -9999     
1716.36    4.2545     -9999     
1716.56    4.2545     -9999     
1716.76    4.2545     -9999     
1716.96    4.2545     -9999     
1717.16    4.2545     -9999     
1717.36    4.2545     -9999     
1717.56    4.2545     -9999     
1717.76    4.2545     -9999     
1717.96    4.2545     -9999     
1718.16    4.2545     -9999     
1718.36    4.2545     -9999     
1718.56    4.2545     -9999     
1718.76    4.2545     -9999     
1718.96    4.2545     -9999     
1719.16    4.2545     -9999     
1719.36    4.2545     -9999     
1719.56    4.2545     -9999     
1719.76    4.2545     -9999     
1719.96    4.2545     -9999     
1720.16    4.2545     -9999     
1720.36    4.2545     -9999     
1720.56    4.2545     -9999     
1720.76    4.2545     -9999     
1720.96    4.2545     -9999     
1721.16    4.2545     -9999     
1721.36    4.2545     -9999     
1721.56    4.2545     -9999     
1721.76    4.2545     -9999     
1721.96    4.2545     -9999     
1722.16    4.2545     -9999     
1722.36    4.2545     -9999     
1722.56    4.2545     -9999     
1722.76    4.2545     -9999     
1722.96    4.2545     -9999     
1723.16    4.2545     -9999     
1723.36    4.2545     -9999     
1723.56    4.2545     -9999     
1723.76    4.2545     -9999     
1723.96    4.2545     -9999     
1724.16    4.2545     -9999     
1724.36    4.2545     -9999     
1724.56    4.2545     -9999     
1724.76    4.2545     -9999     
1724.96    4.2545     -9999     
1725.16    4.2545     -9999     
1725.36    4.2545     -9999     
1725.56    4.2545     -9999     
1725.76    4.2545     -9999     
1725.96    4.2545     -9999     
1726.16    4.2545     -9999     
1726.36    4.2545     -9999     
1726.56    4.2545     -9999     
1726.76    4.2545     -9999     
1726.96    4.2545     -9999     
1727.16    4.2545     -9999     
1727.36    4.2545     -9999     
1727.56    4.2545     -9999     
1727.76    4.2545     -9999     
1727.96    4.2545     -9999     
1728.16    4.2545     -9999     
1728.36    4.2545     -9999     
1728.56    4.2545     -9999     
1728.76    4.2545     -9999     
1728.96    4.2545     -9999     
1729.16    4.2545     -9999     
1729.36    4.2545     -9999     
1729.56    4.2545     -9999     
1729.76    4.2545     -9999     
1729.96    4.2545     -9999     
1730.16    4.2545     -9999     
1730.36    4.2545     -9999     
1730.56    4.2545     -9999     
1730.76    4.2545     -9999     
1730.96    4.2545     -9999     
1731.16    4.2545     -9999     
1731.36    4.2545     -9999     
1731.56    4.2545     -9999     
1731.76    4.2545     -9999     
1731.96    4.2545     -9999     
1732.16    4.2545     -9999     
1732.36    4.2545     -9999     
1732.56    4.2545     -9999     
1732.76    4.2545     -9999     
1732.96    4.2545     -9999     
1733.16    4.2545     -9999     
1733.36    4.2545     -9999     
1733.56    4.2545     -9999     
1733.76    4.2545     -9999     
1733.96    4.2545     -9999     
1734.16    4.2545     -9999     
1734.36    4.2545     -9999     
1734.56    4.2545     -9999     
1734.76    4.2545     -9999     
1734.96    4.2545     -9999     
1735.16    4.2545     -9999     
1735.36    4.2545     -9999     
1735.56    4.2545     -9999     
1735.76    4.2545     -9999     
1735.96    4.2545     -9999     
1736.16    4.2545     -9999     
1736.36    4.2545     -9999     
1736.56    4.2545     -9999     
1736.76    4.2545     -9999     
1736.96    4.2545     -9999     
1737.16    4.2545     -9999     
1737.36    4.2545     -9999     
1737.56    4.2545     -9999     
1737.76    4.2545     -9999     
1737.96    4.2545     -9999     
1738.16    4.2545     -9999     
1738.36    4.2545     -9999     
1738.56    4.2545     -9999     
1738.76    4.2545     -9999     
1738.96    4.2545     -9999     
