~Version
 VERS              .         2.0                           : CWLS LOG ASCII STANDARD - VERSION 2.0
 WRAP              .         NO                            : ONE LINE PER DEPTH STEP
 DLM               .         SPACE                         : DELIMITING CHARACTER(SPACE TAB OR COMMA)
~Well Information
#_______________________________________________________________________________
#
#PARAMETER_NAME    .UNIT     VALUE                         : DESCRIPTION
#_______________________________________________________________________________
STRT               .m        2331.6                        : First reference value
STOP               .m        2561.999885                   : Last reference value
STEP               .m        0.1999999                     : Step increment
NULL               .         -9999                         : Missing value
COMP               .                                       : Company
WELL               .         403                           : Well name
FLD                .                                       : Field
LOC                .                                       : Location
CNTY               .                                       : County
STAT               .                                       : State
CTRY               .                                       : Country
SRVC               .                                       : Service Company
DATE               .                                       : Date
API                .                                       : API number
EREF               .m        140.4                         : 
Pad                .         4                             : 
X                  .m        222100                        : 
Y                  .m        250025                        : 
group              .         Pad4                          : 
Интер-р            .         Пузин                         : 
Куст               .         4                             : 
Статус             .         Не проверено                  : 
Тип                .         Разведка                      : 
~Parameter Information Block
#_______________________________________________________________________________
#
#PARAMETER_NAME    .UNIT     VALUE                         : DESCRIPTION
#_______________________________________________________________________________
SET                .         LAS1                          : 
REAL_CREATION_DATE .         Ср апр 11 2012-13_17_13       : 
TLFamily_DEPTH     .         Measured Depth                : 
TLFamily_KS        .         Potential Resistivity         : 
TLFamily_KS1       .         Extra Shallow Resistivity     : 
TLFamily_KS2       .         Shallow Resistivity           : 
TLFamily_KS3       .         Medium Resistivity            : 
TLFamily_KS4       .         Deep Resistivity              : 
TLFamily_KS5       .         Extra Deep Resistivity        : 
TLFamily_LLD       .         Lateral Log Resistivity       : 
TLFamily_OKS       .         Medium Resistivity Inverted   : 
TLFamily_RM        .         Mud Resistivity               : 
TLFamily_SP        .         Spontaneous Potential         : 
group              .         INI                           : 
~Curve Information
#_______________________________________________________________________________
#
#LOGNAME           .UNIT     LOG_ID                        : DESCRIPTION
#_______________________________________________________________________________
DEPTH              .m                                      : Measured Depth 
KS                 .ohm.m                                  : Potential Resistivity 
KS1                .ohm.m                                  : Extra Shallow Resistivity 
KS2                .ohm.m                                  : Shallow Resistivity 
KS3                .ohm.m                                  : Medium Resistivity 
KS4                .ohm.m                                  : Deep Resistivity 
KS5                .ohm.m                                  : Extra Deep Resistivity 
LLD                .ohm.m                                  : Lateral Log Resistivity 
OKS                .ohm.m                                  : Medium Resistivity Inverted 
RM                 .ohm.m                                  : Mud Resistivity 
SP                 .mV                                     : Spontaneous Potential 
~Ascii
# ...
2344.799993 -9999      0          0.0782     0          0          -9999      18.2138    39.8151    0.1487     -9999     
2344.999993 -9999      0          0.0782     0          0          -9999      18.2148    39.8216    10.3592    -9999     
2345.199993 -9999      0.0264     0.0782     0          0          -9999      18.2107    39.8248    10.3625    -9999     
2345.399993 -9999      30.7852    0.0782     0          0          -9999      18.2076    39.8216    10.3625    -9999     
2345.599993 -9999      41.5902    0.0914     0          0          -9999      18.2138    39.828     10.3592    -9999     
2345.799993 -9999      41.5902    0.1702     0          0          -9999      18.2086    39.8216    10.3625    -9999     
2345.999993 -9999      41.5902    29.6135    0          0          -9999      18.2138    39.828     10.3592    -9999     
2346.199993 -9999      41.5902    40.4987    0          0          -9999      18.2148    39.828     10.3592    -9999     
2346.399993 -9999      41.5902    40.5053    0          0          -9999      18.2076    39.8216    10.3592    -9999     
2346.599993 -9999      41.5902    40.5053    0          0          -9999      18.2138    39.8345    10.3592    -9999     
2346.799992 -9999      41.5834    40.4987    0          0          -9999      18.2138    39.828     10.3592    -9999     
2346.999992 -9999      41.597     40.4987    0.0188     0          -9999      18.2167    39.828     10.3592    -9999     
2347.199992 -9999      41.5902    40.4987    32.1657    0          -9999      18.2167    39.8216    10.3625    -9999     
2347.399992 -9999      41.5902    40.502     39.8109    0          -9999      18.2076    39.8216    10.3592    -9999     
2347.599992 -9999      41.597     40.5053    39.8174    0          -9999      18.2086    39.8216    10.3592    -9999     
2347.799992 -9999      41.5902    40.5053    39.8174    0          -9999      18.2169    39.8216    10.3592    -9999     
2347.999992 -9999      41.5834    40.4922    39.8174    0          -9999      18.2238    39.8151    10.3592    -9999     
2348.199992 -9999      41.5902    40.5053    39.8109    0          -9999      18.2066    39.8151    10.3558    -9999     
2348.399992 -9999      41.5902    40.5053    39.8238    0          -9999      18.2138    39.8216    10.3592    -9999     
2348.599991 -9999      41.5834    40.502     39.8141    0          -9999      18.2133    39.8216    10.3592    -9999     
2348.799991 -9999      41.597     40.5053    39.8174    0          -9999      18.2138    39.8216    10.3592    -9999     
2348.999991 -9999      41.597     40.5053    39.8044    0.0231     0.4369     18.2118    39.828     10.3625    -9999     
2349.199991 -9999      41.5902    40.4987    39.8109    35.0256    0.4369     18.2047    39.8216    10.3592    -9999     
2349.399991 -9999      41.597     40.4987    39.8174    40.2726    0.4303     18.1975    39.8216    10.3592    -9999     
2349.599991 -9999      41.5902    40.5053    39.8109    40.2791    0.4107     18.2066    39.8151    10.3592    -9999     
2349.799991 -9999      41.5902    40.5053    39.8141    40.2726    0.4369     18.2066    39.8151    10.3592    -9999     
2349.999991 -9999      41.597     40.5053    39.8109    40.2726    0.4631     18.2138    39.8151    10.3592    -9999     
2350.199991 -9999      41.5902    40.502     39.8109    40.266     0.4238     18.2229    39.8151    10.3592    -9999     
2350.399991 -9999      41.5902    40.5053    39.8174    40.2726    0.45       18.2157    39.8151    10.3625    -9999     
2350.59999 -9999      41.5834    40.5053    39.8109    40.2726    0.4107     18.2209    39.8151    10.3625    -9999     
2350.79999 -9999      41.597     40.5053    39.8174    40.2726    0.4369     18.2138    39.8086    10.3592    -9999     
2350.99999 -9999      41.597     40.5053    39.8109    40.2726    0.4369     18.2066    39.7374    10.3592    -9999     
2351.19999 -9999      41.5902    40.5053    39.8238    40.266     0.4369     18.2138    11.4196    10.3558    -9999     
2351.39999 -9999      41.5902    40.5053    39.8141    40.266     0.4238     18.2047    0          10.3592    -9999     
2351.59999 -9999      41.5834    40.4987    39.8174    40.2726    0.4631     18.2047    0          10.3592    -9999     
2351.79999 -9999      41.5902    40.4987    39.8109    40.2693    0.4238     18.2057    0          10.3592    -9999     
2351.99999 -9999      41.5902    40.4987    39.8109    40.2726    0.4434     18.2207    0          10.3592    -9999     
2352.19999 -9999      41.5902    40.4987    39.8109    40.2791    0.4238     18.2138    0          10.3592    -9999     
2352.39999 -9999      41.5902    40.5053    39.8109    40.2726    0.4762     18.2128    0          10.3592    -9999     
2352.599989 -9999      41.5902    40.4987    39.8109    40.2726    0.4762     15.7799    0          10.3592    -9999     
2352.799989 -9999      41.5834    40.4922    39.8109    40.2726    0.4762     96.6949    0          10.3592    -9999     
2352.999989 -9999      41.5902    40.4922    39.8109    40.2726    0.4238     96.7888    0          10.3592    -9999     
2353.199989 -9999      41.5902    40.5053    39.8174    40.2726    0.45       96.6949    0          10.3524    -9999     
2353.399989 -9999      41.5766    40.4987    39.8109    40.2693    29.5313    97.5648    0          7.545      -9999     
2353.599989 -9999      41.5699    40.5053    39.8109    40.266     39.9362    97.5648    0          0          -9999     
2353.799989 -9999      34.5067    40.4987    39.8109    40.266     39.9493    97.5648    0          0          -9999     
2353.999989 -9999      0          40.4922    39.8044    40.2594    39.9362    97.5648    0          0          -9999     
2354.199989 -9999      0          40.479     39.8044    40.2726    39.9493    96.6949    0          0          -9999     
2354.399989 -9999      0          32.5763    39.8109    40.266     39.9362    96.6949    0          0          -9999     
2354.599989 -9999      0          0          39.8077    40.2726    39.9362    96.6949    0          0          -9999     
2354.799988 -9999      0          0          39.798     40.266     39.9427    96.8828    0          0          -9999     
2354.999988 -9999      0          0          39.8044    40.266     39.9362    96.0265    0          0          -9999     
2355.199988 -9999      0          0          39.8044    40.266     39.9231    95.1853    0          0          -9999     
2355.399988 -9999      0          0          39.785     40.266     39.9231    96.8828    0          0          -9999     
2355.599988 -9999      0          0          31.1235    40.2726    39.9362    96.8828    0          0          -9999     
2355.799988 -9999      0          0          0          40.2791    39.9362    96.8828    0          0          -9999     
2355.999988 -9999      0          0          0          40.266     39.9362    96.8828    0          0          -9999     
2356.199988 -9999      0          0          0          40.2726    39.9231    96.8828    0          0          -9999     
2356.399988 -9999      0          0          0          40.2594    39.9362    97.2223    0          0          -9999     
2356.599987 -9999      0          0          0          40.2594    39.9362    97.5648    0.0138     0          -9999     
2356.799987 -9999      0          0          0          40.266     39.9362    97.5648    0.0535     0          -9999     
2356.999987 -9999      0          0          0          40.2726    39.9362    97.5648    0.0665     0          -9999     
2357.199987 -9999      0          0          0          40.2594    39.9362    96.8828    0.06       0          -9999     
2357.399987 -9999      0          0          0          40.2463    39.9362    97.5648    0.0535     0          -9999     
2357.599987 -9999      0          0          0          27.655     39.9362    97.5648    0.0535     0          -9999     
2357.799987 -9999      0          0          0          0          39.9362    97.7544    0.0535     0          -9999     
