~Version
 VERS              .         2.0                           : CWLS LOG ASCII STANDARD - VERSION 2.0
 WRAP              .         NO                            : ONE LINE PER DEPTH STEP
 DLM               .         SPACE                         : DELIMITING CHARACTER(SPACE TAB OR COMMA)
~Well Information
#_______________________________________________________________________________
#
#PARAMETER_NAME    .UNIT     VALUE                         : DESCRIPTION
#_______________________________________________________________________________
STRT               .m        -10.04                        : First reference value
STOP               .m        2561.16                       : Last reference value
STEP               .m        0.2                           : Step increment
NULL               .         -9999                         : Missing value
COMP               .                                       : Company
WELL               .         403                           : Well name
FLD                .                                       : Field
LOC                .                                       : Location
CNTY               .                                       : County
STAT               .                                       : State
CTRY               .                                       : Country
SRVC               .                                       : Service Company
DATE               .                                       : Date
API                .                                       : API number
EREF               .m        140.4                         : 
Pad                .         4                             : 
X                  .m        222100                        : 
Y                  .m        250025                        : 
group              .         Pad4                          : 
Интер-р            .         Пузин                         : 
Куст               .         4                             : 
Статус             .         Не проверено                  : 
Тип                .         Разведка                      : 
~Parameter Information Block
#_______________________________________________________________________________
#
#PARAMETER_NAME    .UNIT     VALUE                         : DESCRIPTION
#_______________________________________________________________________________
SET                .         LAS4                          : 
REAL_CREATION_DATE .         Ср апр 11 2012-13_17_14       : 
TLFamily_DEPTH     .         Measured Depth                : 
TLFamily_RT        .         Resistivity 20                : 
TLFamily_SP        .         Spontaneous Potential         : 
group              .         INI                           : 
~Curve Information
#_______________________________________________________________________________
#
#LOGNAME           .UNIT     LOG_ID                        : DESCRIPTION
#_______________________________________________________________________________
DEPTH              .m                                      : Measured Depth 
RT                 .ohm.m                                  : Conductivity 
SP                 .mV                                     : Spontaneous Potential 
~Ascii
# ...
378.36     4.2545     -9999     
378.56     4.2545     -9999     
378.76     4.2545     -9999     
378.96     4.2545     -9999     
379.16     4.2545     -9999     
379.36     4.2545     -9999     
379.56     4.2545     -9999     
379.76     4.2545     -9999     
379.96     4.2545     -9999     
380.16     4.2545     -9999     
380.36     4.2545     -9999     
380.56     4.2545     -9999     
380.76     4.2545     -9999     
380.96     4.2545     -9999     
381.16     4.2545     -9999     
381.36     4.2545     -9999     
381.56     4.2545     -9999     
381.76     4.2545     -9999     
381.96     4.2545     -9999     
382.16     4.2545     -9999     
382.36     4.2545     -9999     
382.56     4.2545     -9999     
382.76     4.2545     -9999     
382.96     4.2545     -9999     
383.16     4.2545     -9999     
383.36     4.2545     -9999     
383.56     4.2545     -9999     
383.76     4.2545     -9999     
383.96     4.2545     -9999     
384.16     4.2545     -9999     
384.36     4.2545     -9999     
384.56     4.2545     -9999     
384.76     4.2545     -9999     
384.96     4.2545     -9999     
385.16     4.2545     -9999     
385.36     4.2545     -9999     
385.56     4.2545     -9999     
385.76     4.2545     -9999     
385.96     4.2545     -9999     
386.16     4.2545     -9999     
386.36     4.2545     -9999     
386.56     4.2545     -9999     
386.76     4.2545     -9999     
386.96     4.2545     -9999     
387.16     4.2545     -9999     
387.36     4.2545     -9999     
387.56     4.2545     -9999     
387.76     4.2545     -9999     
387.96     4.2545     -9999     
388.16     4.2545     -9999     
388.36     4.2545     -9999     
388.56     4.2545     -9999     
388.76     4.2545     -9999     
388.96     4.2545     -9999     
389.16     4.2545     -9999     
389.36     4.2545     -9999     
389.56     4.2545     -9999     
389.76     4.2545     -9999     
389.96     4.2545     -9999     
390.16     4.2545     -9999     
390.36     4.2545     -9999     
390.56     4.2545     -9999     
390.76     4.2545     -9999     
390.96     4.2545     -9999     
391.16     4.2545     -9999     
391.36     4.2545     -9999     
391.56     4.2545     -9999     
391.76     4.2545     -9999     
391.96     4.2545     -9999     
392.16     4.2545     -9999     
392.36     4.2545     -9999     
392.56     4.2545     -9999     
392.76     4.2545     -9999     
392.96     4.2545     -9999     
393.16     4.2545     -9999     
393.36     4.2545     -9999     
393.56     4.2545     -9999     
393.76     4.2545     -9999     
393.96     4.2545     -9999     
394.16     4.2545     -9999     
394.36     4.2545     -9999     
394.56     4.2545     -9999     
394.76     4.2545     -9999     
394.96     4.2545     -9999     
395.16     4.2545     -9999     
395.36     4.2545     -9999     
395.56     4.2545     -9999     
395.76     4.2545     -9999     
395.96     4.2545     -9999     
396.16     4.2545     -9999     
396.36     4.2545     -9999     
396.56     4.2545     -9999     
396.76     4.2545     -9999     
396.96     4.2545     -9999     
397.16     4.2545     -9999     
397.36     4.2545     -9999     
397.56     4.2545     -9999     
397.76     4.2545     -9999     
397.96     4.2545     -9999     
398.16     4.2545     -9999     
398.36     4.2545     -9999     
398.56     4.2545     -9999     
398.76     4.2545     -9999     
398.96     4.2545     -9999     
399.16     4.2545     -9999     
399.36     4.2545     -9999     
399.56     4.2545     -9999     
399.76     4.2545     -9999     
399.96     4.2545     -9999     
400.16     4.2545     -9999     
400.36     4.2545     -9999     
400.56     4.2545     -9999     
400.76     4.2545     -9999     
400.96     4.2545     -9999     
401.16     4.2545     -9999     
401.36     4.2545     -9999     
401.56     4.2545     -9999     
401.76     4.2545     -9999     
401.96     4.2545     -9999     
402.16     4.2545     -9999     
402.36     4.2545     -9999     
402.56     4.2545     -9999     
402.76     4.2545     -9999     
402.96     4.2545     -9999     
403.16     4.2545     -9999     
403.36     4.2545     -9999     
403.56     4.2545     -9999     
403.76     4.2545     -9999     
403.96     4.2545     -9999     
404.16     4.2545     -9999     
404.36     4.2545     -9999     
404.56     4.2545     -9999     
404.76     4.2545     -9999     
404.96     4.2545     -9999     
405.16     4.2545     -9999     
405.36     4.2545     -9999     
405.56     4.2545     -9999     
405.76     4.2545     -9999     
405.96     4.2545     -9999     
406.16     4.2545     -9999     
406.36     4.2545     -9999     
406.56     4.2545     -9999     
406.76     4.2545     -9999     
406.96     4.2545     -9999     
407.16     4.2545     -9999     
407.36     4.2545     -9999     
407.56     4.2545     -9999     
407.76     4.2545     -9999     
407.96     4.2545     -9999     
408.16     4.2545     -9999     
408.36     4.2545     -9999     
408.56     4.2545     -9999     
408.76     4.2545     -9999     
408.96     4.2545     -9999     
409.16     4.2545     -9999     
409.36     4.2545     -9999     
409.56     4.2545     -9999     
409.76     4.2545     -9999     
409.96     4.2545     -9999     
410.16     4.2545     -9999     
410.36     4.2545     -9999     
410.56     4.2545     -9999     
410.76     4.2545     -9999     
410.96     4.2545     -9999     
411.16     4.2545     -9999     
411.36     4.2545     -9999     
411.56     4.2545     -9999     
411.76     4.2545     -9999     
411.96     4.2545     -9999     
412.16     4.2545     -9999     
412.36     4.2545     -9999     
412.56     4.2545     -9999     
412.76     4.2545     -9999     
412.96     4.2545     -9999     
413.16     4.2545     -9999     
413.36     4.2545     -9999     
413.56     4.2545     -9999     
413.76     4.2545     -9999     
413.96     4.2545     -9999     
414.16     4.2545     -9999     
414.36     4.2545     -9999     
414.56     4.2545     -9999     
414.76     4.2545     -9999     
414.96     4.2545     -9999     
415.16     4.2545     -9999     
415.36     4.2545     -9999     
415.56     4.2545     -9999     
415.76     4.2545     -9999     
415.96     4.2545     -9999     
416.16     4.2545     -9999     
416.36     4.2545     -9999     
416.56     4.2545     -9999     
416.76     4.2545     -9999     
416.96     4.2545     -9999     
417.16     4.2545     -9999     
417.36     4.2545     -9999     
417.56     4.2545     -9999     
417.76     4.2545     -9999     
417.96     4.2545     -9999     
418.16     4.2545     -9999     
418.36     4.2545     -9999     
418.56     4.2545     -9999     
418.76     4.2545     -9999     
418.96     4.2545     -9999     
419.16     4.2545     -9999     
419.36     4.2545     -9999     
419.56     4.2545     -9999     
419.76     4.2545     -9999     
419.96     4.2545     -9999     
420.16     4.2545     -9999     
420.36     4.2545     -9999     
420.56     4.2545     -9999     
420.76     4.2545     -9999     
420.96     4.2545     -9999     
421.16     4.2545     -9999     
421.36     4.2545     -9999     
421.56     4.2545     -9999     
421.76     4.2545     -9999     
421.96     4.2545     -9999     
422.16     4.2545     -9999     
422.36     4.2545     -9999     
422.56     4.2545     -9999     
422.76     4.2545     -9999     
422.96     4.2545     -9999     
423.16     4.2545     -9999     
423.36     4.2545     -9999     
423.56     4.2545     -9999     
423.76     4.2545     -9999     
423.96     4.2545     -9999     
424.16     4.2545     -9999     
424.36     4.2545     -9999     
424.56     4.2545     -9999     
424.76     4.2545     -9999     
424.96     4.2545     -9999     
425.16     4.2545     -9999     
425.36     4.2545     -9999     
425.56     4.2545     -9999     
425.76     4.2545     -9999     
425.96     4.2545     -9999     
426.16     4.2545     -9999     
426.36     4.2545     -9999     
426.56     4.2545     -9999     
426.76     4.2545     -9999     
