~Version
 VERS              .         2.0                           : CWLS LOG ASCII STANDARD - VERSION 2.0
 WRAP              .         NO                            : ONE LINE PER DEPTH STEP
 DLM               .         SPACE                         : DELIMITING CHARACTER(SPACE TAB OR COMMA)
~Well Information
#_______________________________________________________________________________
#
#PARAMETER_NAME    .UNIT     VALUE                         : DESCRIPTION
#_______________________________________________________________________________
STRT               .m        -10.04                        : First reference value
STOP               .m        2561.16                       : Last reference value
STEP               .m        0.2                           : Step increment
NULL               .         -9999                         : Missing value
COMP               .                                       : Company
WELL               .         403                           : Well name
FLD                .                                       : Field
LOC                .                                       : Location
CNTY               .                                       : County
STAT               .                                       : State
CTRY               .                                       : Country
SRVC               .                                       : Service Company
DATE               .                                       : Date
API                .                                       : API number
EREF               .m        140.4                         : 
Pad                .         4                             : 
X                  .m        222100                        : 
Y                  .m        250025                        : 
group              .         Pad4                          : 
Интер-р            .         Пузин                         : 
Куст               .         4                             : 
Статус             .         Не проверено                  : 
Тип                .         Разведка                      : 
~Parameter Information Block
#_______________________________________________________________________________
#
#PARAMETER_NAME    .UNIT     VALUE                         : DESCRIPTION
#_______________________________________________________________________________
SET                .         LAS4                          : 
REAL_CREATION_DATE .         Ср апр 11 2012-13_17_14       : 
TLFamily_DEPTH     .         Measured Depth                : 
TLFamily_RT        .         Resistivity 20                : 
TLFamily_SP        .         Spontaneous Potential         : 
group              .         INI                           : 
~Curve Information
#_______________________________________________________________________________
#
#LOGNAME           .UNIT     LOG_ID                        : DESCRIPTION
#_______________________________________________________________________________
DEPTH              .m                                      : Measured Depth 
RT                 .ohm.m                                  : Conductivity 
SP                 .mV                                     : Spontaneous Potential 
~Ascii
# ...
38.16      4.2545     -9999     
38.36      4.2545     -9999     
38.56      4.2545     -9999     
38.76      4.2545     -9999     
38.96      4.2545     -9999     
39.16      4.2545     -9999     
39.36      4.2545     -9999     
39.56      4.2545     -9999     
39.76      4.2545     -9999     
39.96      4.2545     -9999     
40.16      4.2545     -9999     
40.36      4.2545     -9999     
40.56      4.2545     -9999     
40.76      4.2545     -9999     
40.96      4.2545     -9999     
41.16      4.2545     -9999     
41.36      4.2545     -9999     
41.56      4.2545     -9999     
41.76      4.2545     -9999     
41.96      4.2545     -9999     
42.16      4.2545     -9999     
42.36      4.2545     -9999     
42.56      4.2545     -9999     
42.76      4.2545     -9999     
42.96      4.2545     -9999     
43.16      4.2545     -9999     
43.36      4.2545     -9999     
43.56      4.2545     -9999     
43.76      4.2545     -9999     
43.96      4.2545     -9999     
44.16      4.2545     -9999     
44.36      4.2545     -9999     
44.56      4.2545     -9999     
44.76      4.2545     -9999     
44.96      4.2545     -9999     
45.16      4.2545     -9999     
45.36      4.2545     -9999     
45.56      4.2545     -9999     
45.76      4.2545     -9999     
45.96      4.2545     -9999     
46.16      4.2545     -9999     
46.36      4.2545     -9999     
46.56      4.2545     -9999     
46.76      4.2545     -9999     
46.96      4.2545     -9999     
47.16      4.2545     -9999     
47.36      4.2545     -9999     
47.56      4.2545     -9999     
47.76      4.2545     -9999     
47.96      4.2545     -9999     
48.16      4.2545     -9999     
48.36      4.2545     -9999     
48.56      4.2545     -9999     
48.76      4.2545     -9999     
48.96      4.2545     -9999     
49.16      4.2545     -9999     
49.36      4.2545     -9999     
49.56      4.2545     -9999     
49.76      4.2545     -9999     
49.96      4.2545     -9999     
50.16      4.2545     -9999     
50.36      4.2545     -9999     
50.56      4.2545     -9999     
50.76      4.2545     -9999     
50.96      4.2545     -9999     
51.16      4.2545     -9999     
51.36      4.2545     -9999     
51.56      4.2545     -9999     
51.76      4.2545     -9999     
51.96      4.2545     -9999     
52.16      4.2545     -9999     
52.36      4.2545     -9999     
52.56      4.2545     -9999     
52.76      4.2545     -9999     
52.96      4.2545     -9999     
53.16      4.2545     -9999     
53.36      4.2545     -9999     
53.56      4.2545     -9999     
53.76      4.2545     -9999     
53.96      4.2545     -9999     
54.16      4.2545     -9999     
54.36      4.2545     -9999     
54.56      4.2545     -9999     
54.76      4.2545     -9999     
54.96      4.2545     -9999     
55.16      4.2545     -9999     
55.36      4.2545     -9999     
55.56      4.2545     -9999     
55.76      4.2545     -9999     
55.96      4.2545     -9999     
56.16      4.2545     -9999     
56.36      4.2545     -9999     
56.56      4.2545     -9999     
56.76      4.2545     -9999     
56.96      4.2545     -9999     
57.16      4.2545     -9999     
57.36      4.2545     -9999     
57.56      4.2545     -9999     
57.76      4.2545     -9999     
57.96      4.2545     -9999     
58.16      4.2545     -9999     
58.36      4.2545     -9999     
58.56      4.2545     -9999     
58.76      4.2545     -9999     
58.96      4.2545     -9999     
59.16      4.2545     -9999     
59.36      4.2545     -9999     
59.56      4.2545     -9999     
59.76      4.2545     -9999     
59.96      4.2545     -9999     
60.16      4.2545     -9999     
60.36      4.2545     -9999     
60.56      4.2545     -9999     
60.76      4.2545     -9999     
60.96      4.2545     -9999     
61.16      4.2545     -9999     
61.36      4.2545     -9999     
61.56      4.2545     -9999     
61.76      4.2545     -9999     
61.96      4.2545     -9999     
62.16      4.2545     -9999     
62.36      4.2545     -9999     
62.56      4.2545     -9999     
62.76      4.2545     -9999     
62.96      4.2545     -9999     
63.16      4.2545     -9999     
63.36      4.2545     -9999     
63.56      4.2545     -9999     
63.76      4.2545     -9999     
63.96      4.2545     -9999     
64.16      4.2545     -9999     
64.36      4.2545     -9999     
64.56      4.2545     -9999     
64.76      4.2545     -9999     
64.96      4.2545     -9999     
65.16      4.2545     -9999     
65.36      4.2545     -9999     
65.56      4.2545     -9999     
65.76      4.2545     -9999     
65.96      4.2545     -9999     
66.16      4.2545     -9999     
66.36      4.2545     -9999     
66.56      4.2545     -9999     
66.76      4.2545     -9999     
66.96      4.2545     -9999     
67.16      4.2545     -9999     
67.36      4.2545     -9999     
67.56      4.2545     -9999     
67.76      4.2545     -9999     
67.96      4.2545     -9999     
68.16      4.2545     -9999     
68.36      4.2545     -9999     
68.56      4.2545     -9999     
68.76      4.2545     -9999     
68.96      4.2545     -9999     
69.16      4.2545     -9999     
69.36      4.2545     -9999     
69.56      4.2545     -9999     
69.76      4.2545     -9999     
69.96      4.2545     -9999     
70.16      4.2545     -9999     
70.36      4.2545     -9999     
70.56      4.2545     -9999     
70.76      4.2545     -9999     
70.96      4.2545     -9999     
71.16      4.2545     -9999     
71.36      4.2545     -9999     
71.56      4.2545     -9999     
71.76      4.2545     -9999     
71.96      4.2545     -9999     
72.16      4.2545     -9999     
72.36      4.2545     -9999     
72.56      4.2545     -9999     
72.76      4.2545     -9999     
72.96      4.2545     -9999     
73.16      4.2545     -9999     
73.36      4.2545     -9999     
73.56      4.2545     -9999     
73.76      4.2545     -9999     
73.96      4.2545     -9999     
74.16      4.2545     -9999     
74.36      4.2545     -9999     
74.56      4.2545     -9999     
74.76      4.2545     -9999     
74.96      4.2545     -9999     
75.16      4.2545     -9999     
75.36      4.2545     -9999     
75.56      4.2545     -9999     
75.76      4.2545     -9999     
75.96      4.2545     -9999     
76.16      4.2545     -9999     
76.36      4.2545     -9999     
76.56      4.2545     -9999     
76.76      4.2545     -9999     
76.96      4.2545     -9999     
77.16      4.2545     -9999     
77.36      4.2545     -9999     
77.56      4.2545     -9999     
77.76      4.2545     -9999     
77.96      4.2545     -9999     
78.16      4.2545     -9999     
78.36      4.2545     -9999     
78.56      4.2545     -9999     
78.76      4.2545     -9999     
78.96      4.2545     -9999     
79.16      4.2545     -9999     
79.36      4.2545     -9999     
79.56      4.2545     -9999     
79.76      4.2545     -9999     
79.96      4.2545     -9999     
80.16      4.2545     -9999     
80.36      4.2545     -9999     
80.56      4.2545     -9999     
80.76      4.2545     -9999     
80.96      4.2545     -9999     
81.16      4.2545     -9999     
81.36      4.2545     -9999     
81.56      4.2545     -9999     
81.76      4.2545     -9999     
81.96      4.2545     -9999     
82.16      4.2545     -9999     
82.36      4.2545     -9999     
82.56      4.2545     -9999     
82.76      4.2545     -9999     
82.96      4.2545     -9999     
83.16      4.2545     -9999     
83.36      4.2545     -9999     
83.56      4.2545     -9999     
83.76      4.2545     -9999     
83.96      4.2545     -9999     
84.16      4.2545     -9999     
84.36      4.2545     -9999     
84.56      4.2545     -9999     
84.76      4.2545     -9999     
84.96      4.2545     -9999     
85.16      4.2545     -9999     
85.36      4.2545     -9999     
85.56      4.2545     -9999     
85.76      4.2545     -9999     
85.96      4.2545     -9999     
86.16      4.2545     -9999     
86.36      4.2545     -9999     
86.56      4.2545     -9999     
