~Version
 VERS              .         2.0                           : CWLS LOG ASCII STANDARD - VERSION 2.0
 WRAP              .         NO                            : ONE LINE PER DEPTH STEP
 DLM               .         SPACE                         : DELIMITING CHARACTER(SPACE TAB OR COMMA)
~Well Information
#_______________________________________________________________________________
#
#PARAMETER_NAME    .UNIT     VALUE                         : DESCRIPTION
#_______________________________________________________________________________
STRT               .m        -10.04                        : First reference value
STOP               .m        2561.16                       : Last reference value
STEP               .m        0.2                           : Step increment
NULL               .         -9999                         : Missing value
COMP               .                                       : Company
WELL               .         403                           : Well name
FLD                .                                       : Field
LOC                .                                       : Location
CNTY               .                                       : County
STAT               .                                       : State
CTRY               .                                       : Country
SRVC               .                                       : Service Company
DATE               .                                       : Date
API                .                                       : API number
EREF               .m        140.4                         : 
Pad                .         4                             : 
X                  .m        222100                        : 
Y                  .m        250025                        : 
group              .         Pad4                          : 
Интер-р            .         Пузин                         : 
Куст               .         4                             : 
Статус             .         Не проверено                  : 
Тип                .         Разведка                      : 
~Parameter Information Block
#_______________________________________________________________________________
#
#PARAMETER_NAME    .UNIT     VALUE                         : DESCRIPTION
#_______________________________________________________________________________
SET                .         LAS4                          : 
REAL_CREATION_DATE .         Ср апр 11 2012-13_17_14       : 
TLFamily_DEPTH     .         Measured Depth                : 
TLFamily_RT        .         Resistivity 20                : 
TLFamily_SP        .         Spontaneous Potential         : 
group              .         INI                           : 
~Curve Information
#_______________________________________________________________________________
#
#LOGNAME           .UNIT     LOG_ID                        : DESCRIPTION
#_______________________________________________________________________________
DEPTH              .m                                      : Measured Depth 
RT                 .ohm.m                                  : Conductivity 
SP                 .mV                                     : Spontaneous Potential 
~Ascii
# ...
1350.36    4.2545     -9999     
1350.56    4.2545     -9999     
1350.76    4.2545     -9999     
1350.96    4.2545     -9999     
1351.16    4.2545     -9999     
1351.36    4.2545     -9999     
1351.56    4.2545     -9999     
1351.76    4.2545     -9999     
1351.96    4.2545     -9999     
1352.16    4.2545     -9999     
1352.36    4.2545     -9999     
1352.56    4.2545     -9999     
1352.76    4.2545     -9999     
1352.96    4.2545     -9999     
1353.16    4.2545     -9999     
1353.36    4.2545     -9999     
1353.56    4.2545     -9999     
1353.76    4.2545     -9999     
1353.96    4.2545     -9999     
1354.16    4.2545     -9999     
1354.36    4.2545     -9999     
1354.56    4.2545     -9999     
1354.76    4.2545     -9999     
1354.96    4.2545     -9999     
1355.16    4.2545     -9999     
1355.36    4.2545     -9999     
1355.56    4.2545     -9999     
1355.76    4.2545     -9999     
1355.96    4.2545     -9999     
1356.16    4.2545     -9999     
1356.36    4.2545     -9999     
1356.56    4.2545     -9999     
1356.76    4.2545     -9999     
1356.96    4.2545     -9999     
1357.16    4.2545     -9999     
1357.36    4.2545     -9999     
1357.56    4.2545     -9999     
1357.76    4.2545     -9999     
1357.96    4.2545     -9999     
1358.16    4.2545     -9999     
1358.36    4.2545     -9999     
1358.56    4.2545     -9999     
1358.76    4.2545     -9999     
1358.96    4.2545     -9999     
1359.16    4.2545     -9999     
1359.36    4.2545     -9999     
1359.56    4.2545     -9999     
1359.76    4.2545     -9999     
1359.96    4.2545     -9999     
1360.16    4.2545     -9999     
1360.36    4.2545     -9999     
1360.56    4.2545     -9999     
1360.76    4.2545     -9999     
1360.96    4.2545     -9999     
1361.16    4.2545     -9999     
1361.36    4.2545     -9999     
1361.56    4.2545     -9999     
1361.76    4.2545     -9999     
1361.96    4.2545     -9999     
1362.16    4.2545     -9999     
1362.36    4.2545     -9999     
1362.56    4.2545     -9999     
1362.76    4.2545     -9999     
1362.96    4.2545     -9999     
1363.16    4.2545     -9999     
1363.36    4.2545     -9999     
1363.56    4.2545     -9999     
1363.76    4.2545     -9999     
1363.96    4.2545     -9999     
1364.16    4.2545     -9999     
1364.36    4.2545     -9999     
1364.56    4.2545     -9999     
1364.76    4.2545     -9999     
1364.96    4.2545     -9999     
1365.16    4.2545     -9999     
1365.36    4.2545     -9999     
1365.56    4.2545     -9999     
1365.76    4.2545     -9999     
1365.96    4.2545     -9999     
1366.16    4.2545     -9999     
1366.36    4.2545     -9999     
1366.56    4.2545     -9999     
1366.76    4.2545     -9999     
1366.96    4.2545     -9999     
1367.16    4.2545     -9999     
1367.36    4.2545     -9999     
1367.56    4.2545     -9999     
1367.76    4.2545     -9999     
1367.96    4.2545     -9999     
1368.16    4.2545     -9999     
1368.36    4.2545     -9999     
1368.56    4.2545     -9999     
1368.76    4.2545     -9999     
1368.96    4.2545     -9999     
1369.16    4.2545     -9999     
1369.36    4.2545     -9999     
1369.56    4.2545     -9999     
1369.76    4.2545     -9999     
1369.96    4.2545     -9999     
1370.16    4.2545     -9999     
1370.36    4.2545     -9999     
1370.56    4.2545     -9999     
1370.76    4.2545     -9999     
1370.96    4.2545     -9999     
1371.16    4.2545     -9999     
1371.36    4.2545     -9999     
1371.56    4.2545     -9999     
1371.76    4.2545     -9999     
1371.96    4.2545     -9999     
1372.16    4.2545     -9999     
1372.36    4.2545     -9999     
1372.56    4.2545     -9999     
1372.76    4.2545     -9999     
1372.96    4.2545     -9999     
1373.16    4.2545     -9999     
1373.36    4.2545     -9999     
1373.56    4.2545     -9999     
1373.76    4.2545     -9999     
1373.96    4.2545     -9999     
1374.16    4.2545     -9999     
1374.36    4.2545     -9999     
1374.56    4.2545     -9999     
1374.76    4.2545     -9999     
1374.96    4.2545     -9999     
1375.16    4.2545     -9999     
1375.36    4.2545     -9999     
1375.56    4.2545     -9999     
1375.76    4.2545     -9999     
1375.96    4.2545     -9999     
1376.16    4.2545     -9999     
1376.36    4.2545     -9999     
1376.56    4.2545     -9999     
1376.76    4.2545     -9999     
1376.96    4.2545     -9999     
1377.16    4.2545     -9999     
1377.36    4.2545     -9999     
1377.56    4.2545     -9999     
1377.76    4.2545     -9999     
1377.96    4.2545     -9999     
1378.16    4.2545     -9999     
1378.36    4.2545     -9999     
1378.56    4.2545     -9999     
1378.76    4.2545     -9999     
1378.96    4.2545     -9999     
1379.16    4.2545     -9999     
1379.36    4.2545     -9999     
1379.56    4.2545     -9999     
1379.76    4.2545     -9999     
1379.96    4.2545     -9999     
1380.16    4.2545     -9999     
1380.36    4.2545     -9999     
1380.56    4.2545     -9999     
1380.76    4.2545     -9999     
1380.96    4.2545     -9999     
1381.16    4.2545     -9999     
1381.36    4.2545     -9999     
1381.56    4.2545     -9999     
1381.76    4.2545     -9999     
1381.96    4.2545     -9999     
1382.16    4.2545     -9999     
1382.36    4.2545     -9999     
1382.56    4.2545     -9999     
1382.76    4.2545     -9999     
1382.96    4.2545     -9999     
1383.16    4.2545     -9999     
1383.36    4.2545     -9999     
1383.56    4.2545     -9999     
1383.76    4.2545     -9999     
1383.96    4.2545     -9999     
1384.16    4.2545     -9999     
1384.36    4.2545     -9999     
1384.56    4.2545     -9999     
1384.76    4.2545     -9999     
1384.96    4.2545     -9999     
1385.16    4.2545     -9999     
1385.36    4.2545     -9999     
1385.56    4.2545     -9999     
1385.76    4.2545     -9999     
1385.96    4.2545     -9999     
1386.16    4.2545     -9999     
1386.36    4.2545     -9999     
1386.56    4.2545     -9999     
1386.76    4.2545     -9999     
1386.96    4.2545     -9999     
1387.16    4.2545     -9999     
1387.36    4.2545     -9999     
1387.56    4.2545     -9999     
1387.76    4.2545     -9999     
1387.96    4.2545     -9999     
1388.16    4.2545     -9999     
1388.36    4.2545     -9999     
1388.56    4.2545     -9999     
1388.76    4.2545     -9999     
1388.96    4.2545     -9999     
1389.16    4.2545     -9999     
1389.36    4.2545     -9999     
1389.56    4.2545     -9999     
1389.76    4.2545     -9999     
1389.96    4.2545     -9999     
1390.16    4.2545     -9999     
1390.36    4.2545     -9999     
1390.56    4.2545     -9999     
1390.76    4.2545     -9999     
1390.96    4.2545     -9999     
1391.16    4.2545     -9999     
1391.36    4.2545     -9999     
1391.56    4.2545     -9999     
1391.76    4.2545     -9999     
1391.96    4.2545     -9999     
1392.16    4.2545     -9999     
1392.36    4.2545     -9999     
1392.56    4.2545     -9999     
1392.76    4.2545     -9999     
1392.96    4.2545     -9999     
1393.16    4.2545     -9999     
1393.36    4.2545     -9999     
1393.56    4.2545     -9999     
1393.76    4.2545     -9999     
1393.96    4.2545     -9999     
1394.16    4.2545     -9999     
1394.36    4.2545     -9999     
1394.56    4.2545     -9999     
1394.76    4.2545     -9999     
1394.96    4.2545     -9999     
1395.16    4.2545     -9999     
1395.36    4.2545     -9999     
1395.56    4.2545     -9999     
1395.76    4.2545     -9999     
1395.96    4.2545     -9999     
1396.16    4.2545     -9999     
1396.36    4.2545     -9999     
1396.56    4.2545     -9999     
1396.76    4.2545     -9999     
1396.96    4.2545     -9999     
1397.16    4.2545     -9999     
1397.36    4.2545     -9999     
1397.56    4.2545     -9999     
1397.76    4.2545     -9999     
1397.96    4.2545     -9999     
1398.16    4.2545     -9999     
1398.36    4.2545     -9999     
1398.56    4.2545     -9999     
1398.76    4.2545     -9999     
