~Version
 VERS              .         2.0                           : CWLS LOG ASCII STANDARD - VERSION 2.0
 WRAP              .         NO                            : ONE LINE PER DEPTH STEP
 DLM               .         SPACE                         : DELIMITING CHARACTER(SPACE TAB OR COMMA)
~Well Information
#_______________________________________________________________________________
#
#PARAMETER_NAME    .UNIT     VALUE                         : DESCRIPTION
#_______________________________________________________________________________
STRT               .m        -10.04                        : First reference value
STOP               .m        2561.16                       : Last reference value
STEP               .m        0.2                           : Step increment
NULL               .         -9999                         : Missing value
COMP               .                                       : Company
WELL               .         403                           : Well name
FLD                .                                       : Field
LOC                .                                       : Location
CNTY               .                                       : County
STAT               .                                       : State
CTRY               .                                       : Country
SRVC               .                                       : Service Company
DATE               .                                       : Date
API                .                                       : API number
EREF               .m        140.4                         : 
Pad                .         4                             : 
X                  .m        222100                        : 
Y                  .m        250025                        : 
group              .         Pad4                          : 
Интер-р            .         Пузин                         : 
Куст               .         4                             : 
Статус             .         Не проверено                  : 
Тип                .         Разведка                      : 
~Parameter Information Block
#_______________________________________________________________________________
#
#PARAMETER_NAME    .UNIT     VALUE                         : DESCRIPTION
#_______________________________________________________________________________
SET                .         LAS4                          : 
REAL_CREATION_DATE .         Ср апр 11 2012-13_17_14       : 
TLFamily_DEPTH     .         Measured Depth                : 
TLFamily_RT        .         Resistivity 20                : 
TLFamily_SP        .         Spontaneous Potential         : 
group              .         INI                           : 
~Curve Information
#_______________________________________________________________________________
#
#LOGNAME           .UNIT     LOG_ID                        : DESCRIPTION
#_______________________________________________________________________________
DEPTH              .m                                      : Measured Depth 
RT                 .ohm.m                                  : Conductivity 
SP                 .mV                                     : Spontaneous Potential 
~Ascii
# ...
1836.36    4.2545     -9999     
1836.56    4.2545     -9999     
1836.76    4.2545     -9999     
1836.96    4.2545     -9999     
1837.16    4.2545     -9999     
1837.36    4.2545     -9999     
1837.56    4.2545     -9999     
1837.76    4.2545     -9999     
1837.96    4.2545     -9999     
1838.16    4.2545     -9999     
1838.36    4.2545     -9999     
1838.56    4.2545     -9999     
1838.76    4.2545     -9999     
1838.96    4.2545     -9999     
1839.16    4.2545     -9999     
1839.36    4.2545     -9999     
1839.56    4.2545     -9999     
1839.76    4.2545     -9999     
1839.96    4.2545     -9999     
1840.16    4.2545     -9999     
1840.36    4.2545     -9999     
1840.56    4.2545     -9999     
1840.76    4.2545     -9999     
1840.96    4.2545     -9999     
1841.16    4.2545     -9999     
1841.36    4.2545     -9999     
1841.56    4.2545     -9999     
1841.76    4.2545     -9999     
1841.96    4.2545     -9999     
1842.16    4.2545     -9999     
1842.36    4.2545     -9999     
1842.56    4.2545     -9999     
1842.76    4.2545     -9999     
1842.96    4.2545     -9999     
1843.16    4.2545     -9999     
1843.36    4.2545     -9999     
1843.56    4.2545     -9999     
1843.76    4.2545     -9999     
1843.96    4.2545     -9999     
1844.16    4.2545     -9999     
1844.36    4.2545     -9999     
1844.56    4.2545     -9999     
1844.76    4.2545     -9999     
1844.96    4.2545     -9999     
1845.16    4.2545     -9999     
1845.36    4.2545     -9999     
1845.56    4.2545     -9999     
1845.76    4.2545     -9999     
1845.96    4.2545     -9999     
1846.16    4.2545     -9999     
1846.36    4.2545     -9999     
1846.56    4.2545     -9999     
1846.76    4.2545     -9999     
1846.96    4.2545     -9999     
1847.16    4.2545     -9999     
1847.36    4.2545     -9999     
1847.56    4.2545     -9999     
1847.76    4.2545     -9999     
1847.96    4.2545     -9999     
1848.16    4.2545     -9999     
1848.36    4.2545     -9999     
1848.56    4.2545     -9999     
1848.76    4.2545     -9999     
1848.96    4.2545     -9999     
1849.16    4.2545     -9999     
1849.36    4.2545     -9999     
1849.56    4.2545     -9999     
1849.76    4.2545     -9999     
1849.96    4.2545     -9999     
1850.16    4.2545     -9999     
1850.36    4.2545     -9999     
1850.56    4.2545     -9999     
1850.76    4.2545     -9999     
1850.96    4.2545     -9999     
1851.16    4.2545     -9999     
1851.36    4.2545     -9999     
1851.56    4.2545     -9999     
1851.76    4.2545     -9999     
1851.96    4.2545     -9999     
1852.16    4.2545     -9999     
1852.36    4.2545     -9999     
1852.56    4.2545     -9999     
1852.76    4.2545     -9999     
1852.96    4.2545     -9999     
1853.16    4.2545     -9999     
1853.36    4.2545     -9999     
1853.56    4.2545     -9999     
1853.76    4.2545     -9999     
1853.96    4.2545     -9999     
1854.16    4.2545     -9999     
1854.36    4.2545     -9999     
1854.56    4.2545     -9999     
1854.76    4.2545     -9999     
1854.96    4.2545     -9999     
1855.16    4.2545     -9999     
1855.36    4.2545     -9999     
1855.56    4.2545     -9999     
1855.76    4.2545     -9999     
1855.96    4.2545     -9999     
1856.16    4.2545     -9999     
1856.36    4.2545     -9999     
1856.56    4.2545     -9999     
1856.76    4.2545     -9999     
1856.96    4.2545     -9999     
1857.16    4.2545     -9999     
1857.36    4.2545     -9999     
1857.56    4.2545     -9999     
1857.76    4.2545     -9999     
1857.96    4.2545     -9999     
1858.16    4.2545     -9999     
1858.36    4.2545     -9999     
1858.56    4.2545     -9999     
1858.76    4.2545     -9999     
1858.96    4.2545     -9999     
1859.16    4.2545     -9999     
1859.36    4.2545     -9999     
1859.56    4.2545     -9999     
1859.76    4.2545     -9999     
1859.96    4.2545     -9999     
1860.16    4.2545     -9999     
1860.36    4.2545     -9999     
1860.56    4.2545     -9999     
1860.76    4.2545     -9999     
1860.96    4.2545     -9999     
1861.16    4.2545     -9999     
1861.36    4.2545     -9999     
1861.56    4.2545     -9999     
1861.76    4.2545     -9999     
1861.96    4.2545     -9999     
1862.16    4.2545     -9999     
1862.36    4.2545     -9999     
1862.56    4.2545     -9999     
1862.76    4.2545     -9999     
1862.96    4.2545     -9999     
1863.16    4.2545     -9999     
1863.36    4.2545     -9999     
1863.56    4.2545     -9999     
1863.76    4.2545     -9999     
1863.96    4.2545     -9999     
1864.16    4.2545     -9999     
1864.36    4.2545     -9999     
1864.56    4.2545     -9999     
1864.76    4.2545     -9999     
1864.96    4.2545     -9999     
1865.16    4.2545     -9999     
1865.36    4.2545     -9999     
1865.56    4.2545     -9999     
1865.76    4.2545     -9999     
1865.96    4.2545     -9999     
1866.16    4.2545     -9999     
1866.36    4.2545     -9999     
1866.56    4.2545     -9999     
1866.76    4.2545     -9999     
1866.96    4.2545     -9999     
1867.16    4.2545     -9999     
1867.36    4.2545     -9999     
1867.56    4.2545     -9999     
1867.76    4.2545     -9999     
1867.96    4.2545     -9999     
1868.16    4.2545     -9999     
1868.36    4.2545     -9999     
1868.56    4.2545     -9999     
1868.76    4.2545     -9999     
1868.96    4.2545     -9999     
1869.16    4.2545     -9999     
1869.36    4.2545     -9999     
1869.56    4.2545     -9999     
1869.76    4.2545     -9999     
1869.96    4.2545     -9999     
1870.16    4.2545     -9999     
1870.36    4.2545     -9999     
1870.56    4.2545     -9999     
1870.76    4.2545     -9999     
1870.96    4.2545     -9999     
1871.16    4.2545     -9999     
1871.36    4.2545     -9999     
1871.56    4.2545     -9999     
1871.76    4.2545     -9999     
1871.96    4.2545     -9999     
1872.16    4.2545     -9999     
1872.36    4.2545     -9999     
1872.56    4.2545     -9999     
1872.76    4.2545     -9999     
1872.96    4.2545     -9999     
1873.16    4.2545     -9999     
1873.36    4.2545     -9999     
1873.56    4.2545     -9999     
1873.76    4.2545     -9999     
1873.96    4.2545     -9999     
1874.16    4.2545     -9999     
1874.36    4.2545     -9999     
1874.56    4.2545     -9999     
1874.76    4.2545     -9999     
1874.96    4.2545     -9999     
1875.16    4.2545     -9999     
1875.36    4.2545     -9999     
1875.56    4.2545     -9999     
1875.76    4.2545     -9999     
1875.96    4.2545     -9999     
1876.16    4.2545     -9999     
1876.36    4.2545     -9999     
1876.56    4.2545     -9999     
1876.76    4.2545     -9999     
1876.96    4.2545     -9999     
1877.16    4.2545     -9999     
1877.36    4.2545     -9999     
1877.56    4.2545     -9999     
1877.76    4.2545     -9999     
1877.96    4.2545     -9999     
1878.16    4.2545     -9999     
1878.36    4.2545     -9999     
1878.56    4.2545     -9999     
1878.76    4.2545     -9999     
1878.96    4.2545     -9999     
1879.16    4.2545     -9999     
1879.36    4.2545     -9999     
1879.56    4.2545     -9999     
1879.76    4.2545     -9999     
1879.96    4.2545     -9999     
1880.16    4.2545     -9999     
1880.36    4.2545     -9999     
1880.56    4.2545     -9999     
1880.76    4.2545     -9999     
1880.96    4.2545     -9999     
1881.16    4.2545     -9999     
1881.36    4.2545     -9999     
1881.56    4.2545     -9999     
1881.76    4.2545     -9999     
1881.96    4.2545     -9999     
1882.16    4.2545     -9999     
1882.36    4.2545     -9999     
1882.56    4.2545     -9999     
1882.76    4.2545     -9999     
1882.96    4.2545     -9999     
1883.16    4.2545     -9999     
1883.36    4.2545     -9999     
1883.56    4.2545     -9999     
1883.76    4.2545     -9999     
1883.96    4.2545     -9999     
1884.16    4.2545     -9999     
1884.36    4.2545     -9999     
1884.56    4.2545     -9999     
1884.76    4.2545     -9999     
