~Version
 VERS              .         2.0                           : CWLS LOG ASCII STANDARD - VERSION 2.0
 WRAP              .         NO                            : ONE LINE PER DEPTH STEP
 DLM               .         SPACE                         : DELIMITING CHARACTER(SPACE TAB OR COMMA)
~Well Information
#_______________________________________________________________________________
#
#PARAMETER_NAME    .UNIT     VALUE                         : DESCRIPTION
#_______________________________________________________________________________
STRT               .m        2331.6                        : First reference value
STOP               .m        2561.999885                   : Last reference value
STEP               .m        0.1999999                     : Step increment
NULL               .         -9999                         : Missing value
COMP               .                                       : Company
WELL               .         403                           : Well name
FLD                .                                       : Field
LOC                .                                       : Location
CNTY               .                                       : County
STAT               .                                       : State
CTRY               .                                       : Country
SRVC               .                                       : Service Company
DATE               .                                       : Date
API                .                                       : API number
EREF               .m        140.4                         : 
Pad                .         4                             : 
X                  .m        222100                        : 
Y                  .m        250025                        : 
group              .         Pad4                          : 
Интер-р            .         Пузин                         : 
Куст               .         4                             : 
Статус             .         Не проверено                  : 
Тип                .         Разведка                      : 
~Parameter Information Block
#_______________________________________________________________________________
#
#PARAMETER_NAME    .UNIT     VALUE                         : DESCRIPTION
#_______________________________________________________________________________
SET                .         LAS1                          : 
REAL_CREATION_DATE .         Ср апр 11 2012-13_17_13       : 
TLFamily_DEPTH     .         Measured Depth                : 
TLFamily_KS        .         Potential Resistivity         : 
TLFamily_KS1       .         Extra Shallow Resistivity     : 
TLFamily_KS2       .         Shallow Resistivity           : 
TLFamily_KS3       .         Medium Resistivity            : 
TLFamily_KS4       .         Deep Resistivity              : 
TLFamily_KS5       .         Extra Deep Resistivity        : 
TLFamily_LLD       .         Lateral Log Resistivity       : 
TLFamily_OKS       .         Medium Resistivity Inverted   : 
TLFamily_RM        .         Mud Resistivity               : 
TLFamily_SP        .         Spontaneous Potential         : 
group              .         INI                           : 
~Curve Information
#_______________________________________________________________________________
#
#LOGNAME           .UNIT     LOG_ID                        : DESCRIPTION
#_______________________________________________________________________________
DEPTH              .m                                      : Measured Depth 
KS                 .ohm.m                                  : Potential Resistivity 
KS1                .ohm.m                                  : Extra Shallow Resistivity 
KS2                .ohm.m                                  : Shallow Resistivity 
KS3                .ohm.m                                  : Medium Resistivity 
KS4                .ohm.m                                  : Deep Resistivity 
KS5                .ohm.m                                  : Extra Deep Resistivity 
LLD                .ohm.m                                  : Lateral Log Resistivity 
OKS                .ohm.m                                  : Medium Resistivity Inverted 
RM                 .ohm.m                                  : Mud Resistivity 
SP                 .mV                                     : Spontaneous Potential 
~Ascii
# ...
2529.599901 6.0463     3.0314     12.4415    28.5405    39.3126    23.9166    4.1985     5.669      0.1183     178.0984  
2529.799901 5.3197     2.9432     11.643     26.8706    37.3006    20.6577    3.6582     5.2415     0.1217     183.6389  
2529.999901 4.7222     2.6854     10.8124    23.7437    33.0597    17.3726    2.9354     4.9047     0.1217     189.3333  
2530.199901 4.3488     2.2444     9.1438     19.1086    27.8884    14.1268    2.6424     4.7104     0.1217     193.2222  
2530.399901 4.1177     1.8916     7.2847     14.7455    23.4864    11.9957    2.806      4.7039     0.1183     195.875   
2530.5999  4.0229     1.7319     6.076      11.7612    18.6274    10.0041    2.6902     4.8399     0.1217     198.4722  
2530.7999  3.9414     1.6473     5.1168     9.6962     15.1097    8.0933     2.5691     5.1184     0.1217     199       
2530.9999  3.9482     1.532      4.3417     8.2906     12.3021    6.7322     2.9064     5.4283     0.1285     199.5972  
2531.1999  4.0093     1.4166     3.9702     7.5405     10.4151    5.7375     3.6537     6.0252     0.1285     200.9722  
2531.3999  4.1111     1.4166     3.9015     6.6924     9.2776     5.0177     3.8005     6.6664     0.1217     202.3056  
2531.5999  4.2877     1.4709     3.9015     6.1034     8.4557     4.5596     3.9582     7.0227     0.1183     203.3889  
2531.7999  4.4574     1.5184     3.849      5.5725     7.9565     4.2455     4.6306     7.1263     0.1217     202.6667  
2531.9999  4.5321     1.6134     3.9344     5.1841     7.4103     4.1015     4.9898     7.0874     0.1217     201.2222  
2532.1999  4.6272     1.6914     4.1643     4.9122     6.8711     3.8921     4.7001     6.9773     0.1285     200.5556  
2532.3999  4.6883     1.7626     4.3942     4.7112     6.3911     3.722      4.4856     6.9644     0.1285     199.6389  
2532.599899 4.7086     1.7762     4.5585     4.595      6.0229     3.6042     4.2269     7.0162     0.1217     199.3056  
2532.799899 4.7358     1.7287     4.5847     4.4526     5.8059     3.5387     4.183      7.2364     0.1217     199.9444  
2532.999899 4.8173     1.6405     4.5519     4.3685     5.7598     3.6172     4.1276     7.6574     0.1183     199.7222  
2533.199899 4.9734     1.5523     4.4534     4.3944     5.8125     3.7612     4.7989     8.2986     0.1183     199.5     
2533.399899 5.127      1.5048     4.3877     4.6533     6.1215     3.9968     8.008      8.8945     0.1183     199.6111  
2533.599899 5.2383     1.6444     4.7424     5.1776     6.5752     4.4418     8.6021     8.7585     0.1251     197.8889  
2533.799899 5.3944     1.7966     5.2811     5.8379     7.0092     5.07       6.8152     8.5711     0.1285     196.4722  
2533.999899 5.4012     2.0476     5.6161     6.2458     7.4629     5.9469     4.9923     8.5318     0.1285     195.5278  
2534.199899 5.3197     2.1562     5.8193     6.6407     8.1072     7.1641     4.4255     9.1017     0.1183     193.5556  
2534.399899 5.2654     1.9933     5.7475     6.9514     9.0363     8.9571     4.5624     10.274     0.1183     192.4444  
2534.599899 5.2518     1.8644     5.7541     7.3204     9.968      10.0172    4.8122     11.8738    0.1183     191.6414  
2534.799898 5.3197     1.8237     5.9117     8.1231     12.2561    13.0929    4.7398     13.791     0.1217     190.9502  
2534.999898 5.408      1.8034     6.03       9.3919     15.5962    16.9538    7.0455     16.2587    0.1217     189.058   
2535.199898 5.5642     1.8        6.3979     10.4406    18.2131    20.5137    8.6353     17.7548    0.1251     185.8889  
2535.399898 5.795      1.9391     6.6278     11.0576    18.8904    22.3329    10.5332    17.9038    0.1285     183.0556  
2535.599898 5.9512     2.2104     7.357      11.2239    17.6148    21.9796    4.8486     17.1896    0.1251     180.9444  
2535.799898 6.0938     2.3461     7.2847     10.8679    15.1557    19.8462    4.4837     16.2522    0.1183     179.3333  
2535.999898 6.25       2.0747     6.503      9.5667     12.9136    18.1615    4.4177     15.4426    0.1183     175.499   
2536.199898 6.4604     1.8508     6.0891     8.2979     10.5794    16.1031    7.4678     15.3454    0.1183     169.331   
2536.399898 6.5756     1.9051     6.2533     7.7412     9.054      13.6688    7.8923     15.3066    0.1217     163.6657  
2536.599897 6.732      2.0033     6.6475     7.8059     8.4162     12.0982    6.8946     15.2548    0.1217     160.5556  
2536.799897 6.8203     2.1155     6.8774     8.0648     7.8639     11.2998    8.6172     15.326     0.1318     159.3889  
2536.999897 6.7931     2.2172     7.2256     8.3011     7.4103     10.4491    6.4502     15.041     0.1285     160.4444  
2537.199897 6.7388     2.319      7.4581     8.7187     6.9171     9.5984     3.9613     14.4063    0.1217     163.2778  
2537.399897 6.766      2.2715     7.5278     8.8999     6.2302     9.1927     3.9213     15.041     0.1217     166.4861  
2537.599897 6.8339     1.878      6.4767     8.7122     5.7731     8.3027     6.9131     16.1551    0.1217     168.6111  
2537.799897 7.024      1.8305     6.3781     8.5503     5.3391     7.2557     6.4715     16.3002    0.1217     167.5278  
2537.999897 7.4095     1.8101     6.2665     8.6604     5.2405     6.4442     5.9247     16.1615    0.1285     167.125   
2538.199897 7.7234     1.7518     5.9117     8.6798     5.1681     6.0385     11.0152    16.1486    0.1318     168.0556  
2538.399897 8.1647     1.7016     5.8329     8.9056     5.3851     5.7768     13.3132    16.317     0.1217     167.8056  
2538.599896 8.6468     1.9187     6.4833     9.612      5.9637     5.6851     14.7445    16.0126    0.1217     167.3611  
2538.799896 9.0678     2.0408     7.0192     10.6931    6.8448     5.6851     24.2924    14.3869    0.1217     165.4444  
2538.999896 9.2239     2.3054     7.6854     11.8907    7.6009     5.6982     40.3665    11.3492    0.1217     163.1449  
2539.199896 9.19       2.6763     9.0867     13.5326    9.124      5.6328     23.2409    9.199      0.1318     163.588   
2539.399896 8.9456     3.0043     10.5496    14.6549    10.7636    5.5281     7.6154     9.2183     0.1285     163.8949  
2539.599896 8.5653     3.1196     10.9372    15.0174    12.2166    5.4365     7.3689     9.5486     0.1217     162.5278  
2539.799896 8.0425     2.8414     10.5627    14.9397    13.0517    5.371      7.8936     9.5681     0.1217     162.3611  
2539.999896 7.4857     2.7057     10.6087    15.4869    14.1957    5.4103     7.6264     9.581      0.1217     160.7222  
2540.199896 7.0512     2.6922     10.6547    16.0402    15.5897    5.6917     5.9735     9.6005     0.1285     159.6389  
2540.399896 6.8264     2.6311     10.5496    16.953     16.6776    6.1301     5.6039     9.7688     0.1318     158.5694  
2540.599896 6.5555     2.5902     10.254     18.3901    18.9956    6.4966     7.5483     9.9372     0.1251     159.0556  
2540.799895 6.2907     2.6718     10.9372    19.7819    21.1127    6.5228     4.3116     9.9372     0.1217     160.4722  
2540.999895 5.9784     2.8347     9.0453     19.5359    20.258     6.2872     4.2638     9.9372     0.1217     161.3194  
2541.199895 5.7882     2.604      8.241      17.4579    17.1019    5.6851     4.4624     9.932      0.1285     162.0278  
2541.399895 5.7543     2.1969     7.5146     14.9591    14.4785    4.8082     4.8856     9.9372     0.1285     161.3611  
2541.599895 5.8765     1.9255     7.0942     12.9394    12.6177    4.2062     4.8868     9.9372     0.1183     159.1111  
2541.799895 6.0734     1.8712     6.7        11.2951    11.4211    4.0361     5.0987     9.9372     0.1183     156.8615  
2541.999895 6.216      1.9119     6.3519     10.1493    10.7849    3.8397     5.2963     9.9372     0.1183     154.8081  
2542.199895 6.2567     2.0476     6.1745     9.8968     10.5992    3.7612     7.5421     9.9372     0.1183     151.5303  
2542.399895 6.2567     2.034      6.6935     9.8579     10.6189    3.735      7.0661     9.9372     0.1183     147.306   
2542.599895 6.2635     2.0408     6.7526     9.8321     10.6649    3.7481     7.1279     9.9372     0.1116     141.3889  
