~Version
 VERS              .         2.0                           : CWLS LOG ASCII STANDARD - VERSION 2.0
 WRAP              .         NO                            : ONE LINE PER DEPTH STEP
 DLM               .         SPACE                         : DELIMITING CHARACTER(SPACE TAB OR COMMA)
~Well Information
#_______________________________________________________________________________
#
#PARAMETER_NAME    .UNIT     VALUE                         : DESCRIPTION
#_______________________________________________________________________________
STRT               .m        2331.6                        : First reference value
STOP               .m        2561.999885                   : Last reference value
STEP               .m        0.1999999                     : Step increment
NULL               .         -9999                         : Missing value
COMP               .                                       : Company
WELL               .         403                           : Well name
FLD                .                                       : Field
LOC                .                                       : Location
CNTY               .                                       : County
STAT               .                                       : State
CTRY               .                                       : Country
SRVC               .                                       : Service Company
DATE               .                                       : Date
API                .                                       : API number
EREF               .m        140.4                         : 
Pad                .         4                             : 
X                  .m        222100                        : 
Y                  .m        250025                        : 
group              .         Pad4                          : 
Интер-р            .         Пузин                         : 
Куст               .         4                             : 
Статус             .         Не проверено                  : 
Тип                .         Разведка                      : 
~Parameter Information Block
#_______________________________________________________________________________
#
#PARAMETER_NAME    .UNIT     VALUE                         : DESCRIPTION
#_______________________________________________________________________________
SET                .         LAS1                          : 
REAL_CREATION_DATE .         Ср апр 11 2012-13_17_13       : 
TLFamily_DEPTH     .         Measured Depth                : 
TLFamily_KS        .         Potential Resistivity         : 
TLFamily_KS1       .         Extra Shallow Resistivity     : 
TLFamily_KS2       .         Shallow Resistivity           : 
TLFamily_KS3       .         Medium Resistivity            : 
TLFamily_KS4       .         Deep Resistivity              : 
TLFamily_KS5       .         Extra Deep Resistivity        : 
TLFamily_LLD       .         Lateral Log Resistivity       : 
TLFamily_OKS       .         Medium Resistivity Inverted   : 
TLFamily_RM        .         Mud Resistivity               : 
TLFamily_SP        .         Spontaneous Potential         : 
group              .         INI                           : 
~Curve Information
#_______________________________________________________________________________
#
#LOGNAME           .UNIT     LOG_ID                        : DESCRIPTION
#_______________________________________________________________________________
DEPTH              .m                                      : Measured Depth 
KS                 .ohm.m                                  : Potential Resistivity 
KS1                .ohm.m                                  : Extra Shallow Resistivity 
KS2                .ohm.m                                  : Shallow Resistivity 
KS3                .ohm.m                                  : Medium Resistivity 
KS4                .ohm.m                                  : Deep Resistivity 
KS5                .ohm.m                                  : Extra Deep Resistivity 
LLD                .ohm.m                                  : Lateral Log Resistivity 
OKS                .ohm.m                                  : Medium Resistivity Inverted 
RM                 .ohm.m                                  : Mud Resistivity 
SP                 .mV                                     : Spontaneous Potential 
~Ascii
# ...
2489.999921 4.3488     1.756      5.1168     6.3947     5.944      3.4602     3.4058     7.0291     0.1318     92.75     
2490.199921 4.3963     1.783      5.1694     6.3752     5.9703     3.434      3.673      7.2299     0.1285     91.844    
2490.399921 4.4642     1.8169     5.2614     6.3883     6.0624     3.4471     3.8445     7.3335     0.1285     91.3119   
2490.59992 4.4914     1.8576     5.3076     6.427      6.2004     3.4602     3.8894     7.3012     0.1285     91.1495   
2490.79992 4.4914     1.9051     5.4322     6.5241     6.3714     3.4733     4.0683     7.2558     0.1251     90.8056   
2490.99992 4.4877     1.9391     5.5701     6.5824     6.5029     3.4864     3.8599     7.2752     0.1251     91.1944   
2491.19992 4.4642     1.9625     5.6949     6.5694     6.4697     3.4995     3.8153     7.4406     0.1217     92.1944   
2491.39992 4.4167     1.9458     5.7344     6.5759     6.4174     3.4995     3.7178     7.612      0.1183     93.8197   
2491.59992 4.3623     1.9594     5.8066     6.55       6.2728     3.4995     3.7196     7.91       0.1217     95.1957   
2491.79992 4.3623     1.9119     5.6362     6.498      6.0624     3.5125     3.1532     8.3245     0.1217     95.4457   
2491.99992 4.3827     1.8169     5.4716     6.3752     5.8914     3.5518     3.3496     8.6872     0.1217     95.2086   
2492.19992 4.4271     1.7898     5.4059     6.3299     5.8125     3.6303     3.6774     8.9916     0.1217     96.7778   
2492.39992 4.5253     1.7898     5.373      6.427      5.796      3.7612     3.9076     9.1261     0.1217     100.6389  
2492.599919 4.5796     1.8034     5.4847     6.6924     5.852      3.879      4.5888     8.9851     0.1217     105.1389  
2492.799919 4.5796     2.068      6.0168     6.919      5.8585     3.9444     6.1099     8.6224     0.1183     108.2185  
2492.999919 4.6204     2.0476     5.9238     6.7649     5.5232     3.9444     3.3167     8.4281     0.1217     110.4821  
2493.199919 4.6747     1.8237     5.4979     6.44       4.9775     3.8921     3.1159     8.3569     0.1217     115.2741  
2493.399919 4.7593     1.7355     5.2285     6.071      4.6356     3.6958     4.8701     8.0266     0.1217     121.6944  
2493.599919 4.8988     1.8342     5.4782     5.9674     4.4778     3.578      3.7374     7.8461     0.1251     128.5556  
2493.799919 4.9854     1.7932     5.3862     6.1098     4.4745     3.4995     4.8788     7.6185     0.1217     137.6151  
2493.999919 4.9259     2.0153     6.0628     6.4853     4.5895     3.4209     6.1687     7.4242     0.1217     147.9125  
2494.199919 4.8716     2.1833     6.3422     6.7684     4.6882     3.3686     4.842      7.0809     0.1217     158.7181  
2494.399919 4.8173     2.1019     6.2205     6.8802     4.5501     3.3424     3.7785     6.9255     0.1217     168.8373  
2494.599919 4.7086     2.0137     6.0577     6.8867     4.4712     3.2377     3.889      6.9385     0.1217     176.5833  
2494.799918 4.6334     2.0612     6.2336     7.0614     4.4843     3.133      4.3804     6.9546     0.1217     182.2222  
2494.999918 4.6        2.0241     6.1548     7.1585     4.4539     3.0937     3.7968     7.0227     0.1251     186.1389  
2495.199918 4.5457     2.0137     5.9249     6.9838     4.412      3.0937     3.5742     7.2364     0.1251     188.6662  
2495.399918 4.5185     1.9051     5.6555     6.8835     4.3791     3.0937     3.4642     7.6639     0.1285     191.5805  
2495.599918 4.5253     1.8441     5.4634     6.8996     4.4252     3.0937     3.6381     8.0978     0.1285     193.1916  
2495.799918 4.5525     1.8916     5.5636     6.9344     4.5501     3.0937     4.3104     8.3828     0.1318     193.9162  
2495.999918 4.5728     1.9119     5.5701     6.9579     4.6816     3.1068     4.0893     8.5706     0.1318     195.25    
2496.199918 4.5728     1.9424     5.5241     6.919      4.7543     3.1199     4.0471     8.7152     0.1318     195.5556  
2496.399918 4.5796     1.9458     5.4847     6.7637     4.8591     3.1068     3.7709     8.9981     0.1318     196.2778  
2496.599917 4.6204     1.8916     5.3336     6.4788     4.9512     3.1266     3.5568     9.4644     0.1285     197.4167  
2496.799917 4.7154     1.8034     5.2228     6.2279     5.0301     3.1461     3.6054     10.0668    0.1285     196.6944  
2496.999917 4.892      1.7423     5.1103     6.1163     5.155      3.2246     3.725      10.7598    0.1251     196.8889  
2497.199917 5.0614     1.7219     5.0117     6.0127     5.3325     3.3293     4.1371     11.3751    0.1251     195.9444  
2497.399917 5.2043     1.7625     5.084      6.058      5.5622     3.4602     4.8868     11.616     0.1217     194.6944  
2497.599917 5.4623     1.8101     5.2088     6.194      5.7599     3.578      5.0714     11.835     0.1217     195.2222  
2497.799917 5.7068     1.878      5.4322     6.4076     5.9763     3.722      5.5306     12.0681    0.1217     194.3611  
2497.999917 5.924      1.9526     5.6485     6.6431     6.1807     3.8207     5.6291     12.3272    0.1217     193.0833  
2498.199917 6.1142     2.0205     5.8263     6.7895     6.3517     3.9183     5.9135     12.5345    0.1217     192.4444  
2498.399917 6.2567     2.0815     6.1154     7.0161     6.47       4.0622     6.0381     12.8454    0.1217     194.0556  
2498.599916 6.3355     2.129      6.3979     7.2427     6.5358     4.18       5.8292     13.3538    0.1217     196.0278  
2498.799916 6.379      2.1598     6.6212     7.4693     6.5626     4.3109     5.7113     13.8881    0.1217     195.5     
2498.999916 6.4401     2.163      6.746      7.7023     6.5818     4.4418     5.6157     14.9892    0.1217     194.5782  
2499.199916 6.508      2.1562     6.8314     7.8864     6.5423     4.5727     5.7145     16.4789    0.1217     195.3108  
2499.399916 6.5759     2.1426     6.8516     8.0389     6.5226     4.6381     5.5165     18.4414    0.1217     194.6264  
2499.599916 6.6438     2.129      6.838      8.3302     6.5095     4.769      5.4661     20.4492    0.1251     193.1593  
2499.799916 6.745      2.1562     6.9103     8.5309     6.4897     4.913      5.7757     22.7097    0.1285     193.4895  
2499.999916 6.8339     2.0819     6.6672     8.5633     6.4407     5.0962     5.1319     24.302     0.1285     194.0556  
2500.199916 7.0172     2.0408     6.4438     8.4532     6.4043     5.3056     5.0213     26.9391    0.1352     195.3333  
2500.399916 7.2956     1.9594     6.1745     8.2785     6.3911     5.5702     5.0589     30.6374    0.1318     194.6497  
2500.599915 7.7505     1.8441     5.9042     8.0226     6.4108     5.9338     5.1426     34.7631    0.1318     193.6734  
2500.799915 8.4363     1.6677     5.603      7.7865     6.5686     6.6144     4.9626     39.4265    0.1285     193.9553  
2500.999915 9.3801     1.5252     5.1431     7.4952     6.9303     7.5174     6.2974     42.9952    0.1285     191.7222  
2501.199915 10.1389    1.3963     4.9132     7.4628     7.528      8.3682     7.7046     45.2233    0.1251     188.5833  
2501.399915 11.356     1.3722     4.795      7.6376     7.8442     9.1796     15.3765    43.5782    0.1251     186.8611  
2501.599915 12.8905    1.4166     5.2548     8.3043     8.5938     9.8602     89.0803    38.429     0.1217     185.0342  
2501.799915 14.3639    1.7559     6.3453     9.3195     9.4946     10.1612    190.8664   30.3459    0.1183     184.8484  
2501.999915 15.3485    2.1155     7.1218     10.1881    10.7504    10.6325    197.3331   23.5063    0.1217     186.3398  
2502.199915 15.9867    2.4411     8.3621     11.7871    12.1509    11.1428    171.6891   18.3701    0.1217     186.8056  
2502.399915 16.2829    2.7532     10.0569    13.7162    13.7684    11.7056    127.0238   14.6783    0.1217     186.7222  
2502.599915 16.3126    3.0395     12.0867    16.4522    15.3767    12.2945    206.9056   12.1276    0.1217     187.3611  
2502.799914 16.1497    3.2214     13.7817    19.3611    16.5628    12.8442    346.8376   10.8634    0.1217     187.358   
2502.999914 15.6472    3.5539     15.5685    23.161     18.772     13.4855    198.1963   9.0111     0.1217     187.0483  
