~Version
 VERS              .         2.0                           : CWLS LOG ASCII STANDARD - VERSION 2.0
 WRAP              .         NO                            : ONE LINE PER DEPTH STEP
 DLM               .         SPACE                         : DELIMITING CHARACTER(SPACE TAB OR COMMA)
~Well Information
#_______________________________________________________________________________
#
#PARAMETER_NAME    .UNIT     VALUE                         : DESCRIPTION
#_______________________________________________________________________________
STRT               .m        -10.04                        : First reference value
STOP               .m        2561.16                       : Last reference value
STEP               .m        0.2                           : Step increment
NULL               .         -9999                         : Missing value
COMP               .                                       : Company
WELL               .         403                           : Well name
FLD                .                                       : Field
LOC                .                                       : Location
CNTY               .                                       : County
STAT               .                                       : State
CTRY               .                                       : Country
SRVC               .                                       : Service Company
DATE               .                                       : Date
API                .                                       : API number
EREF               .m        140.4                         : 
Pad                .         4                             : 
X                  .m        222100                        : 
Y                  .m        250025                        : 
group              .         Pad4                          : 
Интер-р            .         Пузин                         : 
Куст               .         4                             : 
Статус             .         Не проверено                  : 
Тип                .         Разведка                      : 
~Parameter Information Block
#_______________________________________________________________________________
#
#PARAMETER_NAME    .UNIT     VALUE                         : DESCRIPTION
#_______________________________________________________________________________
SET                .         LAS4                          : 
REAL_CREATION_DATE .         Ср апр 11 2012-13_17_14       : 
TLFamily_DEPTH     .         Measured Depth                : 
TLFamily_RT        .         Resistivity 20                : 
TLFamily_SP        .         Spontaneous Potential         : 
group              .         INI                           : 
~Curve Information
#_______________________________________________________________________________
#
#LOGNAME           .UNIT     LOG_ID                        : DESCRIPTION
#_______________________________________________________________________________
DEPTH              .m                                      : Measured Depth 
RT                 .ohm.m                                  : Conductivity 
SP                 .mV                                     : Spontaneous Potential 
~Ascii
# ...
2516.76    8.1656     127.15    
2516.96    7.4216     127.9     
2517.16    6.6567     133.75    
2517.36    5.8677     129.7615  
2517.56    6.8642     128.35    
2517.76    7.9869     125.05    
2517.96    7.5495     126.1     
2518.16    7.2318     130.45    
2518.36    6.9294     130.3     
2518.56    6.8463     133.6     
2518.76    6.4563     139.3     
2518.96    5.8625     139.6     
2519.16    5.9407     143.2     
2519.36    6.4601     145.45    
2519.56    6.1503     148.15    
2519.76    5.2226     156.55    
2519.96    5.315      155.3705  
2520.16    5.5897     153.25    
2520.36    5.7566     157.75    
2520.56    5.416      151.9     
2520.76    5.1776     150.7     
2520.96    5.5853     146.95    
2521.16    5.7343     146.05    
2521.36    5.4768     146.0577  
2521.56    5.2753     147.25    
2521.76    5.4946     142.75    
2521.96    6.079      139.45    
2522.16    6.3327     136.15    
2522.36    6.6264     134.5     
2522.56    6.9489     130.9     
2522.76    7.1729     127.2849  
2522.96    7.4217     125.8     
2523.16    7.5908     125.35    
2523.36    7.5861     122.2     
2523.56    7.4646     118.3     
2523.76    7.6797     116.5     
2523.96    7.8138     114.9733  
2524.16    7.7832     118.9     
2524.36    7.671      113.8     
2524.56    7.561      117.25    
2524.76    7.3118     116.8     
2524.96    7.3172     117.1     
2525.16    7.3688     120.7     
2525.36    7.6714     120.4004  
2525.56    9.0469     125.8     
2525.76    9.0174     131.2     
2525.96    3.6893     132.25    
2526.16    3.7947     131.65    
2526.36    34.3941    135.85    
2526.56    2774.725   133.45    
2526.76    28.3338    136.75    
2526.96    13.9126    137.5     
2527.16    11.8002    137.8     
2527.36    10.312     141.7     
2527.56    10.0264    142       
2527.76    12.9946    140.8     
2527.96    10.63      142.8581  
2528.16    8.7863     145.45    
2528.36    8.7441     148.6     
2528.56    9.8924     150.55    
2528.76    10.1476    157.75    
2528.96    8.6745     161.8     
2529.16    8.0424     169.45    
2529.36    7.3227     172.9816  
2529.56    6.3225     177.1     
2529.76    5.2003     182.5     
2529.96    3.8235     188.2     
2530.16    3.3241     193.75    
2530.36    2.7303     194.8     
2530.56    2.5326     199.45    
2530.76    2.3914     198.25    
2530.96    2.1812     198.85    
2531.16    2.2076     201.85    
2531.36    2.4441     201.55    
2531.56    2.667      204.1     
2531.76    2.7048     202.45    
2531.96    2.8027     201.85    
2532.16    2.8791     199.3     
2532.36    3.0405     200.65    
2532.56    3.0049     198.55    
2532.76    3.0235     200.5     
2532.96    3.2073     199.9     
2533.16    3.4635     197.8     
2533.36    4.1982     200.65    
2533.56    5.1269     199.75    
2533.76    4.4099     195.25    
2533.96    3.7596     198.55    
2534.16    3.5964     192.1     
2534.36    3.3206     194.2     
2534.56    3.3063     191.2     
2534.76    3.6179     191.3633  
2534.96    4.1295     191.5     
2535.16    4.3992     186.1     
2535.36    5.0162     182.65    
2535.56    5.3901     180.85    
2535.76    5.1999     180.25    
2535.96    4.7248     178.75    
2536.16    4.8873     169.2946  
2536.36    5.5769     165.1     
2536.56    6.2122     160.6     
2536.76    6.1598     158.5     
2536.96    6.1534     158.35    
2537.16    5.9242     163       
2537.36    4.9155     165.4     
2537.56    4.5529     170.35    
2537.76    5.5751     167.05    
2537.96    6.5119     165.7     
2538.16    6.6708     169.6     
2538.36    7.6317     166.45    
2538.56    9.8813     169.15    
2538.76    10.4279    166       
2538.96    10.4395    164.35    
2539.16    10.3555    161.2322  
2539.36    9.4816     165.4     
2539.56    7.3038     160.6     
2539.76    6.5556     163.75    
2539.96    6.5995     159.55    
2540.16    6.582      160.45    
2540.36    6.2164     157.45    
2540.56    5.7538     158.5     
2540.76    6.0088     161.5     
2540.96    5.2077     160.15    
2541.16    4.751      163       
2541.36    4.5968     162.1     
2541.56    4.9253     159.85    
2541.76    4.9392     156.1     
2541.96    5.0049     155.8     
2542.16    5.0763     152.8045  
2542.36    5.4433     146.65    
2542.56    5.8103     144.1     
2542.76    5.5594     134.5     
2542.96    5.6049     133.6     
2543.16    5.6621     131.5     
2543.36    5.5749     133.45    
2543.56    6.1044     130.9     
2543.76    6.1999     130       
2543.96    5.9115     130.9     
2544.16    5.8247     133.15    
2544.36    5.7296     127.15    
2544.56    6.044      131.8     
2544.76    6.0772     131.65    
2544.96    5.7835     136.15    
2545.16    5.6376     143.8     
2545.36    5.3901     146.2     
2545.56    4.8564     149.35    
2545.76    4.2999     159.85    
2545.96    3.6389     167.8     
2546.16    3.5281     171.4102  
2546.36    3.6462     174.1     
2546.56    3.9354     173.5     
2546.76    4.0842     167.95    
2546.96    4.1123     168.4     
2547.16    4.0784     162.4     
2547.36    3.9305     167.5     
2547.56    3.803      155.65    
2547.76    4.455      166       
2547.96    5.3509     164.2     
2548.16    5.5323     172.3     
2548.36    5.6505     166.6     
2548.56    7.7744     166.6     
2548.76    8.378      151.3     
2548.96    7.4305     155.35    
2549.16    7.7832     160.4445  
2549.36    6.8932     162.025   
2549.56    6.6879     154.2585  
2549.76    7.6792     165.1     
2549.96    8.2761     161.05    
2550.16    8.0629     164.8     
2550.36    8.1589     165.55    
2550.56    8.256      166       
2550.76    8.3393     162.55    
2550.96    8.5494     154.75    
2551.16    9.9596     144.85    
2551.36    17.9707    156.55    
2551.56    16.4993    162.1     
2551.76    10.485     140.05    
2551.96    6.711      158.8     
2552.16    6.1086     154.9     
2552.36    6.3936     166       
2552.56    5.8965     168.25    
2552.76    5.693      163.6     
2552.96    5.5284     166.15    
2553.16    5.4154     149.65    
2553.36    5.3823     150.7     
2553.56    5.4683     156.55    
2553.76    5.1008     153.1     
2553.96    5.7262     -9999     
2554.16    5.7783     -9999     
2554.36    5.157      -9999     
2554.56    5.1881     -9999     
2554.76    5.0738     -9999     
2554.96    5.3562     -9999     
2555.16    5.7262     -9999     
2555.36    5.782      -9999     
2555.56    5.1148     -9999     
2555.76    5.2857     -9999     
2555.96    5.6882     -9999     
2556.16    5.7017     -9999     
2556.36    5.8508     -9999     
2556.56    6.3225     -9999     
2556.76    5.3791     -9999     
2556.96    5.1064     -9999     
2557.16    5.3891     -9999     
2557.36    6.6001     -9999     
2557.56    6.8399     -9999     
2557.76    6.8427     -9999     
2557.96    6.8249     -9999     
2558.16    6.8535     -9999     
2558.36    6.8642     -9999     
2558.56    6.8463     -9999     
2558.76    6.8356     -9999     
2558.96    6.8178     -9999     
2559.16    6.8392     -9999     
2559.36    6.8166     -9999     
2559.56    6.7929     -9999     
2559.76    6.8356     -9999     
2559.96    6.8715     -9999     
2560.16    -9999      -9999     
2560.36    -9999      -9999     
2560.56    -9999      -9999     
2560.76    -9999      -9999     
2560.96    -9999      -9999     
2561.16    -9999      -9999     
