~Version
 VERS              .         2.0                           : CWLS LOG ASCII STANDARD - VERSION 2.0
 WRAP              .         NO                            : ONE LINE PER DEPTH STEP
 DLM               .         SPACE                         : DELIMITING CHARACTER(SPACE TAB OR COMMA)
~Well Information
#_______________________________________________________________________________
#
#PARAMETER_NAME    .UNIT     VALUE                         : DESCRIPTION
#_______________________________________________________________________________
STRT               .m        -10.04                        : First reference value
STOP               .m        2561.16                       : Last reference value
STEP               .m        0.2                           : Step increment
NULL               .         -9999                         : Missing value
COMP               .                                       : Company
WELL               .         403                           : Well name
FLD                .                                       : Field
LOC                .                                       : Location
CNTY               .                                       : County
STAT               .                                       : State
CTRY               .                                       : Country
SRVC               .                                       : Service Company
DATE               .                                       : Date
API                .                                       : API number
EREF               .m        140.4                         : 
Pad                .         4                             : 
X                  .m        222100                        : 
Y                  .m        250025                        : 
group              .         Pad4                          : 
Интер-р            .         Пузин                         : 
Куст               .         4                             : 
Статус             .         Не проверено                  : 
Тип                .         Разведка                      : 
~Parameter Information Block
#_______________________________________________________________________________
#
#PARAMETER_NAME    .UNIT     VALUE                         : DESCRIPTION
#_______________________________________________________________________________
SET                .         LAS4                          : 
REAL_CREATION_DATE .         Ср апр 11 2012-13_17_14       : 
TLFamily_DEPTH     .         Measured Depth                : 
TLFamily_RT        .         Resistivity 20                : 
TLFamily_SP        .         Spontaneous Potential         : 
group              .         INI                           : 
~Curve Information
#_______________________________________________________________________________
#
#LOGNAME           .UNIT     LOG_ID                        : DESCRIPTION
#_______________________________________________________________________________
DEPTH              .m                                      : Measured Depth 
RT                 .ohm.m                                  : Conductivity 
SP                 .mV                                     : Spontaneous Potential 
~Ascii
# ...
1204.56    4.2545     -9999     
1204.76    4.2545     -9999     
1204.96    4.2545     -9999     
1205.16    4.2545     -9999     
1205.36    4.2545     -9999     
1205.56    4.2545     -9999     
1205.76    4.2545     -9999     
1205.96    4.2545     -9999     
1206.16    4.2545     -9999     
1206.36    4.2545     -9999     
1206.56    4.2545     -9999     
1206.76    4.2545     -9999     
1206.96    4.2545     -9999     
1207.16    4.2545     -9999     
1207.36    4.2545     -9999     
1207.56    4.2545     -9999     
1207.76    4.2545     -9999     
1207.96    4.2545     -9999     
1208.16    4.2545     -9999     
1208.36    4.2545     -9999     
1208.56    4.2545     -9999     
1208.76    4.2545     -9999     
1208.96    4.2545     -9999     
1209.16    4.2545     -9999     
1209.36    4.2545     -9999     
1209.56    4.2545     -9999     
1209.76    4.2545     -9999     
1209.96    4.2545     -9999     
1210.16    4.2545     -9999     
1210.36    4.2545     -9999     
1210.56    4.2545     -9999     
1210.76    4.2545     -9999     
1210.96    4.2545     -9999     
1211.16    4.2545     -9999     
1211.36    4.2545     -9999     
1211.56    4.2545     -9999     
1211.76    4.2545     -9999     
1211.96    4.2545     -9999     
1212.16    4.2545     -9999     
1212.36    4.2545     -9999     
1212.56    4.2545     -9999     
1212.76    4.2545     -9999     
1212.96    4.2545     -9999     
1213.16    4.2545     -9999     
1213.36    4.2545     -9999     
1213.56    4.2545     -9999     
1213.76    4.2545     -9999     
1213.96    4.2545     -9999     
1214.16    4.2545     -9999     
1214.36    4.2545     -9999     
1214.56    4.2545     -9999     
1214.76    4.2545     -9999     
1214.96    4.2545     -9999     
1215.16    4.2545     -9999     
1215.36    4.2545     -9999     
1215.56    4.2545     -9999     
1215.76    4.2545     -9999     
1215.96    4.2545     -9999     
1216.16    4.2545     -9999     
1216.36    4.2545     -9999     
1216.56    4.2545     -9999     
1216.76    4.2545     -9999     
1216.96    4.2545     -9999     
1217.16    4.2545     -9999     
1217.36    4.2545     -9999     
1217.56    4.2545     -9999     
1217.76    4.2545     -9999     
1217.96    4.2545     -9999     
1218.16    4.2545     -9999     
1218.36    4.2545     -9999     
1218.56    4.2545     -9999     
1218.76    4.2545     -9999     
1218.96    4.2545     -9999     
1219.16    4.2545     -9999     
1219.36    4.2545     -9999     
1219.56    4.2545     -9999     
1219.76    4.2545     -9999     
1219.96    4.2545     -9999     
1220.16    4.2545     -9999     
1220.36    4.2545     -9999     
1220.56    4.2545     -9999     
1220.76    4.2545     -9999     
1220.96    4.2545     -9999     
1221.16    4.2545     -9999     
1221.36    4.2545     -9999     
1221.56    4.2545     -9999     
1221.76    4.2545     -9999     
1221.96    4.2545     -9999     
1222.16    4.2545     -9999     
1222.36    4.2545     -9999     
1222.56    4.2545     -9999     
1222.76    4.2545     -9999     
1222.96    4.2545     -9999     
1223.16    4.2545     -9999     
1223.36    4.2545     -9999     
1223.56    4.2545     -9999     
1223.76    4.2545     -9999     
1223.96    4.2545     -9999     
1224.16    4.2545     -9999     
1224.36    4.2545     -9999     
1224.56    4.2545     -9999     
1224.76    4.2545     -9999     
1224.96    4.2545     -9999     
1225.16    4.2545     -9999     
1225.36    4.2545     -9999     
1225.56    4.2545     -9999     
1225.76    4.2545     -9999     
1225.96    4.2545     -9999     
1226.16    4.2545     -9999     
1226.36    4.2545     -9999     
1226.56    4.2545     -9999     
1226.76    4.2545     -9999     
1226.96    4.2545     -9999     
1227.16    4.2545     -9999     
1227.36    4.2545     -9999     
1227.56    4.2545     -9999     
1227.76    4.2545     -9999     
1227.96    4.2545     -9999     
1228.16    4.2545     -9999     
1228.36    4.2545     -9999     
1228.56    4.2545     -9999     
1228.76    4.2545     -9999     
1228.96    4.2545     -9999     
1229.16    4.2545     -9999     
1229.36    4.2545     -9999     
1229.56    4.2545     -9999     
1229.76    4.2545     -9999     
1229.96    4.2545     -9999     
1230.16    4.2545     -9999     
1230.36    4.2545     -9999     
1230.56    4.2545     -9999     
1230.76    4.2545     -9999     
1230.96    4.2545     -9999     
1231.16    4.2545     -9999     
1231.36    4.2545     -9999     
1231.56    4.2545     -9999     
1231.76    4.2545     -9999     
1231.96    4.2545     -9999     
1232.16    4.2545     -9999     
1232.36    4.2545     -9999     
1232.56    4.2545     -9999     
1232.76    4.2545     -9999     
1232.96    4.2545     -9999     
1233.16    4.2545     -9999     
1233.36    4.2545     -9999     
1233.56    4.2545     -9999     
1233.76    4.2545     -9999     
1233.96    4.2545     -9999     
1234.16    4.2545     -9999     
1234.36    4.2545     -9999     
1234.56    4.2545     -9999     
1234.76    4.2545     -9999     
1234.96    4.2545     -9999     
1235.16    4.2545     -9999     
1235.36    4.2545     -9999     
1235.56    4.2545     -9999     
1235.76    4.2545     -9999     
1235.96    4.2545     -9999     
1236.16    4.2545     -9999     
1236.36    4.2545     -9999     
1236.56    4.2545     -9999     
1236.76    4.2545     -9999     
1236.96    4.2545     -9999     
1237.16    4.2545     -9999     
1237.36    4.2545     -9999     
1237.56    4.2545     -9999     
1237.76    4.2545     -9999     
1237.96    4.2545     -9999     
1238.16    4.2545     -9999     
1238.36    4.2545     -9999     
1238.56    4.2545     -9999     
1238.76    4.2545     -9999     
1238.96    4.2545     -9999     
1239.16    4.2545     -9999     
1239.36    4.2545     -9999     
1239.56    4.2545     -9999     
1239.76    4.2545     -9999     
1239.96    4.2545     -9999     
1240.16    4.2545     -9999     
1240.36    4.2545     -9999     
1240.56    4.2545     -9999     
1240.76    4.2545     -9999     
1240.96    4.2545     -9999     
1241.16    4.2545     -9999     
1241.36    4.2545     -9999     
1241.56    4.2545     -9999     
1241.76    4.2545     -9999     
1241.96    4.2545     -9999     
1242.16    4.2545     -9999     
1242.36    4.2545     -9999     
1242.56    4.2545     -9999     
1242.76    4.2545     -9999     
1242.96    4.2545     -9999     
1243.16    4.2545     -9999     
1243.36    4.2545     -9999     
1243.56    4.2545     -9999     
1243.76    4.2545     -9999     
1243.96    4.2545     -9999     
1244.16    4.2545     -9999     
1244.36    4.2545     -9999     
1244.56    4.2545     -9999     
1244.76    4.2545     -9999     
1244.96    4.2545     -9999     
1245.16    4.2545     -9999     
1245.36    4.2545     -9999     
1245.56    4.2545     -9999     
1245.76    4.2545     -9999     
1245.96    4.2545     -9999     
1246.16    4.2545     -9999     
1246.36    4.2545     -9999     
1246.56    4.2545     -9999     
1246.76    4.2545     -9999     
1246.96    4.2545     -9999     
1247.16    4.2545     -9999     
1247.36    4.2545     -9999     
1247.56    4.2545     -9999     
1247.76    4.2545     -9999     
1247.96    4.2545     -9999     
1248.16    4.2545     -9999     
1248.36    4.2545     -9999     
1248.56    4.2545     -9999     
1248.76    4.2545     -9999     
1248.96    4.2545     -9999     
1249.16    4.2545     -9999     
1249.36    4.2545     -9999     
1249.56    4.2545     -9999     
1249.76    4.2545     -9999     
1249.96    4.2545     -9999     
1250.16    4.2545     -9999     
1250.36    4.2545     -9999     
1250.56    4.2545     -9999     
1250.76    4.2545     -9999     
1250.96    4.2545     -9999     
1251.16    4.2545     -9999     
1251.36    4.2545     -9999     
1251.56    4.2545     -9999     
1251.76    4.2545     -9999     
1251.96    4.2545     -9999     
1252.16    4.2545     -9999     
1252.36    4.2545     -9999     
1252.56    4.2545     -9999     
1252.76    4.2545     -9999     
1252.96    4.2545     -9999     
