~Version
 VERS              .         2.0                           : CWLS LOG ASCII STANDARD - VERSION 2.0
 WRAP              .         NO                            : ONE LINE PER DEPTH STEP
 DLM               .         SPACE                         : DELIMITING CHARACTER(SPACE TAB OR COMMA)
~Well Information
#_______________________________________________________________________________
#
#PARAMETER_NAME    .UNIT     VALUE                         : DESCRIPTION
#_______________________________________________________________________________
STRT               .m        -10.04                        : First reference value
STOP               .m        2561.16                       : Last reference value
STEP               .m        0.2                           : Step increment
NULL               .         -9999                         : Missing value
COMP               .                                       : Company
WELL               .         403                           : Well name
FLD                .                                       : Field
LOC                .                                       : Location
CNTY               .                                       : County
STAT               .                                       : State
CTRY               .                                       : Country
SRVC               .                                       : Service Company
DATE               .                                       : Date
API                .                                       : API number
EREF               .m        140.4                         : 
Pad                .         4                             : 
X                  .m        222100                        : 
Y                  .m        250025                        : 
group              .         Pad4                          : 
Интер-р            .         Пузин                         : 
Куст               .         4                             : 
Статус             .         Не проверено                  : 
Тип                .         Разведка                      : 
~Parameter Information Block
#_______________________________________________________________________________
#
#PARAMETER_NAME    .UNIT     VALUE                         : DESCRIPTION
#_______________________________________________________________________________
SET                .         LAS4                          : 
REAL_CREATION_DATE .         Ср апр 11 2012-13_17_14       : 
TLFamily_DEPTH     .         Measured Depth                : 
TLFamily_RT        .         Resistivity 20                : 
TLFamily_SP        .         Spontaneous Potential         : 
group              .         INI                           : 
~Curve Information
#_______________________________________________________________________________
#
#LOGNAME           .UNIT     LOG_ID                        : DESCRIPTION
#_______________________________________________________________________________
DEPTH              .m                                      : Measured Depth 
RT                 .ohm.m                                  : Conductivity 
SP                 .mV                                     : Spontaneous Potential 
~Ascii
# ...
183.96     4.2545     -9999     
184.16     4.2545     -9999     
184.36     4.2545     -9999     
184.56     4.2545     -9999     
184.76     4.2545     -9999     
184.96     4.2545     -9999     
185.16     4.2545     -9999     
185.36     4.2545     -9999     
185.56     4.2545     -9999     
185.76     4.2545     -9999     
185.96     4.2545     -9999     
186.16     4.2545     -9999     
186.36     4.2545     -9999     
186.56     4.2545     -9999     
186.76     4.2545     -9999     
186.96     4.2545     -9999     
187.16     4.2545     -9999     
187.36     4.2545     -9999     
187.56     4.2545     -9999     
187.76     4.2545     -9999     
187.96     4.2545     -9999     
188.16     4.2545     -9999     
188.36     4.2545     -9999     
188.56     4.2545     -9999     
188.76     4.2545     -9999     
188.96     4.2545     -9999     
189.16     4.2545     -9999     
189.36     4.2545     -9999     
189.56     4.2545     -9999     
189.76     4.2545     -9999     
189.96     4.2545     -9999     
190.16     4.2545     -9999     
190.36     4.2545     -9999     
190.56     4.2545     -9999     
190.76     4.2545     -9999     
190.96     4.2545     -9999     
191.16     4.2545     -9999     
191.36     4.2545     -9999     
191.56     4.2545     -9999     
191.76     4.2545     -9999     
191.96     4.2545     -9999     
192.16     4.2545     -9999     
192.36     4.2545     -9999     
192.56     4.2545     -9999     
192.76     4.2545     -9999     
192.96     4.2545     -9999     
193.16     4.2545     -9999     
193.36     4.2545     -9999     
193.56     4.2545     -9999     
193.76     4.2545     -9999     
193.96     4.2545     -9999     
194.16     4.2545     -9999     
194.36     4.2545     -9999     
194.56     4.2545     -9999     
194.76     4.2545     -9999     
194.96     4.2545     -9999     
195.16     4.2545     -9999     
195.36     4.2545     -9999     
195.56     4.2545     -9999     
195.76     4.2545     -9999     
195.96     4.2545     -9999     
196.16     4.2545     -9999     
196.36     4.2545     -9999     
196.56     4.2545     -9999     
196.76     4.2545     -9999     
196.96     4.2545     -9999     
197.16     4.2545     -9999     
197.36     4.2545     -9999     
197.56     4.2545     -9999     
197.76     4.2545     -9999     
197.96     4.2545     -9999     
198.16     4.2545     -9999     
198.36     4.2545     -9999     
198.56     4.2545     -9999     
198.76     4.2545     -9999     
198.96     4.2545     -9999     
199.16     4.2545     -9999     
199.36     4.2545     -9999     
199.56     4.2545     -9999     
199.76     4.2545     -9999     
199.96     4.2545     -9999     
200.16     4.2545     -9999     
200.36     4.2545     -9999     
200.56     4.2545     -9999     
200.76     4.2545     -9999     
200.96     4.2545     -9999     
201.16     4.2545     -9999     
201.36     4.2545     -9999     
201.56     4.2545     -9999     
201.76     4.2545     -9999     
201.96     4.2545     -9999     
202.16     4.2545     -9999     
202.36     4.2545     -9999     
202.56     4.2545     -9999     
202.76     4.2545     -9999     
202.96     4.2545     -9999     
203.16     4.2545     -9999     
203.36     4.2545     -9999     
203.56     4.2545     -9999     
203.76     4.2545     -9999     
203.96     4.2545     -9999     
204.16     4.2545     -9999     
204.36     4.2545     -9999     
204.56     4.2545     -9999     
204.76     4.2545     -9999     
204.96     4.2545     -9999     
205.16     4.2545     -9999     
205.36     4.2545     -9999     
205.56     4.2545     -9999     
205.76     4.2545     -9999     
205.96     4.2545     -9999     
206.16     4.2545     -9999     
206.36     4.2545     -9999     
206.56     4.2545     -9999     
206.76     4.2545     -9999     
206.96     4.2545     -9999     
207.16     4.2545     -9999     
207.36     4.2545     -9999     
207.56     4.2545     -9999     
207.76     4.2545     -9999     
207.96     4.2545     -9999     
208.16     4.2545     -9999     
208.36     4.2545     -9999     
208.56     4.2545     -9999     
208.76     4.2545     -9999     
208.96     4.2545     -9999     
209.16     4.2545     -9999     
209.36     4.2545     -9999     
209.56     4.2545     -9999     
209.76     4.2545     -9999     
209.96     4.2545     -9999     
210.16     4.2545     -9999     
210.36     4.2545     -9999     
210.56     4.2545     -9999     
210.76     4.2545     -9999     
210.96     4.2545     -9999     
211.16     4.2545     -9999     
211.36     4.2545     -9999     
211.56     4.2545     -9999     
211.76     4.2545     -9999     
211.96     4.2545     -9999     
212.16     4.2545     -9999     
212.36     4.2545     -9999     
212.56     4.2545     -9999     
212.76     4.2545     -9999     
212.96     4.2545     -9999     
213.16     4.2545     -9999     
213.36     4.2545     -9999     
213.56     4.2545     -9999     
213.76     4.2545     -9999     
213.96     4.2545     -9999     
214.16     4.2545     -9999     
214.36     4.2545     -9999     
214.56     4.2545     -9999     
214.76     4.2545     -9999     
214.96     4.2545     -9999     
215.16     4.2545     -9999     
215.36     4.2545     -9999     
215.56     4.2545     -9999     
215.76     4.2545     -9999     
215.96     4.2545     -9999     
216.16     4.2545     -9999     
216.36     4.2545     -9999     
216.56     4.2545     -9999     
216.76     4.2545     -9999     
216.96     4.2545     -9999     
217.16     4.2545     -9999     
217.36     4.2545     -9999     
217.56     4.2545     -9999     
217.76     4.2545     -9999     
217.96     4.2545     -9999     
218.16     4.2545     -9999     
218.36     4.2545     -9999     
218.56     4.2545     -9999     
218.76     4.2545     -9999     
218.96     4.2545     -9999     
219.16     4.2545     -9999     
219.36     4.2545     -9999     
219.56     4.2545     -9999     
219.76     4.2545     -9999     
219.96     4.2545     -9999     
220.16     4.2545     -9999     
220.36     4.2545     -9999     
220.56     4.2545     -9999     
220.76     4.2545     -9999     
220.96     4.2545     -9999     
221.16     4.2545     -9999     
221.36     4.2545     -9999     
221.56     4.2545     -9999     
221.76     4.2545     -9999     
221.96     4.2545     -9999     
222.16     4.2545     -9999     
222.36     4.2545     -9999     
222.56     4.2545     -9999     
222.76     4.2545     -9999     
222.96     4.2545     -9999     
223.16     4.2545     -9999     
223.36     4.2545     -9999     
223.56     4.2545     -9999     
223.76     4.2545     -9999     
223.96     4.2545     -9999     
224.16     4.2545     -9999     
224.36     4.2545     -9999     
224.56     4.2545     -9999     
224.76     4.2545     -9999     
224.96     4.2545     -9999     
225.16     4.2545     -9999     
225.36     4.2545     -9999     
225.56     4.2545     -9999     
225.76     4.2545     -9999     
225.96     4.2545     -9999     
226.16     4.2545     -9999     
226.36     4.2545     -9999     
226.56     4.2545     -9999     
226.76     4.2545     -9999     
226.96     4.2545     -9999     
227.16     4.2545     -9999     
227.36     4.2545     -9999     
227.56     4.2545     -9999     
227.76     4.2545     -9999     
227.96     4.2545     -9999     
228.16     4.2545     -9999     
228.36     4.2545     -9999     
228.56     4.2545     -9999     
228.76     4.2545     -9999     
228.96     4.2545     -9999     
229.16     4.2545     -9999     
229.36     4.2545     -9999     
229.56     4.2545     -9999     
229.76     4.2545     -9999     
229.96     4.2545     -9999     
230.16     4.2545     -9999     
230.36     4.2545     -9999     
230.56     4.2545     -9999     
230.76     4.2545     -9999     
230.96     4.2545     -9999     
231.16     4.2545     -9999     
231.36     4.2545     -9999     
231.56     4.2545     -9999     
231.76     4.2545     -9999     
231.96     4.2545     -9999     
232.16     4.2545     -9999     
232.36     4.2545     -9999     
