~Version
 VERS              .         2.0                           : CWLS LOG ASCII STANDARD - VERSION 2.0
 WRAP              .         NO                            : ONE LINE PER DEPTH STEP
 DLM               .         SPACE                         : DELIMITING CHARACTER(SPACE TAB OR COMMA)
~Well Information
#_______________________________________________________________________________
#
#PARAMETER_NAME    .UNIT     VALUE                         : DESCRIPTION
#_______________________________________________________________________________
STRT               .m        2331.6                        : First reference value
STOP               .m        2561.999885                   : Last reference value
STEP               .m        0.1999999                     : Step increment
NULL               .         -9999                         : Missing value
COMP               .                                       : Company
WELL               .         403                           : Well name
FLD                .                                       : Field
LOC                .                                       : Location
CNTY               .                                       : County
STAT               .                                       : State
CTRY               .                                       : Country
SRVC               .                                       : Service Company
DATE               .                                       : Date
API                .                                       : API number
EREF               .m        140.4                         : 
Pad                .         4                             : 
X                  .m        222100                        : 
Y                  .m        250025                        : 
group              .         Pad4                          : 
Интер-р            .         Пузин                         : 
Куст               .         4                             : 
Статус             .         Не проверено                  : 
Тип                .         Разведка                      : 
~Parameter Information Block
#_______________________________________________________________________________
#
#PARAMETER_NAME    .UNIT     VALUE                         : DESCRIPTION
#_______________________________________________________________________________
SET                .         LAS1                          : 
REAL_CREATION_DATE .         Ср апр 11 2012-13_17_13       : 
TLFamily_DEPTH     .         Measured Depth                : 
TLFamily_KS        .         Potential Resistivity         : 
TLFamily_KS1       .         Extra Shallow Resistivity     : 
TLFamily_KS2       .         Shallow Resistivity           : 
TLFamily_KS3       .         Medium Resistivity            : 
TLFamily_KS4       .         Deep Resistivity              : 
TLFamily_KS5       .         Extra Deep Resistivity        : 
TLFamily_LLD       .         Lateral Log Resistivity       : 
TLFamily_OKS       .         Medium Resistivity Inverted   : 
TLFamily_RM        .         Mud Resistivity               : 
TLFamily_SP        .         Spontaneous Potential         : 
group              .         INI                           : 
~Curve Information
#_______________________________________________________________________________
#
#LOGNAME           .UNIT     LOG_ID                        : DESCRIPTION
#_______________________________________________________________________________
DEPTH              .m                                      : Measured Depth 
KS                 .ohm.m                                  : Potential Resistivity 
KS1                .ohm.m                                  : Extra Shallow Resistivity 
KS2                .ohm.m                                  : Shallow Resistivity 
KS3                .ohm.m                                  : Medium Resistivity 
KS4                .ohm.m                                  : Deep Resistivity 
KS5                .ohm.m                                  : Extra Deep Resistivity 
LLD                .ohm.m                                  : Lateral Log Resistivity 
OKS                .ohm.m                                  : Medium Resistivity Inverted 
RM                 .ohm.m                                  : Mud Resistivity 
SP                 .mV                                     : Spontaneous Potential 
~Ascii
# ...
2450.399941 7.703      2.3461     7.9807     11.1656    10.2573    6.1825     6.6029     18.3378    0.1251     56.7799   
2450.59994 7.7571     2.3326     7.9548     11.1688    10.2147    6.0909     6.6919     18.7976    0.1251     56.0299   
2450.79994 7.8116     2.3392     8.073      11.2304    10.2244    6.0385     6.7563     19.4259    0.1251     54.0698   
2450.99994 7.9542     2.3326     8.073      11.2757    10.1784    6.0585     5.8606     20.2128    0.1251     52.9167   
2451.19994 8.1308     2.2308     7.8037     11.2368    10.0863    6.0909     5.919      20.7925    0.1251     52.6543   
2451.39994 8.3684     2.2037     7.7934     11.3534    10.1258    6.2087     7.1964     21.4726    0.1251     53.4537   
2451.59994 8.555      2.2104     7.8365     11.5513    10.2638    6.3657     7.4689     21.8806    0.1251     53.7315   
2451.79994 8.8233     2.2104     7.8037     11.6835    10.3205    6.6013     8.0964     22.0749    0.1251     54.3488   
2451.99994 9.1628     2.224      7.8299     11.9619    10.4479    6.85       8.3417     22.2597    0.1251     56.8889   
2452.19994 9.4752     2.2647     8.0927     12.3956    10.6846    6.9547     9.2434     22.2433    0.1251     58.6944   
2452.39994 9.7807     2.3258     8.2438     12.9329    11.0594    7.2164     9.8356     22.1332    0.1251     58.3889   
2452.599939 9.946      2.4072     8.5394     13.3711    11.4597    7.5044     11.0396    21.777     0.1251     57.5      
2452.799939 10.1542    2.4578     8.9467     13.768     11.7958    7.7792     11.6207    21.3236    0.1251     56.5556   
2452.999939 10.29      2.5361     9.3671     14.5319    12.5191    7.936      12.2985    20.8797    0.1251     56.3056   
2453.199939 10.3171    2.6854     10.0832    15.4446    13.387     8.0802     13.6422    20.5852    0.1251     55.9107   
2453.399939 10.2764    2.7668     10.3419    16.2991    14.1497    8.2242     10.8446    20.2873    0.1251     54.4919   
2453.599939 10.2322    2.7532     10.4708    16.655     14.5944    8.3027     9.5812     20.242     0.1251     55.0752   
2453.799939 10.1677    2.7329     10.5365    17.0371    14.8664    8.3158     9.1583     20.4363    0.1251     55.0496   
2453.999939 10.1338    2.6854     10.4182    17.3543    15.2872    8.3027     8.7892     20.6613    0.1251     54.5278   
2454.199939 10.127     2.6175     10.2211    17.5874    15.7146    8.3158     8.5199     20.9933    0.1251     54.1934   
2454.399939 10.1677    2.5972     10.1489    17.8398    16.142     8.3289     9.5887     21.2394    0.1251     54.0809   
2454.599939 10.2116    2.5904     10.0635    18.0039    16.4662    8.3812     9.6166     21.2718    0.1251     54.6101   
2454.799938 10.2628    2.5904     9.9978     18.2153    16.7206    8.4598     9.9051     21.2718    0.1251     56.0278   
2454.999938 10.3239    2.5972     9.9847     18.3836    17.1414    8.5121     9.904      21.3042    0.1251     55.6944   
2455.199938 10.4054    2.5972     9.9387     18.4419    17.5622    8.6168     9.725      21.377     0.1251     55.5027   
2455.399938 10.4665    2.5904     9.9156     18.4936    18.1474    8.7608     10.0836    21.3884    0.1251     56.3673   
2455.599938 10.5112    2.6243     10.0701    18.5519    18.6008    8.9309     10.9383    21.3171    0.1251     55.7249   
2455.799938 10.5616    2.6311     10.1883    18.7073    19.3177    9.1011     10.5616    21.22      0.1251     54.4722   
2455.999938 10.5819    2.6718     10.3591    18.9144    20.1725    9.2352     11.1804    21.1459    0.1251     54.8611   
2456.199938 10.5955    2.7125     10.5102    19.141     20.9615    9.3628     11.0555    21.0321    0.1251     56.3718   
2456.399938 10.6023    2.7057     10.5534    19.2769    21.573     9.5068     10.4066    21.0192    0.1251     57.9508   
2456.599938 10.5955    2.699      10.5168    19.3832    21.9127    9.6246     10.4763    21.1293    0.1251     58.7607   
2456.799937 10.5683    2.7125     10.6481    19.5553    22.3949    9.7555     10.961     21.1746    0.1251     58.6389   
2456.999937 10.5548    2.7261     10.7007    19.8013    22.8683    9.8209     10.7353    21.1399    0.1251     59.1669   
2457.199937 10.514     2.7397     10.7857    19.9567    23.151     9.9387     10.8999    21.0775    0.1251     58.0846   
2457.399937 10.4733    2.7397     10.7795    20.0473    23.2233    10.0565    10.4905    20.9156    0.1251     56.6401   
2457.599937 10.4317    2.7397     10.7664    20.021     23.1116    10.1743    10.3935    20.7925    0.1251     58.528    
2457.799937 10.3918    2.7299     10.7007    20.0214    22.9866    10.2659    10.4629    20.7828    0.1251     59.7222   
2457.999937 10.3239    2.7329     10.7007    20.002     22.8814    10.3313    10.3946    20.8637    0.1251     59.2931   
2458.199937 10.2628    2.7329     10.6744    19.9308    22.7368    10.4491    10.0785    21.1163    0.1251     59.8696   
2458.399937 10.2356    2.6922     10.5297    19.7223    22.4541    10.58      9.2731     21.5697    0.1251     60.4807   
2458.599936 10.2492    2.6249     10.3263    19.4129    22.1889    10.7502    8.6265     22.3405    0.1251     61.0431   
2458.799936 10.29      2.5497     9.9715     19.018     21.9412    10.8679    9.501      23.0084    0.1217     61.8889   
2458.999936 10.3511    2.5633     10.116     19.0439    22.0793    10.9334    11.2073    23.2926    0.1251     62.3472   
2459.199936 10.4258    2.6311     10.2247    19.264     22.362     11.0643    11.6925    23.3962    0.1251     63        
2459.399936 10.4665    2.6583     10.2211    19.2964    22.3752    11.1821    11.5199    23.2149    0.1251     62.9444   
2459.599936 10.4865    2.665      10.254     19.1724    22.3087    11.2213    10.928     22.9169    0.1251     62.5694   
2459.799936 10.5072    2.6583     10.1949    18.9662    22.0464    11.2671    10.4657    22.8059    0.1251     62.8611   
2459.999936 10.5344    2.6175     10.0635    18.5843    21.665     11.2998    9.8888     22.9428    0.1251     64.1932   
2460.199936 10.5751    2.5768     9.9518     18.2347    21.3757    11.4045    9.8927     23.4156    0.1251     64.2145   
2460.399936 10.6193    2.5361     9.8865     18.0315    21.2383    11.5878    9.9561     24.1022    0.1251     64.5479   
2460.599935 10.7245    2.5158     9.7876     17.8916    21.1588    11.9019    9.7868     24.9507    0.1251     65.1932   
2460.799935 10.8943    2.4615     9.5774     17.7362    21.1588    12.2251    10.3525    25.9028    0.1251     66.7778   
2460.999935 11.098     2.4411     9.5511     17.8851    21.527     12.6348    10.9681    26.418     0.1251     68.4475   
2461.199935 11.3152    2.4751     9.6529     18.4224    22.27      13.3023    12.5213    26.9714    0.1251     68.4626   
2461.399935 11.4367    2.5226     9.8007     19.2705    23.46      14.0745    13.9284    27.2888    0.1251     68.7681   
2461.599935 11.5665    2.6201     10.3263    19.9137    24.6504    14.6634    17.2014    27.2694    0.1251     68.003    
2461.799935 11.6751    2.7329     10.8321    20.6428    25.1893    14.9317    15.2712    26.6735    0.1251     66.7222   
2461.999935 11.7905    2.7465     10.8452    20.7529    25.209     15.1084    13.975     26.0147    0.1251     67.6389   
2462.199935 11.8584    2.6922     10.7048    20.5199    24.8737    15.0561    12.3511    25.6696    0.1251     68.3611   
2462.399935 11.8853    2.7125     10.8781    20.4584    24.7457    14.7681    12.6982    25.3911    0.1251     68.3333   
2462.599935 11.9399    2.7025     10.8715    20.4357    24.6567    14.5326    12.158     25.3328    0.1251     69.9444   
2462.799934 12.0689    2.665      10.7073    20.1768    24.2359    14.4352    11.2589    25.4818    0.1251     69.3056   
2462.999934 12.2183    2.5768     10.3788    19.9826    23.9598    14.3362    11.1747    25.6243    0.1251     68.9167   
2463.199934 12.3813    2.5836     10.4273    20.1314    24.1702    14.2708    14.2153    25.4882    0.1251     70.767    
2463.399934 12.5147    2.6447     10.5562    20.4399    24.6436    14.3362    15.2119    25.2879    0.1251     71.0675   
