~Version
 VERS              .         2.0                           : CWLS LOG ASCII STANDARD - VERSION 2.0
 WRAP              .         NO                            : ONE LINE PER DEPTH STEP
 DLM               .         SPACE                         : DELIMITING CHARACTER(SPACE TAB OR COMMA)
~Well Information
#_______________________________________________________________________________
#
#PARAMETER_NAME    .UNIT     VALUE                         : DESCRIPTION
#_______________________________________________________________________________
STRT               .m        -10.04                        : First reference value
STOP               .m        2561.16                       : Last reference value
STEP               .m        0.2                           : Step increment
NULL               .         -9999                         : Missing value
COMP               .                                       : Company
WELL               .         403                           : Well name
FLD                .                                       : Field
LOC                .                                       : Location
CNTY               .                                       : County
STAT               .                                       : State
CTRY               .                                       : Country
SRVC               .                                       : Service Company
DATE               .                                       : Date
API                .                                       : API number
EREF               .m        140.4                         : 
Pad                .         4                             : 
X                  .m        222100                        : 
Y                  .m        250025                        : 
group              .         Pad4                          : 
Интер-р            .         Пузин                         : 
Куст               .         4                             : 
Статус             .         Не проверено                  : 
Тип                .         Разведка                      : 
~Parameter Information Block
#_______________________________________________________________________________
#
#PARAMETER_NAME    .UNIT     VALUE                         : DESCRIPTION
#_______________________________________________________________________________
SET                .         LAS4                          : 
REAL_CREATION_DATE .         Ср апр 11 2012-13_17_14       : 
TLFamily_DEPTH     .         Measured Depth                : 
TLFamily_RT        .         Resistivity 20                : 
TLFamily_SP        .         Spontaneous Potential         : 
group              .         INI                           : 
~Curve Information
#_______________________________________________________________________________
#
#LOGNAME           .UNIT     LOG_ID                        : DESCRIPTION
#_______________________________________________________________________________
DEPTH              .m                                      : Measured Depth 
RT                 .ohm.m                                  : Conductivity 
SP                 .mV                                     : Spontaneous Potential 
~Ascii
# ...
718.56     4.2545     -9999     
718.76     4.2545     -9999     
718.96     4.2545     -9999     
719.16     4.2545     -9999     
719.36     4.2545     -9999     
719.56     4.2545     -9999     
719.76     4.2545     -9999     
719.96     4.2545     -9999     
720.16     4.2545     -9999     
720.36     4.2545     -9999     
720.56     4.2545     -9999     
720.76     4.2545     -9999     
720.96     4.2545     -9999     
721.16     4.2545     -9999     
721.36     4.2545     -9999     
721.56     4.2545     -9999     
721.76     4.2545     -9999     
721.96     4.2545     -9999     
722.16     4.2545     -9999     
722.36     4.2545     -9999     
722.56     4.2545     -9999     
722.76     4.2545     -9999     
722.96     4.2545     -9999     
723.16     4.2545     -9999     
723.36     4.2545     -9999     
723.56     4.2545     -9999     
723.76     4.2545     -9999     
723.96     4.2545     -9999     
724.16     4.2545     -9999     
724.36     4.2545     -9999     
724.56     4.2545     -9999     
724.76     4.2545     -9999     
724.96     4.2545     -9999     
725.16     4.2545     -9999     
725.36     4.2545     -9999     
725.56     4.2545     -9999     
725.76     4.2545     -9999     
725.96     4.2545     -9999     
726.16     4.2545     -9999     
726.36     4.2545     -9999     
726.56     4.2545     -9999     
726.76     4.2545     -9999     
726.96     4.2545     -9999     
727.16     4.2545     -9999     
727.36     4.2545     -9999     
727.56     4.2545     -9999     
727.76     4.2545     -9999     
727.96     4.2545     -9999     
728.16     4.2545     -9999     
728.36     4.2545     -9999     
728.56     4.2545     -9999     
728.76     4.2545     -9999     
728.96     4.2545     -9999     
729.16     4.2545     -9999     
729.36     4.2545     -9999     
729.56     4.2545     -9999     
729.76     4.2545     -9999     
729.96     4.2545     -9999     
730.16     4.2545     -9999     
730.36     4.2545     -9999     
730.56     4.2545     -9999     
730.76     4.2545     -9999     
730.96     4.2545     -9999     
731.16     4.2545     -9999     
731.36     4.2545     -9999     
731.56     4.2545     -9999     
731.76     4.2545     -9999     
731.96     4.2545     -9999     
732.16     4.2545     -9999     
732.36     4.2545     -9999     
732.56     4.2545     -9999     
732.76     4.2545     -9999     
732.96     4.2545     -9999     
733.16     4.2545     -9999     
733.36     4.2545     -9999     
733.56     4.2545     -9999     
733.76     4.2545     -9999     
733.96     4.2545     -9999     
734.16     4.2545     -9999     
734.36     4.2545     -9999     
734.56     4.2545     -9999     
734.76     4.2545     -9999     
734.96     4.2545     -9999     
735.16     4.2545     -9999     
735.36     4.2545     -9999     
735.56     4.2545     -9999     
735.76     4.2545     -9999     
735.96     4.2545     -9999     
736.16     4.2545     -9999     
736.36     4.2545     -9999     
736.56     4.2545     -9999     
736.76     4.2545     -9999     
736.96     4.2545     -9999     
737.16     4.2545     -9999     
737.36     4.2545     -9999     
737.56     4.2545     -9999     
737.76     4.2545     -9999     
737.96     4.2545     -9999     
738.16     4.2545     -9999     
738.36     4.2545     -9999     
738.56     4.2545     -9999     
738.76     4.2545     -9999     
738.96     4.2545     -9999     
739.16     4.2545     -9999     
739.36     4.2545     -9999     
739.56     4.2545     -9999     
739.76     4.2545     -9999     
739.96     4.2545     -9999     
740.16     4.2545     -9999     
740.36     4.2545     -9999     
740.56     4.2545     -9999     
740.76     4.2545     -9999     
740.96     4.2545     -9999     
741.16     4.2545     -9999     
741.36     4.2545     -9999     
741.56     4.2545     -9999     
741.76     4.2545     -9999     
741.96     4.2545     -9999     
742.16     4.2545     -9999     
742.36     4.2545     -9999     
742.56     4.2545     -9999     
742.76     4.2545     -9999     
742.96     4.2545     -9999     
743.16     4.2545     -9999     
743.36     4.2545     -9999     
743.56     4.2545     -9999     
743.76     4.2545     -9999     
743.96     4.2545     -9999     
744.16     4.2545     -9999     
744.36     4.2545     -9999     
744.56     4.2545     -9999     
744.76     4.2545     -9999     
744.96     4.2545     -9999     
745.16     4.2545     -9999     
745.36     4.2545     -9999     
745.56     4.2545     -9999     
745.76     4.2545     -9999     
745.96     4.2545     -9999     
746.16     4.2545     -9999     
746.36     4.2545     -9999     
746.56     4.2545     -9999     
746.76     4.2545     -9999     
746.96     4.2545     -9999     
747.16     4.2545     -9999     
747.36     4.2545     -9999     
747.56     4.2545     -9999     
747.76     4.2545     -9999     
747.96     4.2545     -9999     
748.16     4.2545     -9999     
748.36     4.2545     -9999     
748.56     4.2545     -9999     
748.76     4.2545     -9999     
748.96     4.2545     -9999     
749.16     4.2545     -9999     
749.36     4.2545     -9999     
749.56     4.2545     -9999     
749.76     4.2545     -9999     
749.96     4.2545     -9999     
750.16     4.2545     -9999     
750.36     4.2545     -9999     
750.56     4.2545     -9999     
750.76     4.2545     -9999     
750.96     4.2545     -9999     
751.16     4.2545     -9999     
751.36     4.2545     -9999     
751.56     4.2545     -9999     
751.76     4.2545     -9999     
751.96     4.2545     -9999     
752.16     4.2545     -9999     
752.36     4.2545     -9999     
752.56     4.2545     -9999     
752.76     4.2545     -9999     
752.96     4.2545     -9999     
753.16     4.2545     -9999     
753.36     4.2545     -9999     
753.56     4.2545     -9999     
753.76     4.2545     -9999     
753.96     4.2545     -9999     
754.16     4.2545     -9999     
754.36     4.2545     -9999     
754.56     4.2545     -9999     
754.76     4.2545     -9999     
754.96     4.2545     -9999     
755.16     4.2545     -9999     
755.36     4.2545     -9999     
755.56     4.2545     -9999     
755.76     4.2545     -9999     
755.96     4.2545     -9999     
756.16     4.2545     -9999     
756.36     4.2545     -9999     
756.56     4.2545     -9999     
756.76     4.2545     -9999     
756.96     4.2545     -9999     
757.16     4.2545     -9999     
757.36     4.2545     -9999     
757.56     4.2545     -9999     
757.76     4.2545     -9999     
757.96     4.2545     -9999     
758.16     4.2545     -9999     
758.36     4.2545     -9999     
758.56     4.2545     -9999     
758.76     4.2545     -9999     
758.96     4.2545     -9999     
759.16     4.2545     -9999     
759.36     4.2545     -9999     
759.56     4.2545     -9999     
759.76     4.2545     -9999     
759.96     4.2545     -9999     
760.16     4.2545     -9999     
760.36     4.2545     -9999     
760.56     4.2545     -9999     
760.76     4.2545     -9999     
760.96     4.2545     -9999     
761.16     4.2545     -9999     
761.36     4.2545     -9999     
761.56     4.2545     -9999     
761.76     4.2545     -9999     
761.96     4.2545     -9999     
762.16     4.2545     -9999     
762.36     4.2545     -9999     
762.56     4.2545     -9999     
762.76     4.2545     -9999     
762.96     4.2545     -9999     
763.16     4.2545     -9999     
763.36     4.2545     -9999     
763.56     4.2545     -9999     
763.76     4.2545     -9999     
763.96     4.2545     -9999     
764.16     4.2545     -9999     
764.36     4.2545     -9999     
764.56     4.2545     -9999     
764.76     4.2545     -9999     
764.96     4.2545     -9999     
765.16     4.2545     -9999     
765.36     4.2545     -9999     
765.56     4.2545     -9999     
765.76     4.2545     -9999     
765.96     4.2545     -9999     
766.16     4.2545     -9999     
766.36     4.2545     -9999     
766.56     4.2545     -9999     
766.76     4.2545     -9999     
766.96     4.2545     -9999     
