~Version
 VERS              .         2.0                           : CWLS LOG ASCII STANDARD - VERSION 2.0
 WRAP              .         NO                            : ONE LINE PER DEPTH STEP
 DLM               .         SPACE                         : DELIMITING CHARACTER(SPACE TAB OR COMMA)
~Well Information
#_______________________________________________________________________________
#
#PARAMETER_NAME    .UNIT     VALUE                         : DESCRIPTION
#_______________________________________________________________________________
STRT               .m        -10.04                        : First reference value
STOP               .m        2561.16                       : Last reference value
STEP               .m        0.2                           : Step increment
NULL               .         -9999                         : Missing value
COMP               .                                       : Company
WELL               .         403                           : Well name
FLD                .                                       : Field
LOC                .                                       : Location
CNTY               .                                       : County
STAT               .                                       : State
CTRY               .                                       : Country
SRVC               .                                       : Service Company
DATE               .                                       : Date
API                .                                       : API number
EREF               .m        140.4                         : 
Pad                .         4                             : 
X                  .m        222100                        : 
Y                  .m        250025                        : 
group              .         Pad4                          : 
Интер-р            .         Пузин                         : 
Куст               .         4                             : 
Статус             .         Не проверено                  : 
Тип                .         Разведка                      : 
~Parameter Information Block
#_______________________________________________________________________________
#
#PARAMETER_NAME    .UNIT     VALUE                         : DESCRIPTION
#_______________________________________________________________________________
SET                .         LAS4                          : 
REAL_CREATION_DATE .         Ср апр 11 2012-13_17_14       : 
TLFamily_DEPTH     .         Measured Depth                : 
TLFamily_RT        .         Resistivity 20                : 
TLFamily_SP        .         Spontaneous Potential         : 
group              .         INI                           : 
~Curve Information
#_______________________________________________________________________________
#
#LOGNAME           .UNIT     LOG_ID                        : DESCRIPTION
#_______________________________________________________________________________
DEPTH              .m                                      : Measured Depth 
RT                 .ohm.m                                  : Conductivity 
SP                 .mV                                     : Spontaneous Potential 
~Ascii
# ...
1544.76    4.2545     -9999     
1544.96    4.2545     -9999     
1545.16    4.2545     -9999     
1545.36    4.2545     -9999     
1545.56    4.2545     -9999     
1545.76    4.2545     -9999     
1545.96    4.2545     -9999     
1546.16    4.2545     -9999     
1546.36    4.2545     -9999     
1546.56    4.2545     -9999     
1546.76    4.2545     -9999     
1546.96    4.2545     -9999     
1547.16    4.2545     -9999     
1547.36    4.2545     -9999     
1547.56    4.2545     -9999     
1547.76    4.2545     -9999     
1547.96    4.2545     -9999     
1548.16    4.2545     -9999     
1548.36    4.2545     -9999     
1548.56    4.2545     -9999     
1548.76    4.2545     -9999     
1548.96    4.2545     -9999     
1549.16    4.2545     -9999     
1549.36    4.2545     -9999     
1549.56    4.2545     -9999     
1549.76    4.2545     -9999     
1549.96    4.2545     -9999     
1550.16    4.2545     -9999     
1550.36    4.2545     -9999     
1550.56    4.2545     -9999     
1550.76    4.2545     -9999     
1550.96    4.2545     -9999     
1551.16    4.2545     -9999     
1551.36    4.2545     -9999     
1551.56    4.2545     -9999     
1551.76    4.2545     -9999     
1551.96    4.2545     -9999     
1552.16    4.2545     -9999     
1552.36    4.2545     -9999     
1552.56    4.2545     -9999     
1552.76    4.2545     -9999     
1552.96    4.2545     -9999     
1553.16    4.2545     -9999     
1553.36    4.2545     -9999     
1553.56    4.2545     -9999     
1553.76    4.2545     -9999     
1553.96    4.2545     -9999     
1554.16    4.2545     -9999     
1554.36    4.2545     -9999     
1554.56    4.2545     -9999     
1554.76    4.2545     -9999     
1554.96    4.2545     -9999     
1555.16    4.2545     -9999     
1555.36    4.2545     -9999     
1555.56    4.2545     -9999     
1555.76    4.2545     -9999     
1555.96    4.2545     -9999     
1556.16    4.2545     -9999     
1556.36    4.2545     -9999     
1556.56    4.2545     -9999     
1556.76    4.2545     -9999     
1556.96    4.2545     -9999     
1557.16    4.2545     -9999     
1557.36    4.2545     -9999     
1557.56    4.2545     -9999     
1557.76    4.2545     -9999     
1557.96    4.2545     -9999     
1558.16    4.2545     -9999     
1558.36    4.2545     -9999     
1558.56    4.2545     -9999     
1558.76    4.2545     -9999     
1558.96    4.2545     -9999     
1559.16    4.2545     -9999     
1559.36    4.2545     -9999     
1559.56    4.2545     -9999     
1559.76    4.2545     -9999     
1559.96    4.2545     -9999     
1560.16    4.2545     -9999     
1560.36    4.2545     -9999     
1560.56    4.2545     -9999     
1560.76    4.2545     -9999     
1560.96    4.2545     -9999     
1561.16    4.2545     -9999     
1561.36    4.2545     -9999     
1561.56    4.2545     -9999     
1561.76    4.2545     -9999     
1561.96    4.2545     -9999     
1562.16    4.2545     -9999     
1562.36    4.2545     -9999     
1562.56    4.2545     -9999     
1562.76    4.2545     -9999     
1562.96    4.2545     -9999     
1563.16    4.2545     -9999     
1563.36    4.2545     -9999     
1563.56    4.2545     -9999     
1563.76    4.2545     -9999     
1563.96    4.2545     -9999     
1564.16    4.2545     -9999     
1564.36    4.2545     -9999     
1564.56    4.2545     -9999     
1564.76    4.2545     -9999     
1564.96    4.2545     -9999     
1565.16    4.2545     -9999     
1565.36    4.2545     -9999     
1565.56    4.2545     -9999     
1565.76    4.2545     -9999     
1565.96    4.2545     -9999     
1566.16    4.2545     -9999     
1566.36    4.2545     -9999     
1566.56    4.2545     -9999     
1566.76    4.2545     -9999     
1566.96    4.2545     -9999     
1567.16    4.2545     -9999     
1567.36    4.2545     -9999     
1567.56    4.2545     -9999     
1567.76    4.2545     -9999     
1567.96    4.2545     -9999     
1568.16    4.2545     -9999     
1568.36    4.2545     -9999     
1568.56    4.2545     -9999     
1568.76    4.2545     -9999     
1568.96    4.2545     -9999     
1569.16    4.2545     -9999     
1569.36    4.2545     -9999     
1569.56    4.2545     -9999     
1569.76    4.2545     -9999     
1569.96    4.2545     -9999     
1570.16    4.2545     -9999     
1570.36    4.2545     -9999     
1570.56    4.2545     -9999     
1570.76    4.2545     -9999     
1570.96    4.2545     -9999     
1571.16    4.2545     -9999     
1571.36    4.2545     -9999     
1571.56    4.2545     -9999     
1571.76    4.2545     -9999     
1571.96    4.2545     -9999     
1572.16    4.2545     -9999     
1572.36    4.2545     -9999     
1572.56    4.2545     -9999     
1572.76    4.2545     -9999     
1572.96    4.2545     -9999     
1573.16    4.2545     -9999     
1573.36    4.2545     -9999     
1573.56    4.2545     -9999     
1573.76    4.2545     -9999     
1573.96    4.2545     -9999     
1574.16    4.2545     -9999     
1574.36    4.2545     -9999     
1574.56    4.2545     -9999     
1574.76    4.2545     -9999     
1574.96    4.2545     -9999     
1575.16    4.2545     -9999     
1575.36    4.2545     -9999     
1575.56    4.2545     -9999     
1575.76    4.2545     -9999     
1575.96    4.2545     -9999     
1576.16    4.2545     -9999     
1576.36    4.2545     -9999     
1576.56    4.2545     -9999     
1576.76    4.2545     -9999     
1576.96    4.2545     -9999     
1577.16    4.2545     -9999     
1577.36    4.2545     -9999     
1577.56    4.2545     -9999     
1577.76    4.2545     -9999     
1577.96    4.2545     -9999     
1578.16    4.2545     -9999     
1578.36    4.2545     -9999     
1578.56    4.2545     -9999     
1578.76    4.2545     -9999     
1578.96    4.2545     -9999     
1579.16    4.2545     -9999     
1579.36    4.2545     -9999     
1579.56    4.2545     -9999     
1579.76    4.2545     -9999     
1579.96    4.2545     -9999     
1580.16    4.2545     -9999     
1580.36    4.2545     -9999     
1580.56    4.2545     -9999     
1580.76    4.2545     -9999     
1580.96    4.2545     -9999     
1581.16    4.2545     -9999     
1581.36    4.2545     -9999     
1581.56    4.2545     -9999     
1581.76    4.2545     -9999     
1581.96    4.2545     -9999     
1582.16    4.2545     -9999     
1582.36    4.2545     -9999     
1582.56    4.2545     -9999     
1582.76    4.2545     -9999     
1582.96    4.2545     -9999     
1583.16    4.2545     -9999     
1583.36    4.2545     -9999     
1583.56    4.2545     -9999     
1583.76    4.2545     -9999     
1583.96    4.2545     -9999     
1584.16    4.2545     -9999     
1584.36    4.2545     -9999     
1584.56    4.2545     -9999     
1584.76    4.2545     -9999     
1584.96    4.2545     -9999     
1585.16    4.2545     -9999     
1585.36    4.2545     -9999     
1585.56    4.2545     -9999     
1585.76    4.2545     -9999     
1585.96    4.2545     -9999     
1586.16    4.2545     -9999     
1586.36    4.2545     -9999     
1586.56    4.2545     -9999     
1586.76    4.2545     -9999     
1586.96    4.2545     -9999     
1587.16    4.2545     -9999     
1587.36    4.2545     -9999     
1587.56    4.2545     -9999     
1587.76    4.2545     -9999     
1587.96    4.2545     -9999     
1588.16    4.2545     -9999     
1588.36    4.2545     -9999     
1588.56    4.2545     -9999     
1588.76    4.2545     -9999     
1588.96    4.2545     -9999     
1589.16    4.2545     -9999     
1589.36    4.2545     -9999     
1589.56    4.2545     -9999     
1589.76    4.2545     -9999     
1589.96    4.2545     -9999     
1590.16    4.2545     -9999     
1590.36    4.2545     -9999     
1590.56    4.2545     -9999     
1590.76    4.2545     -9999     
1590.96    4.2545     -9999     
1591.16    4.2545     -9999     
1591.36    4.2545     -9999     
1591.56    4.2545     -9999     
1591.76    4.2545     -9999     
1591.96    4.2545     -9999     
1592.16    4.2545     -9999     
1592.36    4.2545     -9999     
1592.56    4.2545     -9999     
1592.76    4.2545     -9999     
1592.96    4.2545     -9999     
1593.16    4.2545     -9999     
