~Version
 VERS              .         2.0                           : CWLS LOG ASCII STANDARD - VERSION 2.0
 WRAP              .         NO                            : ONE LINE PER DEPTH STEP
 DLM               .         SPACE                         : DELIMITING CHARACTER(SPACE TAB OR COMMA)
~Well Information
#_______________________________________________________________________________
#
#PARAMETER_NAME    .UNIT     VALUE                         : DESCRIPTION
#_______________________________________________________________________________
STRT               .m        -10.04                        : First reference value
STOP               .m        2561.16                       : Last reference value
STEP               .m        0.2                           : Step increment
NULL               .         -9999                         : Missing value
COMP               .                                       : Company
WELL               .         403                           : Well name
FLD                .                                       : Field
LOC                .                                       : Location
CNTY               .                                       : County
STAT               .                                       : State
CTRY               .                                       : Country
SRVC               .                                       : Service Company
DATE               .                                       : Date
API                .                                       : API number
EREF               .m        140.4                         : 
Pad                .         4                             : 
X                  .m        222100                        : 
Y                  .m        250025                        : 
group              .         Pad4                          : 
Интер-р            .         Пузин                         : 
Куст               .         4                             : 
Статус             .         Не проверено                  : 
Тип                .         Разведка                      : 
~Parameter Information Block
#_______________________________________________________________________________
#
#PARAMETER_NAME    .UNIT     VALUE                         : DESCRIPTION
#_______________________________________________________________________________
SET                .         LAS4                          : 
REAL_CREATION_DATE .         Ср апр 11 2012-13_17_14       : 
TLFamily_DEPTH     .         Measured Depth                : 
TLFamily_RT        .         Resistivity 20                : 
TLFamily_SP        .         Spontaneous Potential         : 
group              .         INI                           : 
~Curve Information
#_______________________________________________________________________________
#
#LOGNAME           .UNIT     LOG_ID                        : DESCRIPTION
#_______________________________________________________________________________
DEPTH              .m                                      : Measured Depth 
RT                 .ohm.m                                  : Conductivity 
SP                 .mV                                     : Spontaneous Potential 
~Ascii
# ...
2176.56    4.2545     -9999     
2176.76    4.2545     -9999     
2176.96    4.2545     -9999     
2177.16    4.2545     -9999     
2177.36    4.2545     -9999     
2177.56    4.2545     -9999     
2177.76    4.2545     -9999     
2177.96    4.2545     -9999     
2178.16    4.2545     -9999     
2178.36    4.2545     -9999     
2178.56    4.2545     -9999     
2178.76    4.2545     -9999     
2178.96    4.2545     -9999     
2179.16    4.2545     -9999     
2179.36    4.2545     -9999     
2179.56    4.2545     -9999     
2179.76    4.2545     -9999     
2179.96    4.2545     -9999     
2180.16    4.2545     -9999     
2180.36    4.2545     -9999     
2180.56    4.2545     -9999     
2180.76    4.2545     -9999     
2180.96    4.2545     -9999     
2181.16    4.2545     -9999     
2181.36    4.2545     -9999     
2181.56    4.2545     -9999     
2181.76    4.2545     -9999     
2181.96    4.2545     -9999     
2182.16    4.2545     -9999     
2182.36    4.2545     -9999     
2182.56    4.2545     -9999     
2182.76    4.2545     -9999     
2182.96    4.2545     -9999     
2183.16    4.2545     -9999     
2183.36    4.2545     -9999     
2183.56    4.2545     -9999     
2183.76    4.2545     -9999     
2183.96    4.2545     -9999     
2184.16    4.2545     -9999     
2184.36    4.2545     -9999     
2184.56    4.2545     -9999     
2184.76    4.2545     -9999     
2184.96    4.2545     -9999     
2185.16    4.2545     -9999     
2185.36    4.2545     -9999     
2185.56    4.2545     -9999     
2185.76    4.2545     -9999     
2185.96    4.2545     -9999     
2186.16    4.2545     -9999     
2186.36    4.2545     -9999     
2186.56    4.2545     -9999     
2186.76    4.2545     -9999     
2186.96    4.2545     -9999     
2187.16    4.2545     -9999     
2187.36    4.2545     -9999     
2187.56    4.2545     -9999     
2187.76    4.2545     -9999     
2187.96    4.2545     -9999     
2188.16    4.2545     -9999     
2188.36    4.2545     -9999     
2188.56    4.2545     -9999     
2188.76    4.2545     -9999     
2188.96    4.2545     -9999     
2189.16    4.2545     -9999     
2189.36    4.2545     -9999     
2189.56    4.2545     -9999     
2189.76    4.2545     -9999     
2189.96    4.2545     -9999     
2190.16    4.2545     -9999     
2190.36    4.2545     -9999     
2190.56    4.2545     -9999     
2190.76    4.2545     -9999     
2190.96    4.2545     -9999     
2191.16    4.2545     -9999     
2191.36    4.2545     -9999     
2191.56    4.2545     -9999     
2191.76    4.2545     -9999     
2191.96    4.2545     -9999     
2192.16    4.2545     -9999     
2192.36    4.2545     -9999     
2192.56    4.2545     -9999     
2192.76    4.2545     -9999     
2192.96    4.2545     -9999     
2193.16    4.2545     -9999     
2193.36    4.2545     -9999     
2193.56    4.2545     -9999     
2193.76    4.2545     -9999     
2193.96    4.2545     -9999     
2194.16    4.2545     -9999     
2194.36    4.2545     -9999     
2194.56    4.2545     -9999     
2194.76    4.2545     -9999     
2194.96    4.2545     -9999     
2195.16    4.2545     -9999     
2195.36    4.2545     -9999     
2195.56    4.2545     -9999     
2195.76    4.2545     -9999     
2195.96    4.2545     -9999     
2196.16    4.2545     -9999     
2196.36    4.2545     -9999     
2196.56    4.2545     -9999     
2196.76    4.2545     -9999     
2196.96    4.2545     -9999     
2197.16    4.2545     -9999     
2197.36    4.2545     -9999     
2197.56    4.2545     -9999     
2197.76    4.2545     -9999     
2197.96    4.2545     -9999     
2198.16    4.2545     -9999     
2198.36    4.2545     -9999     
2198.56    4.2545     -9999     
2198.76    4.2545     -9999     
2198.96    4.2545     -9999     
2199.16    4.2545     -9999     
2199.36    4.2545     -9999     
2199.56    4.2545     -9999     
2199.76    4.2545     -9999     
2199.96    4.2545     -9999     
2200.16    4.2545     -9999     
2200.36    4.2545     -9999     
2200.56    4.2545     -9999     
2200.76    4.2545     -9999     
2200.96    4.2545     -9999     
2201.16    4.2545     -9999     
2201.36    4.2545     -9999     
2201.56    4.2545     -9999     
2201.76    4.2545     -9999     
2201.96    4.2545     -9999     
2202.16    4.2545     -9999     
2202.36    4.2545     -9999     
2202.56    4.2545     -9999     
2202.76    4.2545     -9999     
2202.96    4.2545     -9999     
2203.16    4.2545     -9999     
2203.36    4.2545     -9999     
2203.56    4.2545     -9999     
2203.76    4.2545     -9999     
2203.96    4.2545     -9999     
2204.16    4.2545     -9999     
2204.36    4.2545     -9999     
2204.56    4.2545     -9999     
2204.76    4.2545     -9999     
2204.96    4.2545     -9999     
2205.16    4.2545     -9999     
2205.36    4.2545     -9999     
2205.56    4.2545     -9999     
2205.76    4.2545     -9999     
2205.96    4.2545     -9999     
2206.16    4.2545     -9999     
2206.36    4.2545     -9999     
2206.56    4.2545     -9999     
2206.76    4.2545     -9999     
2206.96    4.2545     -9999     
2207.16    4.2545     -9999     
2207.36    4.2545     -9999     
2207.56    4.2545     -9999     
2207.76    4.2545     -9999     
2207.96    4.2545     -9999     
2208.16    4.2545     -9999     
2208.36    4.2545     -9999     
2208.56    4.2545     -9999     
2208.76    4.2545     -9999     
2208.96    4.2545     -9999     
2209.16    4.2545     -9999     
2209.36    4.2545     -9999     
2209.56    4.2545     -9999     
2209.76    4.2545     -9999     
2209.96    4.2545     -9999     
2210.16    4.2545     -9999     
2210.36    4.2545     -9999     
2210.56    4.2545     -9999     
2210.76    4.2545     -9999     
2210.96    4.2545     -9999     
2211.16    4.2545     -9999     
2211.36    4.2545     -9999     
2211.56    4.2545     -9999     
2211.76    4.2545     -9999     
2211.96    4.2545     -9999     
2212.16    4.2545     -9999     
2212.36    4.2545     -9999     
2212.56    4.2545     -9999     
2212.76    4.2545     -9999     
2212.96    4.2545     -9999     
2213.16    4.2545     -9999     
2213.36    4.2545     -9999     
2213.56    4.2545     -9999     
2213.76    4.2545     -9999     
2213.96    4.2545     -9999     
2214.16    4.2545     -9999     
2214.36    4.2545     -9999     
2214.56    4.2545     -9999     
2214.76    4.2545     -9999     
2214.96    4.2545     -9999     
2215.16    4.2545     -9999     
2215.36    4.2545     -9999     
2215.56    4.2545     -9999     
2215.76    4.2545     -9999     
2215.96    4.2545     -9999     
2216.16    4.2545     -9999     
2216.36    4.2545     -9999     
2216.56    4.2545     -9999     
2216.76    4.2545     -9999     
2216.96    4.2545     -9999     
2217.16    4.2545     -9999     
2217.36    4.2545     -9999     
2217.56    4.2545     -9999     
2217.76    4.2545     -9999     
2217.96    4.2545     -9999     
2218.16    4.2545     -9999     
2218.36    4.2545     -9999     
2218.56    4.2545     -9999     
2218.76    4.2545     -9999     
2218.96    4.2545     -9999     
2219.16    4.2545     -9999     
2219.36    4.2545     -9999     
2219.56    4.2545     -9999     
2219.76    4.2545     -9999     
2219.96    4.2545     -9999     
2220.16    4.2545     -9999     
2220.36    4.2545     -9999     
2220.56    4.2545     -9999     
2220.76    4.2545     -9999     
2220.96    4.2545     -9999     
2221.16    4.2545     -9999     
2221.36    4.2545     -9999     
2221.56    4.2545     -9999     
2221.76    4.2545     -9999     
2221.96    4.2545     -9999     
2222.16    4.2545     -9999     
2222.36    4.2545     -9999     
2222.56    4.2545     -9999     
2222.76    4.2545     -9999     
2222.96    4.2545     -9999     
2223.16    4.2545     -9999     
2223.36    4.2545     -9999     
2223.56    4.2545     -9999     
2223.76    4.2545     -9999     
2223.96    4.2545     -9999     
2224.16    4.2545     -9999     
2224.36    4.2545     -9999     
2224.56    4.2545     -9999     
2224.76    4.2545     -9999     
2224.96    4.2545     -9999     
