~Version
 VERS              .         2.0                           : CWLS LOG ASCII STANDARD - VERSION 2.0
 WRAP              .         NO                            : ONE LINE PER DEPTH STEP
 DLM               .         SPACE                         : DELIMITING CHARACTER(SPACE TAB OR COMMA)
~Well Information
#_______________________________________________________________________________
#
#PARAMETER_NAME    .UNIT     VALUE                         : DESCRIPTION
#_______________________________________________________________________________
STRT               .m        2331.6                        : First reference value
STOP               .m        2561.999885                   : Last reference value
STEP               .m        0.1999999                     : Step increment
NULL               .         -9999                         : Missing value
COMP               .                                       : Company
WELL               .         403                           : Well name
FLD                .                                       : Field
LOC                .                                       : Location
CNTY               .                                       : County
STAT               .                                       : State
CTRY               .                                       : Country
SRVC               .                                       : Service Company
DATE               .                                       : Date
API                .                                       : API number
EREF               .m        140.4                         : 
Pad                .         4                             : 
X                  .m        222100                        : 
Y                  .m        250025                        : 
group              .         Pad4                          : 
Интер-р            .         Пузин                         : 
Куст               .         4                             : 
Статус             .         Не проверено                  : 
Тип                .         Разведка                      : 
~Parameter Information Block
#_______________________________________________________________________________
#
#PARAMETER_NAME    .UNIT     VALUE                         : DESCRIPTION
#_______________________________________________________________________________
SET                .         LAS1                          : 
REAL_CREATION_DATE .         Ср апр 11 2012-13_17_13       : 
TLFamily_DEPTH     .         Measured Depth                : 
TLFamily_KS        .         Potential Resistivity         : 
TLFamily_KS1       .         Extra Shallow Resistivity     : 
TLFamily_KS2       .         Shallow Resistivity           : 
TLFamily_KS3       .         Medium Resistivity            : 
TLFamily_KS4       .         Deep Resistivity              : 
TLFamily_KS5       .         Extra Deep Resistivity        : 
TLFamily_LLD       .         Lateral Log Resistivity       : 
TLFamily_OKS       .         Medium Resistivity Inverted   : 
TLFamily_RM        .         Mud Resistivity               : 
TLFamily_SP        .         Spontaneous Potential         : 
group              .         INI                           : 
~Curve Information
#_______________________________________________________________________________
#
#LOGNAME           .UNIT     LOG_ID                        : DESCRIPTION
#_______________________________________________________________________________
DEPTH              .m                                      : Measured Depth 
KS                 .ohm.m                                  : Potential Resistivity 
KS1                .ohm.m                                  : Extra Shallow Resistivity 
KS2                .ohm.m                                  : Shallow Resistivity 
KS3                .ohm.m                                  : Medium Resistivity 
KS4                .ohm.m                                  : Deep Resistivity 
KS5                .ohm.m                                  : Extra Deep Resistivity 
LLD                .ohm.m                                  : Lateral Log Resistivity 
OKS                .ohm.m                                  : Medium Resistivity Inverted 
RM                 .ohm.m                                  : Mud Resistivity 
SP                 .mV                                     : Spontaneous Potential 
~Ascii
# ...
2371.19998 -9999      2.0001     5.8592     0.5885     0          0.4369     41058.59   9.1341     0.1251     33.4722   
2371.39998 5.0855     2.0069     5.9643     2.8148     0          0.4369     0          9.0564     0.1251     39.0556   
2371.59998 5.1296     2.0137     6.03       4.4785     0          0.4369     0          9.0111     0.1285     47.7778   
2371.79998 5.15       2.0001     6.076      5.8509     0          0.4369     0          8.9657     0.1285     55.7917   
2371.99998 5.1092     2.1494     6.2862     6.6212     0          0.4369     0          8.7585     0.1285     60.5833   
2372.19998 5.0753     2.1833     6.5851     7.1715     0          0.4369     0.8512     8.603      0.1285     65.2778   
2372.39998 5.021      2.1426     6.4438     7.3398     0          0.4369     3.2512     8.616      0.1285     72.7639   
2372.599979 4.9734     2.0747     6.319      7.3592     0          0.4369     3.518      8.7973     0.1285     76.9722   
2372.799979 4.9734     2.0001     6.1679     7.3204     0          0.4238     3.5478     8.9722     0.1285     79.4167   
2372.999979 5.0244     1.9458     6.076      7.2945     0          0.4238     3.6577     9.0888     0.1285     81.8611   
2373.199979 5.1025     1.9458     6.0103     7.3074     0.3781     0.4238     3.9328     9.1341     0.1285     85.4444   
2373.399979 5.1568     1.9798     5.9906     7.3883     1.874      0.4369     4.1861     9.1406     0.1285     95.0972   
2373.599979 5.1907     2.0069     6.0168     7.4822     3.0937     0.4238     4.3588     9.1276     0.1285     97.7917   
2373.799979 5.2179     2.0544     6.1187     7.5793     4.1227     0.4238     4.454      9.1017     0.1285     95.0139   
2373.999979 5.2315     2.068      6.2271     7.6376     4.6553     0.4238     4.5466     9.1179     0.1285     95.3333   
2374.199979 5.2382     2.0612     6.2665     7.6764     5.0235     0.4238     4.3777     9.2183     0.1285     94.75     
2374.399979 5.245      2.0544     6.2665     7.6182     5.2734     0.4238     4.3466     9.3284     0.1285     95        
2374.599978 5.2722     2.034      6.2665     7.5664     5.4509     0.4303     4.2657     9.445      0.1285     96.8333   
2374.799978 5.296      2.034      6.2927     7.5664     5.5955     0.4238     4.4034     9.5357     0.1285     99.0833   
2374.999978 5.3197     2.0544     6.3125     7.6279     5.727      0.4238     4.5178     9.6134     0.1285     100.2778  
2375.199978 5.3401     2.0747     6.3453     7.7347     5.8125     0.4238     4.5762     9.6652     0.1285     102.0694  
2375.399978 5.3537     2.068      6.3584     7.7929     5.8914     0.4238     4.5518     9.7429     0.1251     100.1806  
2375.599978 5.3808     2.0408     6.2993     7.8188     5.9243     0.4238     4.4417     9.853      0.1251     95.4583   
2375.799978 5.4148     2.034      6.2862     7.8253     5.9637     0.4238     4.3697     9.9891     0.1251     99.75     
2375.999978 5.4691     2.0205     6.2796     7.8447     5.9966     0.4238     4.5244     10.0538    0.1285     104.8611  
2376.199978 5.5302     2.0205     6.2599     7.8447     6.0492     0.4238     4.633      10.1251    0.1285     107.3889  
2376.399978 5.5913     2.0205     6.2665     7.8641     6.0887     0.4238     4.6911     10.1575    0.1251     108.0556  
2376.599978 5.666      2.0408     6.3125     7.9289     6.1347     0.4238     4.7851     10.1704    0.1285     107.5     
2376.799977 5.7135     2.0646     6.3979     8.026      6.207      0.4238     4.9865     10.1769    0.1251     108.9444  
2376.999977 5.7475     2.0951     6.4833     8.1878     6.3188     0.4238     5.0128     10.1704    0.1285     111.2222  
2377.199977 5.7747     2.1019     6.5752     8.2979     6.47       0.4238     5.0858     10.1413    0.1285     110.7778  
2377.399977 5.8018     2.1087     6.6573     8.395      6.5818     0.4892     5.0447     10.0927    0.1285     110.5278  
2377.599977 5.8222     2.1155     6.7066     8.4727     6.687      1.2876     5.0517     10.0409    0.1285     112.0833  
2377.799977 5.8358     2.129      6.7395     8.5698     6.7856     1.9289     5.1064     9.9761     0.1285     112.8889  
2377.999977 5.8561     2.129      6.7592     8.6669     6.8711     2.6487     5.1079     9.9178     0.1285     112.4444  
2378.199977 5.8731     2.129      6.7789     8.7445     6.9566     3.0283     5.0371     9.8725     0.1285     113.0556  
2378.399977 5.8969     2.129      6.7789     8.8287     7.0355     3.3424     5.0037     9.8142     0.1285     113.5556  
2378.599976 5.924      2.129      6.7986     8.9452     7.1275     3.6042     5.0799     9.7235     0.1251     114.0278  
2378.799976 5.9376     2.1426     6.8314     9.0617     7.2623     3.8136     5.1819     9.6264     0.1285     114       
2378.999976 5.9444     2.163      6.8905     9.1847     7.4366     3.9968     5.2434     9.5001     0.1285     113.9444  
2379.199976 5.9444     2.1833     6.9825     9.2948     7.5615     4.1669     5.3442     9.309      0.1285     114.3889  
2379.399976 5.9308     2.1969     7.0416     9.3919     7.6733     4.2847     5.4019     9.2054     0.1285     114.4444  
2379.599976 5.8969     2.2104     7.0745     9.4631     7.7587     4.4156     5.3057     9.1471     0.1285     114.2222  
2379.799976 5.8392     2.2104     7.1073     9.5084     7.8442     4.5334     5.1528     9.1212     0.1285     114.1389  
2379.999976 5.795      2.2003     7.1073     9.5537     7.9363     4.625      5.1474     9.1212     0.1251     115.0833  
2380.199976 5.7271     2.2104     7.1467     9.5893     8.0217     4.7035     5.031      9.1212     0.1285     115.1944  
2380.399976 5.6728     2.2037     7.1402     9.6055     8.1006     4.769      5.0423     9.1535     0.1285     114.125   
2380.599975 5.6185     2.1765     7.0515     9.5861     8.15       4.8213     4.8879     9.2507     0.1285     113.0139  
2380.799975 5.571      2.163      6.9759     9.5343     8.1664     4.8606     4.6928     9.3932     0.1285     112.4028  
2380.999975 5.537      2.1358     6.8708     9.4502     8.1401     4.8999     4.6781     9.4774     0.1285     113.8333  
2381.199975 5.5166     2.1222     6.792      9.3401     8.0809     4.926      4.5963     9.5486     0.1285     111.3333  
2381.399975 5.5098     2.1019     6.6869     9.2236     8.0152     4.9653     4.5681     9.6134     0.1285     105.1111  
2381.599975 5.5302     2.0815     6.5884     9.0876     7.9494     5.0046     4.5403     9.6846     0.1285     109.2222  
2381.799975 5.5642     2.0646     6.5095     8.8902     7.9034     5.0438     4.599      9.7429     0.1285     112.1667  
2381.999975 5.5981     2.0544     6.4701     8.7834     7.8771     5.0962     4.6201     9.7753     0.1251     109.3611  
2382.199975 5.6321     2.0612     6.4767     8.7251     7.8574     5.1485     4.7578     9.7753     0.1285     110.5556  
2382.399975 5.666      2.0815     6.5194     8.6863     7.8508     5.214      4.8507     9.7559     0.1285     113.8056  
2382.599974 5.7068     2.0883     6.5424     8.6669     7.8705     5.2663     4.9474     9.7494     0.1285     113.7778  
2382.799974 5.7203     2.1087     6.6278     8.6669     7.8902     5.3187     5.0084     9.717      0.1285     117.1667  
2382.999974 5.7339     2.129      6.6738     8.6992     7.91       5.3841     5.1174     9.6976     0.1285     111.2778  
2383.199974 5.7475     2.129      6.7263     8.7445     7.9363     5.4496     5.0413     9.6782     0.1285     103.3333  
2383.399974 5.7407     2.1596     6.8183     8.8158     7.9494     5.4888     5.0299     9.6393     0.1251     106.1667  
2383.599974 5.7407     2.163      6.8708     8.8934     7.9363     5.515      5.1944     9.5616     0.1285     107.6111  
2383.799974 5.7339     2.1562     6.8643     8.9193     7.8541     5.515      5.1279     9.4903     0.1285     108       
2383.999974 5.7068     2.163      6.8873     8.9517     7.7982     5.515      5.0174     9.4839     0.1285     107.1389  
2384.199974 5.6932     2.1562     6.884      8.9905     7.739      5.515      5.0174     9.4774     0.1285     106.1944  
