~Version
 VERS              .         2.0                           : CWLS LOG ASCII STANDARD - VERSION 2.0
 WRAP              .         NO                            : ONE LINE PER DEPTH STEP
 DLM               .         SPACE                         : DELIMITING CHARACTER(SPACE TAB OR COMMA)
~Well Information
#_______________________________________________________________________________
#
#PARAMETER_NAME    .UNIT     VALUE                         : DESCRIPTION
#_______________________________________________________________________________
STRT               .m        2355.27                       : First reference value
STOP               .m        2564.47                       : Last reference value
STEP               .m        0.2                           : Step increment
NULL               .         -9999                         : Missing value
COMP               .                                       : Company
WELL               .         403                           : Well name
FLD                .                                       : Field
LOC                .                                       : Location
CNTY               .                                       : County
STAT               .                                       : State
CTRY               .                                       : Country
SRVC               .                                       : Service Company
DATE               .                                       : Date
API                .                                       : API number
EREF               .m        140.4                         : 
Pad                .         4                             : 
X                  .m        222100                        : 
Y                  .m        250025                        : 
group              .         Pad4                          : 
Интер-р            .         Пузин                         : 
Куст               .         4                             : 
Статус             .         Не проверено                  : 
Тип                .         Разведка                      : 
~Parameter Information Block
#_______________________________________________________________________________
#
#PARAMETER_NAME    .UNIT     VALUE                         : DESCRIPTION
#_______________________________________________________________________________
SET                .         LAS3                          : 
REAL_CREATION_DATE .         Ср апр 11 2012-13_17_14       : 
TLFamily_DEPTH     .         Measured Depth                : 
TLFamily_GR        .         Gamma Ray                     : 
TLFamily_TNPH      .         Neutron Porosity              : 
group              .         INI                           : 
~Curve Information
#_______________________________________________________________________________
#
#LOGNAME           .UNIT     LOG_ID                        : DESCRIPTION
#_______________________________________________________________________________
DEPTH              .m                                      : Measured Depth 
GR                 .gAPI                                   :  
TNPH               .v/v                                    : Neutron Porosity 
~Ascii
# ...
2403.87    60.051     0.2407    
2404.07    71.282     0.2476    
2404.27    79.038     0.2594    
2404.47    76.87199   0.2585    
2404.67    78.41      0.2405    
2404.87    69.744     0.2166    
2405.07    68.974     0.2095    
2405.27    67.692     0.1862    
2405.47    68.051     0.1857    
2405.67    63.436     0.1951    
2405.87    61.641     0.1852    
2406.07    60.385     0.1844    
2406.27    57.385     0.1992    
2406.47    66.46201   0.2106    
2406.67    72.103     0.2003    
2406.87    67.949     0.2115    
2407.07    66.218     0.2146    
2407.27    60.667     0.2068    
2407.47    61.026     0.209     
2407.67    65.449     0.2359    
2407.87    77.179     0.268     
2408.07    82.256     0.2247    
2408.27    77.308     0.2126    
2408.47    71.731     0.2236    
2408.67    71.333     0.2495    
2408.87    72.051     0.2618    
2409.07    80.821     0.2428    
2409.27    84.41      0.2343    
2409.47    83.026     0.2326    
2409.67    85.487     0.241     
2409.87    82         0.2427    
2410.07    79.744     0.2163    
2410.27    76         0.236     
2410.47    78.615     0.2446    
2410.67    82.923     0.257     
2410.87    87.5       0.2533    
2411.07    83.59      0.2587    
2411.27    79.385     0.2539    
2411.47    77.308     0.2267    
2411.67    76.85899   0.2031    
2411.87    73.33299   0.198     
2412.07    77.564     0.2123    
2412.27    73.782     0.2403    
2412.47    75.487     0.236     
2412.67    78.308     0.2394    
2412.87    88.923     0.2453    
2413.07    91.218     0.2644    
2413.27    95.53799   0.3047    
2413.47    92.769     0.3181    
2413.67    84.87199   0.2836    
2413.87    72.949     0.2276    
2414.07    67.641     0.2244    
2414.27    59.744     0.2122    
2414.47    58.526     0.2084    
2414.67    52.692     0.2161    
2414.87    52         0.2133    
2415.07    52.41      0.2094    
2415.27    52.692     0.2103    
2415.47    46.154     0.2068    
2415.67    38.769     0.1929    
2415.87    34.769     0.1886    
2416.07    37.372     0.2016    
2416.27    38.513     0.2169    
2416.47    49.641     0.2405    
2416.67    61.231     0.2409    
2416.87    75.077     0.2354    
2417.07    68.667     0.222     
2417.27    64.564     0.2224    
2417.47    63.28201   0.2203    
2417.67    64.923     0.2113    
2417.87    62.949     0.2073    
2418.07    63.333     0.208     
2418.27    66.603     0.2016    
2418.47    70.256     0.2132    
2418.67    72.179     0.2378    
2418.87    79.846     0.2372    
2419.07    89.026     0.2155    
2419.27    84.423     0.2099    
2419.47    81.795     0.2171    
2419.67    81.231     0.2068    
2419.87    72.923     0.2002    
2420.07    80.513     0.2238    
2420.27    90.154     0.2363    
2420.47    92.308     0.2446    
2420.67    92.667     0.2678    
2420.87    92.051     0.2765    
2421.07    76.35899   0.2566    
2421.27    54.923     0.2502    
2421.47    48         0.246     
2421.67    55.538     0.2278    
2421.87    59.872     0.2252    
2422.07    66.41      0.2243    
2422.27    60.513     0.1992    
2422.47    56.538     0.2073    
2422.67    66.282     0.2263    
2422.87    73.14101   0.221     
2423.07    66.821     0.2138    
2423.27    59.487     0.2142    
2423.47    58.667     0.2193    
2423.67    55.846     0.2314    
2423.87    52.359     0.2273    
2424.07    56.154     0.2227    
2424.27    61.41      0.2186    
2424.47    73.077     0.2176    
2424.67    66.564     0.2174    
2424.87    48.439     0.2129    
2425.07    42.692     0.206     
2425.27    36.974     0.2091    
2425.47    39.128     0.2091    
2425.67    49.846     0.1974    
2425.87    59.936     0.202     
2426.07    67.128     0.2007    
2426.27    72.513     0.2002    
2426.47    63.179     0.2041    
2426.67    48.526     0.1981    
2426.87    37.641     0.1859    
2427.07    33.487     0.2087    
2427.27    38.154     0.2258    
2427.47    42.667     0.234     
2427.67    42.256     0.2184    
2427.87    39.423     0.1967    
2428.07    43.744     0.1921    
2428.27    38.872     0.2096    
2428.47    39.872     0.2169    
2428.67    49.615     0.2092    
2428.87    59.077     0.2117    
2429.07    69.16701   0.2174    
2429.27    73.59      0.2211    
2429.47    58.923     0.2286    
2429.67    54.974     0.2251    
2429.87    50.769     0.2086    
2430.07    47.436     0.1978    
2430.27    50.974     0.1923    
2430.47    62.949     0.2014    
2430.67    66.15401   0.2094    
2430.87    65.12801   0.2094    
2431.07    67.692     0.2236    
2431.27    72.821     0.2274    
2431.47    68.513     0.2305    
2431.67    69.949     0.2347    
2431.87    65.962     0.22      
2432.07    63.59      0.2255    
2432.27    50.897     0.218     
2432.47    46.987     0.2019    
2432.67    45.641     0.2026    
2432.87    44.256     0.1995    
2433.07    48.103     0.2052    
2433.27    70.705     0.218     
2433.47    93.077     0.2308    
2433.67    97.308     0.2428    
2433.87    95.38499   0.2613    
2434.07    93.897     0.2568    
2434.27    88.91      0.239     
2434.47    89.551     0.2715    
2434.67    90.897     0.2936    
2434.87    89.538     0.2891    
2435.07    86.564     0.2596    
2435.27    90.974     0.2365    
2435.47    97.333     0.2712    
2435.67    101.731    0.2741    
2435.87    101.641    0.2318    
2436.07    103.077    0.2107    
2436.27    102.103    0.2389    
2436.47    105.321    0.2623    
2436.67    110        0.301     
2436.87    99.487     0.2865    
2437.07    87.641     0.2722    
2437.27    76.34599   0.2575    
2437.47    75.321     0.2398    
2437.67    74.936     0.2303    
2437.87    81.538     0.237     
2438.07    90.615     0.2574    
2438.27    98.513     0.2872    
2438.47    106.923    0.3207    
2438.67    109.897    0.3093    
2438.87    115.385    0.3103    
2439.07    126.538    0.363     
2439.27    129.077    0.3649    
2439.47    121.077    0.3161    
2439.67    117.641    0.3199    
2439.87    118.513    0.3322    
2440.07    114.974    0.3509    
2440.27    106.103    0.3361    
2440.47    103.654    0.3192    
2440.67    102.949    0.2969    
2440.87    93.91      0.2817    
2441.07    86.66701   0.2776    
2441.27    84.15399   0.2629    
2441.47    96.769     0.2427    
2441.67    98.41      0.2564    
2441.87    102.821    0.2621    
2442.07    101.282    0.2568    
2442.27    104.308    0.2583    
2442.47    113.282    0.278     
2442.67    125.026    0.2999    
2442.87    142.205    0.2978    
2443.07    181.731    0.292     
2443.27    186.09     0.2924    
2443.47    168.205    0.2774    
2443.67    164.679    0.2406    
2443.87    168.974    0.2458    
2444.07    179.385    0.2768    
2444.27    187.59     0.2895    
2444.47    204.051    0.3435    
2444.67    198.41     0.3595    
2444.87    182.154    0.3677    
2445.07    179.103    0.3531    
2445.27    168.59     0.3445    
2445.47    162.692    0.3124    
2445.67    173.692    0.304     
2445.87    185.487    0.3009    
2446.07    195        0.2708    
2446.27    201.795    0.3109    
2446.47    211.795    0.3151    
2446.67    215.231    0.2756    
2446.87    209.333    0.269     
2447.07    198.462    0.2771    
2447.27    195.641    0.2787    
2447.47    185.077    0.284     
2447.67    168.718    0.2904    
2447.87    157.436    0.3052    
2448.07    152.41     0.2858    
2448.27    155.487    0.3014    
2448.47    159.538    0.3313    
2448.67    173.282    0.3401    
2448.87    186.667    0.3472    
2449.07    202.821    0.3732    
2449.27    219.679    0.3638    
2449.47    219.692    0.3465    
2449.67    231.897    0.329     
2449.87    265.179    0.3137    
2450.07    294.359    0.3429    
2450.27    304.308    0.3101    
2450.47    293.333    0.3085    
2450.67    301.487    0.3129    
2450.87    296.359    0.3183    
2451.07    314.821    0.3042    
2451.27    329.897    0.2798    
2451.47    335.538    0.2911    
2451.67    341.923    0.3046    
2451.87    340.513    0.3325    
2452.07    357.026    0.3293    
2452.27    384.462    0.3149    
