~Version
 VERS              .         2.0                           : CWLS LOG ASCII STANDARD - VERSION 2.0
 WRAP              .         NO                            : ONE LINE PER DEPTH STEP
 DLM               .         SPACE                         : DELIMITING CHARACTER(SPACE TAB OR COMMA)
~Well Information
#_______________________________________________________________________________
#
#PARAMETER_NAME    .UNIT     VALUE                         : DESCRIPTION
#_______________________________________________________________________________
STRT               .m        2331.6                        : First reference value
STOP               .m        2561.999885                   : Last reference value
STEP               .m        0.1999999                     : Step increment
NULL               .         -9999                         : Missing value
COMP               .                                       : Company
WELL               .         403                           : Well name
FLD                .                                       : Field
LOC                .                                       : Location
CNTY               .                                       : County
STAT               .                                       : State
CTRY               .                                       : Country
SRVC               .                                       : Service Company
DATE               .                                       : Date
API                .                                       : API number
EREF               .m        140.4                         : 
Pad                .         4                             : 
X                  .m        222100                        : 
Y                  .m        250025                        : 
group              .         Pad4                          : 
Интер-р            .         Пузин                         : 
Куст               .         4                             : 
Статус             .         Не проверено                  : 
Тип                .         Разведка                      : 
~Parameter Information Block
#_______________________________________________________________________________
#
#PARAMETER_NAME    .UNIT     VALUE                         : DESCRIPTION
#_______________________________________________________________________________
SET                .         LAS1                          : 
REAL_CREATION_DATE .         Ср апр 11 2012-13_17_13       : 
TLFamily_DEPTH     .         Measured Depth                : 
TLFamily_KS        .         Potential Resistivity         : 
TLFamily_KS1       .         Extra Shallow Resistivity     : 
TLFamily_KS2       .         Shallow Resistivity           : 
TLFamily_KS3       .         Medium Resistivity            : 
TLFamily_KS4       .         Deep Resistivity              : 
TLFamily_KS5       .         Extra Deep Resistivity        : 
TLFamily_LLD       .         Lateral Log Resistivity       : 
TLFamily_OKS       .         Medium Resistivity Inverted   : 
TLFamily_RM        .         Mud Resistivity               : 
TLFamily_SP        .         Spontaneous Potential         : 
group              .         INI                           : 
~Curve Information
#_______________________________________________________________________________
#
#LOGNAME           .UNIT     LOG_ID                        : DESCRIPTION
#_______________________________________________________________________________
DEPTH              .m                                      : Measured Depth 
KS                 .ohm.m                                  : Potential Resistivity 
KS1                .ohm.m                                  : Extra Shallow Resistivity 
KS2                .ohm.m                                  : Shallow Resistivity 
KS3                .ohm.m                                  : Medium Resistivity 
KS4                .ohm.m                                  : Deep Resistivity 
KS5                .ohm.m                                  : Extra Deep Resistivity 
LLD                .ohm.m                                  : Lateral Log Resistivity 
OKS                .ohm.m                                  : Medium Resistivity Inverted 
RM                 .ohm.m                                  : Mud Resistivity 
SP                 .mV                                     : Spontaneous Potential 
~Ascii
# ...
2410.79996 6.5759     2.2919     7.6641     11.813     12.861     7.3211     5.8281     11.7313    0.1269     95.7868   
2410.99996 6.6134     2.1833     7.4555     11.4084    12.3416    7.2426     5.0666     11.9645    0.1251     97.4721   
2411.19996 6.6438     2.1234     7.1927     11.1786    12.1409    7.1641     5.018      11.9386    0.1285     98.3889   
2411.39996 6.7252     2.1969     7.4029     10.965     11.9668    7.1379     5.9729     11.6407    0.1285     101.4167  
2411.59996 6.7864     2.2376     7.3964     10.9067    11.763     7.1248     7.3612     11.4167    0.1285     104.0833  
2411.79996 6.7728     2.2987     7.4593     10.8096    11.4737    7.1248     6.493      11.2585    0.1285     105.6111  
2411.99996 6.7829     2.2444     7.4489     10.6548    11.1292    7.1772     6.2541     11.3816    0.1285     107.1667  
2412.19996 6.766      2.2038     7.265      10.583     10.9279    7.2557     5.0516     11.4593    0.1285     108.3611  
2412.39996 6.7388     2.2308     7.554      10.706     10.9082    7.308      6.2796     11.5824    0.1318     108.7222  
2412.599959 6.6573     2.3122     7.8168     11.0362    11.0923    7.4389     6.6566     11.736     0.1318     109.528   
2412.799959 6.5623     2.3665     7.9247     11.2822    11.2501    7.596      6.7599     12.1329    0.1335     109.9736  
2412.999959 6.4978     2.2987     7.7971     11.2552    11.2271    7.7661     5.577      12.7417    0.1352     110.8903  
2413.199959 6.4876     2.2209     7.5803     11.1527    11.0989    7.9493     5.1897     13.4866    0.1386     113.1669  
2413.399959 6.5487     2.1426     7.2716     10.9844    10.8819    8.0279     5.0297     14.3804    0.1386     117.8056  
2413.599959 6.6709     2.068      7.0416     10.8808    10.8162    8.198      5.0056     15.0492    0.1352     124.8173  
2413.799959 6.8067     2.0883     7.0476     10.9002    10.9279    8.342      5.4711     15.2159    0.1335     132.9255  
2413.999959 6.9019     2.2037     7.2059     11.0399    11.0685    8.499      7.0139     14.7366    0.1318     143.2895  
2414.199959 6.9154     2.3259     7.4489     11.1462    11.1318    8.5645     7.7998     14.2638    0.1318     154.8333  
2414.399959 6.9833     2.3665     7.5146     10.9196    10.8688    8.5907     6.5622     14.348     0.1318     163.1111  
2414.599958 7.0783     2.068      6.8971     10.4082    10.4545    8.6692     4.9731     14.4581    0.1285     169.9167  
2414.799958 7.2752     2.0815     7.0781     10.1363    10.3164    8.7608     4.9763     14.201     0.1302     175.3056  
2414.999958 7.444      2.1833     7.2059     10.3138    10.4923    8.9178     7.1614     13.5708    0.1285     177.75    
2415.199958 7.5536     2.3222     7.5015     10.4536    10.6255    9.1534     7.8332     13.1951    0.1285     180.7778  
2415.399958 7.7641     2.2647     7.1927     10.5312    10.803     9.3827     7.0187     13.4412    0.1251     184.0278  
2415.599958 8.0425     2.1019     7.0482     10.4859    10.9279    9.6377     5.2577     13.5481    0.1251     185.2301  
2415.799958 8.3413     2.068      7.2287     11.1268    11.4408    10.0303    6.4374     13.1044    0.1251     184.9073  
2415.999958 8.4567     2.4208     7.9548     12.3206    12.2722    10.436     11.4417    11.9645    0.1251     185.3968  
2416.199958 8.3608     2.8075     9.1635     13.3731    12.9925    10.6847    22.4576    10.7404    0.1251     186.8611  
2416.399958 8.0289     3.0361     10.2868    14.7649    13.8867    10.6847    21.7835    10.002     0.1251     187.5556  
2416.599958 7.5468     3.1603     10.7598    15.2116    13.9788    10.5146    15.9208    9.9695     0.1251     185.8864  
2416.799957 7.0851     2.8075     10.0438    14.9008    13.3804    10.135     6.0236     10.002     0.1217     182.1702  
2416.999957 6.7388     2.6243     9.9552     14.6253    12.835     9.5984     5.5705     9.8595     0.1199     181.942   
2417.199957 6.4782     2.5972     9.8861     14.5836    12.6703    8.9833     6.1274     10.0797    0.1217     185.25    
2417.399957 6.3246     2.3858     9.0124     14.0917    12.2035    8.7477     4.966      10.6432    0.1251     188.2222  
2417.599957 6.2024     2.2851     8.027      13.1077    11.4737    8.3682     4.1264     10.9764    0.1217     188.6487  
2417.799957 6.1481     2.1087     7.4292     12.6675    11.2238    8.0148     4.3951     11.3103    0.1234     185.5876  
2417.999957 6.1515     2.1969     7.3903     12.5057    11.2075    7.753      4.8072     11.7119    0.1251     181.0375  
2418.199957 6.1753     2.1358     7.0811     12.3194    11.2041    7.596      4.8452     11.8803    0.1217     176       
2418.399957 6.2567     2.1222     6.7986     11.7677    10.9148    7.5698     5.1028     11.9775    0.1217     168       
2418.599956 6.4333     2.0544     6.4044     10.9714    10.586     7.452      5.3147     11.8297    0.1217     158.519   
2418.799956 6.5759     2.034      6.4732     10.2852    10.4742    7.3997     4.7301     11.6925    0.1268     150.6368  
2418.999956 6.6982     2.1222     6.6278     10.2076    10.7322    7.4127     6.5284     11.4399    0.1285     141.8245  
2419.199956 6.7388     2.1732     6.8117     10.1095    10.8885    7.5567     6.1758     11.3427    0.1285     133.5556  
2419.399956 6.8135     2.1833     7.0022     10.0522    11.0857    7.6352     6.1443     11.0966    0.1285     129.3611  
2419.599956 6.861      2.1969     7.2124     10.0975    11.3685    7.8708     6.1456     10.9276    0.1285     128.5433  
2419.799956 6.8475     2.2579     7.5057     10.4471    11.9602    8.1588     6.5581     10.7598    0.1285     128.3787  
2419.999956 6.7729     2.3733     7.7708     10.9387    12.6309    8.4336     7.0714     10.6108    0.1285     126.5433  
2420.199956 6.7049     2.4446     8.1715     11.2433    12.9249    8.6692     7.1313     10.572     0.1285     124.2778  
2420.399956 6.5962     2.3936     8.073      11.567     13.0254    8.7477     6.333      10.7145    0.1251     124.1111  
2420.599955 6.4944     2.3597     8.0599     11.6706    12.7953    8.8001     5.5089     10.8242    0.1285     126.0715  
2420.799955 6.4672     2.2919     7.8632     11.6253    12.3547    8.8655     5.6285     10.8829    0.1285     129.0557  
2420.999955 6.4568     2.1901     7.6263     11.5572    12.072     8.8524     5.1587     10.9735    0.1285     137.127   
2421.199955 6.4604     2.2412     7.6197     11.5282    11.9061    8.8131     5.2346     10.993     0.1318     149.25    
2421.399955 6.3993     2.2308     7.6197     11.813     11.9339    8.7608     5.7579     10.6873    0.1285     160.6389  
2421.599955 6.3314     2.5022     8.2504     11.9101    11.6183    8.6168     7.6409     10.3906    0.1318     170.5564  
2421.799955 6.2228     2.4072     7.6292     11.5411    11.0068    8.3943     7.0634     10.3777    0.1369     176.4493  
2421.999955 6.1036     2.2172     7.4029     10.9621    10.412     8.1457     4.3941     10.7857    0.1352     178.6993  
2422.199955 6.053      2.2442     7.3964     10.719     10.1455    7.8577     4.7049     11.3751    0.1352     180.7508  
2422.399955 6.1006     2.1562     7.0351     10.2464    9.7773     7.8054     4.8165     12.0617    0.1285     184.2222  
2422.599954 6.1821     2.0001     6.5884     9.7156     9.4157     7.7792     4.4493     12.272     0.1251     185.9444  
2422.799954 6.2092     2.0612     6.7109     9.8127     9.5603     7.6483     4.6939     12.4244    0.1336     185.1068  
2422.999954 6.2193     2.2647     6.9891     10.0189    9.6815     7.6352     6.8866     12.5863    0.1318     187.0363  
2423.199954 6.2364     2.1739     6.9168     9.9163     9.534      7.6352     5.4648     12.8972    0.1318     190.1068  
2423.399954 6.2907     2.0476     6.4635     9.5019     9.1001     7.6352     4.3972     13.0915    0.1285     190.4167  
2423.599954 6.4265     2.0137     6.411      9.3013     8.9291     7.5436     4.5861     13.1379    0.1285     190.4171  
2423.799954 6.6302     2.0137     6.4971     9.0423     8.7713     7.5567     5.3926     13.1951    0.1251     190.4455  
