~Version
 VERS              .         2.0                           : CWLS LOG ASCII STANDARD - VERSION 2.0
 WRAP              .         NO                            : ONE LINE PER DEPTH STEP
 DLM               .         SPACE                         : DELIMITING CHARACTER(SPACE TAB OR COMMA)
~Well Information
#_______________________________________________________________________________
#
#PARAMETER_NAME    .UNIT     VALUE                         : DESCRIPTION
#_______________________________________________________________________________
STRT               .m        2490                          : First reference value
STOP               .m        2666                          : Last reference value
STEP               .m        0.2                           : Step increment
NULL               .         -9999                         : Missing value
COMP               .                                       : Company
WELL               .         404                           : Well name
FLD                .                                       : Field
LOC                .                                       : Location
CNTY               .                                       : County
STAT               .                                       : State
CTRY               .                                       : Country
SRVC               .                                       : Service Company
DATE               .                                       : Date
API                .                                       : API number
EREF               .m        140.4                         : 
Pad                .         4                             : 
X                  .m        222100                        : 
Y                  .m        250025                        : 
group              .         Pad4                          : 
Интер-р            .         Зайцев                        : 
Куст               .         4                             : 
Статус             .         Не проверено                  : 
Тип                .         Разведка                      : 
~Parameter Information Block
#_______________________________________________________________________________
#
#PARAMETER_NAME    .UNIT     VALUE                         : DESCRIPTION
#_______________________________________________________________________________
SET                .         LAS1                          : 
REAL_CREATION_DATE .         Ср апр 11 2012-13_17_14       : 
TLFamily_DEPTH     .         Measured Depth                : 
TLFamily_KS        .         Potential Resistivity         : 
TLFamily_KS1       .         Extra Shallow Resistivity     : 
TLFamily_KS2       .         Shallow Resistivity           : 
TLFamily_KS3       .         Medium Resistivity            : 
TLFamily_KS4       .         Deep Resistivity              : 
TLFamily_KS5       .         Extra Deep Resistivity        : 
TLFamily_LLD       .         Lateral Log Resistivity       : 
TLFamily_OKS3      .         Medium Resistivity Inverted   : 
TLFamily_RM        .         Mud Resistivity               : 
group              .         INI                           : 
~Curve Information
#_______________________________________________________________________________
#
#LOGNAME           .UNIT     LOG_ID                        : DESCRIPTION
#_______________________________________________________________________________
DEPTH              .m                                      : Measured Depth 
KS                 .ohm.m                                  : Potential Resistivity 
KS1                .ohm.m                                  : Extra Shallow Resistivity 
KS2                .ohm.m                                  : Shallow Resistivity 
KS3                .ohm.m                                  : Medium Resistivity 
KS4                .ohm.m                                  : Deep Resistivity 
KS5                .ohm.m                                  : Extra Deep Resistivity 
LLD                .ohm.m                                  : Lateral Log Resistivity 
OKS3               .ohm.m                                  : Medium Resistivity Inverted 
RM                 .ohm.m                                  : Mud Resistivity 
~Ascii
# ...
2533.8     5.62       1.7028     6.3774     10.6383    13.7954    11.6622    5.6777     10.2825    0.095     
2534       5.5997     1.6859     6.2527     10.3991    13.3769    11.4792    5.4258     10.3768    0.091     
2534.2     5.5793     1.6588     6.1805     10.2246    12.8494    11.244     5.2123     10.4416    0.091     
2534.4     5.5658     1.6723     6.2199     10.1535    12.4901    11.0218    5.5709     10.4545    0.091     
2534.6     5.5658     1.6656     6.2002     10.1082    12.1466    10.8939    5.547      10.5839    0.093     
2534.8     5.5556     1.6452     6.1149     9.9919     11.7787    10.7996    5.2335     10.8393    0.095     
2535       5.5522     1.6385     6.0821     9.9272     11.516     10.6689    5.2446     10.9981    0.095     
2535.2     5.5793     1.6385     6.0755     9.882      11.3578    10.5513    5.3203     11.1145    0.091     
2535.4     5.6132     1.6317     6.069      9.8561     11.2532    10.4467    5.5828     11.1469    0.091     
2535.6     5.6539     1.6385     6.0788     9.84       11.1087    10.3291    5.724      11.1922    0.095     
2535.8     5.6879     1.652      6.0559     9.8432     10.9839    10.1933    5.6492     11.1922    0.095     
2536       5.7169     1.6656     6.1149     9.8174     10.846     10.0416    5.7122     11.1631    0.093     
2536.2     5.741      1.652      6.1018     9.7527     10.6555    9.8194     5.8799     11.0951    0.091     
2536.4     5.7693     1.652      6.0887     9.6622     10.4912    9.5842     5.7587     11.0498    0.091     
2536.6     5.81       1.652      6.0887     9.604      10.4058    9.4535     5.5841     11.1145    0.091     
2536.8     5.8642     1.6317     6.0451     9.5621     10.3402    9.3489     5.5907     11.3669    0.091     
2537       5.871      1.6452     6.1271     9.6881     10.4847    9.2966     5.5876     11.3216    0.091     
2537.2     5.8778     1.7469     6.4824     9.9983     10.6817    9.2051     6.4348     11.1657    0.091     
2537.4     5.8846     1.774      6.5217     10.1987    10.5766    9.0875     7.4497     11.0045    0.095     
2537.6     5.871      1.7435     6.3839     10.1147    10.3992    8.8653     5.5189     11.0822    0.091     
2537.8     5.8235     1.6791     6.3577     10.063     10.2942    8.5647     5.1579     11.1986    0.091     
2538       5.8167     1.7266     6.4299     10.0797    10.1825    8.2249     6.4087     11.1534    0.091     
2538.2     5.81       1.6994     6.3807     10.0841    10.0314    8.0148     5.8319     11.1728    0.091     
2538.4     5.7828     1.6859     6.338      10.0048    9.8738     7.8067     5.6306     11.3765    0.095     
2538.6     5.776      1.6452     6.1871     9.882      9.7161     7.5538     5.4416     11.561     0.091     
2538.8     5.7828     1.6385     6.1018     9.7592     9.6077     7.4016     5.4665     11.8263    0.091     
2539       5.8032     1.6181     6.0559     9.7269     9.5782     7.2839     5.5089     12.0593    0.091     
2539.2     5.8303     1.6249     6.0559     9.7656     9.6242     7.2578     5.643      12.3052    0.091     
2539.4     5.8778     1.6046     5.9968     9.785      9.7424     7.3624     5.5072     12.6158    0.091     
2539.6     5.9592     1.5775     5.9049     9.7204     9.9066     7.4538     5.4024     12.8608    0.091     
2539.8     6.0102     1.5707     5.8721     9.7527     10.2482    7.6368     5.4631     13.224     0.091     
2540       6.0881     1.5911     5.9902     9.9337     10.6215    7.8459     5.7204     13.5282    0.091     
2540.2     6.2238     1.6113     6.0034     10.063     10.8068    8.055      6.4884     13.5605    0.091     
2540.4     6.3866     1.591      5.9771     10.0113    10.9445    8.2511     6.4239     13.6058    0.091     
2540.6     6.5087     1.591      5.9772     10.105     11.2269    8.3948     6.905      13.5152    0.091     
2540.8     6.6104     1.6859     6.2855     10.3215    11.6736    8.4994     8.9813     13.1852    0.095     
2541       6.6511     1.7728     6.5713     10.8329    12.2247    8.6301     10.0493    12.7167    0.091     
2541.2     6.6511     1.8316     6.9483     11.2265    12.567     8.7085     10.09      12.3375    0.091     
2541.4     6.6036     1.8892     7.1451     11.485     12.7441    8.7085     8.0482     11.9752    0.091     
2541.6     6.5087     1.8756     7.237      11.582     12.6984    8.604      6.7651     11.8393    0.091     
2541.8     6.4137     1.8621     7.3026     11.6468    12.5867    8.434      6.5957     11.7422    0.091     
2542       6.3392     1.835      7.2567     11.6854    12.4093    8.3426     5.7722     11.7487    0.091     
2542.2     6.3052     1.7911     7.1189     11.6725    12.2123    8.1988     5.6397     11.8631    0.091     
2542.4     6.2577     1.7537     6.9417     11.6854    12.0021    8.0681     5.6223     12.0657    0.091     
2542.6     6.2373     1.7469     6.8236     11.7565    11.9561    7.9766     6.2748     12.2858    0.095     
2542.8     6.2373     1.7469     6.8273     11.847     11.897     7.9243     6.2014     12.4799    0.091     
2543       6.2441     1.7401     6.7317     11.9278    11.8838    7.859      6.3459     12.7064    0.091     
2543.2     6.2577     1.7469     6.6989     11.9116    11.8576    7.8329     6.3021     12.8876    0.091     
2543.4     6.2678     1.7469     6.6792     11.8599    11.8444    7.7544     6.5689     12.9654    0.091     
2543.6     6.2848     1.7469     6.6792     11.7048    11.8378    7.6891     6.489      13.0687    0.091     
2543.8     6.2848     1.7469     6.6661     11.5691    11.8577    7.6237     6.4751     13.1723    0.091     
2544       6.2645     1.7672     6.7711     11.5432    11.9692    7.5192     6.7715     13.2887    0.091     
2544.2     6.2373     1.8011     6.8728     11.5238    12.1269    7.4016     6.789      13.3405    0.091     
2544.4     6.2373     1.774      6.7973     11.317     12.0809    7.3166     6.1073     13.5145    0.091     
2544.6     6.2373     1.7198     6.5874     11.0067    11.8378    7.2055     5.6487     13.7094    0.091     
2544.8     6.2509     1.6821     6.4496     10.6964    11.6276    7.0618     5.7342     14.1688    0.091     
2545       6.3255     1.6385     6.2527     10.4573    11.5489    6.9964     5.6719     14.8029    0.091     
2545.2     6.4137     1.6046     6.1543     10.328     11.4831    7.0095     5.4845     15.4953    0.091     
2545.4     6.5426     1.6046     6.1149     10.3732    11.5422    7.114      6.2636     16.1424    0.091     
2545.6     6.6783     1.6249     6.1477     10.4702    11.6802    7.2575     7.1851     16.7054    0.091     
2545.8     6.7972     1.6452     6.2461     10.6641    11.8838    7.4016     7.5966     17.1586    0.091     
2546       6.8886     1.6621     6.3314     10.8193    12.0508    7.6368     7.561      17.5531    0.091     
2546.2     7.0242     1.6588     6.3774     11.0261    12.2123    7.8329     7.3224     18.2778    0.091     
2546.4     7.1463     1.6994     6.653      11.3105    12.5407    7.9766     7.778      18.8084    0.091     
2546.6     7.2074     1.7333     6.758      11.4527    12.6984    8.0289     9.2027     18.9055    0.091     
2546.8     7.3295     1.7537     6.8238     11.5567    12.9086    8.0812     9.0742     18.9896    0.091     
2547       7.4312     1.7672     6.8958     11.5884    12.9217    8.055      8.1778     19.2677    0.091     
2547.2     7.533      1.7604     6.9089     11.6272    12.9283    8.0028     8.148      19.6108    0.091     
2547.4     7.6551     1.7604     6.9679     11.6531    12.8758    7.9766     8.3672     19.9991    0.091     
2547.6     7.8179     1.6994     6.7317     11.5884    12.81      8.0028     7.4093     20.6009    0.091     
2547.8     7.9943     1.652      6.6759     11.5984    12.7772    8.0681     7.0911     21.2544    0.091     
2548       8.2181     1.6656     6.7252     11.6919    12.9086    8.1666     8.2247     21.7268    0.091     
2548.2     8.4963     1.6452     6.6858     11.8793    13.0794    8.3164     9.1227     21.9532    0.091     
