~Version
 VERS              .         2.0                           : CWLS LOG ASCII STANDARD - VERSION 2.0
 WRAP              .         NO                            : ONE LINE PER DEPTH STEP
 DLM               .         SPACE                         : DELIMITING CHARACTER(SPACE TAB OR COMMA)
~Well Information
#_______________________________________________________________________________
#
#PARAMETER_NAME    .UNIT     VALUE                         : DESCRIPTION
#_______________________________________________________________________________
STRT               .m        2490                          : First reference value
STOP               .m        2666                          : Last reference value
STEP               .m        0.2                           : Step increment
NULL               .         -9999                         : Missing value
COMP               .                                       : Company
WELL               .         404                           : Well name
FLD                .                                       : Field
LOC                .                                       : Location
CNTY               .                                       : County
STAT               .                                       : State
CTRY               .                                       : Country
SRVC               .                                       : Service Company
DATE               .                                       : Date
API                .                                       : API number
EREF               .m        140.4                         : 
Pad                .         4                             : 
X                  .m        222100                        : 
Y                  .m        250025                        : 
group              .         Pad4                          : 
Интер-р            .         Зайцев                        : 
Куст               .         4                             : 
Статус             .         Не проверено                  : 
Тип                .         Разведка                      : 
~Parameter Information Block
#_______________________________________________________________________________
#
#PARAMETER_NAME    .UNIT     VALUE                         : DESCRIPTION
#_______________________________________________________________________________
SET                .         LAS1                          : 
REAL_CREATION_DATE .         Ср апр 11 2012-13_17_14       : 
TLFamily_DEPTH     .         Measured Depth                : 
TLFamily_KS        .         Potential Resistivity         : 
TLFamily_KS1       .         Extra Shallow Resistivity     : 
TLFamily_KS2       .         Shallow Resistivity           : 
TLFamily_KS3       .         Medium Resistivity            : 
TLFamily_KS4       .         Deep Resistivity              : 
TLFamily_KS5       .         Extra Deep Resistivity        : 
TLFamily_LLD       .         Lateral Log Resistivity       : 
TLFamily_OKS3      .         Medium Resistivity Inverted   : 
TLFamily_RM        .         Mud Resistivity               : 
group              .         INI                           : 
~Curve Information
#_______________________________________________________________________________
#
#LOGNAME           .UNIT     LOG_ID                        : DESCRIPTION
#_______________________________________________________________________________
DEPTH              .m                                      : Measured Depth 
KS                 .ohm.m                                  : Potential Resistivity 
KS1                .ohm.m                                  : Extra Shallow Resistivity 
KS2                .ohm.m                                  : Shallow Resistivity 
KS3                .ohm.m                                  : Medium Resistivity 
KS4                .ohm.m                                  : Deep Resistivity 
KS5                .ohm.m                                  : Extra Deep Resistivity 
LLD                .ohm.m                                  : Lateral Log Resistivity 
OKS3               .ohm.m                                  : Medium Resistivity Inverted 
RM                 .ohm.m                                  : Mud Resistivity 
~Ascii
# ...
2592.2     7.7636     1.4385     5.7475     11.4915    15.0697    6.1469     10.1602    14.9259    0.088     
2592.4     7.8722     1.4623     5.8459     11.8405    16.5543    6.2776     10.34      14.8935    0.088     
2592.6     7.9875     1.469      5.8984     12.1508    17.7034    6.4585     10.9024    14.8547    0.091     
2592.8     8.1096     1.4826     5.9574     12.4289    18.4724    6.7089     11.0517    14.79      0.091     
2593       8.2114     1.5165     6.0755     12.7519    19.9372    7.1402     11.1845    14.9065    0.088     
2593.2     8.2453     1.591      6.4168     13.5728    21.875     7.5845     11.7761    15.1071    0.091     
2593.4     8.2453     1.774      7.0336     14.6329    23.2742    8.0158     13.1882    14.9       0.095     
2593.6     8.2453     1.8418     7.4404     15.0854    23.6486    8.2119     19.3342    14.4794    0.095     
2593.8     8.2588     1.8191     7.2479     15.0078    23.424     8.5111     20.1814    13.8237    0.091     
2594       8.2249     1.8011     7.1517     14.8721    23.2282    8.7477     12.2732    13.2564    0.095     
2594.2     8.1164     1.7875     7.2565     14.9496    23.4581    9.2444     10.9961    12.9328    0.098     
2594.4     7.9875     1.774      7.3223     15.1694    23.9902    9.7149     11.08      12.6934    0.095     
2594.6     7.8857     1.7875     7.4141     15.2405    24.161     10.2376    10.6776    12.4216    0.091     
2594.8     7.8043     1.7604     7.2895     15.2405    24.1149    10.5252    11.6668    12.0657    0.088     
2595       7.7026     1.7469     7.1648     15.1177    23.9967    11.1394    9.9505     11.8004    0.088     
2595.2     7.5805     1.7266     7.086      15.066     23.8982    11.7929    9.5445     11.6775    0.088     
2595.4     7.4855     1.6927     6.9942     15.0012    23.7734    12.6685    8.8552     11.6257    0.088     
2595.6     7.4109     1.652      6.8695     14.982     23.7077    13.8056    8.7819     11.6451    0.088     
2595.8     7.3091     1.6588     6.8367     15.0983    24.0756    14.7989    8.4576     11.6581    0.084     
2596       7.2142     1.7401     7.0664     15.3116    24.3482    15.8967    8.5279     11.6322    0.088     
2596.2     7.1056     1.7537     7.0532     15.4215    24.6273    17.452     10.1747    11.6581    0.091     
2596.4     6.9835     1.7537     7.0795     15.3439    24.7127    18.968     8.6428     11.6484    0.091     
2596.6     6.8953     1.7672     7.0664     15.1048    24.4368    20.4579    8.9547     11.3992    0.091     
2596.8     6.8207     1.7198     6.8039     14.6717    23.78      21.7126    9.1864     11.1016    0.088     
2597       6.7257     1.7198     6.7645     14.2128    23.2019    22.1831    7.5228     10.9204    0.091     
2597.2     6.6579     1.713      6.712      13.8573    22.8275    22.915     7.6874     10.8686    0.095     
2597.4     6.6104     1.6723     6.5545     13.4436    22.4745    23.6469    7.4889     10.8622    0.091     
2597.6     6.5901     1.6317     6.4036     13.0687    22.2494    24.1697    7.1287     10.8816    0.091     
2597.8     6.5697     1.6046     6.3643     12.9782    22.302     24.7708    6.9295     10.9139    0.093     
2598       6.546      1.652      6.4692     13.0881    22.6238    25.2629    7.076      10.9042    0.095     
2598.2     6.5155     1.6622     6.5152     13.2884    23.0311    25.738     8.312      10.8557    0.098     
2598.4     6.4748     1.713      6.6399     13.5211    23.3596    26.2216    7.8434     10.6033    0.095     
2598.6     6.4273     1.7672     6.8564     13.6957    23.4384    26.4699    10.5941    10.118     0.095     
2598.8     6.3323     1.8011     6.9614     13.7344    23.3333    26.2346    9.9202     9.6392     0.091     
2599       6.1661     1.8418     7.0795     13.5341    22.7552    25.6596    8.8052     9.1571     0.091     
2599.2     6.027      1.7842     6.9154     13.2173    21.8356    25.2021    7.6447     8.8432     0.088     
2599.4     5.9117     1.7333     6.8039     12.836     20.7255    24.1958    6.5999     8.5262     0.088     
2599.6     5.8167     1.713      6.7448     12.4998    19.7795    22.9803    6.5846     8.3062     0.084     
2599.8     5.6811     1.6927     6.5611     12.2154    18.9125    21.8564    6.7714     8.1314     0.088     
2600       5.559      1.6859     6.443      11.931     18.1833    20.7716    6.3084     8.0279     0.091     
2600.2     5.4776     1.6723     6.3249     11.582     17.3228    20.0658    6.1645     8.015      0.091     
2600.4     5.403      1.6317     6.1608     11.3105    16.436     19.3862    5.8969     8.0085     0.091     
2600.6     5.3046     1.6113     5.9738     11.0584    15.6609    18.5106    5.8073     8.0506     0.091     
2600.8     5.2198     1.5944     5.8656     10.8257    15.0106    17.7134    5.7583     8.1703     0.095     
2601       5.1316     1.5978     5.8328     10.5025    14.5048    17.0729    5.661      8.3644     0.098     
2601.2     5.0434     1.5978     5.7606     10.2375    14.1107    16.4587    5.5743     8.5262     0.095     
2601.4     4.9247     1.6046     5.7639     10.063     13.6903    15.8575    5.7782     8.6362     0.091     
2601.6     4.901      1.5605     5.5309     9.5523     12.9677    15.3478    5.7324     9.2638     0.088     
2601.8     4.8874     1.3267     4.8157     8.6959     12.2057    15.1517    3.1443     10.0986    0.088     
2602       4.9417     1.3335     4.8551     8.3113     11.7689    14.8511    5.3743     10.5904    0.088     
2602.2     5.0434     1.3335     4.7566     8.1626     11.6079    14.7858    5.2049     11.0369    0.088     
2602.4     5.1791     1.3538     4.6582     8.0075     11.5948    15.0864    5.2147     11.6451    0.088     
2602.6     5.3215     1.3538     4.6057     7.9331     11.7722    15.5438    5.1084     12.852     0.088     
2602.8     5.464      1.3335     4.6188     8.0075     12.1137    16.0927    4.9956     13.9423    0.088     
2603       5.6539     1.3403     4.7632     8.0915     12.5867    16.6417    6.1112     14.7059    0.091     
2603.2     5.9762     1.3199     4.8157     8.1755     12.8297    17.1644    6.4273     14.9324    0.091     
2603.4     6.2373     1.4046     5.0191     8.3048     12.9348    17.4912    7.6887     14.8159    0.091     
2603.6     6.4341     1.4961     5.2488     8.4793     13.0202    17.5696    8.7123     14.4147    0.091     
2603.8     6.5765     1.5504     5.4587     8.6215     13.0498    17.4781    9.2693     14.1494    0.095     
2604       6.685      1.6385     5.8984     8.7831     12.902     17.2821    9.4369     13.8841    0.095     
2604.2     6.8343     1.6385     5.9771     8.8995     12.5867    17.1252    7.7892     13.5929    0.091     
2604.4     6.936      1.5978     6.0099     8.8995     12.2188    16.9684    7.5724     13.2887    0.091     
2604.6     7.0174     1.5978     6.0887     9.1063     12.0415    16.8769    7.6947     13.2758    0.091     
2604.8     7.0921     1.6249     6.233      9.4618     12.14      16.903     8.4315     13.334     0.088     
2605       7.1633     1.652      6.4463     9.8755     12.2451    16.9815    8.8103     13.3599    0.088     
2605.2     7.2684     1.6656     6.4692     10.4056    12.1991    17.0729    8.7583     13.3308    0.088     
2605.4     7.3159     1.6859     6.4889     10.8774    12.209     17.1122    8.602      13.3535    0.088     
2605.6     7.3363     1.7266     6.6792     11.3622    12.4093    17.0729    8.922      13.4117    0.088     
2605.8     7.3363     1.7537     6.8433     11.8147    12.5538    17.0729    9.0019     13.457     0.091     
2606       7.3261     1.7808     6.9483     12.0862    12.6721    17.1122    9.2732     13.3243    0.095     
2606.2     7.2752     1.7706     7.0532     12.4546    12.8757    17.1252    9.4257     12.9523    0.091     
2606.4     7.1531     1.8418     7.296      12.92      13.3947    16.8246    10.7921    12.6611    0.091     
2606.6     7.0107     1.9502     7.6766     13.1139    13.5195    16.6547    7.7718     12.6352    0.095     
