~Version
 VERS              .         2.0                           : CWLS LOG ASCII STANDARD - VERSION 2.0
 WRAP              .         NO                            : ONE LINE PER DEPTH STEP
 DLM               .         SPACE                         : DELIMITING CHARACTER(SPACE TAB OR COMMA)
~Well Information
#_______________________________________________________________________________
#
#PARAMETER_NAME    .UNIT     VALUE                         : DESCRIPTION
#_______________________________________________________________________________
STRT               .m        2490                          : First reference value
STOP               .m        2666                          : Last reference value
STEP               .m        0.2                           : Step increment
NULL               .         -9999                         : Missing value
COMP               .                                       : Company
WELL               .         404                           : Well name
FLD                .                                       : Field
LOC                .                                       : Location
CNTY               .                                       : County
STAT               .                                       : State
CTRY               .                                       : Country
SRVC               .                                       : Service Company
DATE               .                                       : Date
API                .                                       : API number
EREF               .m        140.4                         : 
Pad                .         4                             : 
X                  .m        222100                        : 
Y                  .m        250025                        : 
group              .         Pad4                          : 
Интер-р            .         Зайцев                        : 
Куст               .         4                             : 
Статус             .         Не проверено                  : 
Тип                .         Разведка                      : 
~Parameter Information Block
#_______________________________________________________________________________
#
#PARAMETER_NAME    .UNIT     VALUE                         : DESCRIPTION
#_______________________________________________________________________________
SET                .         LAS1                          : 
REAL_CREATION_DATE .         Ср апр 11 2012-13_17_14       : 
TLFamily_DEPTH     .         Measured Depth                : 
TLFamily_KS        .         Potential Resistivity         : 
TLFamily_KS1       .         Extra Shallow Resistivity     : 
TLFamily_KS2       .         Shallow Resistivity           : 
TLFamily_KS3       .         Medium Resistivity            : 
TLFamily_KS4       .         Deep Resistivity              : 
TLFamily_KS5       .         Extra Deep Resistivity        : 
TLFamily_LLD       .         Lateral Log Resistivity       : 
TLFamily_OKS3      .         Medium Resistivity Inverted   : 
TLFamily_RM        .         Mud Resistivity               : 
group              .         INI                           : 
~Curve Information
#_______________________________________________________________________________
#
#LOGNAME           .UNIT     LOG_ID                        : DESCRIPTION
#_______________________________________________________________________________
DEPTH              .m                                      : Measured Depth 
KS                 .ohm.m                                  : Potential Resistivity 
KS1                .ohm.m                                  : Extra Shallow Resistivity 
KS2                .ohm.m                                  : Shallow Resistivity 
KS3                .ohm.m                                  : Medium Resistivity 
KS4                .ohm.m                                  : Deep Resistivity 
KS5                .ohm.m                                  : Extra Deep Resistivity 
LLD                .ohm.m                                  : Lateral Log Resistivity 
OKS3               .ohm.m                                  : Medium Resistivity Inverted 
RM                 .ohm.m                                  : Mud Resistivity 
~Ascii
# ...
2563       11.8609    2.1298     9.7239     22.9196    39.0065    31.58      22.6013    21.3127    0.095     
2563.2     11.8067    2.1738     9.9798     23.4302    39.8564    32.6125    21.7681    20.7562    0.095     
2563.4     11.7185    2.228      10.0848    23.6888    40.1954    33.5404    21.7252    20.1867    0.095     
2563.6     11.6099    2.2213     10.0782    23.6693    40.2611    34.3115    18.8388    19.9214    0.095     
2563.8     11.481     2.2009     10.0257    23.6112    40.2349    34.8301    15.6127    19.9408    0.091     
2564       11.3965    2.2009     10.0979    23.7275    40.6027    35.2264    16.0992    19.9667    0.098     
2564.2     11.264     2.2279     10.3079    24.0378    41.0231    35.9714    17.6408    19.7467    0.098     
2564.4     11.1012    2.2619     10.3604    24.4838    41.3844    36.5595    21.3759    19.0349    0.095     
2564.6     10.8977    2.3094     10.6622    24.7488    41.7325    36.8209    19.977     18.3555    0.095     
2564.8     10.6806    2.3365     10.6396    24.7424    41.4304    36.5595    18.3345    18.1419    0.095     
2565       10.511     2.228      10.2094    24.0637    39.6174    36.2404    10.588     18.5172    0.098     
2565.2     10.4262    2.0654     9.6058     22.7063    37.476     35.7622    10.0033    18.9777    0.095     
2565.4     10.4092    1.9536     9.0152     21.5298    35.8469    35.2264    8.9266     19.6755    0.095     
2565.6     10.4296    1.9163     8.7855     20.9675    35.4361    35.1088    10.4526    20.4067    0.098     
2565.8     10.4703    1.9299     8.7724     20.9222    35.4462    35.4878    12.2563    20.8726    0.098     
2566       10.5246    1.9909     8.8282     21.0059    35.7746    36.1543    15.3447    21.0732    0.098     
2566.2     10.5653    2.018      8.8905     21.0644    35.9388    36.4941    16.1163    21.0344    0.098     
2566.4     10.5619    2.0518     8.9233     21.1291    36.0571    37.0431    15.8258    20.9728    0.098     
2566.6     10.5381    2.0993     9.1399     21.226     36.379     37.2391    16.3388    20.9826    0.098     
2566.8     10.4499    2.1196     9.3433     21.2519    36.4644    37.0823    15.5834    21.0344    0.098     
2567       10.4092    2.1399     9.2842     20.7283    35.9454    36.6248    15.0707    21.3385    0.098     
2567.2     10.4092    2.0247     8.884      19.7975    34.4149    35.9844    12.5529    21.9598    0.095     
2567.4     10.4567    1.9095     8.6149     19.0089    32.6807    35.3048    10.0018    22.9367    0.095     
2567.6     10.5383    1.8418     8.2081     18.285     31.6691    35.0042    9.0687     23.7069    0.095     
2567.8     10.606     1.8351     8.1556     18.2074    31.3669    34.5468    9.2738     24.7358    0.095     
2568       10.7823    1.8621     8.1425     18.0329    30.9578    34.5076    11.6171    25.3182    0.095     
2568.2     11.0265    1.7943     7.7553     17.7162    30.27      34.6121    13.9915    25.8423    0.091     
2568.4     11.2504    1.7469     7.6936     17.6806    29.9547    34.6906    10.8169    26.0947    0.091     
2568.6     11.4878    1.835      7.9194     17.9036    30.3948    34.8343    18.6211    25.6999    0.091     
2568.8     11.6747    1.9028     8.2015     18.3626    30.802     35.1218    19.0386    25.0751    0.091     
2569       11.7931    1.9265     8.405      18.6405    30.8809    35.5139    19.1976    24.6387    0.091     
2569.2     11.9559    1.9366     8.5034     18.6857    30.7331    35.8668    18.3826    23.9075    0.091     
2569.4     12.1119    1.9299     8.5624     18.8473    30.8086    36.1674    17.3498    23.351     0.091     
2569.6     12.2272    1.9637     8.832      19.1583    31.2881    36.6118    16.5778    22.7686    0.091     
2569.8     12.329     2.0044     8.9561     19.4937    32.0764    37.0113    18.0902    21.9986    0.091     
2570       12.3763    2.0518     9.1727     20.1143    32.8843    37.5789    18.5795    21.3916    0.091     
2570.2     12.4036    2.0722     9.3958     20.877     33.9879    38.4546    19.1756    20.5103    0.091     
2570.4     12.3765    2.1128     9.796      22.0017    35.3509    39.3302    21.9299    19.3714    0.091     
2570.6     12.2544    2.2619     10.4522    23.4561    36.4446    39.9706    28.685     18.0643    0.091     
2570.8     12.078     2.3568     10.717     24.3686    37.6336    40.5326    34.0685    16.8219    0.091     
2571       11.9627    2.3568     10.7541    24.5496    37.9489    40.7025    23.9329    16.2395    0.091     
2571.2     11.6438    2.3771     10.8394    25.072     38.435     40.7548    17.11      15.3256    0.091     
2571.4     11.3451    2.4246     11.1281    25.7378    39.1313    40.4803    20.1321    14.6735    0.091     
2571.6     11.1215    2.4449     11.3381    26.1967    39.4269    40.2973    15.9287    13.7676    0.091     
2571.8     10.7416    2.411      11.1346    26.4359    39.6211    39.8268    14.634     13.1464    0.091     
2572       10.3753    2.4246     11.279     26.5876    39.9721    39.1342    12.6761    12.4411    0.091     
2572.2     10.0226    2.4178     11.072     26.6363    40.3662    38.2585    15.2119    11.7875    0.091     
2572.4     9.6223     2.3704     10.9181    26.5264    40.3859    37.8272    10.9051    11.2438    0.091     
2572.6     9.3786     2.3636     10.8722    26.2808    40.5042    36.8209    10.8867    10.9592    0.091     
2572.8     9.0457     2.3331     10.6294    25.9899    40.5567    35.6838    10.6838    10.5127    0.091     
2573       8.6387     2.3365     10.59      25.5051    40.4216    34.5076    10.732     10.0209    0.091     
2573.2     8.2724     2.3094     10.2357    24.6713    39.7882    33.0961    11.1691    9.5227     0.091     
2573.4     7.8857     2.2416     9.9212     23.9177    39.0196    31.5931    8.4362     9.1344     0.091     
2573.6     7.4923     2.2552     10.0126    23.4431    38.1394    30.1751    8.8791     8.8303     0.091     
2573.8     7.2816     2.1738     9.5992     22.2473    36.3264    28.7832    7.615      8.5262     0.091     
2574       6.9835     2.0856     9.0152     20.9222    34.6249    27.058     6.792      8.4717     0.091     
2574.2     6.6783     2.0451     8.5952     19.5842    33.285     25.372     6.2773     8.4873     0.091     
2574.4     6.4069     1.9366     8.0769     18.2656    31.4523    23.9344    5.442      8.8303     0.091     
2574.6     6.2238     1.8485     7.85       17.4173    29.5408    22.7189    4.9868     9.2574     0.095     
2574.8     6.1084     1.7198     7.2632     16.404     27.7738    21.9609    4.8035     9.6456     0.091     
2575       6.0677     1.7062     7.0664     15.3245    26.2433    21.2552    5.3293     9.8851     0.091     
2575.2     6.0338     1.6689     6.758      14.7816    25.1134    20.4579    5.5417     10.0015    0.088     
2575.4     5.9728     1.7401     6.8105     14.2968    24.5282    19.726     5.7681     9.8781     0.095     
2575.6     5.9049     1.7537     6.8301     13.7732    23.78      18.9942    7.0129     9.7103     0.091     
2575.8     5.8032     1.8011     6.8529     13.3491    22.4071    18.027     6.8509     9.5421     0.095     
2576       5.7218     1.7266     6.5677     12.5903    20.5218    17.378     5.1561     9.6845     0.091     
2576.2     5.6336     1.652      6.3183     11.6402    18.9782    16.6155    4.6905     10.1698    0.094     
2576.4     5.6268     1.6113     6.2461     10.8645    17.5133    15.9098    4.7872     10.6713    0.098     
2576.6     5.6268     1.5101     5.8524     10.3021    16.8052    15.2432    5.0465     11.0951    0.098     
2576.8     5.6404     1.5436     6.0099     9.9725     15.9434    14.8381    5.4105     11.6193    0.101     
2577       5.6811     1.5707     5.7606     9.9466     15.2208    14.4721    6.1337     12.0722    0.095     
2577.2     5.715      1.5707     5.8107     9.7527     14.288     14.3011    5.0311     12.2275    0.095     
2577.4     5.7693     1.5504     5.6884     9.5717     13.526     14.0016    5.9287     12.2599    0.095     
