~Version
 VERS              .         2.0                           : CWLS LOG ASCII STANDARD - VERSION 2.0
 WRAP              .         NO                            : ONE LINE PER DEPTH STEP
 DLM               .         SPACE                         : DELIMITING CHARACTER(SPACE TAB OR COMMA)
~Well Information
#_______________________________________________________________________________
#
#PARAMETER_NAME    .UNIT     VALUE                         : DESCRIPTION
#_______________________________________________________________________________
STRT               .m        2490                          : First reference value
STOP               .m        2666                          : Last reference value
STEP               .m        0.2                           : Step increment
NULL               .         -9999                         : Missing value
COMP               .                                       : Company
WELL               .         404                           : Well name
FLD                .                                       : Field
LOC                .                                       : Location
CNTY               .                                       : County
STAT               .                                       : State
CTRY               .                                       : Country
SRVC               .                                       : Service Company
DATE               .                                       : Date
API                .                                       : API number
EREF               .m        140.4                         : 
Pad                .         4                             : 
X                  .m        222100                        : 
Y                  .m        250025                        : 
group              .         Pad4                          : 
Интер-р            .         Зайцев                        : 
Куст               .         4                             : 
Статус             .         Не проверено                  : 
Тип                .         Разведка                      : 
~Parameter Information Block
#_______________________________________________________________________________
#
#PARAMETER_NAME    .UNIT     VALUE                         : DESCRIPTION
#_______________________________________________________________________________
SET                .         LAS3                          : 
REAL_CREATION_DATE .         Ср апр 11 2012-13_17_15       : 
TLFamily_DEPTH     .         Measured Depth                : 
TLFamily_GR        .         Gamma Ray                     : 
TLFamily_TNPH      .         Neutron Porosity              : 
group              .         INI                           : 
~Curve Information
#_______________________________________________________________________________
#
#LOGNAME           .UNIT     LOG_ID                        : DESCRIPTION
#_______________________________________________________________________________
DEPTH              .m                                      : Measured Depth 
GR                 .gAPI                                   :  
TNPH               .v/v                                    : Neutron Porosity 
~Ascii
2490.0     61.89999   0.304     
2490.2     66.38      0.307     
2490.4     67.04001   0.329     
2490.6     60.68      0.325     
2490.8     58.85      0.302     
2491       59.99      0.27      
2491.2     61.64      0.28      
2491.4     58.14      0.308     
2491.6     50.93      0.304     
2491.8     48.69      0.29      
2492       47.36      0.281     
2492.2     49.54      0.312     
2492.4     50.52      0.352     
2492.6     48.56      0.302     
2492.8     49.72      0.275     
2493       50.02      0.267     
2493.2     49.99      0.257     
2493.4     52.64      0.264     
2493.6     54.24      0.228     
2493.8     57.42      0.265     
2494       54.15      0.245     
2494.2     53.73      0.246     
2494.4     52         0.247     
2494.6     55.37      0.219     
2494.8     54.88      0.215     
2495       56.51      0.226     
2495.2     51.55      0.213     
2495.4     51.76      0.21      
2495.6     50.05      0.225     
2495.8     46.07      0.245     
2496       41.1       0.288     
2496.2     36.84      0.287     
2496.4     43.37      0.28      
2496.6     58.79      0.257     
2496.8     90.03999   0.23      
2497       97.86      0.244     
2497.2     95.01      0.276     
2497.4     96.52      0.241     
2497.6     97.04001   0.2       
2497.8     91.35001   0.17      
2498       86.93      0.156     
2498.2     79.06999   0.178     
2498.4     78.68      0.214     
2498.6     84.38      0.232     
2498.8     89.01      0.236     
2499       90.78      0.202     
2499.2     85.4       0.199     
2499.4     76.25      0.171     
2499.6     63.88      0.154     
2499.8     49.11      0.125     
2500       45.5       0.122     
2500.2     47.83      0.13      
2500.4     47.99      0.131     
2500.6     49.78      0.134     
2500.8     48.66      0.202     
2501       55.04      0.222     
2501.2     55.63      0.205     
2501.4     61.66      0.212     
2501.6     68.4       0.218     
2501.8     72.53999   0.239     
2502       82.72      0.232     
2502.2     94.59      0.243     
2502.4     100.59     0.252     
2502.6     106.07     0.225     
2502.8     108.16     0.21      
2503       105.27     0.207     
2503.2     101.32     0.246     
2503.4     101.92     0.25      
2503.6     101.97     0.242     
2503.8     100.4      0.22      
2504       101.36     0.192     
2504.2     106.03     0.179     
2504.4     107.56     0.192     
2504.6     107.22     0.175     
2504.8     103.09     0.173     
2505       91.75999   0.204     
2505.2     95.34      0.186     
2505.4     95.09      0.183     
2505.6     95.56      0.222     
2505.8     93.14999   0.209     
2506       92.3       0.22      
2506.2     87.43      0.234     
2506.4     90.69      0.213     
2506.6     106.17     0.208     
2506.8     112.46     0.24      
2507       107.69     0.234     
2507.2     113.72     0.207     
2507.4     110.84     0.194     
2507.6     111.55     0.213     
2507.8     106.04     0.227     
2508       95.49      0.218     
2508.2     83.25      0.229     
2508.4     70.54      0.218     
2508.6     66.7       0.214     
2508.8     65.54      0.232     
2509       66.27      0.242     
2509.2     68.59      0.243     
2509.4     74.96001   0.228     
2509.6     80.86      0.218     
2509.8     84.34      0.243     
2510       81.5       0.254     
2510.2     80.55      0.233     
2510.4     76.39      0.2       
2510.6     68.54      0.211     
2510.8     66.7       0.184     
2511       69.38      0.192     
2511.2     73.7       0.21      
2511.4     68.64999   0.208     
2511.6     59.51      0.233     
2511.8     57.13      0.248     
2512       58.75      0.254     
2512.2     52.72      0.229     
2512.4     50.87      0.181     
2512.6     56.22      0.183     
2512.8     59.25      0.197     
2513       62.8       0.201     
2513.2     70.24001   0.193     
2513.4     81.06      0.209     
2513.6     86.66      0.191     
2513.8     95.63      0.202     
2514       108.05     0.218     
2514.2     115.79     0.22      
2514.4     110.31     0.246     
2514.6     104.63     0.236     
2514.8     104.63     0.193     
2515       100.21     0.188     
2515.2     89.89999   0.177     
2515.4     78.21      0.202     
2515.6     66.67      0.187     
2515.8     66.66      0.176     
2516       68.81      0.192     
2516.2     76.00999   0.213     
2516.4     84.09      0.204     
2516.6     91.16      0.194     
2516.8     93.21999   0.194     
2517       94.08      0.184     
2517.2     96.34      0.192     
2517.4     90.19      0.198     
2517.6     76.82      0.193     
2517.8     74.37      0.189     
2518       69.1       0.192     
2518.2     64.96001   0.186     
2518.4     61.51      0.203     
2518.6     63.66      0.172     
2518.8     63.75      0.174     
2519       62.57      0.194     
2519.2     60.66      0.191     
2519.4     60.03      0.175     
2519.6     60.96      0.192     
2519.8     56.46      0.23      
2520       60.71999   0.234     
2520.2     64.58      0.211     
2520.4     69.68001   0.207     
2520.6     72.52      0.191     
2520.8     76.99001   0.194     
2521       81.66      0.211     
2521.2     82.37      0.213     
2521.4     85.03999   0.215     
2521.6     80.91      0.204     
2521.8     65.36      0.176     
2522       49.91      0.168     
2522.2     49.63      0.17      
2522.4     56.02      0.178     
2522.6     59.98      0.189     
2522.8     65.41      0.171     
2523       66.47      0.177     
2523.2     56.29      0.192     
2523.4     61.84      0.198     
2523.6     77.3       0.22      
2523.8     87.17      0.205     
2524       82.02      0.193     
2524.2     76.89999   0.214     
2524.4     75.68      0.196     
2524.6     65.31      0.191     
2524.8     55.01      0.166     
2525       49.12      0.179     
2525.2     45.87      0.199     
2525.4     50.09      0.202     
2525.6     59.01      0.216     
2525.8     67.65      0.263     
2526       68.71001   0.207     
2526.2     75.92      0.209     
2526.4     84.08      0.222     
2526.6     93.86      0.229     
2526.8     96.41      0.232     
2527       94.11      0.239     
2527.2     92.91      0.235     
2527.4     91.65      0.23      
2527.6     88.25      0.221     
2527.8     93.02      0.246     
2528       102.06     0.264     
2528.2     108.98     0.245     
2528.4     106.64     0.238     
2528.6     98.68      0.223     
2528.8     81.81      0.207     
2529       70.31999   0.19      
2529.2     64.32999   0.184     
2529.4     69.78      0.19      
2529.6     78.35      0.209     
2529.8     87.81999   0.241     
2530       96.34      0.238     
2530.2     112.01     0.241     
2530.4     119.37     0.257     
2530.6     113.91     0.244     
2530.8     113.54     0.233     
2531       114.36     0.246     
2531.2     115.96     0.282     
2531.4     120.67     0.259     
2531.6     120.21     0.247     
2531.8     120.06     0.255     
2532       120.34     0.267     
2532.2     128.6      0.227     
2532.4     132.75     0.22      
2532.6     138.71     0.205     
2532.8     124.22     0.203     
2533       112.03     0.216     
2533.2     114.17     0.246     
2533.4     121.46     0.25      
2533.6     120.62     0.239     
2533.8     112.66     0.24      
2534       110.24     0.236     
2534.2     105.06     0.252     
2534.4     112.97     0.273     
2534.6     117.16     0.263     
2534.8     120.69     0.279     
2535       129.81     0.309     
2535.2     136.41     0.335     
2535.4     143.14     0.356     
2535.6     143.96     0.371     
2535.8     147.63     0.337     
2536       151.43     0.307     
2536.2     152.6      0.277     
2536.4     147.72     0.27      
2536.6     146.49     0.287     
2536.8     134.42     0.282     
2537       133.87     0.301     
2537.2     125.16     0.281     
2537.4     123.1      0.286     
2537.6     126.57     0.281     
2537.8     124.94     0.261     
2538       121.16     0.25      
2538.2     113.45     0.232     
2538.4     115.99     0.228     
