~Version
 VERS              .         2.0                           : CWLS LOG ASCII STANDARD - VERSION 2.0
 WRAP              .         NO                            : ONE LINE PER DEPTH STEP
 DLM               .         SPACE                         : DELIMITING CHARACTER(SPACE TAB OR COMMA)
~Well Information
#_______________________________________________________________________________
#
#PARAMETER_NAME    .UNIT     VALUE                         : DESCRIPTION
#_______________________________________________________________________________
STRT               .m        2490                          : First reference value
STOP               .m        2666                          : Last reference value
STEP               .m        0.2                           : Step increment
NULL               .         -9999                         : Missing value
COMP               .                                       : Company
WELL               .         404                           : Well name
FLD                .                                       : Field
LOC                .                                       : Location
CNTY               .                                       : County
STAT               .                                       : State
CTRY               .                                       : Country
SRVC               .                                       : Service Company
DATE               .                                       : Date
API                .                                       : API number
EREF               .m        140.4                         : 
Pad                .         4                             : 
X                  .m        222100                        : 
Y                  .m        250025                        : 
group              .         Pad4                          : 
Интер-р            .         Зайцев                        : 
Куст               .         4                             : 
Статус             .         Не проверено                  : 
Тип                .         Разведка                      : 
~Parameter Information Block
#_______________________________________________________________________________
#
#PARAMETER_NAME    .UNIT     VALUE                         : DESCRIPTION
#_______________________________________________________________________________
SET                .         LAS1                          : 
REAL_CREATION_DATE .         Ср апр 11 2012-13_17_14       : 
TLFamily_DEPTH     .         Measured Depth                : 
TLFamily_KS        .         Potential Resistivity         : 
TLFamily_KS1       .         Extra Shallow Resistivity     : 
TLFamily_KS2       .         Shallow Resistivity           : 
TLFamily_KS3       .         Medium Resistivity            : 
TLFamily_KS4       .         Deep Resistivity              : 
TLFamily_KS5       .         Extra Deep Resistivity        : 
TLFamily_LLD       .         Lateral Log Resistivity       : 
TLFamily_OKS3      .         Medium Resistivity Inverted   : 
TLFamily_RM        .         Mud Resistivity               : 
group              .         INI                           : 
~Curve Information
#_______________________________________________________________________________
#
#LOGNAME           .UNIT     LOG_ID                        : DESCRIPTION
#_______________________________________________________________________________
DEPTH              .m                                      : Measured Depth 
KS                 .ohm.m                                  : Potential Resistivity 
KS1                .ohm.m                                  : Extra Shallow Resistivity 
KS2                .ohm.m                                  : Shallow Resistivity 
KS3                .ohm.m                                  : Medium Resistivity 
KS4                .ohm.m                                  : Deep Resistivity 
KS5                .ohm.m                                  : Extra Deep Resistivity 
LLD                .ohm.m                                  : Lateral Log Resistivity 
OKS3               .ohm.m                                  : Medium Resistivity Inverted 
RM                 .ohm.m                                  : Mud Resistivity 
~Ascii
# ...
2519.2     5.8778     1.6146     5.9771     9.9402     11.5488    9.0483     6.7826     12.1434    0.091     
2519.4     5.8914     1.6452     6.0755     9.9725     11.5291    8.9176     6.5502     12.3958    0.095     
2519.6     5.8982     1.652      6.023      9.9078     11.4405    8.7869     6.2418     12.7387    0.095     
2519.8     5.9321     1.6113     5.8953     9.7204     11.2138    8.6693     5.8579     13.1334    0.095     
2520       5.9796     1.5571     5.8131     9.604      10.9116    8.604      5.8032     13.5605    0.091     
2520.2     6.0677     1.5097     5.6425     9.3972     10.6686    8.617      5.6685     13.9585    0.091     
2520.4     6.1292     1.4758     5.5112     9.2679     10.7014    8.7346     6.3141     14.3112    0.091     
2520.6     6.2305     1.4894     5.5834     9.3907     11.02      8.8784     7.6727     14.6671    0.091     
2520.8     6.3866     1.5504     5.7343     9.4166     11.1481    9.1267     6.3852     14.8612    0.095     
2521       6.5969     1.4623     5.4259     9.4042     11.2598    9.362      6.8407     14.9194    0.091     
2521.2     6.8072     1.4555     5.4719     9.3714     11.3715    9.5124     7.0999     14.9841    0.088     
2521.4     7.0242     1.5097     5.6031     9.604      11.7393    9.6626     9.1526     15.0326    0.095     
2521.6     7.1937     1.5232     5.7934     9.8238     12.1269    10.0024    7.8194     15.0553    0.091     
2521.8     7.377      1.5029     5.8524     10.2117    12.6327    10.3422    12.462     15.023     0.091     
2522       7.5059     1.652      6.5217     10.8904    13.1647    10.6951    17.8448    14.557     0.091     
2522.2     7.5805     1.835      7.1123     11.6531    13.9596    11.061     12.9027    13.7158    0.091     
2522.4     7.5059     1.9163     7.2828     12.0497    14.4785    11.3015    10.6399    13.3664    0.091     
2522.6     7.3431     2.0044     7.6897     12.5257    14.8267    11.4792    11.6638    13.3396    0.095     
2522.8     7.2549     1.9841     7.9128     12.9459    14.9712    11.7668    9.6485     13.5088    0.095     
2523       7.0785     1.8892     7.7422     13.3595    15.2469    11.8844    6.9968     13.5088    0.091     
2523.2     6.9021     2.0044     8.2672     13.5082    15.2142    11.9105    9.4123     13.4893    0.091     
2523.4     6.8343     1.835      7.2895     13.1656    14.8858    11.9236    5.1253     13.9035    0.091     
2523.6     6.78       1.6656     6.8794     12.8329    14.2749    11.9105    7.8437     14.3176    0.091     
2523.8     6.8682     1.6791     6.9286     12.6162    14.0647    11.9366    7.0579     14.8935    0.091     
2524       6.9431     1.5504     6.3774     12.3512    13.8282    12.1196    5.6624     15.2479    0.091     
2524.2     7.0514     1.5267     6.0952     12.0926    13.8413    12.5379    6.3367     15.8253    0.091     
2524.4     7.2549     1.5436     6.069      12.0474    14.1193    13.1521    6.8926     16.453     0.091     
2524.6     7.5262     1.4894     5.8853     12.0926    14.6821    14.0016    7.4593     17.3525    0.091     
2524.8     7.7569     1.5029     6.0834     12.3803    15.7923    14.9949    11.2492    17.4366    0.091     
2525       7.8925     1.7537     6.7908     13.3014    17.579     15.4523    53.5499    16.2848    0.095     
2525.2     7.8656     2.079      7.7619     14.7428    19.4248    15.9228    68.5673    15.3268    0.095     
2525.4     7.7365     2.2681     8.733      15.512     20.0751    15.8052    34.7233    14.1041    0.095     
2525.6     7.5466     2.2009     8.4509     15.0401    19.7732    15.2302    6.5706     13.2887    0.091     
2525.8     7.3905     1.9976     7.9981     13.8896    18.4526    14.3153    5.9734     13.2823    0.091     
2526       7.3024     1.7672     7.5338     13.3156    17.1455    13.2959    5.5155     13.5929    0.091     
2526.2     7.2617     1.6927     7.2698     12.9071    16.7185    12.943     6.8997     14.0394    0.093     
2526.4     7.2413     1.7604     7.4338     13.1462    16.7776    12.3549    8.3564     14.2141    0.095     
2526.6     7.2617     1.7573     7.2632     13.3014    16.3638    12.0412    8.011      14.5765    0.091     
2526.8     7.3227     1.6994     6.758      13.2173    15.9762    11.819     6.5515     14.8935    0.091     
2527       7.3634     1.6791     6.8433     13.4371    15.6346    11.5054    7.8738     15.0294    0.095     
2527.2     7.4177     1.7469     7.0174     13.756     15.6806    11.2832    9.8633     14.7835    0.095     
2527.4     7.4448     1.774      7.0204     13.9154    15.6609    11.244     9.4184     14.3241    0.093     
2527.6     7.4448     1.8011     7.1057     13.7991    15.4967    11.1525    8.0753     14.11      0.091     
2527.8     7.4312     1.7641     7.0532     13.5341    15.6609    11.0479    7.459      13.8808    0.091     
2528       7.3838     1.7808     7.2107     13.3595    15.7333    10.9434    7.5554     14.0624    0.091     
2528.2     7.3973     1.7808     7.0795     13.1333    15.8383    10.8258    6.7418     14.4147    0.095     
2528.4     7.5194     1.652      6.7533     12.6427    15.5886    10.8258    6.2712     14.6088    0.091     
2528.6     7.7162     1.5707     6.5349     12.4223    15.4835    10.7996    8.5186     14.3435    0.091     
2528.8     7.8824     1.591      6.4627     12.4805    16.1536    10.878     9.5752     13.8783    0.091     
2529       7.9468     1.7503     6.8695     13.1915    17.6513    11.0871    15.7041    13.3599    0.095     
2529.2     7.9807     1.8892     7.5651     14.1352    18.5843    11.4139    20.3067    12.3505    0.095     
2529.4     7.9468     1.9728     7.8078     14.7363    19.3263    11.8321    13.3265    11.231     0.091     
2529.6     7.7976     2.0315     8.0802     15.0218    19.6219    12.0543    11.9555    10.5063    0.091     
2529.8     7.5398     2.0925     8.3393     15.3375    19.97      12.1914    10.0529    10.0986    0.093     
2530       7.2984     2.1196     8.7462     15.596     19.9832    12.3157    8.1121     10.0242    0.095     
2530.2     7.1328     2.0313     8.5624     15.4991    19.6153    12.4072    6.5409     10.0533    0.095     
2530.4     6.8963     1.9773     8.3262     15.2858    19.2756    12.4464    6.835      10.0209    0.091     
2530.6     6.7325     1.9397     8.1294     15.2858    19.1555    12.3287    6.8434     9.9627     0.091     
2530.8     6.5629     1.9231     7.9549     15.2955    18.9716    12.185     6.4273     9.9692     0.095     
2531       6.4069     1.8756     7.7553     15.2147    18.6629    12.0804    6.0632     10.0598    0.095     
2531.2     6.2641     1.835      7.4141     14.9173    18.2819    11.9628    6.047      10.0921    0.095     
2531.4     6.1695     1.8112     7.2238     14.5036    17.8943    11.7406    6.1824     10.0662    0.091     
2531.6     6.0677     1.8011     7.0795     14.0318    17.6561    11.623     5.7712     10.0662    0.095     
2531.8     5.9863     1.7875     6.9351     13.4888    17.3294    11.5315    5.7314     10.1115    0.095     
2532       5.9049     1.7604     6.8135     13.155     16.9418    11.5054    5.751      10.1957    0.095     
2532.2     5.8575     1.7469     6.7711     12.6227    16.4951    11.4662    5.6832     10.2345    0.093     
2532.4     5.8269     1.713      6.607      12.1789    16.0813    11.4269    5.5883     10.2669    0.091     
2532.6     5.81       1.6825     6.4364     11.7694    15.7791    11.44      5.4508     10.2733    0.091     
2532.8     5.776      1.6994     6.4561     11.4656    15.6675    11.4662    5.8246     10.2474    0.095     
2533       5.7421     1.713      6.4561     11.2782    15.523     11.5838    5.9951     10.2604    0.091     
2533.2     5.7014     1.713      6.4332     11.103     15.2668    11.7537    5.8425     10.3057    0.091     
2533.4     5.6607     1.6994     6.3839     10.9873    14.8858    11.7929    5.6011     10.2992    0.091     
2533.6     5.637      1.7062     6.4102     10.8193    14.3997    11.7798    5.7084     10.2757    0.091     
