~Version
 VERS              .         2.0                           : CWLS LOG ASCII STANDARD - VERSION 2.0
 WRAP              .         NO                            : ONE LINE PER DEPTH STEP
 DLM               .         SPACE                         : DELIMITING CHARACTER(SPACE TAB OR COMMA)
~Well Information
#_______________________________________________________________________________
#
#PARAMETER_NAME    .UNIT     VALUE                         : DESCRIPTION
#_______________________________________________________________________________
STRT               .m        2490                          : First reference value
STOP               .m        2666                          : Last reference value
STEP               .m        0.2                           : Step increment
NULL               .         -9999                         : Missing value
COMP               .                                       : Company
WELL               .         404                           : Well name
FLD                .                                       : Field
LOC                .                                       : Location
CNTY               .                                       : County
STAT               .                                       : State
CTRY               .                                       : Country
SRVC               .                                       : Service Company
DATE               .                                       : Date
API                .                                       : API number
EREF               .m        140.4                         : 
Pad                .         4                             : 
X                  .m        222100                        : 
Y                  .m        250025                        : 
group              .         Pad4                          : 
Интер-р            .         Зайцев                        : 
Куст               .         4                             : 
Статус             .         Не проверено                  : 
Тип                .         Разведка                      : 
~Parameter Information Block
#_______________________________________________________________________________
#
#PARAMETER_NAME    .UNIT     VALUE                         : DESCRIPTION
#_______________________________________________________________________________
SET                .         LAS1                          : 
REAL_CREATION_DATE .         Ср апр 11 2012-13_17_14       : 
TLFamily_DEPTH     .         Measured Depth                : 
TLFamily_KS        .         Potential Resistivity         : 
TLFamily_KS1       .         Extra Shallow Resistivity     : 
TLFamily_KS2       .         Shallow Resistivity           : 
TLFamily_KS3       .         Medium Resistivity            : 
TLFamily_KS4       .         Deep Resistivity              : 
TLFamily_KS5       .         Extra Deep Resistivity        : 
TLFamily_LLD       .         Lateral Log Resistivity       : 
TLFamily_OKS3      .         Medium Resistivity Inverted   : 
TLFamily_RM        .         Mud Resistivity               : 
group              .         INI                           : 
~Curve Information
#_______________________________________________________________________________
#
#LOGNAME           .UNIT     LOG_ID                        : DESCRIPTION
#_______________________________________________________________________________
DEPTH              .m                                      : Measured Depth 
KS                 .ohm.m                                  : Potential Resistivity 
KS1                .ohm.m                                  : Extra Shallow Resistivity 
KS2                .ohm.m                                  : Shallow Resistivity 
KS3                .ohm.m                                  : Medium Resistivity 
KS4                .ohm.m                                  : Deep Resistivity 
KS5                .ohm.m                                  : Extra Deep Resistivity 
LLD                .ohm.m                                  : Lateral Log Resistivity 
OKS3               .ohm.m                                  : Medium Resistivity Inverted 
RM                 .ohm.m                                  : Mud Resistivity 
~Ascii
# ...
2636       7.0581     1.9366     7.5963     13.6439    14.715     14.263     7.2229     14.117     0.095     
2636.2     7.0039     1.835      7.5585     13.1333    14.0318    14.0539    5.3471     14.4147    0.088     
2636.4     7.0039     1.6181     6.6923     11.9052    13.0126    13.884     5.3111     15.2106    0.088     
2636.6     7.0305     1.4758     6.1149     11.0713    12.6327    13.7533    6.0121     16.2829    0.088     
2636.8     7.0921     1.4623     5.9312     10.7094    12.6195    14.0147    7.0989     16.9966    0.091     
2637       7.2617     1.4826     5.7737     10.4831    12.7641    14.3022    6.1222     18.116     0.091     
2637.2     7.4652     1.3809     5.3538     10.3141    12.9414    14.8904    6.5316     19.3714    0.095     
2637.4     7.689      1.3945     5.3814     10.1923    13.3158    15.7529    9.7427     20.3679    0.091     
2637.6     7.9875     1.4284     5.5375     10.3021    13.8151    16.9553    9.003      20.8079    0.084     
2637.8     8.1909     1.4013     5.4784     10.4443    14.1967    18.3407    9.1265     21.5974    0.088     
2638       8.442      1.3945     5.6228     10.8904    15.0828    19.6215    12.3774    22.3389    0.088     
2638.2     8.7066     1.4758     6.1018     11.7113    16.4426    20.2358    22.4103    22.8592    0.095     
2638.4     8.9847     1.6181     6.6661     12.3059    17.3162    21.3728    18.6735    22.0892    0.091     
2638.6     9.2628     1.6791     6.7711     12.4754    17.6184    22.2877    14.7904    20.5556    0.088     
2638.8     9.4595     1.6994     6.8761     12.6227    17.8417    23.1372    13.5161    19.2808    0.091     
2639       9.5681     1.7469     7.1385     13.0299    18.4461    24.2611    13.3082    18.4266    0.095     
2639.2     9.609      1.7808     7.3879     13.5793    18.9677    25.6726    14.08      17.9494    0.095     
2639.4     9.6291     1.8183     7.7488     14.3291    19.8255    27.4893    16.5969    17.689     0.088     
2639.6     9.6088     1.9095     8.2672     15.4021    20.9816    28.6525    16.6964    17.0613    0.088     
2639.8     9.5816     1.9773     8.5428     16.0579    22.3939    31.1618    12.2157    16.2589    0.088     
2640       9.5409     1.9502     8.4831     16.7207    23.7077    33.828     12.1571    15.8448    0.095     
2640.2     9.4528     1.9434     8.464      17.4124    25.0018    36.8862    13.7978    16.0842    0.096     
2640.4     9.3209     1.9841     8.7527     18.6599    27.0053    39.5262    19.8139    16.4207    0.088     
2640.6     9.1814     2.1124     9.4352     20.6572    28.492     41.0684    32.2302    16.4207    0.088     
2640.8     8.8897     2.2484     10.3144    22.5188    30.1846    41.3168    23.9223    15.4694    0.091     
2641       8.4827     2.3636     10.6031    23.6435    31.321     40.7025    14.1805    14.3694    0.091     
2641.2     8.0146     2.4652     10.8497    23.848     31.472     38.35      10.8011    13.4246    0.095     
2641.4     7.5466     2.3636     10.6556    23.4561    30.3356    35.5923    8.2823     13.0078    0.084     
2641.6     7.1735     2.1738     10.0651    22.0534    28.654     32.2335    5.8672     12.3699    0.088     
2641.8     6.9345     2.0112     9.2711     20.8253    27.8596    28.4434    7.1437     12.0625    0.088     
2642       6.6308     2.0282     9.0743     19.6812    26.7097    25.5083    6.1458     11.9687    0.095     
2642.2     6.4137     1.896      7.9588     17.9683    24.831     22.8104    4.3628     12.2922    0.095     
2642.4     6.3459     1.7875     7.4535     16.7918    23.4778    21.1768    4.3168     12.6028    0.088     
2642.6     6.2984     1.5797     6.5941     15.2913    20.9882    18.0401    4.7128     13.5713    0.084     
2642.8     6.3594     1.4351     6.2068     14.0253    19.484     15.8052    8.81       14.447     0.088     
2643       6.4951     1.4148     5.859      13.3531    18.9519    14.4068    9.2871     15.1783    0.091     
2643.2     6.6783     1.4894     5.9181     13.2561    18.9348    13.4789    9.3879     15.4371    0.095     
2643.4     6.8546     1.5571     5.964      12.9846    18.8271    12.943     9.2447     15.2106    0.088     
2643.6     6.9835     1.5978     6.0362     12.7261    18.6694    12.6555    8.9184     14.9       0.084     
2643.8     7.0785     1.6588     6.2921     12.499     18.5709    12.0935    8.4425     14.8288    0.088     
2644       7.1229     1.6723     6.443      12.3447    18.4198    11.5446    8.8708     14.9259    0.091     
2644.2     7.204      1.6758     6.5677     12.0409    18.0454    11.1133    9.2673     14.9712    0.095     
2644.4     7.2959     1.6723     6.6005     11.763     17.7235    10.6559    10.329     14.7771    0.084     
2644.6     7.3702     1.6656     6.7252     11.6272    17.6514    10.2638    9.5025     14.5053    0.088     
2644.8     7.4109     1.7266     6.867      11.7242    17.6513    9.9109     7.3065     14.24      0.091     
2645       7.4448     1.7401     6.9089     11.7953    17.4673    9.7802     8.5577     14.1235    0.095     
2645.2     7.4652     1.6588     6.6853     11.9827    17.2308    9.5842     12.57      14.3759    0.088     
2645.4     7.5059     1.713      6.9023     12.3835    17.0404    9.3881     10.3416    13.9973    0.084     
2645.6     7.5873     1.7604     7.1254     12.6097    16.6791    9.3228     7.1222     13.7482    0.091     
2645.8     7.6687     1.7198     6.8367     12.5451    16.1613    9.362      9.8311     13.9553    0.095     
2646       7.7229     1.6656     6.7055     12.4932    15.8711    9.4143     10.0597    14.0005    0.091     
2646.2     7.8247     1.6859     6.863      12.6485    15.6609    9.4927     10.1405    13.9876    0.084     
2646.4     7.9129     1.6994     6.9351     12.8496    15.5558    9.741      9.5767     13.9811    0.088     
2646.6     7.9468     1.7198     6.9548     13.1398    15.6281    10.0808    9.7022     13.9682    0.088     
2646.8     7.94       1.7943     7.1517     13.5211    16.0222    10.4729    9.3259     13.8744    0.095     
2647       7.9332     1.7808     7.2173     13.7151    16.3638    10.9303    9.2447     13.8582    0.095     
2647.2     7.9468     1.7875     7.2829     13.728     16.6791    11.2963    9.1433     13.8582    0.084     
2647.4     7.9468     1.7672     7.2567     13.8249    17.0995    11.6099    9.3055     13.8582    0.088     
2647.6     7.9332     1.7672     7.3682     14.0382    17.6578    11.7668    9.4075     13.8582    0.095     
2647.8     7.8688     1.8011     7.4732     14.2386    18.1111    12.1196    9.0677     13.8582    0.088     
2648       7.7772     1.8384     7.4863     14.3162    18.3359    12.4725    9.0886     13.8582    0.088     
2648.2     7.6755     1.8282     7.4863     14.439     18.5775    12.9038    9.0501     13.8582    0.088     
2648.4     7.5737     1.8485     7.5454     14.6135    18.9022    13.3612    8.8462     -9999      0.091     
2648.6     7.533      1.9028     7.6077     14.8915    19.4248    13.9232    8.9477     -9999      0.091     
2648.8     7.5262     1.9231     7.8341     15.15      19.9963    14.4169    9.3403     -9999      0.084     
2649       7.5262     1.9231     7.9916     15.331     20.3313    14.9949    9.1821     -9999      0.083     
2649.2     7.4923     1.9163     8.0375     15.4797    20.5941    15.8706    8.8579     -9999      0.081     
2649.4     7.4652     1.9061     8.0047     15.6607    21.0999    16.707     8.7383     -9999      0.081     
2649.6     7.4719     1.896      8.0113     15.9709    21.5991    17.2951    8.7011     -9999      0.081     
2649.8     7.4652     1.896      8.0178     16.3911    21.9735    17.7526    8.1959     -9999      0.081     
2650       7.4584     1.896      8.1228     16.6432    21.9144    18.027     7.4797     -9999      0.081     
2650.2     7.4719     1.896      8.2803     16.7272    21.9341    18.0401    6.7788     -9999      0.081     
2650.4     7.4652     1.896      8.2803     16.6626    22.0458    17.7003    4.0084     -9999      0.081     
