~Version
 VERS              .         2.0                           : CWLS LOG ASCII STANDARD - VERSION 2.0
 WRAP              .         NO                            : ONE LINE PER DEPTH STEP
 DLM               .         SPACE                         : DELIMITING CHARACTER(SPACE TAB OR COMMA)
~Well Information
#_______________________________________________________________________________
#
#PARAMETER_NAME    .UNIT     VALUE                         : DESCRIPTION
#_______________________________________________________________________________
STRT               .m        2490                          : First reference value
STOP               .m        2666                          : Last reference value
STEP               .m        0.2                           : Step increment
NULL               .         -9999                         : Missing value
COMP               .                                       : Company
WELL               .         404                           : Well name
FLD                .                                       : Field
LOC                .                                       : Location
CNTY               .                                       : County
STAT               .                                       : State
CTRY               .                                       : Country
SRVC               .                                       : Service Company
DATE               .                                       : Date
API                .                                       : API number
EREF               .m        140.4                         : 
Pad                .         4                             : 
X                  .m        222100                        : 
Y                  .m        250025                        : 
group              .         Pad4                          : 
Интер-р            .         Зайцев                        : 
Куст               .         4                             : 
Статус             .         Не проверено                  : 
Тип                .         Разведка                      : 
~Parameter Information Block
#_______________________________________________________________________________
#
#PARAMETER_NAME    .UNIT     VALUE                         : DESCRIPTION
#_______________________________________________________________________________
SET                .         LAS1                          : 
REAL_CREATION_DATE .         Ср апр 11 2012-13_17_14       : 
TLFamily_DEPTH     .         Measured Depth                : 
TLFamily_KS        .         Potential Resistivity         : 
TLFamily_KS1       .         Extra Shallow Resistivity     : 
TLFamily_KS2       .         Shallow Resistivity           : 
TLFamily_KS3       .         Medium Resistivity            : 
TLFamily_KS4       .         Deep Resistivity              : 
TLFamily_KS5       .         Extra Deep Resistivity        : 
TLFamily_LLD       .         Lateral Log Resistivity       : 
TLFamily_OKS3      .         Medium Resistivity Inverted   : 
TLFamily_RM        .         Mud Resistivity               : 
group              .         INI                           : 
~Curve Information
#_______________________________________________________________________________
#
#LOGNAME           .UNIT     LOG_ID                        : DESCRIPTION
#_______________________________________________________________________________
DEPTH              .m                                      : Measured Depth 
KS                 .ohm.m                                  : Potential Resistivity 
KS1                .ohm.m                                  : Extra Shallow Resistivity 
KS2                .ohm.m                                  : Shallow Resistivity 
KS3                .ohm.m                                  : Medium Resistivity 
KS4                .ohm.m                                  : Deep Resistivity 
KS5                .ohm.m                                  : Extra Deep Resistivity 
LLD                .ohm.m                                  : Lateral Log Resistivity 
OKS3               .ohm.m                                  : Medium Resistivity Inverted 
RM                 .ohm.m                                  : Mud Resistivity 
~Ascii
# ...
2577.6     5.8235     1.5639     5.6293     9.4166     12.7378    13.6749    6.2941     12.2631    0.095     
2577.8     5.8846     1.5504     5.7015     9.2033     12.3132    13.4527    6.239      12.2211    0.095     
2578       5.9187     1.5097     5.4915     8.9253     11.7919    13.4789    5.3259     12.4993    0.091     
2578.2     5.9796     1.5267     5.544      8.7185     11.3977    13.8317    5.2698     13.1982    0.091     
2578.4     6.1627     1.4284     5.2881     8.6345     11.3715    14.6159    5.3599     14.6282    0.091     
2578.6     6.4137     1.3945     5.3605     8.7638     11.8904    15.8183    4.9146     15.78      0.09      
2578.8     6.6783     1.3742     5.3603     9.2615     12.7973    17.1775    6.021      16.105     0.088     
2579       6.8207     1.486      5.7278     10.1858    13.5654    18.4714    6.8766     15.903     0.088     
2579.2     6.9496     1.6723     6.6399     11.4139    14.9186    19.1379    12.0976    14.6088    0.088     
2579.4     7.0514     1.9366     7.2238     12.0926    15.2471    19.1641    36.8932    12.9199    0.088     
2579.6     7.0107     1.8892     7.0664     12.0151    14.7413    18.6599    9.6787     11.781     0.088     
2579.8     6.9293     1.8756     7.1976     11.7885    14.045     17.9617    6.8204     11.3206    0.088     
2580       6.8954     1.8147     7.2238     11.6854    13.5063    17.086     7.5713     10.8686    0.091     
2580.2     6.8275     1.7843     7.2238     11.5238    13.1976    16.5632    6.429      10.5839    0.091     
2580.4     6.7665     1.7604     7.2042     11.582     13.1033    16.2888    6.4562     10.4286    0.091     
2580.6     6.7054     1.7537     7.1057     11.8599    13.1845    16.3019    6.7755     10.338     0.091     
2580.8     6.6172     1.7943     7.2069     12.4514    13.526     16.4718    6.8681     10.2447    0.095     
2581       6.4951     1.8485     7.4469     13.0428    14.2946    16.707     7.1414     10.1568    0.095     
2581.2     6.3317     1.9705     7.7685     14.2128    15.0894    16.6809    7.9927     9.8915     0.095     
2581.4     6.2034     2.035      8.1884     15.1823    15.5295    16.3019    8.4988     9.335      0.095     
2581.6     6.0067     2.0247     8.0309     15.1953    15.2602    15.5046    7.9452     8.7138     0.095     
2581.8     5.7557     1.9705     7.8669     14.6782    14.7525    14.1585    6.5134     8.4395     0.101     
2582       5.5318     1.9231     7.639      14.2787    14.3406    13.4789    5.4268     8.3579     0.098     
2582.2     5.3755     1.7943     7.342      13.5599    13.5852    12.1458    5.0996     8.3773     0.098     
2582.4     5.2808     1.7501     7.0401     12.7132    12.9217    10.8911    4.4852     8.4485     0.095     
2582.6     5.1927     1.6927     6.6005     11.9504    12.4028    9.8063     4.4821     8.4809     0.095     
2582.8     5.1384     1.6046     6.1937     11.317     12.14      8.9438     4.3772     8.565      0.095     
2583       5.0706     1.6046     6.0428     10.8968    12.0678    8.1596     4.2726     8.5973     0.093     
2583.2     5.0265     1.6046     5.9837     10.5787    11.9561    7.8329     4.9563     8.6232     0.091     
2583.4     5.0095     1.5879     5.7934     10.2763    11.6605    7.2709     4.767      8.6362     0.088     
2583.6     4.9824     1.5504     5.5768     9.7915     11.1678    6.735      4.3783     8.7721     0.088     
2583.8     4.9756     1.5165     5.4194     9.2485     10.6423    6.3037     4.1991     8.9403     0.088     
2584       4.9756     1.4758     5.3374     8.8025     10.3607    5.9247     4.2259     9.0676     0.088     
2584.2     5.0163     1.4894     5.3341     8.4561     9.9395     5.6503     4.4441     9.2509     0.088     
2584.4     5.05       1.4284     5.1831     8.2531     9.5519     5.4411     4.676      9.4644     0.088     
2584.6     5.0909     1.4483     5.1635     8.0786     9.3417     5.3319     4.5922     9.6974     0.091     
2584.8     5.1384     1.4826     5.2422     8.085      9.3614     5.232      5.0162     9.9692     0.091     
2585       5.1723     1.5029     5.3275     8.1044     9.322      5.2059     5.2825     10.2312    0.091     
2585.2     5.1927     1.5436     5.435      8.1527     9.3121     5.1798     5.3267     10.4868    0.093     
2585.4     5.1893     1.5571     5.4784     8.182      9.2891     5.1798     5.6129     10.9398    0.091     
2585.6     5.1723     1.5707     5.5703     8.182      9.2497     5.219      5.3993     11.4445    0.091     
2585.8     5.1452     1.5775     5.6425     8.182      9.1315     5.2974     5.2627     12.0593    0.095     
2586       5.1316     1.5639     5.5834     8.1174     8.9147     5.4281     5.301      12.8228    0.091     
2586.2     5.1452     1.4961     5.4295     7.9946     8.7305     5.5196     4.9187     13.3079    0.093     
2586.4     5.1718     1.469      5.3734     7.9526     8.6651     5.7548     4.4881     13.8647    0.095     
2586.6     5.2062     1.4654     5.3472     7.9687     8.6848     6.1208     5.2575     14.3112    0.095     
2586.8     5.2673     1.4758     5.3013     7.9687     8.7374     6.6305     5.3522     14.9971    0.098     
2587       5.3962     1.4419     5.0847     7.82       8.7899     7.3885     5.1925     16.2007    0.095     
2587.2     5.6132     1.3199     4.7533     7.5615     8.9236     7.859      4.6817     17.5233    0.095     
2587.4     5.9185     1.2115     4.5795     7.5223     9.1775     9.1659     4.449      18.459     0.091     
2587.6     6.1356     1.2522     4.6123     7.7037     9.9657     10.7865    5.5853     19.9797    0.095     
2587.8     6.4476     1.2318     4.8091     8.3695     11.2795    12.381     6.9145     21.8303    0.091     
2588       6.7325     1.3335     5.3603     9.3132     12.6064    13.8579    6.9061     22.6327    0.088     
2588.2     6.9632     1.5504     6.2396     10.5607    13.8742    14.7166    14.611     21.7721    0.088     
2588.4     7.0378     1.8214     6.9187     11.621     14.5498    15.1909    31.8452    20.6974    0.088     
2588.6     6.9564     2.0247     7.6044     12.3124    15.1223    14.8904    79.5596    19.2743    0.088     
2588.8     6.8886     2.0621     7.9588     12.5968    14.426     14.0931    20.0079    17.5337    0.091     
2589       6.8004     1.8689     7.2829     11.9052    12.9414    12.7731    9.8424     15.9677    0.088     
2589.2     6.7529     1.6723     6.9811     11.0196    11.6671    11.1917    6.4857     14.8741    0.088     
2589.4     6.78       1.5775     6.6236     10.5995    10.9493    9.9762     6.82       14.5215    0.091     
2589.6     6.8275     1.5232     6.3643     10.4153    10.4584    9.5057     6.2948     14.4794    0.091     
2589.8     6.8887     1.4758     5.9771     10.2892    9.8738     8.7869     6.6369     14.6541    0.095     
2590       6.9971     1.4487     5.7015     10.3345    9.5716     8.2511     6.9917     14.9777    0.091     
2590.2     7.0853     1.4894     5.8853     10.8257    9.7227     7.8067     7.4577     15.1588    0.091     
2590.4     7.1599     1.5842     6.0821     11.4592    10.0186    7.4277     8.4124     15.1265    0.095     
2590.6     7.221      1.652      6.1377     11.6498    10.1694    7.2709     10.6869    15.01      0.098     
2590.8     7.2583     1.6046     6.023      11.5949    10.3007    6.9572     10.4817    15.0618    0.095     
2591       7.282      1.5673     5.9443     11.3751    10.4912    6.6435     8.8135     15.1041    0.095     
2591.2     7.3363     1.5571     5.9902     11.2846    10.9182    6.3952     8.6794     15.1071    0.095     
2591.4     7.4041     1.5232     5.9246     11.2265    11.5291    6.2384     9.1392     15.0747    0.095     
2591.6     7.4923     1.4894     5.8229     11.1489    11.9824    6.1861     8.9997     15.1394    0.091     
2591.8     7.594      1.4555     5.754      11.1424    12.7049    6.0946     9.093      15.1524    0.091     
2592       7.6721     1.4419     5.7081     11.2265    13.6837    6.0946     9.6027     14.9906    0.084     
