~Version
 VERS              .         2.0                           : CWLS LOG ASCII STANDARD - VERSION 2.0
 WRAP              .         NO                            : ONE LINE PER DEPTH STEP
 DLM               .         SPACE                         : DELIMITING CHARACTER(SPACE TAB OR COMMA)
~Well Information
#_______________________________________________________________________________
#
#PARAMETER_NAME    .UNIT     VALUE                         : DESCRIPTION
#_______________________________________________________________________________
STRT               .m        2490                          : First reference value
STOP               .m        2666                          : Last reference value
STEP               .m        0.2                           : Step increment
NULL               .         -9999                         : Missing value
COMP               .                                       : Company
WELL               .         404                           : Well name
FLD                .                                       : Field
LOC                .                                       : Location
CNTY               .                                       : County
STAT               .                                       : State
CTRY               .                                       : Country
SRVC               .                                       : Service Company
DATE               .                                       : Date
API                .                                       : API number
EREF               .m        140.4                         : 
Pad                .         4                             : 
X                  .m        222100                        : 
Y                  .m        250025                        : 
group              .         Pad4                          : 
Интер-р            .         Зайцев                        : 
Куст               .         4                             : 
Статус             .         Не проверено                  : 
Тип                .         Разведка                      : 
~Parameter Information Block
#_______________________________________________________________________________
#
#PARAMETER_NAME    .UNIT     VALUE                         : DESCRIPTION
#_______________________________________________________________________________
SET                .         LAS1                          : 
REAL_CREATION_DATE .         Ср апр 11 2012-13_17_14       : 
TLFamily_DEPTH     .         Measured Depth                : 
TLFamily_KS        .         Potential Resistivity         : 
TLFamily_KS1       .         Extra Shallow Resistivity     : 
TLFamily_KS2       .         Shallow Resistivity           : 
TLFamily_KS3       .         Medium Resistivity            : 
TLFamily_KS4       .         Deep Resistivity              : 
TLFamily_KS5       .         Extra Deep Resistivity        : 
TLFamily_LLD       .         Lateral Log Resistivity       : 
TLFamily_OKS3      .         Medium Resistivity Inverted   : 
TLFamily_RM        .         Mud Resistivity               : 
group              .         INI                           : 
~Curve Information
#_______________________________________________________________________________
#
#LOGNAME           .UNIT     LOG_ID                        : DESCRIPTION
#_______________________________________________________________________________
DEPTH              .m                                      : Measured Depth 
KS                 .ohm.m                                  : Potential Resistivity 
KS1                .ohm.m                                  : Extra Shallow Resistivity 
KS2                .ohm.m                                  : Shallow Resistivity 
KS3                .ohm.m                                  : Medium Resistivity 
KS4                .ohm.m                                  : Deep Resistivity 
KS5                .ohm.m                                  : Extra Deep Resistivity 
LLD                .ohm.m                                  : Lateral Log Resistivity 
OKS3               .ohm.m                                  : Medium Resistivity Inverted 
RM                 .ohm.m                                  : Mud Resistivity 
~Ascii
# ...
2548.4     8.6607     1.6859     6.7711     12.1637    13.3618    8.5647     9.5188     21.9015    0.091     
2548.6     8.8761     1.7062     6.9286     12.655     13.7844    8.8653     11.5427    21.7397    0.091     
2548.8     9.0864     1.7672     7.2304     13.2238    14.0844    9.2051     12.157     21.4486    0.091     
2549       9.2628     1.8282     7.506      13.5617    14.6756    9.558      13.4499    21.1768    0.091     
2549.2     9.3781     1.8621     7.6416     14.0512    15.3193    9.8257     13.6731    20.7562    0.091     
2549.4     9.4392     1.957      8.0572     14.6588    16.055     10.0808    13.9191    20.5002    0.091     
2549.6     9.4629     1.9773     8.254      15.2922    16.8696    10.3683    12.6139    20.2709    0.091     
2549.8     9.4663     2.0112     8.5165     15.7447    17.4818    10.5905    12.4652    20.2385    0.091     
2550       9.4595     1.9976     8.5362     16.1648    17.8615    10.7212    11.8689    20.3291    0.091     
2550.2     9.4595     1.9976     8.5756     16.488     18.341     10.8388    11.5347    20.3679    0.091     
2550.4     9.4731     1.9705     8.5264     16.6607    18.8271    10.878     11.6889    20.5362    0.091     
2550.6     9.4867     1.9434     8.464      16.8953    19.3394    10.9564    10.4666    20.716     0.091     
2550.8     9.4935     1.9502     8.4443     17.1409    19.8912    11.0479    11.7224    20.9438    0.091     
2551       9.5342     1.9502     8.4312     17.3865    20.2313    11.1917    11.7317    21.0668    0.091     
2551.2     9.5816     1.9502     8.4115     17.5287    20.6204    11.3355    11.993     21.1056    0.091     
2551.4     9.6291     1.9434     8.3918     17.6257    21.0605    11.5315    12.0611    21.0991    0.091     
2551.6     9.6766     1.9434     8.4016     17.6709    21.5466    11.7275    11.857     21.2027    0.091     
2551.8     9.7174     1.9502     8.3656     17.7097    22.0655    11.8452    11.6135    21.2803    0.095     
2552       9.7444     1.9502     8.4509     17.7743    22.6698    12.0804    13.0185    21.3321    0.095     
2552.2     9.7851     1.957      8.4903     17.839     23.3793    12.3287    12.702     21.2415    0.095     
2552.4     9.8123     1.9637     8.569      18.0523    23.9263    12.5771    13.3452    21.1315    0.091     
2552.6     9.8258     1.9976     8.674      18.2203    24.6602    12.8254    12.7678    21.138     0.095     
2552.8     9.8326     1.9841     8.6674     18.2688    25.1923    13.0868    12.4563    21.3644    0.096     
2553       9.8326     1.9841     8.6871     18.3561    25.6521    13.1913    13.21      21.4227    0.095     
2553.2     9.8394     1.9876     8.7396     18.5177    26.171     13.4135    13.4861    21.3674    0.098     
2553.4     9.8462     1.9773     8.7462     18.6728    26.5586    13.6618    13.0992    21.2738    0.095     
2553.6     9.8394     2.0044     8.8118     18.8215    26.7752    13.8709    13.4589    21.2738    0.095     
2553.8     9.8326     2.0112     8.8451     18.8441    26.8213    14.1323    13.2523    21.3515    0.098     
2554       9.8258     1.9909     8.7921     18.8086    26.6834    14.4329    12.7396    21.3256    0.095     
2554.2     9.8055     1.9705     8.6937     18.815     26.795     14.5636    12.9089    21.4227    0.095     
2554.4     9.7953     2.0112     8.8577     18.9443    27.0578    14.825     12.5749    21.6158    0.101     
2554.6     9.7784     1.9942     8.779      18.9766    26.9987    15.1125    11.6467    22.1151    0.101     
2554.8     9.8055     1.9637     8.6018     18.5953    26.6824    15.4654    11.1495    22.788     0.101     
2555       9.8801     1.9028     8.3787     18.3472    26.3812    15.7791    12.6026    23.3316    0.098     
2555.2     9.9412     1.8892     8.359      18.3238    26.5717    16.0128    14.5812    23.5581    0.098     
2555.4     10.0158    1.957      8.5099     18.5888    27.0644    16.2365    15.8712    23.4801    0.1       
2555.6     10.0531    1.9841     8.5953     18.7762    27.2877    16.5371    14.7735    23.3898    0.098     
2555.8     10.0768    1.9672     8.569      18.6664    27.1526    16.8116    13.5273    23.2345    0.098     
2556       10.1515    1.957      8.4312     18.3432    26.9067    16.9423    12.1003    23.2345    0.095     
2556.2     10.2125    1.9028     8.3131     18.0135    26.5651    17.1252    12.1411    23.4675    0.095     
2556.4     10.2871    1.896      8.323      17.9586    26.4732    17.3866    12.7321    23.9269    0.095     
2556.6     10.3821    1.896      8.3328     17.9036    26.5323    17.6728    13.6767    24.4381    0.095     
2556.8     10.5051    1.8689     8.254      17.7937    26.4141    18.027     12.8413    24.8702    0.091     
2557       10.606     1.8282     8.09       17.6774    26.4129    18.589     13.4553    25.1693    0.091     
2557.2     10.7688    1.835      8.1491     17.8584    26.6505    19.2948    14.7176    25.5835    0.091     
2557.4     10.9384    1.8621     8.2737     18.4337    27.4651    20.1573    16.3072    25.8617    0.091     
2557.6     11.0605    1.9231     8.5767     19.1754    28.6803    20.9154    21.8259    25.6805    0.091     
2557.8     11.1554    2.0383     8.943      19.6812    29.843     21.3986    27.4187    25.0205    0.091     
2558       11.2065    2.0586     9.1333     20.0949    30.1123    21.7779    16.553     24.5546    0.091     
2558.2     11.2504    2.0144     8.989      20.0238    29.9678    22.0132    14.7907    24.2699    0.091     
2558.4     11.2911    2.0247     9.0808     19.9462    29.8955    21.9609    15.2965    24.2181    0.091     
2558.6     11.3589    2.0112     9.0677     19.9074    29.8496    21.9217    15.6517    24.244     0.091     
2558.8     11.4607    1.9909     9.0051     19.7545    29.5868    21.9871    14.6867    24.2634    0.091     
2559       11.5624    1.9434     8.8118     19.6747    29.462     22.0594    16.7028    24.2246    0.091     
2559.2     11.6506    1.9705     8.8315     19.8363    29.889     22.1831    18.4017    24.163     0.091     
2559.4     11.6983    2.018      9.0283     20.2565    30.5853    22.4837    18.9929    23.9528    0.091     
2559.6     11.7592    2.0282     9.0808     20.612     31.0065    22.915     18.3173    23.6681    0.091     
2559.8     11.8067    2.0451     9.1727     20.9352    31.275     23.3724    18.7384    23.3251    0.091     
2560       11.8134    2.0654     9.2974     21.1686    31.8333    23.7776    18.2671    23.0857    0.091     
2560.2     11.8134    2.0993     9.4423     21.4329    32.4377    23.9605    18.0174    23.0598    0.091     
2560.4     11.8033    2.0925     9.4876     21.5751    32.7661    24.3265    16.3155    23.1439    0.091     
2560.6     11.8134    2.079      9.3958     21.4781    32.8121    24.7316    15.4844    23.2863    0.091     
2560.8     11.8338    2.0518     9.2842     21.4264    33.0576    25.1368    15.6401    23.3445    0.091     
2561       11.8541    2.0518     9.3564     21.5945    33.3967    25.555     17.5737    23.3057    0.091     
2561.2     11.8609    2.0722     9.445      21.8401    34.0996    26.0517    17.3432    23.2216    0.091     
2561.4     11.8609    2.0722     9.4023     21.9472    34.7302    26.3261    17.0156    23.0857    0.091     
2561.6     11.8677    2.0857     9.4286     22.0146    35.1703    26.875     17.8519    22.9244    0.091     
2561.8     11.8609    2.0722     9.3958     22.0793    35.7155    27.4109    16.2991    22.7557    0.091     
2562       11.8474    2.079      9.468      22.1827    36.0944    27.9467    16.4831    22.678     0.091     
2562.2     11.8338    2.0925     9.5008     22.2538    36.5563    28.4695    16.9886    22.6004    0.091     
2562.4     11.8474    2.0722     9.4318     22.1083    36.6811    29.123     15.9969    22.4904    0.091     
2562.6     11.8745    2.0315     9.2974     21.9629    36.76      29.6654    15.1273    22.1862    0.091     
2562.8     11.8914    2.0722     9.3958     22.2409    37.6993    30.6129    17.3342    21.8271    0.091     
