~Version
 VERS              .         2.0                           : CWLS LOG ASCII STANDARD - VERSION 2.0
 WRAP              .         NO                            : ONE LINE PER DEPTH STEP
 DLM               .         SPACE                         : DELIMITING CHARACTER(SPACE TAB OR COMMA)
~Well Information
#_______________________________________________________________________________
#
#PARAMETER_NAME    .UNIT     VALUE                         : DESCRIPTION
#_______________________________________________________________________________
STRT               .m        2490                          : First reference value
STOP               .m        2666                          : Last reference value
STEP               .m        0.2                           : Step increment
NULL               .         -9999                         : Missing value
COMP               .                                       : Company
WELL               .         404                           : Well name
FLD                .                                       : Field
LOC                .                                       : Location
CNTY               .                                       : County
STAT               .                                       : State
CTRY               .                                       : Country
SRVC               .                                       : Service Company
DATE               .                                       : Date
API                .                                       : API number
EREF               .m        140.4                         : 
Pad                .         4                             : 
X                  .m        222100                        : 
Y                  .m        250025                        : 
group              .         Pad4                          : 
Интер-р            .         Зайцев                        : 
Куст               .         4                             : 
Статус             .         Не проверено                  : 
Тип                .         Разведка                      : 
~Parameter Information Block
#_______________________________________________________________________________
#
#PARAMETER_NAME    .UNIT     VALUE                         : DESCRIPTION
#_______________________________________________________________________________
SET                .         LAS1                          : 
REAL_CREATION_DATE .         Ср апр 11 2012-13_17_14       : 
TLFamily_DEPTH     .         Measured Depth                : 
TLFamily_KS        .         Potential Resistivity         : 
TLFamily_KS1       .         Extra Shallow Resistivity     : 
TLFamily_KS2       .         Shallow Resistivity           : 
TLFamily_KS3       .         Medium Resistivity            : 
TLFamily_KS4       .         Deep Resistivity              : 
TLFamily_KS5       .         Extra Deep Resistivity        : 
TLFamily_LLD       .         Lateral Log Resistivity       : 
TLFamily_OKS3      .         Medium Resistivity Inverted   : 
TLFamily_RM        .         Mud Resistivity               : 
group              .         INI                           : 
~Curve Information
#_______________________________________________________________________________
#
#LOGNAME           .UNIT     LOG_ID                        : DESCRIPTION
#_______________________________________________________________________________
DEPTH              .m                                      : Measured Depth 
KS                 .ohm.m                                  : Potential Resistivity 
KS1                .ohm.m                                  : Extra Shallow Resistivity 
KS2                .ohm.m                                  : Shallow Resistivity 
KS3                .ohm.m                                  : Medium Resistivity 
KS4                .ohm.m                                  : Deep Resistivity 
KS5                .ohm.m                                  : Extra Deep Resistivity 
LLD                .ohm.m                                  : Lateral Log Resistivity 
OKS3               .ohm.m                                  : Medium Resistivity Inverted 
RM                 .ohm.m                                  : Mud Resistivity 
~Ascii
# ...
2606.8     6.8479     1.8553     7.1615     12.8166    13.2107    16.4718    5.1848     12.9781    0.098     
2607       6.7597     1.6554     6.7055     12.0894    12.8035    16.3672    5.755      13.7223    0.095     
2607.2     6.7529     1.5571     6.4233     11.3881    12.7443    16.4129    5.5091     14.68      0.091     
2607.4     6.7665     1.4826     6.0099     11.039     12.948     17.0337    5.3542     16.0195    0.09      
2607.6     6.8173     1.4555     5.7245     10.8968    13.4209    17.9225    5.6375     17.579     0.088     
2607.8     6.9293     1.4385     5.5834     10.9421    14.0975    19.3862    6.3713     19.0931    0.088     
2608       7.0446     1.4487     5.649      11.3493    15.0894    21.6407    6.9183     20.575     0.088     
2608.2     7.187      1.4826     5.8328     11.9698    16.955     23.9213    7.4412     21.8306    0.088     
2608.4     7.3905     1.469      6.0099     12.3964    18.2227    25.7511    8.4131     22.3415    0.088     
2608.6     7.7942     1.4419     5.8393     12.4417    18.8074    27.241     7.6693     23.0533    0.091     
2608.8     8.1164     1.4216     5.7803     12.2833    19.2409    28.5348    10.7602    23.021     0.091     
2609       8.4081     1.4894     6.0296     12.5451    19.9766    29.2537    20.9286    21.9598    0.091     
2609.2     8.6319     1.6385     6.5611     13.0622    21.1656    29.4105    29.7268    20.3161    0.091     
2609.4     8.7812     1.7875     7.3387     13.6116    21.8422    29.1622    15.4477    19.3139    0.098     
2609.6     8.8287     1.8689     7.7357     14.0803    22.2166    28.744     13.1048    18.8278    0.098     
2609.8     8.7699     1.9502     8.2015     14.8096    22.5844    27.7115    15.1275    17.9607    0.095     
2610       8.6998     2.0451     8.7462     15.3504    22.8341    26.9534    16.6268    17.0548    0.088     
2610.2     8.5234     2.0586     8.8643     16.0614    23.0771    25.8948    13.0802    16.0454    0.088     
2610.4     8.3063     2.1874     9.3958     16.7724    23.0508    24.6794    12.1812    15.0359    0.091     
2610.6     8.1028     2.0993     9.3236     17.4576    22.6567    22.83      9.342      14.0329    0.091     
2610.8     7.9705     2.0586     9.0677     17.5029    21.2116    20.9415    9.6989     13.2566    0.091     
2611       7.8247     2.0111     8.7724     17.5158    20.1408    19.5823    8.1133     12.9134    0.091     
2611.2     7.6483     1.9095     8.4706     17.6386    19.5825    18.6544    8.1433     12.564     0.091     
2611.4     7.3905     2.0044     8.8971     18.2074    19.9306    17.452     13.9567    12.4022    0.095     
2611.6     7.187      2.1738     9.2746     18.9314    20.1835    16.6417    13.1911    12.5252    0.098     
2611.8     6.9564     1.9773     8.7199     18.6276    19.6613    15.9882    5.8085     12.9846    0.098     
2612       6.8182     1.9502     8.2803     17.742     19.0176    15.0733    7.1307     13.3438    0.095     
2612.2     6.7122     1.9201     8.0703     17.0633    18.7942    13.8579    7.1382     13.3988    0.095     
2612.4     6.6443     1.835      7.4535     15.874     18.1899    12.7339    6.3477     13.4635    0.091     
2612.6     6.5833     1.7333     7.0336     14.7105    17.4575    11.5184    7.2714     13.4635    0.088     
2612.8     6.5426     1.7266     6.8809     13.9668    16.9024    10.5382    7.2458     13.5411    0.088     
2613       6.5494     1.6317     6.3839     12.8618    16.1404    9.6495     5.3539     14.1753    0.088     
2613.2     6.5969     1.5232     5.8853     11.4398    15.1879    8.8915     4.7794     15.8059    0.088     
2613.4     6.6884     1.3606     5.3144     10.1729    14.1172    7.9505     4.2541     17.3631    0.088     
2613.6     6.9021     1.2319     4.7566     9.339      13.1516    7.5584     4.1789     20.2903    0.095     
2613.8     7.2752     1.1573     4.7894     9.0611     12.902     7.3231     6.0872     22.2056    0.091     
2614       7.8111     1.2386     4.8288     9.0577     13.145     7.2709     12.2587    22.2962    0.091     
2614.2     8.2995     1.3064     4.7993     9.2162     13.4866    7.3754     10.6632    22.1927    0.095     
2614.4     8.7337     1.408      5.0716     9.4037     13.9333    7.48       11.3154    22.5227    0.098     
2614.6     8.9951     1.4487     5.2619     9.6752     14.3603    7.6237     12.6012    22.6586    0.095     
2614.8     9.351      1.4928     5.7278     9.9854     14.6495    7.8198     14.5135    22.6392    0.088     
2615       9.7241     1.5504     6.1608     10.412     15.1748    8.1465     16.1969    22.5292    0.088     
2615.2     10.0158    1.652      6.6333     10.9097    15.9499    8.5255     16.5817    22.6392    0.088     
2615.4     10.2464    1.7401     6.8763     11.2845    16.7907    8.8915     17.1946    23.008     0.095     
2615.6     10.4364    1.8214     7.2567     11.8922    17.6118    9.362      17.5969    23.2928    0.095     
2615.8     10.5689    1.8621     7.6372     12.8101    18.4264    9.924      17.5215    23.6422    0.091     
2616       10.6534    1.9063     7.9194     13.9801    18.9445    10.9826    17.2399    24.0693    0.095     
2616.2     10.7416    1.9502     8.2344     15.0789    19.8781    11.9236    17.0616    24.2634    0.098     
2616.4     10.7959    1.9909     8.4443     15.9192    20.8962    13.0606    16.4921    24.4769    0.095     
2616.6     10.8773    1.957      8.3786     16.2459    21.6845    14.446     15.1656    24.7487    0.091     
2616.8     10.9384    1.9163     8.3262     16.585     22.3677    16.5567    15.0022    25.7258    0.088     
2617       10.9858    1.9095     8.3131     17.1086    23.4515    19.1641    13.7126    26.2694    0.088     
2617.2     11.0199    1.896      8.4115     17.7226    24.9623    21.791     13.5389    26.7706    0.091     
2617.4     11.1215    1.8451     8.2147     18.1234    26.0489    24.8885    12.0193    27.7577    0.091     
2617.6     11.3318    1.774      7.9325     18.453     27.4257    26.9665    12.7866    28.586     0.091     
2617.8     11.6031    1.7537     8.4181     18.0955    27.5833    28.8485    19.1128    27.3112    0.095     
2618       12.1255    1.5232     7.3599     16.6755    25.6849    31.6192    39.8202    22.2962    0.081     
2618.2     12.2476    1.5029     5.9377     16.7724    27.0906    33.9979    24.3927    21.1056    0.088     
2618.4     11.9355    2.0586     9.1727     20.0755    33.8105    33.828     26.4981    22.0089    0.095     
2618.6     11.8813    2.1128     9.8354     21.8466    34.7038    37.8272    37.5722    22.4904    0.088     
2618.8     12.1662    2.0518     8.7987     20.2371    31.945     39.6177    74.5386    17.9349    0.084     
2619       12.0509    1.5639     8.8774     20.9352    32.4442    39.9113    25.6138    15.7542    0.081     
2619.2     11.5896    2.3297     10.7081    23.1599    37.3052    39.3302    19.7341    16.1618    0.091     
2619.4     11.3386    2.2416     10.7672    24.7165    38.2379    40.2189    10.8872    17.1519    0.095     
2619.6     11.2064    2.0112     9.8485     24.2705    37.8504    41.0554    11.3795    16.7119    0.088     
2619.8     11.0605    2.1602     10.4194    24.9945    39.1277    39.8922    22.1825    16.5468    0.088     
2620       10.8298    2.2619     10.7213    26.4359    40.3465    39.67      15.8048    16.3171    0.098     
2620.2     10.572     2.2416     10.4588    27.0306    41.2136    39.5613    14.3555    16.1489    0.095     
2620.4     10.2532    2.2619     10.603     26.7558    42.0478    39.6047    15.0103    16.2071    0.088     
2620.6     9.8598     2.289      10.6884    27.3861    44.0842    39.291     15.7902    16.1165    0.088     
2620.8     9.4573     2.4652     11.2462    28.834     45.9826    38.2324    28.8871    15.5406    0.091     
2621       9.2085     2.4692     11.5415    28.8598    45.2534    36.3112    13.4499    14.8507    0.091     
2621.2     8.8626     2.3161     10.4129    26.2614    43.4396    33.8541    7.4362     14.4341    0.091     
