~Version
 VERS              .         2.0                           : CWLS LOG ASCII STANDARD - VERSION 2.0
 WRAP              .         NO                            : ONE LINE PER DEPTH STEP
 DLM               .         SPACE                         : DELIMITING CHARACTER(SPACE TAB OR COMMA)
~Well Information
#_______________________________________________________________________________
#
#PARAMETER_NAME    .UNIT     VALUE                         : DESCRIPTION
#_______________________________________________________________________________
STRT               .m        2490                          : First reference value
STOP               .m        2666                          : Last reference value
STEP               .m        0.2                           : Step increment
NULL               .         -9999                         : Missing value
COMP               .                                       : Company
WELL               .         404                           : Well name
FLD                .                                       : Field
LOC                .                                       : Location
CNTY               .                                       : County
STAT               .                                       : State
CTRY               .                                       : Country
SRVC               .                                       : Service Company
DATE               .                                       : Date
API                .                                       : API number
EREF               .m        140.4                         : 
Pad                .         4                             : 
X                  .m        222100                        : 
Y                  .m        250025                        : 
group              .         Pad4                          : 
Интер-р            .         Зайцев                        : 
Куст               .         4                             : 
Статус             .         Не проверено                  : 
Тип                .         Разведка                      : 
~Parameter Information Block
#_______________________________________________________________________________
#
#PARAMETER_NAME    .UNIT     VALUE                         : DESCRIPTION
#_______________________________________________________________________________
SET                .         LAS3                          : 
REAL_CREATION_DATE .         Ср апр 11 2012-13_17_15       : 
TLFamily_DEPTH     .         Measured Depth                : 
TLFamily_GR        .         Gamma Ray                     : 
TLFamily_TNPH      .         Neutron Porosity              : 
group              .         INI                           : 
~Curve Information
#_______________________________________________________________________________
#
#LOGNAME           .UNIT     LOG_ID                        : DESCRIPTION
#_______________________________________________________________________________
DEPTH              .m                                      : Measured Depth 
GR                 .gAPI                                   :  
TNPH               .v/v                                    : Neutron Porosity 
~Ascii
# ...
2587.2     126.07     0.233     
2587.4     127.49     0.229     
2587.6     125.49     0.194     
2587.8     124.48     0.174     
2588       130.74     0.146     
2588.2     132.56     0.116     
2588.4     110.15     0.112     
2588.6     69.15      0.098     
2588.8     51.18      0.111     
2589       48.36      0.144     
2589.2     50.42      0.188     
2589.4     41.57      0.183     
2589.6     32.72      0.167     
2589.8     35.57      0.184     
2590       34.1       0.195     
2590.2     36.13      0.201     
2590.4     39.75      0.175     
2590.6     36.27      0.158     
2590.8     39.78      0.166     
2591       39.87      0.186     
2591.2     35.69      0.197     
2591.4     33.96      0.19      
2591.6     35.55      0.17      
2591.8     37.19      0.179     
2592       36.75      0.185     
2592.2     34.54      0.178     
2592.4     35.84      0.173     
2592.6     35.82      0.172     
2592.8     35.74      0.188     
2593       36.43      0.199     
2593.2     38.78      0.208     
2593.4     39.96      0.196     
2593.6     40.23      0.158     
2593.8     37.08      0.187     
2594       34.81      0.191     
2594.2     36.84      0.203     
2594.4     37.07      0.191     
2594.6     40.38      0.189     
2594.8     45.54      0.188     
2595       45.1       0.176     
2595.2     43.36      0.166     
2595.4     44.78      0.169     
2595.6     40.19      0.174     
2595.8     40.54      0.165     
2596       41.88      0.153     
2596.2     41.2       0.146     
2596.4     45.4       0.152     
2596.6     44.43      0.158     
2596.8     46.3       0.144     
2597       46.2       0.146     
2597.2     46.82      0.174     
2597.4     52.54      0.182     
2597.6     52.97      0.222     
2597.8     55.04      0.202     
2598       51.77      0.197     
2598.2     53.17      0.198     
2598.4     49.11      0.214     
2598.6     52.63      0.189     
2598.8     49.57      0.19      
2599       41.25      0.186     
2599.2     38.39      0.182     
2599.4     39.44      0.181     
2599.6     36.67      0.205     
2599.8     36.49      0.211     
2600       40.12      0.222     
2600.2     42.01      0.204     
2600.4     45.77      0.183     
2600.6     49.04      0.173     
2600.8     46.55      0.176     
2601       45.35      0.178     
2601.2     48.39      0.187     
2601.4     49.54      0.227     
2601.6     50.04      0.236     
2601.8     45.28      0.224     
2602       41.64      0.221     
2602.2     42.95      0.208     
2602.4     46.72      0.2       
2602.6     46.33      0.22      
2602.8     51.19      0.228     
2603       58.57      0.215     
2603.2     69.32999   0.217     
2603.4     78.21999   0.222     
2603.6     87.17      0.208     
2603.8     94.72      0.204     
2604       87.46001   0.221     
2604.2     84.66      0.239     
2604.4     83.37      0.232     
2604.6     90.07      0.246     
2604.8     81.7       0.242     
2605       80.17999   0.239     
2605.2     83.68      0.241     
2605.4     90.76      0.219     
2605.6     90.2       0.264     
2605.8     85.9       0.228     
2606       87.85      0.221     
2606.2     94.37      0.239     
2606.4     95.48      0.243     
2606.6     84.22      0.219     
2606.8     64.11      0.224     
2607       60.31      0.239     
2607.2     55.84      0.219     
2607.4     49.79      0.225     
2607.6     47.84      0.227     
2607.8     51.25      0.198     
2608       57.36      0.2       
2608.2     64.32      0.22      
2608.4     77.9       0.215     
2608.6     94.06      0.28      
2608.8     112.46     0.266     
2609       125.41     0.329     
2609.2     123.63     0.292     
2609.4     120.68     0.229     
2609.6     116.92     0.22      
2609.8     118.38     0.298     
2610       115.09     0.283     
2610.2     123.79     0.264     
2610.4     123.06     0.243     
2610.6     110.56     0.238     
2610.8     102.83     0.249     
2611       96.68999   0.207     
2611.2     89.41      0.23      
2611.4     80.68      0.28      
2611.6     83.4       0.279     
2611.8     86.26      0.257     
2612       79.2       0.251     
2612.2     70.56      0.245     
2612.4     69.98      0.266     
2612.6     64.03      0.24      
2612.8     60.63      0.234     
2613       53.34      0.201     
2613.2     53.61      0.212     
2613.4     55.28      0.211     
2613.6     55.69      0.202     
2613.8     64.56001   0.199     
2614       77.95999   0.212     
2614.2     94.61      0.227     
2614.4     92.18001   0.235     
2614.6     93.14999   0.236     
2614.8     93.38      0.273     
2615       92.47      0.279     
2615.2     103.38     0.269     
2615.4     105.34     0.301     
2615.6     106.18     0.282     
2615.8     109.51     0.28      
2616       106.41     0.252     
2616.2     101.64     0.223     
2616.4     101.66     0.249     
2616.6     102.9      0.307     
2616.8     100.81     0.315     
2617       103.82     0.338     
2617.2     102        0.346     
2617.4     98.00999   0.342     
2617.6     96.25      0.375     
2617.8     85.01      0.351     
2618       62.39      0.415     
2618.2     28.14      0.492     
2618.4     14.2       0.414     
2618.6     11.31      0.443     
2618.8     14.68      0.386     
2619       23.56      0.342     
2619.2     44.3       0.328     
2619.4     73.07      0.311     
2619.6     87.84      0.291     
2619.8     89.3       0.316     
2620       86.6       0.36      
2620.2     89.12      0.276     
2620.4     93.37      0.303     
2620.6     91.99001   0.266     
2620.8     82.14      0.356     
2621       73.84      0.346     
2621.2     75.41      0.265     
2621.4     87         0.247     
2621.6     93.66      0.216     
2621.8     93.5       0.204     
2622       87.1       0.234     
2622.2     90.78      0.216     
2622.4     95.37      0.229     
2622.6     92.14      0.248     
2622.8     97.19      0.235     
2623       95.11      0.22      
2623.2     93.69      0.229     
2623.4     83.75      0.228     
2623.6     82.37      0.281     
2623.8     85.12      0.266     
2624       91.85001   0.297     
2624.2     92.36      0.269     
2624.4     95.12      0.249     
2624.6     106.25     0.258     
2624.8     115.04     0.256     
2625       105.71     0.216     
2625.2     97.03      0.208     
2625.4     90.23      0.249     
2625.6     88.76      0.272     
2625.8     83.11      0.293     
2626       86.46      0.287     
2626.2     92.49      0.24      
2626.4     88.4       0.197     
2626.6     69.43      0.184     
2626.8     78.00999   0.214     
2627       92.48      0.238     
2627.2     102.97     0.212     
2627.4     107.6      0.207     
2627.6     98.59      0.202     
2627.8     81.63      0.213     
2628       77.02      0.219     
2628.2     83.9       0.215     
2628.4     90.66      0.202     
2628.6     87.53999   0.214     
2628.8     79.32999   0.209     
2629       73.98      0.19      
2629.2     70.60001   0.204     
2629.4     75.92      0.197     
2629.6     83.32      0.183     
2629.8     84.39      0.178     
2630       86.05      0.217     
2630.2     93.10001   0.228     
2630.4     96.5       0.274     
2630.6     95.41      0.289     
2630.8     87.81999   0.239     
2631       73.32      0.236     
2631.2     66.67      0.21      
2631.4     61.35      0.211     
2631.6     59.7       0.206     
2631.8     55.57      0.217     
2632       55.22      0.192     
2632.2     59.97      0.177     
2632.4     63.44      0.2       
2632.6     66.34      0.245     
2632.8     70.50999   0.228     
2633       79.31      0.266     
2633.2     94.85      0.278     
2633.4     95.43999   0.254     
2633.6     94.05      0.224     
2633.8     89.24      0.221     
2634       85.78      0.215     
2634.2     82.07      0.224     
2634.4     82.81      0.248     
2634.6     85.64999   0.255     
2634.8     89.64      0.275     
2635       94.96001   0.267     
2635.2     94.91      0.27      
2635.4     91.82      0.255     
2635.6     88.71001   0.255     
