~Version
 VERS              .         2.0                           : CWLS LOG ASCII STANDARD - VERSION 2.0
 WRAP              .         NO                            : ONE LINE PER DEPTH STEP
 DLM               .         SPACE                         : DELIMITING CHARACTER(SPACE TAB OR COMMA)
~Well Information
#_______________________________________________________________________________
#
#PARAMETER_NAME    .UNIT     VALUE                         : DESCRIPTION
#_______________________________________________________________________________
STRT               .m        2490                          : First reference value
STOP               .m        2666                          : Last reference value
STEP               .m        0.2                           : Step increment
NULL               .         -9999                         : Missing value
COMP               .                                       : Company
WELL               .         404                           : Well name
FLD                .                                       : Field
LOC                .                                       : Location
CNTY               .                                       : County
STAT               .                                       : State
CTRY               .                                       : Country
SRVC               .                                       : Service Company
DATE               .                                       : Date
API                .                                       : API number
EREF               .m        140.4                         : 
Pad                .         4                             : 
X                  .m        222100                        : 
Y                  .m        250025                        : 
group              .         Pad4                          : 
Интер-р            .         Зайцев                        : 
Куст               .         4                             : 
Статус             .         Не проверено                  : 
Тип                .         Разведка                      : 
~Parameter Information Block
#_______________________________________________________________________________
#
#PARAMETER_NAME    .UNIT     VALUE                         : DESCRIPTION
#_______________________________________________________________________________
SET                .         LAS3                          : 
REAL_CREATION_DATE .         Ср апр 11 2012-13_17_15       : 
TLFamily_DEPTH     .         Measured Depth                : 
TLFamily_GR        .         Gamma Ray                     : 
TLFamily_TNPH      .         Neutron Porosity              : 
group              .         INI                           : 
~Curve Information
#_______________________________________________________________________________
#
#LOGNAME           .UNIT     LOG_ID                        : DESCRIPTION
#_______________________________________________________________________________
DEPTH              .m                                      : Measured Depth 
GR                 .gAPI                                   :  
TNPH               .v/v                                    : Neutron Porosity 
~Ascii
# ...
2635.8     82.81      0.286     
2636       75.57      0.28      
2636.2     70.78      0.204     
2636.4     67.69      0.166     
2636.6     60.41      0.18      
2636.8     64.94      0.184     
2637       68.7       0.197     
2637.2     73.10001   0.217     
2637.4     71.56      0.222     
2637.6     73.64      0.244     
2637.8     75.53001   0.248     
2638       70.03      0.274     
2638.2     74.6       0.313     
2638.4     80.29      0.364     
2638.6     82.53      0.334     
2638.8     85.37      0.276     
2639       78.27      0.272     
2639.2     77.09      0.261     
2639.4     78.4       0.261     
2639.6     82.9       0.311     
2639.8     84.06999   0.309     
2640       89.75999   0.304     
2640.2     93.71001   0.323     
2640.4     87.69      0.391     
2640.6     72.83      0.422     
2640.8     54.75      0.424     
2641       49.22      0.336     
2641.2     63.77      0.316     
2641.4     79.8       0.194     
2641.6     84.63      0.183     
2641.8     80.68      0.207     
2642       76.52      0.193     
2642.2     68.61      0.201     
2642.4     59.91      0.204     
2642.6     59.71      0.202     
2642.8     71.81      0.201     
2643       87.29      0.252     
2643.2     102.4      0.26      
2643.4     112.21     0.267     
2643.6     106.72     0.279     
2643.8     105.96     0.325     
2644       102.04     0.273     
2644.2     96.2       0.252     
2644.4     83.21999   0.189     
2644.6     73.34      0.161     
2644.8     58.87      0.171     
2645       41.32      0.163     
2645.2     41.37      0.161     
2645.4     49.46      0.183     
2645.6     60.57      0.2       
2645.8     69.84      0.232     
2646       76.03      0.239     
2646.2     87.16      0.195     
2646.4     98.56      0.218     
2646.6     100.5      0.204     
2646.8     102.13     0.245     
2647       97.93      0.278     
2647.2     98.72      0.253     
2647.4     97.69      0.274     
2647.6     96.75      0.255     
2647.8     97.67      0.263     
2648       98.33      0.216     
2648.2     102.97     0.224     
2648.4     103.46     0.239     
2648.6     102.97     0.229     
2648.8     102.22     0.271     
2649       99.39999   0.26      
2649.2     93.61      0.311     
2649.4     87.17      0.342     
2649.6     91.03      0.323     
2649.8     94.65      0.309     
2650       97.99      0.299     
2650.2     95.10001   0.294     
2650.4     85.03999   0.239     
2650.6     72.16      0.204     
2650.8     48.96      0.202     
2651       38.19      0.187     
2651.2     34.23      0.208     
2651.4     31.17      0.231     
2651.6     35.94      0.293     
2651.8     44.01      0.347     
2652       54.04      0.415     
2652.2     73.84      0.335     
2652.4     96.77      0.304     
2652.6     99.87      0.292     
2652.8     90.99      0.286     
2653       91.22      0.266     
2653.2     92.93999   0.269     
2653.4     86.79      0.279     
2653.6     86.4       0.237     
2653.8     76.38      0.255     
2654       69.74      0.195     
2654.2     63.36      0.19      
2654.4     61.04      0.229     
2654.6     60.64999   0.206     
2654.8     69.56001   0.195     
2655       82.42      0.214     
2655.2     86.48      0.244     
2655.4     91.6       0.276     
2655.6     96.75      0.284     
2655.8     105.06     0.263     
2656       102.41     0.274     
2656.2     91.02      0.237     
2656.4     79.93      0.23      
2656.6     75.09      0.203     
2656.8     68.09      0.198     
2657       70.45      0.184     
2657.2     69.77      0.228     
2657.4     69.08      0.222     
2657.6     69.42001   0.228     
2657.8     73.35      0.236     
2658       77.81      0.248     
2658.2     80.03999   0.292     
2658.4     87.81999   0.265     
2658.6     88.02      0.335     
2658.8     75.85      0.258     
2659       65.56      0.176     
2659.2     59.71      0.172     
2659.4     55.01      0.206     
2659.6     57.26      0.218     
2659.8     58.13      0.239     
2660       59.12      0.242     
2660.2     60.7       0.231     
2660.4     64.14      0.226     
2660.6     69.5       0.24      
2660.8     75.12      0.215     
2661       80.9       0.247     
2661.2     82.03      0.249     
2661.4     85.62      0.231     
2661.6     94.12      0.222     
2661.8     97.04001   0.201     
2662       96.25      0.286     
2662.2     92.72      0.334     
2662.4     92.14      0.344     
2662.6     92.69      0.332     
2662.8     92.92      0.286     
2663       92.89      0.312     
2663.2     90.87      0.282     
2663.4     95.05      0.28      
2663.6     96.82999   0.293     
2663.8     95.82      0.329     
2664       94.93      0.285     
2664.2     100.73     0.27      
2664.4     100.8      0.317     
2664.6     98.19      0.274     
2664.8     100.47     0.275     
2665       101.43     0.304     
2665.2     97.75      0.306     
2665.4     100.95     0.306     
2665.6     104.28     0.273     
2665.8     106.82     0.263     
2666       100.35     0.283     
