~Version
 VERS              .         2.0                           : CWLS LOG ASCII STANDARD - VERSION 2.0
 WRAP              .         NO                            : ONE LINE PER DEPTH STEP
 DLM               .         SPACE                         : DELIMITING CHARACTER(SPACE TAB OR COMMA)
~Well Information
#_______________________________________________________________________________
#
#PARAMETER_NAME    .UNIT     VALUE                         : DESCRIPTION
#_______________________________________________________________________________
STRT               .m        2490                          : First reference value
STOP               .m        2666                          : Last reference value
STEP               .m        0.2                           : Step increment
NULL               .         -9999                         : Missing value
COMP               .                                       : Company
WELL               .         404                           : Well name
FLD                .                                       : Field
LOC                .                                       : Location
CNTY               .                                       : County
STAT               .                                       : State
CTRY               .                                       : Country
SRVC               .                                       : Service Company
DATE               .                                       : Date
API                .                                       : API number
EREF               .m        140.4                         : 
Pad                .         4                             : 
X                  .m        222100                        : 
Y                  .m        250025                        : 
group              .         Pad4                          : 
Интер-р            .         Зайцев                        : 
Куст               .         4                             : 
Статус             .         Не проверено                  : 
Тип                .         Разведка                      : 
~Parameter Information Block
#_______________________________________________________________________________
#
#PARAMETER_NAME    .UNIT     VALUE                         : DESCRIPTION
#_______________________________________________________________________________
SET                .         LAS3                          : 
REAL_CREATION_DATE .         Ср апр 11 2012-13_17_15       : 
TLFamily_DEPTH     .         Measured Depth                : 
TLFamily_GR        .         Gamma Ray                     : 
TLFamily_TNPH      .         Neutron Porosity              : 
group              .         INI                           : 
~Curve Information
#_______________________________________________________________________________
#
#LOGNAME           .UNIT     LOG_ID                        : DESCRIPTION
#_______________________________________________________________________________
DEPTH              .m                                      : Measured Depth 
GR                 .gAPI                                   :  
TNPH               .v/v                                    : Neutron Porosity 
~Ascii
# ...
2538.6     121.4      0.252     
2538.8     118.78     0.258     
2539       119.75     0.244     
2539.2     130.4      0.271     
2539.4     140.25     0.289     
2539.6     147.52     0.256     
2539.8     164.84     0.24      
2540       180.25     0.27      
2540.2     203.14     0.299     
2540.4     213.26     0.288     
2540.6     194.58     0.319     
2540.8     186.87     0.263     
2541       188.13     0.262     
2541.2     200.4      0.305     
2541.4     218.47     0.32      
2541.6     233.16     0.359     
2541.8     229.68     0.337     
2542       222.9      0.286     
2542.2     209.81     0.254     
2542.4     200.14     0.302     
2542.6     209.59     0.323     
2542.8     220.33     0.345     
2543       228.13     0.305     
2543.2     236.99     0.318     
2543.4     244.74     0.316     
2543.6     248.41     0.282     
2543.8     241.19     0.301     
2544       229.34     0.315     
2544.2     222.15     0.346     
2544.4     199.14     0.345     
2544.6     189.99     0.292     
2544.8     179.84     0.288     
2545       180.57     0.291     
2545.2     184.81     0.318     
2545.4     192.18     0.321     
2545.6     207.87     0.328     
2545.8     230.81     0.349     
2546       252.09     0.306     
2546.2     261.06     0.288     
2546.4     276.19     0.311     
2546.6     294.22     0.334     
2546.8     326.65     0.344     
2547       325.72     0.344     
2547.2     332        0.328     
2547.4     336.19     0.327     
2547.6     338.98     0.353     
2547.8     352.25     0.345     
2548       362.63     0.361     
2548.2     384.69     0.372     
2548.4     385.71     0.347     
2548.6     380.12     0.326     
2548.8     372.04     0.283     
2549       419.78     0.313     
2549.2     421.74     0.325     
2549.4     420.9      0.307     
2549.6     402.69     0.31      
2549.8     386.31     0.269     
2550       371.81     0.267     
2550.2     346.55     0.293     
2550.4     322.95     0.325     
2550.6     309.97     0.348     
2550.8     325.16     0.367     
2551       331.87     0.347     
2551.2     333.96     0.364     
2551.4     349.27     0.418     
2551.6     347.84     0.361     
2551.8     359.07     0.354     
2552       355.11     0.376     
2552.2     346.16     0.391     
2552.4     327.39     0.397     
2552.6     319.96     0.294     
2552.8     315.94     0.272     
2553       303.3      0.275     
2553.2     299.7      0.316     
2553.4     295.49     0.304     
2553.6     285.76     0.317     
2553.8     276.41     0.371     
2554       246.18     0.385     
2554.2     217.26     0.35      
2554.4     215.68     0.307     
2554.6     222.53     0.378     
2554.8     224.72     0.418     
2555       220.49     0.387     
2555.2     217.28     0.364     
2555.4     208.46     0.339     
2555.6     182.96     0.348     
2555.8     162.55     0.328     
2556       146.61     0.316     
2556.2     140.73     0.268     
2556.4     146.68     0.28      
2556.6     145.28     0.286     
2556.8     151.93     0.336     
2557       164.13     0.321     
2557.2     163.38     0.366     
2557.4     156.17     0.326     
2557.6     150.97     0.32      
2557.8     148.34     0.323     
2558       152.26     0.318     
2558.2     158.95     0.314     
2558.4     143.23     0.292     
2558.6     136.36     0.279     
2558.8     126.98     0.254     
2559       116.57     0.251     
2559.2     112.63     0.275     
2559.4     112.63     0.273     
2559.6     113.76     0.302     
2559.8     110.58     0.287     
2560       112.4      0.281     
2560.2     117.19     0.263     
2560.4     113.84     0.265     
2560.6     116.49     0.283     
2560.8     117.9      0.284     
2561       119.12     0.26      
2561.2     130.18     0.276     
2561.4     137.06     0.295     
2561.6     140.16     0.295     
2561.8     128.36     0.256     
2562       123.65     0.292     
2562.2     126.43     0.33      
2562.4     133.72     0.336     
2562.6     138.77     0.33      
2562.8     139.84     0.325     
2563       146.39     0.374     
2563.2     150.57     0.308     
2563.4     147.07     0.294     
2563.6     147.95     0.239     
2563.8     136.68     0.278     
2564       126.31     0.349     
2564.2     126.5      0.358     
2564.4     133.11     0.364     
2564.6     136.91     0.33      
2564.8     136.25     0.26      
2565       129.54     0.242     
2565.2     117.62     0.316     
2565.4     107.67     0.305     
2565.6     112.38     0.298     
2565.8     113.03     0.325     
2566       126.18     0.339     
2566.2     144.6      0.291     
2566.4     159.46     0.308     
2566.6     159.77     0.332     
2566.8     158.38     0.284     
2567       145.51     0.292     
2567.2     136.92     0.331     
2567.4     121.36     0.35      
2567.6     115.99     0.351     
2567.8     120.34     0.358     
2568       127.25     0.39      
2568.2     143.63     0.359     
2568.4     153.03     0.305     
2568.6     172.66     0.321     
2568.8     197.82     0.323     
2569       209.54     0.318     
2569.2     210.81     0.291     
2569.4     200.69     0.286     
2569.6     200.16     0.269     
2569.8     203.93     0.283     
2570       215.66     0.356     
2570.2     216.21     0.377     
2570.4     200.23     0.408     
2570.6     209.54     0.437     
2570.8     228.71     0.375     
2571       214.54     0.339     
2571.2     178.11     0.392     
2571.4     162.08     0.394     
2571.6     149.07     0.381     
2571.8     139.35     0.296     
2572       121.79     0.3       
2572.2     121.57     0.315     
2572.4     122.05     0.316     
2572.6     118.36     0.281     
2572.8     118.35     0.283     
2573       120.19     0.267     
2573.2     120.65     0.263     
2573.4     126.57     0.26      
2573.6     129.31     0.283     
2573.8     131.46     0.295     
2574       145.08     0.279     
2574.2     153.89     0.261     
2574.4     155.46     0.241     
2574.6     156.56     0.274     
2574.8     149.22     0.295     
2575       136.44     0.337     
2575.2     136.75     0.341     
2575.4     139.8      0.328     
2575.6     144.35     0.291     
2575.8     133.01     0.252     
2576       130.72     0.27      
2576.2     124.41     0.288     
2576.4     117.76     0.282     
2576.6     119.79     0.307     
2576.8     121.95     0.318     
2577       122.83     0.315     
2577.2     126.3      0.332     
2577.4     134.36     0.293     
2577.6     133.25     0.361     
2577.8     132.67     0.365     
2578       128.85     0.362     
2578.2     125.91     0.329     
2578.4     129.25     0.271     
2578.6     133.4      0.269     
2578.8     131.34     0.272     
2579       126.74     0.238     
2579.2     107.41     0.247     
2579.4     85.08      0.249     
2579.6     89.79      0.285     
2579.8     116.13     0.313     
2580       134.34     0.261     
2580.2     138.17     0.26      
2580.4     136.55     0.289     
2580.6     139.87     0.304     
2580.8     137.79     0.317     
2581       135.75     0.333     
2581.2     136.01     0.33      
2581.4     130.28     0.35      
2581.6     135.81     0.354     
2581.8     144.42     0.316     
2582       137.87     0.379     
2582.2     132.28     0.346     
2582.4     125.86     0.308     
2582.6     122.96     0.316     
2582.8     125.1      0.3       
2583       125.71     0.266     
2583.2     126.49     0.285     
2583.4     129.37     0.344     
2583.6     128.65     0.346     
2583.8     122.32     0.334     
2584       123.33     0.332     
2584.2     127.43     0.3       
2584.4     128.41     0.297     
2584.6     126.39     0.314     
2584.8     129.9      0.338     
2585       124.31     0.336     
2585.2     122.72     0.351     
2585.4     118.63     0.329     
2585.6     122.02     0.31      
2585.8     119.04     0.298     
2586       117.09     0.27      
2586.2     121.44     0.243     
2586.4     120.02     0.233     
2586.6     122.62     0.287     
2586.8     126.68     0.291     
2587       127.36     0.238     
