~Version
 VERS              .         2.0                           : CWLS LOG ASCII STANDARD - VERSION 2.0
 WRAP              .         NO                            : ONE LINE PER DEPTH STEP
 DLM               .         SPACE                         : DELIMITING CHARACTER(SPACE TAB OR COMMA)
~Well Information
#_______________________________________________________________________________
#
#PARAMETER_NAME    .UNIT     VALUE                         : DESCRIPTION
#_______________________________________________________________________________
STRT               .m        2490                          : First reference value
STOP               .m        2666                          : Last reference value
STEP               .m        0.2                           : Step increment
NULL               .         -9999                         : Missing value
COMP               .                                       : Company
WELL               .         404                           : Well name
FLD                .                                       : Field
LOC                .                                       : Location
CNTY               .                                       : County
STAT               .                                       : State
CTRY               .                                       : Country
SRVC               .                                       : Service Company
DATE               .                                       : Date
API                .                                       : API number
EREF               .m        140.4                         : 
Pad                .         4                             : 
X                  .m        222100                        : 
Y                  .m        250025                        : 
group              .         Pad4                          : 
Интер-р            .         Зайцев                        : 
Куст               .         4                             : 
Статус             .         Не проверено                  : 
Тип                .         Разведка                      : 
~Parameter Information Block
#_______________________________________________________________________________
#
#PARAMETER_NAME    .UNIT     VALUE                         : DESCRIPTION
#_______________________________________________________________________________
SET                .         LAS1                          : 
REAL_CREATION_DATE .         Ср апр 11 2012-13_17_14       : 
TLFamily_DEPTH     .         Measured Depth                : 
TLFamily_KS        .         Potential Resistivity         : 
TLFamily_KS1       .         Extra Shallow Resistivity     : 
TLFamily_KS2       .         Shallow Resistivity           : 
TLFamily_KS3       .         Medium Resistivity            : 
TLFamily_KS4       .         Deep Resistivity              : 
TLFamily_KS5       .         Extra Deep Resistivity        : 
TLFamily_LLD       .         Lateral Log Resistivity       : 
TLFamily_OKS3      .         Medium Resistivity Inverted   : 
TLFamily_RM        .         Mud Resistivity               : 
group              .         INI                           : 
~Curve Information
#_______________________________________________________________________________
#
#LOGNAME           .UNIT     LOG_ID                        : DESCRIPTION
#_______________________________________________________________________________
DEPTH              .m                                      : Measured Depth 
KS                 .ohm.m                                  : Potential Resistivity 
KS1                .ohm.m                                  : Extra Shallow Resistivity 
KS2                .ohm.m                                  : Shallow Resistivity 
KS3                .ohm.m                                  : Medium Resistivity 
KS4                .ohm.m                                  : Deep Resistivity 
KS5                .ohm.m                                  : Extra Deep Resistivity 
LLD                .ohm.m                                  : Lateral Log Resistivity 
OKS3               .ohm.m                                  : Medium Resistivity Inverted 
RM                 .ohm.m                                  : Mud Resistivity 
~Ascii
2490.0     -9999      -9999      -9999      -9999      -9999      -9999      -9999      -9999      -9999     
2490.2     -9999      -9999      -9999      -9999      -9999      -9999      -9999      -9999      -9999     
2490.4     -9999      -9999      -9999      -9999      -9999      -9999      -9999      -9999      -9999     
2490.6     -9999      -9999      -9999      -9999      -9999      -9999      -9999      -9999      -9999     
2490.8     -9999      -9999      -9999      -9999      -9999      -9999      -9999      -9999      -9999     
2491       -9999      -9999      -9999      -9999      -9999      -9999      -9999      -9999      -9999     
2491.2     -9999      -9999      -9999      -9999      -9999      -9999      -9999      -9999      0.081     
2491.4     -9999      -9999      -9999      -9999      -9999      -9999      -9999      -9999      0.084     
2491.6     -9999      -9999      -9999      -9999      -9999      -9999      -9999      -9999      0.081     
2491.8     -9999      -9999      -9999      -9999      -9999      -9999      -9999      -9999      0.081     
2492       -9999      -9999      -9999      -9999      -9999      -9999      -9999      -9999      0.084     
2492.2     -9999      -9999      -9999      -9999      -9999      -9999      -9999      -9999      0.084     
2492.4     -9999      -9999      -9999      -9999      -9999      -9999      -9999      -9999      0.081     
2492.6     -9999      -9999      -9999      -9999      -9999      -9999      -9999      -9999      0.081     
2492.8     -9999      -9999      -9999      -9999      -9999      -9999      -9999      -9999      0.084     
2493       -9999      -9999      -9999      -9999      -9999      -9999      -9999      -9999      0.084     
2493.2     -9999      -9999      -9999      -9999      -9999      -9999      -9999      -9999      0.084     
2493.4     -9999      -9999      -9999      -9999      -9999      -9999      -9999      -9999      0.081     
2493.6     -9999      -9999      -9999      -9999      -9999      -9999      -9999      -9999      0.081     
2493.8     -9999      -9999      -9999      -9999      -9999      -9999      -9999      -9999      0.081     
2494       -9999      -9999      -9999      -9999      -9999      -9999      -9999      -9999      0.081     
2494.2     -9999      -9999      -9999      -9999      -9999      -9999      -9999      -9999      0.081     
2494.4     -9999      -9999      -9999      -9999      -9999      -9999      -9999      -9999      0.081     
2494.6     -9999      -9999      -9999      -9999      -9999      -9999      -9999      -9999      0.081     
2494.8     -9999      -9999      -9999      -9999      -9999      -9999      -9999      -9999      0.081     
2495       -9999      -9999      -9999      -9999      -9999      -9999      -9999      -9999      0.081     
2495.2     -9999      -9999      -9999      -9999      -9999      -9999      -9999      -9999      0.084     
2495.4     -9999      -9999      -9999      -9999      -9999      -9999      -9999      -9999      0.081     
2495.6     -9999      -9999      -9999      -9999      -9999      -9999      -9999      -9999      0.081     
2495.8     -9999      -9999      -9999      -9999      -9999      -9999      -9999      -9999      0.081     
2496       -9999      -9999      -9999      -9999      -9999      -9999      -9999      -9999      0.081     
2496.2     -9999      -9999      -9999      -9999      -9999      -9999      -9999      -9999      0.074     
2496.4     -9999      -9999      -9999      -9999      -9999      -9999      -9999      -9999      0.088     
2496.6     -9999      -9999      -9999      -9999      -9999      -9999      -9999      -9999      0.078     
2496.8     -9999      -9999      -9999      -9999      -9999      -9999      -9999      -9999      0.091     
2497       -9999      -9999      -9999      -9999      -9999      -9999      -9999      -9999      0.091     
2497.2     -9999      -9999      -9999      -9999      -9999      0          -9999      -9999      0.088     
2497.4     3.3        0.4322     0.065      0          0          0          -9999      30.4366    0.091     
2497.6     4.209      0.71       0.0715     0          0          0          -9999      28.9224    0.091     
2497.8     4.9756     0.8998     0.6884     0          0          0          -9999      27.79      0.095     
2498       5.6268     1.0014     1.9351     0          0          0          -9999      26.9488    0.091     
2498.2     6.1898     1.1573     3.0571     0          0          0          -9999      25.9264    0.091     
2498.4     6.719      1.3606     3.9823     0          0          0          -9999      25.3634    0.091     
2498.6     7.1802     1.4351     4.5795     0          0          0          -9999      25.2858    0.091     
2498.8     7.6008     1.5097     5.0847     0          0          0          -9999      25.0843    0.091     
2499       7.9604     1.5029     5.3538     1.0524     0          0          -9999      22.348     0.091     
2499.2     8.2792     1.53       5.6556     3.5151     0          0          -9999      21.9986    0.088     
2499.4     8.5777     1.4758     5.7278     5.325      0          0          -9999      21.8109    0.095     
2499.6     8.8897     1.4487     5.7803     6.7341     0          0.0043     -9999      21.4033    0.095     
2499.8     9.2832     1.4623     6.1608     8.1109     0          0.2918     -9999      20.8315    0.095     
2500       9.9208     1.6452     7.0532     10.6189    0          0.2918     29.9003    19.0543    0.098     
2500.2     10.104     1.9683     7.7903     12.935     0          0.3049     78.937     17.3784    0.098     
2500.4     9.9615     2.2619     8.464      14.9626    0          0.3049     86.0125    15.78      0.095     
2500.6     9.6563     2.5127     9.4811     17.2314    0          0.3179     80.0776    14.0588    0.095     
2500.8     9.4528     2.5872     10.6097    18.9184    0.3683     0.3179     29.7817    13.0449    0.095     
2501       9.4256     2.533      10.8591    19.5778    4.8815     0.331      8.6475     12.6352    0.095     
2501.2     9.3623     2.5195     10.5375    19.6682    8.9935     0.331      8.8192     12.3634    0.098     
2501.4     8.3606     2.5024     10.2685    19.7135    11.9758    0.331      7.4176     12.2081    0.095     
2501.6     8.0418     2.2416     9.8026     19.7264    14.1698    0.3441     6.1951     12.1822    0.095     
2501.8     7.8111     2.1264     9.7501     19.4485    15.5689    0.331      5.7514     12.5446    0.095     
2502       7.628      1.9637     9.6578     18.8409    16.6265    0.331      7.0529     13.0946    0.095     
2502.2     7.5636     1.8892     8.254      18.2785    17.6513    0.331      7.9283     13.3212    0.095     
2502.4     7.4923     1.8926     8.0441     17.8907    18.6234    0.331      7.6127     13.5217    0.095     
2502.6     7.4584     1.8756     7.7619     17.4188    19.4314    0.3049     7.5419     13.5864    0.095     
2502.8     7.4109     1.8689     7.6307     17.128     19.9832    0.3179     7.7365     13.7611    0.095     
2503       7.3634     1.8824     7.5848     17.0956    20.3116    0.331      7.6179     13.9811    0.098     
2503.2     7.3363     1.8689     7.5519     16.9954    20.4364    0.331      7.7597     14.0782    0.098     
2503.4     7.3163     1.835      7.4601     15.3956    20.5415    0.331      7.7463     14.1172    0.098     
2503.6     7.282      1.8482     7.4404     14.9755    20.8109    0.331      8.2051     14.2011    0.098     
2503.8     7.221      1.8892     7.6176     14.704     21.205     0.331      7.6737     14.3112    0.098     
2504       7.1735     1.8824     7.5388     14.3097    21.4677    0.331      6.882      14.3759    0.101     
2504.2     7.1531     1.8418     7.4419     14.016     20.8043    0.331      6.6985     14.3564    0.098     
2504.4     7.1667     1.7808     7.2304     13.5276    19.8321    0.331      6.28       14.3823    0.098     
