~Version
 VERS              .         2.0                           : CWLS LOG ASCII STANDARD - VERSION 2.0
 WRAP              .         NO                            : ONE LINE PER DEPTH STEP
 DLM               .         SPACE                         : DELIMITING CHARACTER(SPACE TAB OR COMMA)
~Well Information
#_______________________________________________________________________________
#
#PARAMETER_NAME    .UNIT     VALUE                         : DESCRIPTION
#_______________________________________________________________________________
STRT               .m        2490                          : First reference value
STOP               .m        2666                          : Last reference value
STEP               .m        0.2                           : Step increment
NULL               .         -9999                         : Missing value
COMP               .                                       : Company
WELL               .         404                           : Well name
FLD                .                                       : Field
LOC                .                                       : Location
CNTY               .                                       : County
STAT               .                                       : State
CTRY               .                                       : Country
SRVC               .                                       : Service Company
DATE               .                                       : Date
API                .                                       : API number
EREF               .m        140.4                         : 
Pad                .         4                             : 
X                  .m        222100                        : 
Y                  .m        250025                        : 
group              .         Pad4                          : 
Интер-р            .         Зайцев                        : 
Куст               .         4                             : 
Статус             .         Не проверено                  : 
Тип                .         Разведка                      : 
~Parameter Information Block
#_______________________________________________________________________________
#
#PARAMETER_NAME    .UNIT     VALUE                         : DESCRIPTION
#_______________________________________________________________________________
SET                .         LAS1                          : 
REAL_CREATION_DATE .         Ср апр 11 2012-13_17_14       : 
TLFamily_DEPTH     .         Measured Depth                : 
TLFamily_KS        .         Potential Resistivity         : 
TLFamily_KS1       .         Extra Shallow Resistivity     : 
TLFamily_KS2       .         Shallow Resistivity           : 
TLFamily_KS3       .         Medium Resistivity            : 
TLFamily_KS4       .         Deep Resistivity              : 
TLFamily_KS5       .         Extra Deep Resistivity        : 
TLFamily_LLD       .         Lateral Log Resistivity       : 
TLFamily_OKS3      .         Medium Resistivity Inverted   : 
TLFamily_RM        .         Mud Resistivity               : 
group              .         INI                           : 
~Curve Information
#_______________________________________________________________________________
#
#LOGNAME           .UNIT     LOG_ID                        : DESCRIPTION
#_______________________________________________________________________________
DEPTH              .m                                      : Measured Depth 
KS                 .ohm.m                                  : Potential Resistivity 
KS1                .ohm.m                                  : Extra Shallow Resistivity 
KS2                .ohm.m                                  : Shallow Resistivity 
KS3                .ohm.m                                  : Medium Resistivity 
KS4                .ohm.m                                  : Deep Resistivity 
KS5                .ohm.m                                  : Extra Deep Resistivity 
LLD                .ohm.m                                  : Lateral Log Resistivity 
OKS3               .ohm.m                                  : Medium Resistivity Inverted 
RM                 .ohm.m                                  : Mud Resistivity 
~Ascii
# ...
2504.6     7.2074     1.7062     6.9286     13.0687    19.2606    0.331      7.0753     14.4923    0.098     
2504.8     7.2413     1.6995     6.8433     12.8554    19.0373    0.331      9.71       14.4794    0.098     
2505       7.3227     1.7198     6.9154     12.7972    19.011     0.3441     8.4438     14.1429    0.098     
2505.2     7.4177     1.7401     6.9023     12.7778    18.933     1.9385     8.2869     13.7029    0.098     
2505.4     7.4584     1.7537     6.8958     12.7584    17.6447    3.7944     8.2042     13.5541    0.098     
2505.6     7.4923     1.7672     6.9351     12.8101    17.3228    5.2974     8.692      13.5476    0.101     
2505.8     7.5025     1.7943     7.086      12.9652    17.244     6.5913     9.2973     13.5541    0.101     
2506       7.5126     1.8045     7.2501     13.269     17.4805    7.7544     13.9536    13.5605    0.101     
2506.2     7.4448     1.8418     7.6307     13.9607    17.9067    8.8        14.7622    13.3017    0.101     
2506.4     7.3363     2.0315     8.1753     14.6394    18.4658    9.7802     7.6618     12.9199    0.105     
2506.6     7.2074     2.0315     8.126      14.8332    18.676     10.6559    7.3308     12.687     0.105     
2506.8     7.0514     1.9909     8.0441     14.7363    18.4132    11.2832    7.1664     12.7581    0.105     
2507       6.9462     1.9231     7.8603     14.5166    17.9468    11.6753    6.4554     12.7581    0.101     
2507.2     6.8953     1.8486     7.6307     14.2192    17.4279    11.8974    6.419      12.784     0.101     
2507.4     6.8207     1.8214     7.4207     13.896     17.1484    12.0412    6.4054     12.9652    0.101     
2507.6     6.7936     1.7808     7.1845     13.6116    16.8893    12.1588    7.0496     13.0946    0.101     
2507.8     6.8072     1.7401     7.0139     13.4207    16.6528    12.3157    7.7899     13.127     0.098     
2508       6.8275     1.7401     6.9548     13.3531    16.5937    12.564     9.5029     12.7775    0.098     
2508.2     6.8308     1.8147     7.0532     13.3983    16.5674    12.7862    8.25       12.3192    0.098     
2508.4     6.8343     1.805      7.027      13.3078    16.3375    12.943     6.8871     11.9881    0.098     
2508.6     6.8275     1.7808     6.8564     12.9459    15.917     13.0476    7.337      11.6193    0.098     
2508.8     6.8072     1.7401     6.7842     12.6227    15.7923    13.0737    8.2627     11.5351    0.095     
2509       6.7461     1.7266     6.8423     12.755     16.0485    13.0476    8.0605     11.2504    0.091     
2509.2     6.6376     1.896      7.3091     13.0363    16.5937    13.0476    6.2726     11.0563    0.095     
2509.4     6.5155     1.8756     7.4863     13.2561    16.7053    13.0466    6.768      10.979     0.095     
2509.6     6.4171     1.8824     7.2829     13.0816    16.2652    12.8123    6.4018     11.1081    0.095     
2509.8     6.3594     1.8213     7.1451     12.8748    15.9754    12.4072    6.8026     11.2569    0.095     
2510       6.2577     1.7537     6.9483     12.6097    15.6346    12.0281    7.1269     11.2634    0.095     
2510.2     6.1695     1.7604     6.9483     12.6158    15.4113    11.5576    6.3755     11.0175    0.091     
2510.4     6.061      1.774      6.8727     12.571     15.2142    11.2969    6.0107     10.8363    0.098     
2510.6     5.9796     1.7537     6.7908     12.3059    14.7741    11.0087    5.31       10.9205    0.095     
2510.8     5.9454     1.652      6.4561     11.7565    14.0844    10.7604    5.6245     11.0045    0.098     
2511       5.9049     1.5838     6.1346     11.401     13.802     10.4859    5.7074     11.0433    0.091     
2511.2     5.871      1.6588     6.4299     11.2006    13.6574    10.2246    5.0534     11.1922    0.095     
2511.4     5.9049     1.6113     5.9115     10.7158    13.283     10.12      4.7958     11.671     0.101     
2511.6     6.027      1.469      5.6211     10.2146    12.6524    10.1454    5.4074     12.3375    0.098     
2511.8     6.2238     1.3877     5.4128     9.8432     12.5867    10.1984    7.21       12.7504    0.098     
2512       6.3292     1.3945     5.2488     9.9402     13.2042    10.4729    17.195     12.9846    0.091     
2512.2     6.4408     1.551      5.9115     10.6835    13.8701    10.7735    20.1282    12.5964    0.098     
2512.4     6.4815     1.7808     6.6267     11.4527    14.8201    11.0349    10.6907    11.7228    0.101     
2512.6     6.4408     1.8892     6.7908     11.6402    15.1223    11.1656    7.4988     10.9463    0.101     
2512.8     6.2848     1.9028     6.8961     11.5456    14.8792    11.0349    6.5796     10.5386    0.101     
2513       6.1423     1.8553     6.9745     11.3945    14.5442    10.9042    5.0306     10.4804    0.101     
2513.2     6.0745     1.7943     6.9614     11.0972    14.0253    10.7473    5.0448     10.6032    0.105     
2513.4     6.0135     1.6859     6.5152     10.6383    13.5063    10.682     5.2891     11.011     0.101     
2513.6     6.027      1.591      6.2199     10.3345    13.2665    10.7343    5.3998     11.6257    0.098     
2513.8     6.0881     1.5097     5.9509     10.4702    13.3093    10.9303    7.6525     11.9687    0.095     
2514       6.1491     1.5842     6.0624     10.7168    13.6377    11.2178    8.1083     12.0981    0.1       
2514.2     6.2        1.6588     6.2461     11.2588    14.1041    11.3747    8.5066     12.0852    0.101     
2514.4     6.217      1.7264     6.4102     11.75      14.2946    11.6622    8.0839     12.0528    0.098     
2514.6     6.2034     1.7537     6.5611     11.9957    14.3406    11.8582    7.4552     11.8393    0.095     
2514.8     6.1627     1.7875     6.7317     11.9827    14.3042    11.9759    7.1097     11.574     0.098     
2515       6.0745     1.8011     6.83       11.9051    14.242     11.9105    7.5266     11.4057    0.095     
2515.2     5.9728     1.8282     6.8826     11.8147    14.1107    11.6622    6.4618     11.1728    0.095     
2515.4     5.9389     1.7875     6.922      11.4656    13.5523    11.5315    5.4985     11.0272    0.093     
2515.6     5.9016     1.5978     6.1805     10.6641    12.7115    11.1394    6.9358     10.8492    0.091     
2515.8     5.8642     1.7028     6.5414     10.6641    12.7384    10.8519    6.6188     10.7133    0.095     
2516       5.8303     1.713      6.3708     10.7805    12.81      10.7604    5.4564     10.7651    0.095     
2516.2     5.8371     1.6317     6.0493     10.5905    12.5801    10.8127    5.0469     11.1469    0.095     
2516.4     5.8642     1.5436     5.905      10.4185    12.4356    10.8127    6.53       11.3798    0.091     
2516.6     5.9015     1.5707     6.0165     10.5478    12.5801    10.8258    7.8963     11.3833    0.091     
2516.8     5.9049     1.6791     6.2986     10.871     12.7509    10.9042    8.0405     11.1728    0.095     
2517       5.871      1.713      6.3839     11.1748    12.8758    10.9042    6.5889     11.0692    0.095     
2517.2     5.7964     1.7875     6.5677     11.2071    12.7641    10.7996    6.2971     10.9981    0.095     
2517.4     5.7557     1.7333     6.4528     10.8839    12.4422    10.5774    5.7079     11.1145    0.091     
2517.6     5.7625     1.6046     6.2265     10.6157    11.9692    10.3422    4.9526     11.3281    0.095     
2517.8     5.7794     1.591      6.0821     10.328     11.7196    10.1723    7.3462     11.3342    0.095     
2518       5.7964     1.6249     6.0952     10.2698    11.7656    9.8848     7.072      11.2245    0.091     
2518.2     5.8167     1.6791     6.1608     10.2246    11.7722    9.6887     6.3522     11.0498    0.095     
2518.4     5.8032     1.6791     6.023      10.0371    11.6671    9.5057     5.5775     11.2051    0.091     
2518.6     5.8032     1.6181     5.9312     9.924      11.5225    9.3228     5.7842     11.561     0.091     
2518.8     5.8167     1.6113     5.9574     9.9143     11.5028    9.179      6.5625     11.8975    0.095     
2519       5.8505     1.591      5.9771     9.9337     11.5094    9.1267     6.9698     12.0657    0.091     
