~Version
 VERS              .         2.0                           : CWLS LOG ASCII STANDARD - VERSION 2.0
 WRAP              .         NO                            : ONE LINE PER DEPTH STEP
 DLM               .         SPACE                         : DELIMITING CHARACTER(SPACE TAB OR COMMA)
~Well Information
#_______________________________________________________________________________
#
#PARAMETER_NAME    .UNIT     VALUE                         : DESCRIPTION
#_______________________________________________________________________________
STRT               .m        2490                          : First reference value
STOP               .m        2666                          : Last reference value
STEP               .m        0.2                           : Step increment
NULL               .         -9999                         : Missing value
COMP               .                                       : Company
WELL               .         404                           : Well name
FLD                .                                       : Field
LOC                .                                       : Location
CNTY               .                                       : County
STAT               .                                       : State
CTRY               .                                       : Country
SRVC               .                                       : Service Company
DATE               .                                       : Date
API                .                                       : API number
EREF               .m        140.4                         : 
Pad                .         4                             : 
X                  .m        222100                        : 
Y                  .m        250025                        : 
group              .         Pad4                          : 
Интер-р            .         Зайцев                        : 
Куст               .         4                             : 
Статус             .         Не проверено                  : 
Тип                .         Разведка                      : 
~Parameter Information Block
#_______________________________________________________________________________
#
#PARAMETER_NAME    .UNIT     VALUE                         : DESCRIPTION
#_______________________________________________________________________________
SET                .         LAS1                          : 
REAL_CREATION_DATE .         Ср апр 11 2012-13_17_14       : 
TLFamily_DEPTH     .         Measured Depth                : 
TLFamily_KS        .         Potential Resistivity         : 
TLFamily_KS1       .         Extra Shallow Resistivity     : 
TLFamily_KS2       .         Shallow Resistivity           : 
TLFamily_KS3       .         Medium Resistivity            : 
TLFamily_KS4       .         Deep Resistivity              : 
TLFamily_KS5       .         Extra Deep Resistivity        : 
TLFamily_LLD       .         Lateral Log Resistivity       : 
TLFamily_OKS3      .         Medium Resistivity Inverted   : 
TLFamily_RM        .         Mud Resistivity               : 
group              .         INI                           : 
~Curve Information
#_______________________________________________________________________________
#
#LOGNAME           .UNIT     LOG_ID                        : DESCRIPTION
#_______________________________________________________________________________
DEPTH              .m                                      : Measured Depth 
KS                 .ohm.m                                  : Potential Resistivity 
KS1                .ohm.m                                  : Extra Shallow Resistivity 
KS2                .ohm.m                                  : Shallow Resistivity 
KS3                .ohm.m                                  : Medium Resistivity 
KS4                .ohm.m                                  : Deep Resistivity 
KS5                .ohm.m                                  : Extra Deep Resistivity 
LLD                .ohm.m                                  : Lateral Log Resistivity 
OKS3               .ohm.m                                  : Medium Resistivity Inverted 
RM                 .ohm.m                                  : Mud Resistivity 
~Ascii
# ...
2621.4     8.5777     2.1061     9.5664     23.5595    40.4516    30.5998    7.4979     13.9553    0.095     
2621.6     8.3606     1.9502     8.9511     21.9795    37.8898    28.2621    7.8072     13.5476    0.095     
2621.8     8.2046     1.8824     8.6806     21.1097    36.287     26.3653    8.2241     13.2564    0.095     
2622       8.0485     1.8824     8.3984     20.0819    35.236     24.3918    8.8002     13.0364    0.09      
2622.2     7.9638     1.8418     8.0047     19.08      33.6332    23.0849    8.3737     12.9297    0.088     
2622.4     7.9061     1.8045     7.6372     17.8778    31.0352    21.9086    7.768      12.8423    0.088     
2622.6     7.8247     1.7604     7.3026     16.7531    29.8955    20.7324    7.6496     12.8358    0.091     
2622.8     7.7704     1.7401     7.0992     15.9246    28.2533    19.9928    7.9492     12.8164    0.091     
2623       7.7229     1.7062     6.9548     15.4797    26.9067    19.2948    8.0527     12.8681    0.095     
2623.2     7.7026     1.7198     6.9876     14.801     25.0609    18.5759    8.8162     12.8358    0.095     
2623.4     7.6755     1.6723     6.8236     14.258     23.8391    18.0793    8.8723     12.7972    0.091     
2623.6     7.6412     1.7401     6.9089     13.9542    23.2677    17.7395    9.3949     12.7128    0.095     
2623.8     7.5873     1.7708     7.0532     13.9736    23.1099    17.4389    9.3767     12.5058    0.088     
2624       7.533      1.7808     7.0532     13.7732    22.6173    17.3997    8.9221     12.2922    0.088     
2624.2     7.5194     1.6927     6.6923     13.5308    22.0458    17.4128    6.7061     12.6287    0.088     
2624.4     7.4991     1.6317     6.643      13.366     21.7962    17.5827    8.5025     13.2046    0.091     
2624.6     7.5194     1.6317     6.6202     13.5017    22.4005    18.0139    9.4202     13.567     0.091     
2624.8     7.5364     1.7062     6.8892     13.9671    23.4245    18.9288    11.209     13.7156    0.095     
2625       7.5398     1.7502     7.1254     14.5554    24.2989    20.3534    11.4011    13.787     0.098     
2625.2     7.4855     1.7875     7.296      15.2276    25.882     22.4314    10.7316    13.9553    0.091     
2625.4     7.3905     1.8418     7.6241     16.2618    28.1811    23.9859    10.6816    14.3112    0.091     
2625.6     7.2277     1.896      7.9782     17.0708    31.0451    25.4505    10.0957    14.8418    0.088     
2625.8     7.0107     2.0044     8.4706     17.9165    32.6413    26.9012    14.8716    15.01      0.084     
2626       6.8956     2.0654     8.7002     18.1686    31.5312    27.437     10.4759    14.3306    0.091     
2626.2     6.7393     2.0588     8.405      17.1474    28.8215    26.5222    8.4518     13.787     0.091     
2626.4     6.6376     1.8485     7.5257     15.2987    26.2761    24.6663    5.5768     13.127     0.091     
2626.6     6.5697     1.6656     6.8761     13.8766    22.9523    21.6734    5.4656     12.9134    0.098     
2626.8     6.5155     1.6046     6.7711     13.3824    20.7517    20.7193    6.7589     13.0752    0.095     
2627       6.5087     1.6181     6.7383     13.0687    19.4445    19.4385    7.1231     13.1658    0.088     
2627.2     6.4951     1.6249     6.6267     12.8166    18.3607    18.4322    7.9294     13.0105    0.088     
2627.4     6.4815     1.6859     6.5545     12.6227    17.3885    17.1122    8.6591     12.7432    0.088     
2627.6     6.468      1.6995     6.5217     12.2219    16.6823    15.7137    7.8996     12.3375    0.091     
2627.8     6.4815     1.6181     6.1018     11.5238    15.4507    14.7989    5.9394     12.3569    0.091     
2628       6.5019     1.5097     5.8721     11.1853    14.288     14.3414    6.0215     12.797     0.095     
2628.2     6.5494     1.4894     5.9079     10.955     13.7888    13.5311    7.672      12.9328    0.095     
2628.4     6.6376     1.5504     6.0887     11.0067    13.6574    13.0606    8.4454     12.6417    0.093     
2628.6     6.7393     1.5775     6.1149     11.0132    13.618     12.9169    7.6515     12.4993    0.088     
2628.8     6.7936     1.5334     5.964      11.0326    13.6836    12.9038    6.967      12.4637    0.091     
2629       6.8614     1.5571     6.1346     11.3428    14.0318    13.1783    8.9684     12.2405    0.088     
2629.2     6.9632     1.6181     6.3839     11.9181    14.761     13.4396    10.8852    11.8263    0.091     
2629.4     6.9767     1.6588     6.6399     12.4563    16.0025    13.8971    13.3543    11.6193    0.091     
2629.6     6.9021     1.8689     7.2107     13.2755    17.2506    14.0539    20.4595    11.1404    0.096     
2629.8     6.8819     1.9502     7.6766     13.6633    17.5133    14.1193    15.5589    10.4351    0.091     
2630       6.8411     1.8556     7.3288     13.3014    17.3498    13.9624    7.3449     10.2188    0.088     
2630.2     6.6918     1.8079     7.3026     13.1592    17.3754    13.6226    7.9074     10.3251    0.088     
2630.4     6.4815     1.8621     7.6504     13.6827    17.9928    13.5965    9.6868     10.5645    0.091     
2630.6     6.2577     1.9231     7.8986     14.2483    18.6891    13.701     9.5313     10.7457    0.095     
2630.8     5.9796     1.9909     8.0769     14.6071    19.392     13.6749    8.3928     11.1016    0.095     
2631       5.7014     1.9976     8.1884     14.9238    19.3723    13.2567    7.2389     11.2375    0.091     
2631.2     5.5318     1.8892     7.8931     14.5877    18.0782    12.5117    7.0319     11.1725    0.091     
2631.4     5.4572     1.7367     7.1976     13.4371    16.788     11.4531    4.7163     11.0433    0.088     
2631.6     5.3758     1.6249     6.4102     12.1249    15.0828    10.2376    4.6863     11.2245    0.091     
2631.8     5.3622     1.4826     5.8328     11.2322    13.5326    9.5226     4.818      11.6257    0.091     
2632       5.4233     1.4216     5.4751     10.6706    12.4028    9.0091     5.0704     12.1175    0.091     
2632.2     5.5386     1.3877     5.3013     9.8755     11.6211    8.6562     5.1192     12.7711    0.095     
2632.4     5.6772     1.347      5.0782     9.3455     11.2664    8.5909     5.5213     13.6705    0.095     
2632.6     5.81       1.3641     5.065      9.1322     11.2302    8.6954     6.3749     14.3976    0.088     
2632.8     6.0338     1.3538     5.0978     9.1839     11.3255    8.9568     7.2016     14.7641    0.084     
2633       6.2645     1.4351     5.3472     9.3067     11.4897    9.1919     10.0937    14.6865    0.091     
2633.2     6.4612     1.5029     5.5039     9.4296     11.6539    9.4273     9.3802     14.2011    0.091     
2633.4     6.5969     1.5842     5.6556     9.52       11.7919    9.6495     10.0579    13.6123    0.095     
2633.6     6.719      1.6317     5.9181     9.5459     11.7656    9.8717     9.9081     12.9717    0.095     
2633.8     6.7937     1.6249     6.0624     9.5006     11.7298    10.1723    8.8139     12.3828    0.091     
2634       6.8614     1.6147     6.1674     9.5071     11.6736    10.5121    8.2605     12.1528    0.088     
2634.2     6.9089     1.6249     6.3183     9.7527     11.7065    10.863     8.1425     12.1563    0.088     
2634.4     6.9767     1.6723     6.5021     10.0008    11.7984    11.2963    7.885      12.3569    0.091     
2634.6     7.0785     1.6113     6.3969     10.1729    11.9035    11.9236    7.6755     12.7258    0.091     
2634.8     7.1667     1.5978     6.3446     10.5348    12.1926    12.4725    10.1792    13.1076    0.095     
2635       7.2617     1.6385     6.4955     11.1554    12.7049    13.0476    10.5363    13.3729    0.091     
2635.2     7.323      1.713      6.7645     11.8082    13.2438    13.5965    10.3014    13.5766    0.088     
2635.4     7.3431     1.73       6.9089     12.5128    13.7231    14.0278    11.5643    13.7352    0.091     
2635.6     7.2888     1.8147     7.3026     13.1204    14.2683    14.2687    11.3845    13.9423    0.091     
2635.8     7.1938     1.8756     7.3813     13.457     14.715     14.3545    9.6803     14.0976    0.095     
