~Version
 VERS              .         2.0                           : CWLS LOG ASCII STANDARD - VERSION 2.0
 WRAP              .         NO                            : ONE LINE PER DEPTH STEP
 DLM               .         SPACE                         : DELIMITING CHARACTER(SPACE TAB OR COMMA)
~Well Information
#_______________________________________________________________________________
#
#PARAMETER_NAME    .UNIT     VALUE                         : DESCRIPTION
#_______________________________________________________________________________
STRT               .m        2699                          : First reference value
STOP               .m        2871                          : Last reference value
STEP               .m        0.2                           : Step increment
NULL               .         -9999                         : Missing value
COMP               .                                       : Company
WELL               .         405                           : Well name
FLD                .                                       : Field
LOC                .                                       : Location
CNTY               .                                       : County
STAT               .                                       : State
CTRY               .                                       : Country
SRVC               .                                       : Service Company
DATE               .                                       : Date
API                .                                       : API number
EREF               .m        140.4                         : 
Pad                .         4                             : 
X                  .m        222100                        : 
Y                  .m        250025                        : 
group              .         Pad4                          : 
Интер-р            .         Ярышев                        : 
Куст               .         4                             : 
Статус             .         Проверено                     : 
Тип                .         Нагнетательные                : 
~Parameter Information Block
#_______________________________________________________________________________
#
#PARAMETER_NAME    .UNIT     VALUE                         : DESCRIPTION
#_______________________________________________________________________________
SET                .         LAS1                          : 
REAL_CREATION_DATE .         Ср апр 11 2012-13_17_15       : 
TLFamily_DEPTH     .         Measured Depth                : 
TLFamily_KS        .         Potential Resistivity         : 
TLFamily_KS1       .         Extra Shallow Resistivity     : 
TLFamily_KS2       .         Shallow Resistivity           : 
TLFamily_KS3       .         Medium Resistivity            : 
TLFamily_KS4       .         Deep Resistivity              : 
TLFamily_KS5       .         Extra Deep Resistivity        : 
TLFamily_OKS3      .         Medium Resistivity Inverted   : 
TLFamily_RM        .         Mud Resistivity               : 
TLFamily_SP        .         Spontaneous Potential         : 
group              .         INI                           : 
~Curve Information
#_______________________________________________________________________________
#
#LOGNAME           .UNIT     LOG_ID                        : DESCRIPTION
#_______________________________________________________________________________
DEPTH              .m                                      : Measured Depth 
KS                 .ohm.m                                  : Potential Resistivity 
KS1                .ohm.m                                  : Extra Shallow Resistivity 
KS2                .ohm.m                                  : Shallow Resistivity 
KS3                .ohm.m                                  : Medium Resistivity 
KS4                .ohm.m                                  : Deep Resistivity 
KS5                .ohm.m                                  : Extra Deep Resistivity 
OKS3               .ohm.m                                  : Medium Resistivity Inverted 
RM                 .ohm.m                                  : Mud Resistivity 
SP                 .mV                                     : Spontaneous Potential 
~Ascii
# ...
2801.2     5.1684     6.5936     8.3755     5.565      2.401      4.4151     3.6862     1.186      127.8835  
2801.4     4.8051     5.8947     8.2441     4.633      1.9933     3.7084     3.7218     1.208      127.6278  
2801.6     4.6387     5.4673     7.4032     4.1799     1.8092     3.3682     3.7834     1.205      127.2045  
2801.8     4.5741     5.05       6.4638     3.8628     1.7171     3.1457     3.8579     1.213      126.5497  
2802       4.496      5.2502     6.1911     3.6913     1.6908     2.884      3.7315     1.202      126.3315  
2802.2     4.513      5.2095     5.59       3.578      1.75       2.7335     3.5081     1.195      126.7067  
2802.4     4.479      5.0534     5.0973     3.4485     1.8782     2.6092     3.3915     1.208      127.1656  
2802.6     4.4451     4.8295     4.9922     3.6103     2.3221     2.5045     3.398      1.198      127.0116  
2802.8     4.5062     4.5615     4.8608     3.8304     2.7692     2.5176     3.5631     1.175      126.393   
2803       4.5775     4.6124     5.1565     3.8757     3.0487     2.5699     3.955      1.161      125.8096  
2803.2     4.6285     4.9211     5.393      3.9987     3.3348     2.6877     4.376      1.169      125.3497  
2803.4     4.7711     5.0738     5.3897     4.031      3.4696     2.7531     4.8229     1.195      125.0926  
2803.6     4.8662     5.3112     5.4652     4.031      3.5222     2.8055     5.1727     1.222      125.0571  
2803.8     4.985      5.3927     5.4619     4.0764     3.5912     2.8447     5.6941     1.205      125.1406  
2804       4.9681     5.6098     5.6065     4.1119     3.68       2.8251     6.4358     1.191      125.3522  
2804.2     4.9545     5.9015     5.9743     4.1443     3.7523     2.7924     7.0576     1.207      125.9602  
2804.4     4.9715     5.7862     5.9119     3.9987     3.7622     2.7531     7.9708     1.21       126.9415  
2804.6     4.8933     5.7082     5.8594     3.7592     3.8608     2.655      9.0655     1.205      127.4536  
2804.8     4.8662     5.8065     6.0105     3.5262     3.8542     2.6026     10.4969    1.198      127.4271  
2805       5.0088     5.2095     5.4882     3.277      3.7227     2.583      13.0004    1.171      127.4112  
2805.2     5.2465     4.9889     5.3338     3.1314     3.6208     2.5568     17.0972    1.158      127.0697  
2805.4     6.0106     4.9313     5.3962     3.1411     3.5781     2.5437     20.9057    1.161      126.2664  
2805.6     7.695      4.7277     4.9725     3.1443     3.4433     2.4914     24.4293    1.193      125.0578  
2805.8     9.3556     6.1254     5.5243     3.112      3.1769     2.3605     24.9442    1.242      123.0883  
2806       11.203     7.7505     6.1222     3.112      2.9172     2.2427     23.3638    1.22       120.1898  
2806.2     11.7226    9.9115     7.2455     3.0246     2.5391     2.1511     22.7971    1.205      116.744   
2806.4     12.8025    10.4543    8.5299     3.0246     2.4142     2.1577     27.4412    1.208      113.3065  
2806.6     14.2865    7.1907     8.6744     3.1832     2.4668     2.282      32.7266    1.202      110.0437  
2806.8     16.8097    7.9845     11.9361    3.6621     2.6312     2.7008     34.7118    1.195      106.793   
2807       21.513     10.132     14.4654    4.2899     2.8383     3.185      33.248     1.161      103.5764  
2807.2     24.4505    13.8264    16.814     5.1184     3.0158     3.5121     31.6578    1.171      100.8049  
2807.4     25.8496    15.7161    18.683     6.319      3.2887     3.787      30.6603    1.207      98.763    
2807.6     26.7903    16.8967    22.7101    8.3448     3.5912     3.9375     29.7924    1.218      97.2245   
2807.8     27.1367    17.6057    29.7328    10.568     3.9463     4.0618     29.2451    1.202      96.2783   
2808       27.1639    18.2096    34.407     13.3058    4.2751     4.1926     28.7625    1.2        96.4761   
2808.2     27.1265    18.3283    36.3056    15.0533    4.6696     4.2973     28.4063    1.213      97.738    
2808.4     27.1231    18.0026    36.8016    16.4901    5.097      4.4151     27.8816    1.202      98.8164   
2808.6     27.0484    17.8635    37.4454    17.7004    5.6658     4.6114     26.991     1.178      98.7108   
2808.8     26.8514    18.2299    38.4735    19.9204    6.2346     4.9255     25.6794    1.159      98.0258   
2809       26.5492    18.5827    39.0221    24.0174    6.7377     5.2854     24.6333    1.175      97.4417   
2809.2     26.1077    18.179     38.2666    26.5577    7.438      5.4882     23.8431    1.208      96.7257   
2809.4     26.016     17.8059    38.0695    27.5739    8.2731     5.5406     23.176     1.208      95.7463   
2809.6     26.1315    17.2461    36.9231    27.9654    9.266      5.5275     22.3955    1.195      94.9204   
2809.8     26.4915    17.3886    36.6899    27.7842    10.0683    5.4359     21.479     1.207      94.529    
2810       26.8514    17.3377    35.734     27.6224    10.9757    5.3312     20.7211    1.212      94.3634   
2810.2     26.7971    17.9721    36.2892    27.6871    11.6662    5.2788     20.7665    1.198      94.2094   
2810.4     26.2096    18.6981    37.5604    28.0528    12.1955    5.2788     21.5858    1.164      94.0856   
2810.6     25.0822    18.9288    38.6279    28.4573    12.5605    5.3574     23.8075    1.159      94.2131   
2810.8     23.8732    18.9898    39.8268    28.7906    13.1358    5.3835     28.2767    1.178      94.565    
2811       22.6065    18.4674    39.2651    28.8877    14.2899    5.3835     34.4171    1.212      94.4053   
2811.2     21.547     17.945     38.2436    28.069     14.7469    5.305      44.3984    1.215      93.6602   
2811.4     20.715     16.8051    35.4614    26.9687    14.4839    5.1218     56.0203    1.198      93.3341   
2811.6     20.5112    16.6931    33.5136    24.9041    13.2115    4.8601     70.5395    1.198      93.8825   
2811.8     20.4195    15.1597    29.089     22.8135    11.6793    4.6507     87.187     1.198      95.1234   
2812       20.9527    15.1495    27.4894    20.0499    10.3543    4.5918     116.1492   1.18       96.6011   
2812.2     22.0156    13.9452    24.6908    17.7716    9.368      4.7815     159.2505   1.154      97.6047   
2812.4     23.9072    13.0733    22.3783    15.4287    8.5526     5.3246     219.4554   1.168      97.8162   
2812.6     27.9178    12.1946    20.8181    13.6909    8.523      6.2865     283.4612   1.212      97.6597   
2812.8     35.236     10.7121    18.2724    12.4256    9.2825     7.7129     379.0137   1.217      97.5543   
2813       45.4374    8.1135     14.7939    11.4288    10.3839    9.1917     462.5556   1.191      97.5009   
2813.2     61.4626    7.038      13.2238    11.5486    11.8865    10.1209    501.0199   1.215      97.39     
2813.4     79.4291    9.1991     17.2049    12.9563    13.1852    11.3772    491.3658   1.239      97.16     
2813.6     97.0748    12.3744    23.7086    15.9723    14.5792    12.1231    449.4048   1.212      96.8586   
2813.8     113.4372   15.8212    31.7595    19.6551    15.9404    13.0915    403.871    1.173      96.5624   
2814       124.7464   19.5462    45.0528    24.7325    17.7717    14.0992    357.121    1.178      96.3197   
2814.2     134.2911   22.2059    60.9294    30.7614    19.6491    15.4602    308.1664   1.228      96.2167   
2814.4     142.1515   24.4925    75.3878    39.8226    21.8289    16.3632    270.5384   1.242      96.2019   
2814.6     147.8462   26.2702    89.7685    53.4391    24.4362    17.6064    225.2327   1.227      96.1465   
2814.8     150.4931   29.9239    104.6156   73.8727    27.1125    18.4701    174.9099   1.222      96.0598   
2815       151.7764   33.1943    120.6287   99.2341    30.3478    18.8234    122.6106   1.249      95.992    
2815.2     151.616    35.4842    131.2782   133.7474   33.0537    19.36      94.9407    1.218      95.9446   
2815.4     150.1722   34.0492    130.1122   169.1914   35.5919    19.8638    74.5683    1.18       95.901    
2815.6     147.3917   34.7899    136.3827   210.7107   41.3139    20.3284    56.6285    1.168      95.8347   
