~Version
 VERS              .         2.0                           : CWLS LOG ASCII STANDARD - VERSION 2.0
 WRAP              .         NO                            : ONE LINE PER DEPTH STEP
 DLM               .         SPACE                         : DELIMITING CHARACTER(SPACE TAB OR COMMA)
~Well Information
#_______________________________________________________________________________
#
#PARAMETER_NAME    .UNIT     VALUE                         : DESCRIPTION
#_______________________________________________________________________________
STRT               .m        2699                          : First reference value
STOP               .m        2871                          : Last reference value
STEP               .m        0.2                           : Step increment
NULL               .         -9999                         : Missing value
COMP               .                                       : Company
WELL               .         405                           : Well name
FLD                .                                       : Field
LOC                .                                       : Location
CNTY               .                                       : County
STAT               .                                       : State
CTRY               .                                       : Country
SRVC               .                                       : Service Company
DATE               .                                       : Date
API                .                                       : API number
EREF               .m        140.4                         : 
Pad                .         4                             : 
X                  .m        222100                        : 
Y                  .m        250025                        : 
group              .         Pad4                          : 
Интер-р            .         Ярышев                        : 
Куст               .         4                             : 
Статус             .         Проверено                     : 
Тип                .         Нагнетательные                : 
~Parameter Information Block
#_______________________________________________________________________________
#
#PARAMETER_NAME    .UNIT     VALUE                         : DESCRIPTION
#_______________________________________________________________________________
SET                .         LAS3                          : 
REAL_CREATION_DATE .         Ср апр 11 2012-13_17_15       : 
TLFamily_DEPTH     .         Measured Depth                : 
TLFamily_GR        .         Gamma Ray                     : 
TLFamily_TNPH      .         Neutron Porosity              : 
group              .         INI                           : 
~Curve Information
#_______________________________________________________________________________
#
#LOGNAME           .UNIT     LOG_ID                        : DESCRIPTION
#_______________________________________________________________________________
DEPTH              .m                                      : Measured Depth 
GR                 .gAPI                                   :  
TNPH               .v/v                                    : Neutron Porosity 
~Ascii
# ...
2796.2     131.19     0.24781   
2796.4     139.86     0.2281    
2796.6     136.22     0.24335   
2796.8     140.87     0.22575   
2797       133.95     0.21836   
2797.2     122.26     0.2211    
2797.4     116.25     0.23757   
2797.6     122.2      0.25937   
2797.8     121.01     0.25062   
2798       107.28     0.23015   
2798.2     96.6       0.23858   
2798.4     86.82999   0.24324   
2798.6     95.24001   0.2528    
2798.8     126.36     0.23467   
2799       138.43     0.24596   
2799.2     137.45     0.23994   
2799.4     139.83     0.23903   
2799.6     135.63     0.23328   
2799.8     130.36     0.22326   
2800       127.6      0.23395   
2800.2     129.52     0.24008   
2800.4     128.52     0.24357   
2800.6     137.98     0.2495    
2800.8     147.83     0.25224   
2801       145.59     0.23917   
2801.2     143.3      0.22887   
2801.4     132.62     0.21673   
2801.6     124.8      0.24932   
2801.8     123.51     0.25063   
2802       126.16     0.26117   
2802.2     131.71     0.25654   
2802.4     127.62     0.26094   
2802.6     123.6      0.25779   
2802.8     110.87     0.2608    
2803       123.89     0.26722   
2803.2     123.9      0.27096   
2803.4     136.13     0.26232   
2803.6     136.96     0.25691   
2803.8     133.22     0.24853   
2804       133.63     0.26303   
2804.2     131.02     0.28897   
2804.4     125.18     0.2688    
2804.6     122.02     0.22197   
2804.8     125.64     0.19633   
2805       119.55     0.20515   
2805.2     115.98     0.20043   
2805.4     104.31     0.18685   
2805.6     95.14      0.15728   
2805.8     89.7       0.16279   
2806       101.84     0.15717   
2806.2     116.61     0.15565   
2806.4     126.4      0.14844   
2806.6     87.29      0.1453    
2806.8     45.99      0.14088   
2807       45.36      0.15224   
2807.2     48.22      0.14577   
2807.4     45.15      0.14063   
2807.6     35.65      0.14333   
2807.8     33.15      0.16829   
2808       37.23      0.1786    
2808.2     39.02      0.16294   
2808.4     37.85      0.14173   
2808.6     36.85      0.13992   
2808.8     35.9       0.14423   
2809       39.38      0.14593   
2809.2     43.07      0.16309   
2809.4     45.93      0.16021   
2809.6     48.9       0.15379   
2809.8     53.58      0.14079   
2810       50.74      0.13649   
2810.2     45.92      0.14701   
2810.4     41.77      0.16417   
2810.6     41.08      0.17693   
2810.8     40.87      0.17347   
2811       39.95      0.17555   
2811.2     44.97      0.18602   
2811.4     46.55      0.16934   
2811.6     48.22      0.17427   
2811.8     55.68      0.15768   
2812       55.03      0.14981   
2812.2     52.08      0.14036   
2812.4     49.53      0.13293   
2812.6     45.84      0.12142   
2812.8     41.42      0.08733   
2813       32.99      0.05835   
2813.2     29.16      0.06118   
2813.4     27.73      0.05466   
2813.6     26.79      0.05839   
2813.8     24.08      0.06712   
2814       22.02      0.07387   
2814.2     22.59      0.07806   
2814.4     23.13      0.07038   
2814.6     19.86      0.06978   
2814.8     21.48      0.06555   
2815       24.43      0.06324   
2815.2     29.82      0.06228   
2815.4     30.21      0.05404   
2815.6     28.16      0.04682   
2815.8     26.96      0.04958   
2816       24.52      0.05619   
2816.2     22.85      0.0569    
2816.4     26.66      0.06323   
2816.6     30.98      0.09213001
2816.8     34.33      0.10044   
2817       35.86      0.14303   
2817.2     37.74      0.1509    
2817.4     40.6       0.16148   
2817.6     42.76      0.1491    
2817.8     43.73      0.1508    
2818       42.85      0.13646   
2818.2     39.4       0.1345    
2818.4     39.52      0.13766   
2818.6     37.86      0.16355   
2818.8     39.59      0.1824    
2819       38.12      0.17012   
2819.2     39.91      0.16489   
2819.4     39.5       0.17028   
2819.6     40.71      0.18804   
2819.8     42.23      0.16867   
2820       41.51      0.16371   
2820.2     42.44      0.16253   
2820.4     39.17      0.16405   
2820.6     41.16      0.17422   
2820.8     44.16      0.18438   
2821       44.59      0.16992   
2821.2     51.25      0.16717   
2821.4     58.9       0.14876   
2821.6     59.37      0.1349    
2821.8     57.1       0.14724   
2822       61.72      0.17155   
2822.2     74.5       0.15778   
2822.4     82         0.21039   
2822.6     85.5       0.22167   
2822.8     87.79      0.22542   
2823       88.37      0.23539   
2823.2     83.46      0.23822   
2823.4     79.62      0.21828   
2823.6     68.39      0.20867   
2823.8     69.68001   0.24349   
2824       87.58      0.26881   
2824.2     111.99     0.27333   
2824.4     120.54     0.30462   
2824.6     127.41     0.29159   
2824.8     119.73     0.25877   
2825       105.75     0.21193   
2825.2     104.86     0.22071   
2825.4     98.98      0.21955   
2825.6     88.32      0.2162    
2825.8     83.58      0.21386   
2826       89.14      0.22824   
2826.2     88.8       0.22158   
2826.4     86.91      0.22566   
2826.6     84.44      0.20327   
2826.8     83.9       0.21518   
2827       73.92999   0.20496   
2827.2     76.00999   0.21448   
2827.4     73.09      0.21143   
2827.6     68.49      0.20476   
2827.8     69.68001   0.22742   
2828       73.38      0.26008   
2828.2     73.25      0.24686   
2828.4     72.42      0.20775   
2828.6     82.59      0.181     
2828.8     83.39      0.20068   
2829       72.25999   0.19733   
2829.2     69.16      0.1999    
2829.4     62.18      0.18584   
2829.6     59.55      0.21324   
2829.8     62.21      0.235     
2830       63.72      0.26867   
2830.2     67.63      0.24018   
2830.4     72.88      0.21584   
2830.6     80.92      0.24269   
2830.8     91.91      0.25029   
2831       100.63     0.27267   
2831.2     94.77      0.27129   
2831.4     90.64      0.23875   
2831.6     95.24001   0.24849   
2831.8     93.98      0.25786   
2832       98.92      0.25118   
2832.2     96.16      0.24952   
2832.4     100.78     0.24619   
2832.6     104.27     0.25617   
2832.8     101.42     0.24032   
2833       101.9      0.23201   
2833.2     93.03001   0.24005   
2833.4     85.24001   0.2686    
2833.6     72.29      0.32288   
2833.8     54.94      0.38775   
2834       26.3       0.52275   
2834.2     9.159999   0.3878    
2834.4     -0.3799999 0.32787   
2834.6     -2.73      0.28958   
2834.8     -1.64      0.24751   
2835       2.76       0.23167   
2835.2     3.800001   0.26872   
2835.4     11.36      0.27412   
2835.6     25.47      0.27296   
2835.8     45.92      0.29456   
2836       67.53      0.32383   
2836.2     82.81999   0.30204   
2836.4     80.84      0.24611   
2836.6     81.52      0.23969   
2836.8     83.50999   0.21205   
2837       87.81999   0.2078    
2837.2     80.7       0.22156   
2837.4     75.54      0.28839   
2837.6     78.10001   0.30098   
2837.8     71.81      0.23671   
2838       78.48      0.18825   
2838.2     87.11      0.20932   
2838.4     89.38      0.18404   
2838.6     82.27      0.19665   
2838.8     84.64      0.19718   
2839       87.09      0.21076   
2839.2     106.75     0.21015   
2839.4     114.23     0.20458   
2839.6     101.11     0.21562   
2839.8     93.11      0.23384   
2840       86.68999   0.20489   
2840.2     91.61      0.22849   
2840.4     99.85      0.23366   
2840.6     107.71     0.21264   
2840.8     104.88     0.21523   
2841       94.43      0.18921   
2841.2     85.50999   0.18161   
2841.4     72.06001   0.16196   
2841.6     65         0.16979   
2841.8     68.12      0.18629   
2842       73.48      0.23152   
2842.2     77.21      0.23384   
2842.4     70.45      0.21635   
2842.6     72.85      0.23387   
2842.8     73.4       0.20091   
2843       72.17      0.21949   
2843.2     70.68      0.2121    
2843.4     56.79      0.1671    
2843.6     49.22      0.18748   
2843.8     52.23      0.19467   
2844       57.39      0.2277    
2844.2     60.93      0.2226    
2844.4     59.61      0.19181   
2844.6     62.32      0.18681   
