~Version
 VERS              .         2.0                           : CWLS LOG ASCII STANDARD - VERSION 2.0
 WRAP              .         NO                            : ONE LINE PER DEPTH STEP
 DLM               .         SPACE                         : DELIMITING CHARACTER(SPACE TAB OR COMMA)
~Well Information
#_______________________________________________________________________________
#
#PARAMETER_NAME    .UNIT     VALUE                         : DESCRIPTION
#_______________________________________________________________________________
STRT               .m        2699                          : First reference value
STOP               .m        2871                          : Last reference value
STEP               .m        0.2                           : Step increment
NULL               .         -9999                         : Missing value
COMP               .                                       : Company
WELL               .         405                           : Well name
FLD                .                                       : Field
LOC                .                                       : Location
CNTY               .                                       : County
STAT               .                                       : State
CTRY               .                                       : Country
SRVC               .                                       : Service Company
DATE               .                                       : Date
API                .                                       : API number
EREF               .m        140.4                         : 
Pad                .         4                             : 
X                  .m        222100                        : 
Y                  .m        250025                        : 
group              .         Pad4                          : 
Интер-р            .         Ярышев                        : 
Куст               .         4                             : 
Статус             .         Проверено                     : 
Тип                .         Нагнетательные                : 
~Parameter Information Block
#_______________________________________________________________________________
#
#PARAMETER_NAME    .UNIT     VALUE                         : DESCRIPTION
#_______________________________________________________________________________
SET                .         LAS3                          : 
REAL_CREATION_DATE .         Ср апр 11 2012-13_17_15       : 
TLFamily_DEPTH     .         Measured Depth                : 
TLFamily_GR        .         Gamma Ray                     : 
TLFamily_TNPH      .         Neutron Porosity              : 
group              .         INI                           : 
~Curve Information
#_______________________________________________________________________________
#
#LOGNAME           .UNIT     LOG_ID                        : DESCRIPTION
#_______________________________________________________________________________
DEPTH              .m                                      : Measured Depth 
GR                 .gAPI                                   :  
TNPH               .v/v                                    : Neutron Porosity 
~Ascii
2699.0     87.41      0.23723   
2699.2     87.58      0.20743   
2699.4     89.49001   0.21445   
2699.6     94.17      0.22147   
2699.8     88.39      0.22367   
2700       88.67      0.25799   
2700.2     86.07001   0.26318   
2700.4     83.73      0.25628   
2700.6     85.47      0.24415   
2700.8     88.89      0.21814   
2701       80.5       0.19581   
2701.2     86.23      0.17622   
2701.4     78.61      0.17264   
2701.6     84.62      0.17946   
2701.8     87.21      0.19904   
2702       84.18999   0.19108   
2702.2     82.98      0.17719   
2702.4     91.25      0.18225   
2702.6     91.49001   0.20552   
2702.8     94.25999   0.20574   
2703       89.34      0.22962   
2703.2     87.71      0.25475   
2703.4     91.4       0.25375   
2703.6     88.9       0.24097   
2703.8     93.54      0.22594   
2704       91.05      0.215     
2704.2     90.36      0.22424   
2704.4     91.17      0.20972   
2704.6     84.52      0.21757   
2704.8     85.64999   0.21268   
2705       89.29      0.20098   
2705.2     84.39999   0.20234   
2705.4     80.39      0.18721   
2705.6     80.31999   0.18222   
2705.8     80.33      0.19399   
2706       81.72      0.20271   
2706.2     83.21999   0.21101   
2706.4     85.93001   0.21614   
2706.6     84.92      0.21748   
2706.8     87.98      0.25392   
2707       90.35      0.25141   
2707.2     87.89      0.22665   
2707.4     82.31      0.22083   
2707.6     78.92999   0.20804   
2707.8     80.68      0.20757   
2708       82.48      0.22786   
2708.2     84.1       0.22433   
2708.4     89.14      0.20866   
2708.6     91.14      0.20901   
2708.8     98.24001   0.22592   
2709       101.25     0.20951   
2709.2     100.27     0.21791   
2709.4     96.67      0.23472   
2709.6     90.74001   0.25321   
2709.8     84.67      0.22194   
2710       83.45      0.24055   
2710.2     82.93999   0.22351   
2710.4     85.39      0.21919   
2710.6     87.36      0.20875   
2710.8     87.77      0.21428   
2711       90.84      0.20908   
2711.2     93.96      0.19122   
2711.4     94.14      0.20109   
2711.6     90.15      0.23491   
2711.8     89.11      0.22955   
2712       85.93001   0.23662   
2712.2     82.29      0.21499   
2712.4     84.83      0.21719   
2712.6     86.96      0.22104   
2712.8     86.79      0.21618   
2713       89.02      0.20732   
2713.2     87.67999   0.19641   
2713.4     86.34      0.20369   
2713.6     79.89      0.23121   
2713.8     83.31001   0.24905   
2714       87.23      0.2634    
2714.2     84.7       0.2404    
2714.4     88.24001   0.21666   
2714.6     85.09      0.21036   
2714.8     84.67      0.21552   
2715       85.17999   0.23427   
2715.2     86.63      0.21949   
2715.4     91.49001   0.20404   
2715.6     91.55      0.21779   
2715.8     92.3       0.2212    
2716       90.63      0.22295   
2716.2     81.95      0.2035    
2716.4     74.32      0.18783   
2716.6     74.64      0.1935    
2716.8     82.27      0.21521   
2717       82.67999   0.23644   
2717.2     86.2       0.24975   
2717.4     86.67      0.25857   
2717.6     81.54      0.2627    
2717.8     84.88      0.24928   
2718       91.96999   0.23111   
2718.2     100.74     0.2383    
2718.4     98.49      0.22665   
2718.6     93.98      0.2054    
2718.8     87.25999   0.22169   
2719       91.61      0.23206   
2719.2     88.18      0.2387    
2719.4     92.97      0.23689   
2719.6     95.95      0.24836   
2719.8     94.04      0.24298   
2720       103.06     0.21265   
2720.2     103.1      0.19144   
2720.4     105.23     0.17891   
2720.6     102.41     0.2012    
2720.8     100.63     0.21627   
2721       94.49001   0.22882   
2721.2     87.67      0.20809   
2721.4     81.61      0.24487   
2721.6     83.50999   0.24839   
2721.8     86.2       0.22832   
2722       90.24001   0.20958   
2722.2     90.81001   0.22153   
2722.4     86.36      0.20743   
2722.6     84.39999   0.2117    
2722.8     87.81      0.19113   
2723       89.67      0.20797   
2723.2     90.71      0.21146   
2723.4     89.13      0.1975    
2723.6     89.37      0.19605   
2723.8     90.17      0.18607   
2724       94.28001   0.17962   
2724.2     90.95      0.17998   
2724.4     90.75      0.1816    
2724.6     94.41      0.17932   
2724.8     89.91      0.16259   
2725       81.07001   0.16226   
2725.2     85.35      0.16435   
2725.4     88.37      0.15537   
2725.6     95.27      0.18389   
2725.8     92.98      0.1895    
2726       93.4       0.19109   
2726.2     93.21999   0.18832   
2726.4     88.66      0.18094   
2726.6     87.36      0.19114   
2726.8     77.25999   0.18111   
2727       78.45      0.16752   
2727.2     79.86      0.16307   
2727.4     70.54      0.1741    
2727.6     82.37      0.20039   
2727.8     90.43999   0.20907   
2728       99.94      0.22453   
2728.2     97.53      0.22844   
2728.4     100.2      0.2145    
2728.6     97.36      0.1772    
2728.8     95.17      0.17619   
2729       93.33      0.18845   
2729.2     98.92999   0.18079   
2729.4     99.16      0.16921   
2729.6     100.99     0.1676    
2729.8     101.4      0.18841   
2730       95.59      0.18058   
2730.2     94.83      0.1857    
2730.4     101.36     0.19934   
2730.6     111.75     0.19819   
2730.8     104.52     0.17644   
2731       103.39     0.20291   
2731.2     102.86     0.1981    
2731.4     105.18     0.18996   
2731.6     111.87     0.18466   
2731.8     99.7       0.19058   
2732       96.87      0.17724   
2732.2     96.14      0.1851    
2732.4     84.62      0.17036   
2732.6     76.68999   0.17828   
2732.8     74.5       0.17193   
2733       63.55      0.15546   
2733.2     59.74      0.14259   
2733.4     58.06      0.14587   
2733.6     57.21      0.13857   
2733.8     56.76      0.14656   
2734       56.13      0.14813   
2734.2     58.34      0.15581   
2734.4     57.64      0.17434   
2734.6     53.82      0.19583   
2734.8     57.98      0.18458   
2735       66.11      0.15173   
2735.2     65.03      0.15439   
2735.4     58.69      0.15837   
2735.6     53.4       0.15427   
2735.8     46.57      0.15933   
2736       45.95      0.16765   
2736.2     51.84      0.17695   
2736.4     68.49      0.16562   
2736.6     72.29      0.18478   
2736.8     67.44      0.21722   
2737       58.72      0.21453   
2737.2     62.21      0.22207   
2737.4     72.3       0.22354   
2737.6     80.98      0.20448   
2737.8     94.73      0.17592   
2738       99.91      0.19565   
2738.2     89.71      0.19814   
2738.4     70.75      0.18923   
2738.6     60.08      0.18548   
2738.8     58.8       0.19215   
2739       65.31      0.17473   
2739.2     70.93001   0.18201   
2739.4     71.81      0.18751   
2739.6     74.31      0.19361   
2739.8     70.31999   0.18114   
2740       58.43      0.17533   
2740.2     58.25      0.17438   
2740.4     71.66      0.20974   
2740.6     83.03001   0.24145   
2740.8     82.5       0.23169   
2741       82.08      0.21747   
2741.2     83.75      0.1944    
2741.4     87.79      0.17243   
2741.6     76.49001   0.1549    
2741.8     66.52      0.1406    
2742       61.1       0.16258   
2742.2     57.73      0.1737    
2742.4     66.08      0.18285   
2742.6     72.48      0.17375   
2742.8     68.33      0.17025   
2743       59.1       0.16204   
2743.2     52.68      0.16261   
2743.4     57.56      0.16247   
2743.6     55.84      0.16563   
2743.8     50.81      0.18019   
2744       52.61      0.18156   
2744.2     52.01      0.18825   
2744.4     53.63      0.19659   
2744.6     65.36      0.21086   
2744.8     74.7       0.21194   
2745       77.93999   0.21517   
2745.2     79.46999   0.21387   
2745.4     85.69      0.19712   
2745.6     94.85      0.22431   
2745.8     90.57      0.22543   
2746       79.46      0.21139   
2746.2     70.09      0.20934   
2746.4     67.11      0.20288   
2746.6     74.75999   0.19371   
2746.8     76.4       0.19298   
2747       77.24      0.19745   
2747.2     80.15      0.18597   
2747.4     82.44      0.19054   
