~Version
 VERS              .         2.0                           : CWLS LOG ASCII STANDARD - VERSION 2.0
 WRAP              .         NO                            : ONE LINE PER DEPTH STEP
 DLM               .         SPACE                         : DELIMITING CHARACTER(SPACE TAB OR COMMA)
~Well Information
#_______________________________________________________________________________
#
#PARAMETER_NAME    .UNIT     VALUE                         : DESCRIPTION
#_______________________________________________________________________________
STRT               .m        2699                          : First reference value
STOP               .m        2871                          : Last reference value
STEP               .m        0.2                           : Step increment
NULL               .         -9999                         : Missing value
COMP               .                                       : Company
WELL               .         405                           : Well name
FLD                .                                       : Field
LOC                .                                       : Location
CNTY               .                                       : County
STAT               .                                       : State
CTRY               .                                       : Country
SRVC               .                                       : Service Company
DATE               .                                       : Date
API                .                                       : API number
EREF               .m        140.4                         : 
Pad                .         4                             : 
X                  .m        222100                        : 
Y                  .m        250025                        : 
group              .         Pad4                          : 
Интер-р            .         Ярышев                        : 
Куст               .         4                             : 
Статус             .         Проверено                     : 
Тип                .         Нагнетательные                : 
~Parameter Information Block
#_______________________________________________________________________________
#
#PARAMETER_NAME    .UNIT     VALUE                         : DESCRIPTION
#_______________________________________________________________________________
SET                .         LAS1                          : 
REAL_CREATION_DATE .         Ср апр 11 2012-13_17_15       : 
TLFamily_DEPTH     .         Measured Depth                : 
TLFamily_KS        .         Potential Resistivity         : 
TLFamily_KS1       .         Extra Shallow Resistivity     : 
TLFamily_KS2       .         Shallow Resistivity           : 
TLFamily_KS3       .         Medium Resistivity            : 
TLFamily_KS4       .         Deep Resistivity              : 
TLFamily_KS5       .         Extra Deep Resistivity        : 
TLFamily_OKS3      .         Medium Resistivity Inverted   : 
TLFamily_RM        .         Mud Resistivity               : 
TLFamily_SP        .         Spontaneous Potential         : 
group              .         INI                           : 
~Curve Information
#_______________________________________________________________________________
#
#LOGNAME           .UNIT     LOG_ID                        : DESCRIPTION
#_______________________________________________________________________________
DEPTH              .m                                      : Measured Depth 
KS                 .ohm.m                                  : Potential Resistivity 
KS1                .ohm.m                                  : Extra Shallow Resistivity 
KS2                .ohm.m                                  : Shallow Resistivity 
KS3                .ohm.m                                  : Medium Resistivity 
KS4                .ohm.m                                  : Deep Resistivity 
KS5                .ohm.m                                  : Extra Deep Resistivity 
OKS3               .ohm.m                                  : Medium Resistivity Inverted 
RM                 .ohm.m                                  : Mud Resistivity 
SP                 .mV                                     : Spontaneous Potential 
~Ascii
# ...
2742.8     19.6317    12.6662    20.5192    9.4807     7.1848     7.7064     15.4066    1.188      99.9924   
2743       19.8592    14.9426    26.343     10.3156    7.5235     7.8569     13.9169    1.185      99.6364   
2743.2     19.9713    17.9483    30.15      11.2476    7.5038     8.0859     12.6409    1.195      99.8338   
2743.4     20.3041    15.7195    25.3641    11.2605    7.5301     8.328      12.8546    1.178      100.5464  
2743.6     20.7591    12.5814    22.2108    11.2217    7.9312     8.6683     13.3987    1.185      101.492   
2743.8     22.0869    13.2769    25.5547    13.3478    8.8255     8.8776     13.1558    1.186      102.646   
2744       21.9341    17.1206    31.973     16.461     9.5685     9.0478     11.8571    1.202      104.4324  
2744.2     18.0458    21.8972    36.6374    20.1211    9.437      8.6879     9.6679     1.195      106.5858  
2744.4     15.3053    18.6676    32.1635    18.9819    8.2698     8.1971     8.978      1.212      108.6716  
2744.6     13.3526    15.4006    30.3964    16.927     7.29       7.2811     8.6769     1.228      110.8646  
2744.8     12.4866    12.3982    26.3923    15.5063    6.7739     6.9147     9.127      1.228      112.6265  
2745       11.7328    10.8885    22.3717    14.7847    6.5897     6.7838     9.4088     1.252      113.2417  
2745.2     11.203     10.9225    20.4765    14.2604    6.6654     6.6791     9.7585     1.259      113.437   
2745.4     10.9449    10.9971    17.9078    13.4093    6.7475     6.4304     10.2411    1.242      113.6927  
2745.6     11.1351    9.328      14.9909    12.4773    6.5897     6.3388     10.7366    1.242      113.2986  
2745.8     11.692     8.5579     13.388     11.7977    6.3925     6.2211     11.0378    1.235      112.2195  
2746       11.838     9.7622     14.2026    11.801     6.5634     5.9593     11.2839    1.247      111.3716  
2746.2     11.838     11.6247    15.5428    11.7363    6.7969     5.8219     11.7341    1.239      111.1949  
2746.4     11.821     11.1735    14.1139    10.8657    6.7081     5.7369     12.317     1.222      111.3352  
2746.6     11.5867    10.2575    13.907     9.6846     6.4385     5.678      12.2523    1.239      111.3638  
2746.8     11.6309    10.6002    14.8366    9.1053     6.3201     5.5275     11.6693    1.232      111.2618  
2747       11.7905    10.8614    14.8694    8.5843     6.3399     5.5144     11.203     1.223      111.3599  
2747.2     11.4916    10.4238    14.2355    8.3577     6.4155     5.7172     10.4451    1.249      112.2125  
2747.4     11.2369    10.8071    14.472     8.4451     6.7673     6.0379     10.3253    1.218      114.1048  
2747.6     11.3252    10.2643    14.4851    8.6458     7.2013     6.4763     10.7107    1.225      116.2628  
2747.8     11.6445    9.0057     13.2796    8.8335     7.8523     7.2549     11.6758    1.228      117.519   
2748       13.1998    8.568      12.6588    9.1441     8.8353     8.3411     12.5178    1.23       117.7005  
2748.2     15.5056    8.1847     12.1135    9.8593     10.1768    9.4142     13.3145    1.225      117.5074  
2748.4     18.5722    9.026      13.2697    11.157     12.1068    10.4219    13.376     1.245      117.4551  
2748.6     21.564     11.2956    15.5099    13.0954    13.7573    11.1547    12.4725    1.252      117.4856  
2748.8     22.1956    16.3946    21.4257    14.7426    14.4411    11.2856    10.7496    1.252      117.1482  
2749       20.4399    20.3129    27.0722    15.7944    13.8197    10.7883    9.0266     1.25       116.1921  
2749.2     17.0745    21.4596    31.4672    15.5711    12.4027    9.8591     7.1094     1.259      115.54    
2749.4     13.0979    20.4147    35.1362    14.5808    10.5878    8.7599     6.1054     1.249      116.4459  
2749.6     10.68      15.2174    31.2964    12.9207    9.0096     7.6475     5.9403     1.237      118.5049  
2749.8     9.5288     10.6714    24.1291    11.4741    8.0495     7.111      6.1054     1.239      120.2148  
2750       9.05       8.2661     19.2217    10.6522    7.4051     6.6006     6.0504     1.245      120.9282  
2750.2     8.9481     8.7037     16.8435    10.6101    7.073      6.3585     5.8463     1.252      121.1029  
2750.4     8.8462     8.6359     13.6803    10.8981    6.7739     6.2472     5.6358     1.245      121.2748  
2750.6     8.4047     8.7716     12.0281    11.0437    6.4385     6.1687     5.4933     1.247      121.5304  
2750.8     8.1772     8.2186     11.115     10.992     6.2149     6.1033     5.4253     1.232      121.6012  
2751       7.9021     7.971      10.8982    10.5745    5.9848     6.0509     5.5419     1.225      121.4676  
2751.2     7.7154     7.6249     10.7077    10.0438    5.8565     6.0902     5.7038     1.215      121.981   
2751.4     7.6101     7.4994     10.2084    9.2347     5.7678     6.2342     5.6423     1.202      123.6465  
2751.6     7.4743     7.4485     9.9292     8.5001     5.8006     6.4304     5.1112     1.195      125.1976  
2751.8     7.2909     7.4146     9.7091     8.0212     5.9256     6.5744     4.7323     1.191      125.2735  
2752       7.0532     7.4078     9.6007     7.8044     6.2149     6.7576     4.7258     1.191      124.501   
2752.2     7.0124     7.3942     9.5711     7.6102     6.3859     6.9343     4.7906     1.191      124.0185  
2752.4     6.9988     6.9871     8.8583     7.2801     6.4911     7.0848     4.8812     1.191      123.9707  
2752.6     7.1381     7.0414     8.5989     6.7979     6.6423     7.1502     4.9784     1.191      124.0266  
2752.8     7.1584     6.9634     8.2835     6.4873     6.8232     7.2353     5.1792     1.191      123.7363  
2753       7.352      7.0143     8.1193     6.1345     7.004      7.6998     5.4577     1.195      123.361   
2753.2     7.8818     6.7904     7.9156     6.0439     7.4446     9.0281     5.9953     1.198      123.1812  
2753.4     8.3097     6.502      8.0667     6.8141     9.437      10.4349    7.8251     1.222      122.8139  
2753.6     7.9769     7.4485     10.3726    8.8626     12.2974    10.9191    9.5642     1.24       122.4537  
2753.8     7.8206     11.2278    14.4851    9.6716     12.3632    10.7686    9.2533     1.286      122.3594  
2754       8.0448     10.2575    10.9409    8.0438     9.1674     10.0423    6.9831     1.252      122.2241  
2754.2     7.481      9.328      9.2886     5.6815     6.4977     8.2364     5.3282     1.24       121.8867  
2754.4     7.1381     7.3841     8.3229     4.8207     5.0379     6.4304     4.9072     1.225      121.7054  
2754.6     6.8969     6.7056     8.635      4.497      4.6466     5.7107     5.2019     1.222      121.8984  
2754.8     6.8969     6.7497     9.8405     4.5068     4.5907     5.5536     5.5354     1.225      122.1771  
2755       6.992      6.8447     9.4036     4.6394     4.5644     5.5013     5.8593     1.225      122.4139  
2755.2     7.0396     7.2992     9.0521     4.743      4.4329     5.3901     5.9953     1.234      122.8821  
2755.4     7.1482     7.3671     8.4478     4.7171     4.2027     5.2265     6.0147     1.235      123.6976  
2755.6     7.2909     7.2585     8.0667     4.7106     3.9068     5.0956     6.0568     1.235      124.4263  
2755.8     7.4029     7.1975     8.1061     5.0407     3.8246     5.0367     6.3516     1.235      124.6382  
2756       7.5014     7.1093     8.3394     6.0116     4.0252     5.0302     7.0252     1.235      124.3731  
2756.2     7.2841     7.7606     9.3478     6.5811     4.2159     4.9975     7.4235     1.261      123.9761  
2756.4     7.206      8.3713     9.9981     6.4387     4.1501     4.9648     7.4397     1.242      123.8974  
2756.6     7.223      7.9438     9.2755     5.798      3.8509     4.7815     7.0058     1.235      124.0346  
2756.8     7.0362     6.7972     8.2244     5.3837     3.6076     4.5198     6.5847     1.239      123.7783  
2757       7.0056     7.4621     8.9503     5.1378     3.3939     4.2712     5.9726     1.239      123.1574  
2757.2     7.1177     7.1907     8.4609     4.853      3.098      4.088      5.5192     1.244      122.6445  
