~Version
 VERS              .         2.0                           : CWLS LOG ASCII STANDARD - VERSION 2.0
 WRAP              .         NO                            : ONE LINE PER DEPTH STEP
 DLM               .         SPACE                         : DELIMITING CHARACTER(SPACE TAB OR COMMA)
~Well Information
#_______________________________________________________________________________
#
#PARAMETER_NAME    .UNIT     VALUE                         : DESCRIPTION
#_______________________________________________________________________________
STRT               .m        2699                          : First reference value
STOP               .m        2871                          : Last reference value
STEP               .m        0.2                           : Step increment
NULL               .         -9999                         : Missing value
COMP               .                                       : Company
WELL               .         405                           : Well name
FLD                .                                       : Field
LOC                .                                       : Location
CNTY               .                                       : County
STAT               .                                       : State
CTRY               .                                       : Country
SRVC               .                                       : Service Company
DATE               .                                       : Date
API                .                                       : API number
EREF               .m        140.4                         : 
Pad                .         4                             : 
X                  .m        222100                        : 
Y                  .m        250025                        : 
group              .         Pad4                          : 
Интер-р            .         Ярышев                        : 
Куст               .         4                             : 
Статус             .         Проверено                     : 
Тип                .         Нагнетательные                : 
~Parameter Information Block
#_______________________________________________________________________________
#
#PARAMETER_NAME    .UNIT     VALUE                         : DESCRIPTION
#_______________________________________________________________________________
SET                .         LAS1                          : 
REAL_CREATION_DATE .         Ср апр 11 2012-13_17_15       : 
TLFamily_DEPTH     .         Measured Depth                : 
TLFamily_KS        .         Potential Resistivity         : 
TLFamily_KS1       .         Extra Shallow Resistivity     : 
TLFamily_KS2       .         Shallow Resistivity           : 
TLFamily_KS3       .         Medium Resistivity            : 
TLFamily_KS4       .         Deep Resistivity              : 
TLFamily_KS5       .         Extra Deep Resistivity        : 
TLFamily_OKS3      .         Medium Resistivity Inverted   : 
TLFamily_RM        .         Mud Resistivity               : 
TLFamily_SP        .         Spontaneous Potential         : 
group              .         INI                           : 
~Curve Information
#_______________________________________________________________________________
#
#LOGNAME           .UNIT     LOG_ID                        : DESCRIPTION
#_______________________________________________________________________________
DEPTH              .m                                      : Measured Depth 
KS                 .ohm.m                                  : Potential Resistivity 
KS1                .ohm.m                                  : Extra Shallow Resistivity 
KS2                .ohm.m                                  : Shallow Resistivity 
KS3                .ohm.m                                  : Medium Resistivity 
KS4                .ohm.m                                  : Deep Resistivity 
KS5                .ohm.m                                  : Extra Deep Resistivity 
OKS3               .ohm.m                                  : Medium Resistivity Inverted 
RM                 .ohm.m                                  : Mud Resistivity 
SP                 .mV                                     : Spontaneous Potential 
~Ascii
# ...
2815.8     144.2369   36.9837    148.3019   255.9787   48.8913    21.1267    41.963     1.202      95.6797   
2816       138.3015   40.3966    163.3044   299.4111   61.301     22.4615    31.6773    1.255      95.3642   
2816.2     128.0349   43.8637    178.9289   346.4888   76.0325    23.7113    23.3217    1.244      95.0326   
2816.4     116.0038   47.8873    192.61     395.6605   99.5567    25.0526    17.4955    1.22       94.9315   
2816.6     98.1175    51.5953    210.4887   449.4081   134.5731   26.5707    13.6643    1.242      94.7998   
2816.8     79.75      55.6533    226.5018   491.2894   184.1667   26.8848    10.4937    1.218      94.2697   
2817       59.3551    56.6668    235.8031   511.2712   238.2361   25.7462    8.8129     1.181      93.6552   
2817.2     45.5562    50.3283    216.3187   472.7531   275.1783   23.744     8.7675     1.18       93.3442   
2817.4     33.3343    38.1202    157.4744   369.601    278.0321   20.1975    9.561      1.215      93.1863   
2817.6     26.3556    27.2608    117.6748   285.6058   252.5797   15.6041    10.0338    1.215      92.9352   
2817.8     22.8578    21.7988    89.2244    218.9836   216.9463   12.1951    10.484     1.205      92.793    
2818       21.058     18.7659    67.5367    168.4934   184.2438   9.7675     10.8305    1.217      93.2316   
2818.2     19.7573    17.2223    48.3704    123.4322   150.4615   7.4905     10.9536    1.198      93.9863   
2818.4     19.0883    16.4997    38.2929    95.5114    121.2298   5.8285     10.7172    1.161      94.3339   
2818.6     18.7012    16.018     33.1949    70.4601    94.6205    4.8797     9.9334     1.178      94.1873   
2818.8     18.3888    15.638     30.2354    53.1742    76.4953    4.0356     9.4768     1.218      93.8766   
2819       17.8522    15.292     28.12      40.1689    60.9925    3.5121     8.8744     1.212      93.6395   
2819.2     17.3564    15.5702    27.854     31.2857    48.3829    3.0541     8.3595     1.198      93.5822   
2819.4     16.9081    14.9867    26.1065    23.4251    37.3049    2.7989     7.7895     1.205      93.7996   
2819.6     16.3988    14.7221    25.2656    18.7878    30.3346    2.6092     7.6664     1.171      94.1908   
2819.8     16.7044    14.549     24.924     16.0177    24.5283    2.4521     7.5757     1.171      94.4229   
2820       17.01      12.8155    21.6721    14.1731    19.9549    2.3344     6.8827     1.218      94.4152   
2820.2     17.5092    13.494     22.3192    12.9239    16.4369    2.282      6.005      1.218      94.4438   
2820.4     17.5636    14.566     22.9696    12.7492    14.497     2.2558     5.3411     1.21       94.8756   
2820.6     15.9301    16.0689    25.0652    12.8333    12.5276    2.2951     4.8845     1.228      95.518    
2820.8     14.334     17.3988    27.1773    12.5453    10.6469    2.3736     4.7841     1.191      95.276    
2821       12.5614    14.5931    23.2882    11.6101    8.7597     2.583      5.0075     1.171      93.6626   
2821.2     11.1215    13.3718    22.9466    10.4677    7.6287     2.9887     5.6779     1.22       91.8751   
2821.4     9.8276     12.5271    21.2319    9.9402     7.5531     3.9571     7.6664     1.212      91.5579   
2821.6     9.8786     10.7732    16.8895    9.6587     8.74       5.305      10.7819    1.195      92.9932   
2821.8     10.5238    7.6114     12.5635    9.7234     10.3313    6.5679     13.2368    1.196      95.7687   
2822       11.8176    8.8462     13.2927    10.212     10.8574    7.7784     13.0813    1.176      100.2777  
2822.2     12.507     13.0971    15.1289    10.1603    9.6672     8.3149     11.2645    1.178      106.1518  
2822.4     12.215     13.4126    12.9216    9.2121     7.918      8.2233     9.6873     1.222      111.3195  
2822.6     11.3015    11.6959    11.9066    7.4354     6.7607     7.9812     7.8996     1.228      114.5533  
2822.8     10.6936    9.9861     13.2796    6.4711     6.3136     7.955      6.7531     1.212      116.3566  
2823       10.6596    9.1278     14.5409    5.7915     6.0702     8.6028     6.0212     1.222      117.1739  
2823.2     10.9109    8.4968     13.4865    5.4096     6.2051     10.9977    6.3418     1.198      117.117   
2823.4     11.5663    7.8217     11.7916    5.552      7.4873     13.6673    7.7474     1.175      116.5855  
2823.6     11.9874    8.3577     12.984     6.6847     9.6014     16.5856    10.8338    1.215      116.2296  
2823.8     12.198     10.1557    15.615     8.4322     11.607     19.36      13.091     1.235      116.6647  
2824       13.4307    11.3363    15.8056    9.9564     11.5544    25.2359    14.3152    1.208      118.0959  
2824.2     14.3204    11.662     14.4687    10.6942    11.6596    34.789     16.2325    1.225      120.0927  
2824.4     14.3782    10.4136    13.273     12.4838    15.8023    46.3772    22.9914    1.183      122.0226  
2824.6     13.1285    11.5535    21.613     19.1114    28.0298    57.8462    34.6988    1.203      123.5003  
2824.8     12.9791    12.8867    26.7536    20.8977    28.1679    58.0017    36.9561    1.22       124.28    
2825       13.8246    15.3056    27.0919    17.0856    20.5763    50.4668    28.7982    1.212      124.3238  
2825.2     14.66      12.9987    18.1706    12.6294    12.8235    34.4619    20.2613    1.228      123.5428  
2825.4     15.6449    10.0608    13.7165    7.8626     6.616      22.5269    12.6085    1.202      121.9837  
2825.6     16.2595    9.0769     12.7869    5.8368     4.1896     12.6466    10.0306    1.176      120.4319  
2825.8     16.4259    9.7011     14.7939    5.5358     2.9172     9.087      9.901      1.228      119.6035  
2826       16.2697    10.1897    16.6563    6.3805     2.7232     7.7915     10.8435    1.213      119.3241  
2826.2     14.8095    11.2821    21.14      8.6975     3.3808     7.3203     10.8467    1.232      119.128   
2826.4     12.6972    14.0944    29.8642    11.8884    4.1041     6.6791     10.9471    1.202      118.5343  
2826.6     12.2829    14.0164    29.0759    15.0274    3.6767     6.1033     8.8712     1.175      117.1279  
2826.8     12.9417    10.2473    19.0147    15.6714    2.4273     5.3443     6.358      1.232      115.3754  
2827       13.2134    9.4772     14.6855    13.487     1.6448     3.7739     5.5063     1.222      114.2584  
2827.2     12.9689    9.6401     13.861     12.6521    1.5166     3.2439     6.8309     1.242      114.0736  
2827.4     12.9145    9.7486     14.2683    11.9142    1.7829     4.0356     9.2274     1.171      114.5498  
2827.6     12.8976    9.8301     15.2274    12.6068    2.7199     5.7107     13.2983    1.212      115.2924  
2827.8     12.7889    10.2304    16.4329    15.9659    4.9984     8.0859     20.2775    1.244      116.0631  
2828       11.7939    10.5255    19.8294    24.7584    10.2491    8.8776     33.3063    1.222      116.8493  
2828.2     10.7615    13.2667    29.6014    30.0365    13.777     9.0216     40.4506    1.228      117.5655  
2828.4     11.3286    12.6051    22.3717    27.5609    13.5961    8.4327     35.7449    1.181      117.9498  
2828.6     12.0723    11.0208    16.4954    17.8525    11.3703    6.2472     20.5819    1.235      117.4183  
2828.8     12.4561    9.5587     12.3796    11.2217    8.9471     2.9429     12.4239    1.191      115.1445  
2829       12.7617    8.5239     11.6471    7.2154     6.7475     2.0203     9.9205     1.217      111.4371  
2829.2     13.339     8.7139     12.731     5.565      4.9491     1.3005     8.7999     1.185      108.1965  
2829.4     13.682     9.9759     13.3026    4.8207     3.7227     1.0126     8.3239     1.259      106.5842  
2829.6     13.3798    10.9157    13.1712    4.5424     2.8317     0.8621     8.3789     1.227      106.1543  
2829.8     12.8534    11.0649    13.2895    4.5682     2.253      0.7771     9.059      1.234      106.2594  
2830       12.5614    10.0065    13.2172    5.2252     1.8026     0.7247     10.2443    1.181      107.0849  
2830.2     12.8976    9.026      12.915     7.1118     1.7106     0.7116     12.0515    1.252      109.4284  
