~Version
 VERS              .         2.0                           : CWLS LOG ASCII STANDARD - VERSION 2.0
 WRAP              .         NO                            : ONE LINE PER DEPTH STEP
 DLM               .         SPACE                         : DELIMITING CHARACTER(SPACE TAB OR COMMA)
~Well Information
#_______________________________________________________________________________
#
#PARAMETER_NAME    .UNIT     VALUE                         : DESCRIPTION
#_______________________________________________________________________________
STRT               .m        2699                          : First reference value
STOP               .m        2871                          : Last reference value
STEP               .m        0.2                           : Step increment
NULL               .         -9999                         : Missing value
COMP               .                                       : Company
WELL               .         405                           : Well name
FLD                .                                       : Field
LOC                .                                       : Location
CNTY               .                                       : County
STAT               .                                       : State
CTRY               .                                       : Country
SRVC               .                                       : Service Company
DATE               .                                       : Date
API                .                                       : API number
EREF               .m        140.4                         : 
Pad                .         4                             : 
X                  .m        222100                        : 
Y                  .m        250025                        : 
group              .         Pad4                          : 
Интер-р            .         Ярышев                        : 
Куст               .         4                             : 
Статус             .         Проверено                     : 
Тип                .         Нагнетательные                : 
~Parameter Information Block
#_______________________________________________________________________________
#
#PARAMETER_NAME    .UNIT     VALUE                         : DESCRIPTION
#_______________________________________________________________________________
SET                .         LAS1                          : 
REAL_CREATION_DATE .         Ср апр 11 2012-13_17_15       : 
TLFamily_DEPTH     .         Measured Depth                : 
TLFamily_KS        .         Potential Resistivity         : 
TLFamily_KS1       .         Extra Shallow Resistivity     : 
TLFamily_KS2       .         Shallow Resistivity           : 
TLFamily_KS3       .         Medium Resistivity            : 
TLFamily_KS4       .         Deep Resistivity              : 
TLFamily_KS5       .         Extra Deep Resistivity        : 
TLFamily_OKS3      .         Medium Resistivity Inverted   : 
TLFamily_RM        .         Mud Resistivity               : 
TLFamily_SP        .         Spontaneous Potential         : 
group              .         INI                           : 
~Curve Information
#_______________________________________________________________________________
#
#LOGNAME           .UNIT     LOG_ID                        : DESCRIPTION
#_______________________________________________________________________________
DEPTH              .m                                      : Measured Depth 
KS                 .ohm.m                                  : Potential Resistivity 
KS1                .ohm.m                                  : Extra Shallow Resistivity 
KS2                .ohm.m                                  : Shallow Resistivity 
KS3                .ohm.m                                  : Medium Resistivity 
KS4                .ohm.m                                  : Deep Resistivity 
KS5                .ohm.m                                  : Extra Deep Resistivity 
OKS3               .ohm.m                                  : Medium Resistivity Inverted 
RM                 .ohm.m                                  : Mud Resistivity 
SP                 .mV                                     : Spontaneous Potential 
~Ascii
# ...
2728.2     10.6087    10.3864    20.2432    11.5162    4.7946     4.9124     8.0324     1.252      123.2946  
2728.4     10.3778    10.0777    19.0246    10.9175    4.7485     4.5198     7.8802     1.228      124.4441  
2728.6     9.9125     9.5892     15.9698    10.2509    4.5907     4.2843     7.783      1.23       125.0985  
2728.8     9.6409     9.0362     14.2486    10.2638    4.8505     4.0356     7.8154     1.222      125.3162  
2729       9.4982     8.7546     13.3157    10.3803    5.439      3.8917     7.8284     1.21       125.4261  
2729.2     9.3284     8.663      13.1088    10.2638    6.3957     3.787      7.7895     1.202      125.576   
2729.4     9.0907     8.8598     12.6522    10.348     6.6949     3.6823     7.6794     1.198      125.5412  
2729.6     8.9243     8.8394     12.1956    10.2573    6.6555     3.6168     7.715      1.195      124.7406  
2729.8     9.0364     8.0626     11.2266    9.5875     6.6423     3.5121     8.1069     1.185      123.3834  
2730       9.2232     7.5435     10.7931    8.9564     6.524      3.4336     8.136      1.188      122.4761  
2730.2     9.5661     8.1881     11.1412    8.471      6.3136     3.342      7.6988     1.188      122.2056  
2730.4     9.8616     8.8394     11.0591    8.1021     5.9782     3.3551     7.2098     1.19       122.1428  
2730.6     9.5763     9.0498     10.8719    7.9338     6.0768     3.3813     7.1806     1.185      122.102   
2730.8     8.9956     8.8903     11.6701    8.1086     6.7147     3.4533     7.7927     1.19       122.0724  
2731       8.7138     8.7173     12.5077    8.4581     7.4676     3.5645     8.4566     1.188      122.0595  
2731.2     8.5542     8.3441     12.5011    8.4678     7.6681     3.6954     9.263      1.188      122.0633  
2731.4     8.4998     8.0592     11.7128    8.2639     7.7997     3.787      9.9917     1.188      122.0682  
2731.6     8.561      8.0286     10.8522    7.9921     7.9378     3.9375     11.0864    1.191      122.0089  
2731.8     8.8904     7.6181     10.1427    7.8303     8.2139     4.1272     12.4984    1.188      121.7629  
2732       9.2809     7.3128     9.8536     7.9338     8.5296     4.3889     14.3573    1.188      121.4771  
2732.2     9.994      7.6792     10.3693    8.2898     9.003      4.6376     15.3581    1.191      121.6528  
2732.4     10.7955    8.6461     11.1807    8.7655     9.368      4.9386     16.281     1.188      121.4976  
2732.6     11.4815    8.9887     11.7719    8.9273     9.4896     4.9778     16.9644    1.186      119.4846  
2732.8     12.2218    10.0302    12.7048    8.5034     8.9011     4.9386     16.8899    1.185      116.2914  
2733       13.7499    9.8877     12.2942    7.7623     7.655      4.919      16.3296    1.19       113.1221  
2733.2     15.0642    10.3457    12.7048    6.95       6.8034     4.9778     16.4041    1.188      110.0034  
2733.4     16.7859    10.7087    13.7       6.908      6.4779     5.3966     17.2008    1.185      107.0751  
2733.6     18.168     11.8995    15.5461    7.3189     6.6226     5.8677     17.6348    1.191      104.6053  
2733.8     19.7675    13.209     18.5385    8.0859     6.8265     6.1949     17.4469    1.208      102.5474  
2734       20.2769    14.6406    20.9166    8.8852     7.0435     6.4043     16.1871    1.208      100.7823  
2734.2     19.9984    16.6728    25.0948    10.1538    7.0961     6.365      14.3703    1.202      99.4622   
2734.4     19.1868    17.0425    27.2332    11.1505    6.833      6.208      13.0749    1.202      98.8641   
2734.6     18.2258    16.5405    28.4452    11.8463    6.3333     5.8285     12.032     1.198      98.7774   
2734.8     17.3734    15.7398    28.4485    12.1926    5.7743     5.5929     11.7859    1.198      98.8244   
2735       16.9625    14.8272    27.3021    12.7103    5.4883     5.4751     11.7665    1.212      98.8931   
2735.2     16.8504    14.0436    25.3576    12.7945    5.3798     5.7827     11.8733    1.208      99.0251   
2735.4     17.2953    13.3413    23.1699    13.0598    5.6954     6.3388     12.2782    1.195      99.323    
2735.6     18.3276    12.6526    21.8889    13.7427    6.6226     7.1175     12.7639    1.218      99.8671   
2735.8     19.214     12.6526    21.6261    15.2539    8.0199     7.9485     12.6538    1.228      100.6118  
2736       20.3516    14.2946    24.5167    17.4459    9.049      8.6617     11.6855    1.24       101.5     
2736.2     19.8286    17.6532    28.3532    18.8298    9.5554     8.8515     10.0273    1.23       102.5224  
2736.4     17.0745    19.3461    30.0416    18.7554    9.4502     8.0924     8.6963     1.228      103.5311  
2736.6     15.1626    17.4496    29.6606    17.2247    8.7597     7.3138     8.4307     1.227      104.387   
2736.8     14.6125    13.1954    27.0525    14.7815    7.918      6.6398     8.1781     1.198      105.3745  
2737       14.4427    12.6051    25.1441    13.2313    7.4709     6.1229     8.0842     1.208      106.6704  
2737.2     13.9978    13.4261    23.9221    12.6262    7.3262     5.8808     7.9903     1.218      108.1066  
2737.4     12.9213    13.5245    21.3896    12.6683    7.392      6.0313     8.1295     1.212      110.3648  
2737.6     11.1113    14.3828    21.9743    12.8139    7.826      6.3388     8.6445     1.208      113.5401  
2737.8     10.0008    13.3142    20.2137    13.1019    8.3422     6.6791     9.927      1.222      115.6102  
2738       9.5254     10.322     17.1359    12.678     8.4638     6.8492     11.1058    1.225      115.3614  
2738.2     10.1774    7.7946     13.861     11.4968    8.2205     6.9147     11.5786    1.225      113.7522  
2738.4     11.1962    8.429      13.1909    10.4515    7.7602     6.8492     10.7949    1.235      112.2092  
2738.6     12.3372    9.6944     12.8821    9.6878     7.484      6.666      10.2476    1.232      111.3461  
2738.8     12.9825    11.0242    12.4945    9.2283     7.2407     6.594      10.2184    1.218      110.8521  
2739       13.6141    10.6578    12.7606    9.0211     7.1651     6.4697     10.2184    1.215      110.1305  
2739.2     13.7465    11.5738    14.9778    8.9467     7.0698     6.4632     9.8881     1.235      109.2208  
2739.4     13.8722    13.1378    17.829     8.8852     6.8791     6.5351     9.2922     1.232      108.9936  
2739.6     13.8009    13.7789    18.1574    8.5972     6.7475     6.6137     9.7262     1.212      109.62    
2739.8     13.7262    11.5195    16.0224    8.3998     6.9777     6.6267     10.8273    1.195      110.206   
2740       13.5801    11.0751    17.5957    8.4257     7.2736     6.7707     10.918     1.205      110.5297  
2740.2     13.1522    13.6602    20.7787    9.636      7.5629     6.823      10.1634    1.213      111.2928  
2740.4     12.2082    15.6855    21.7903    10.1441    7.3262     6.823      10.1472    1.215      112.8129  
2740.6     11.2369    12.3609    17.2443    10.1473    7.0763     6.8754     11.2191    1.188      114.3616  
2740.8     10.6732    10.4814    16.5775    9.6716     6.8758     6.9277     12.5308    1.181      115.0128  
2741       10.3914    9.6842     16.6924    9.5648     6.6752     7.0063     12.9453    1.195      114.7262  
2741.2     10.6528    10.1863    16.3541    9.5648     6.4056     6.9932     13.7096    1.181      114.1887  
2741.4     11.4713    9.7486     14.1106    9.1991     6.09       6.967      16.009     1.171      113.4997  
2741.6     12.4187    8.3747     11.4664    8.3804     5.8138     7.0848     18.833     1.171      111.9733  
2741.8     14.6974    8.2695     11.5354    8.2283     6.0538     7.1764     20.5754    1.173      109.5144  
2742       16.3376    10.8071    14.4523    9.0341     6.501      7.1698     19.1634    1.185      106.747   
2742.2     17.9066    13.9316    17.1326    9.8302     6.6358     7.3989     16.5369    1.178      104.3502  
2742.4     18.5382    14.6067    16.9881    9.6619     6.5569     7.5886     15.4325    1.181      102.4911  
2742.6     18.9661    13.9825    18.6666    9.2283     6.7147     7.6213     15.7337    1.188      100.9868  
