~Version
 VERS              .         2.0                           : CWLS LOG ASCII STANDARD - VERSION 2.0
 WRAP              .         NO                            : ONE LINE PER DEPTH STEP
 DLM               .         SPACE                         : DELIMITING CHARACTER(SPACE TAB OR COMMA)
~Well Information
#_______________________________________________________________________________
#
#PARAMETER_NAME    .UNIT     VALUE                         : DESCRIPTION
#_______________________________________________________________________________
STRT               .m        2699                          : First reference value
STOP               .m        2871                          : Last reference value
STEP               .m        0.2                           : Step increment
NULL               .         -9999                         : Missing value
COMP               .                                       : Company
WELL               .         405                           : Well name
FLD                .                                       : Field
LOC                .                                       : Location
CNTY               .                                       : County
STAT               .                                       : State
CTRY               .                                       : Country
SRVC               .                                       : Service Company
DATE               .                                       : Date
API                .                                       : API number
EREF               .m        140.4                         : 
Pad                .         4                             : 
X                  .m        222100                        : 
Y                  .m        250025                        : 
group              .         Pad4                          : 
Интер-р            .         Ярышев                        : 
Куст               .         4                             : 
Статус             .         Проверено                     : 
Тип                .         Нагнетательные                : 
~Parameter Information Block
#_______________________________________________________________________________
#
#PARAMETER_NAME    .UNIT     VALUE                         : DESCRIPTION
#_______________________________________________________________________________
SET                .         LAS3                          : 
REAL_CREATION_DATE .         Ср апр 11 2012-13_17_15       : 
TLFamily_DEPTH     .         Measured Depth                : 
TLFamily_GR        .         Gamma Ray                     : 
TLFamily_TNPH      .         Neutron Porosity              : 
group              .         INI                           : 
~Curve Information
#_______________________________________________________________________________
#
#LOGNAME           .UNIT     LOG_ID                        : DESCRIPTION
#_______________________________________________________________________________
DEPTH              .m                                      : Measured Depth 
GR                 .gAPI                                   :  
TNPH               .v/v                                    : Neutron Porosity 
~Ascii
# ...
2747.6     78.55      0.17341   
2747.8     86.84      0.18169   
2748       86.82      0.16257   
2748.2     72.97      0.13664   
2748.4     68.64      0.1335    
2748.6     56.43      0.12641   
2748.8     52.74      0.13931   
2749       55.49      0.15221   
2749.2     58.89      0.16238   
2749.4     69.32      0.14149   
2749.6     84.48      0.17351   
2749.8     104.4      0.20623   
2750       115.45     0.19754   
2750.2     111.33     0.18433   
2750.4     106.02     0.19092   
2750.6     109        0.1985    
2750.8     118.48     0.195     
2751       117.56     0.21227   
2751.2     118.33     0.21052   
2751.4     117.83     0.17927   
2751.6     117.97     0.19148   
2751.8     126.88     0.20064   
2752       134.07     0.22395   
2752.2     135.83     0.2361    
2752.4     122.03     0.2735    
2752.6     114.74     0.28131   
2752.8     113.19     0.23493   
2753       114.22     0.21247   
2753.2     119.97     0.20549   
2753.4     112.41     0.17753   
2753.6     101.96     0.17839   
2753.8     97.63      0.22806   
2754       103.84     0.26242   
2754.2     119.98     0.24881   
2754.4     124.94     0.22662   
2754.6     134.16     0.20944   
2754.8     138.42     0.22678   
2755       143.8      0.20325   
2755.2     154.55     0.21564   
2755.4     149.82     0.22761   
2755.6     127.06     0.25257   
2755.8     128.98     0.26436   
2756       125.23     0.25136   
2756.2     128.22     0.23675   
2756.4     124.89     0.2233    
2756.6     124.95     0.20057   
2756.8     112.41     0.22256   
2757       101.89     0.23151   
2757.2     104.68     0.22561   
2757.4     117.09     0.20178   
2757.6     123.9      0.18646   
2757.8     124.86     0.21923   
2758       128.36     0.22701   
2758.2     137.08     0.2023    
2758.4     151.82     0.18998   
2758.6     166.48     0.19258   
2758.8     186.99     0.23409   
2759       206.99     0.22481   
2759.2     205.54     0.19953   
2759.4     206.28     0.21805   
2759.6     204.1      0.25318   
2759.8     207.05     0.24954   
2760       198.69     0.28281   
2760.2     210.92     0.27048   
2760.4     215.95     0.26523   
2760.6     209.28     0.25726   
2760.8     204.85     0.24542   
2761       206.42     0.25802   
2761.2     211.57     0.25681   
2761.4     229.29     0.24535   
2761.6     235.99     0.25756   
2761.8     249.2      0.25197   
2762       267.81     0.28166   
2762.2     269.14     0.28054   
2762.4     256.85     0.24916   
2762.6     240.8      0.26118   
2762.8     224.22     0.26558   
2763       205.77     0.25215   
2763.2     194.45     0.20455   
2763.4     185.77     0.2063    
2763.6     186.48     0.21585   
2763.8     181.13     0.22898   
2764       200.59     0.23152   
2764.2     233.25     0.25394   
2764.4     252.14     0.27615   
2764.6     266.96     0.26898   
2764.8     289.56     0.26939   
2765       328.84     0.25375   
2765.2     360.2      0.27144   
2765.4     364.29     0.28332   
2765.6     346.84     0.27677   
2765.8     352.05     0.2927    
2766       369.02     0.31086   
2766.2     377.45     0.27935   
2766.4     377.5      0.26149   
2766.6     393.34     0.29064   
2766.8     399.17     0.27832   
2767       381.85     0.27255   
2767.2     360.62     0.26131   
2767.4     354.35     0.28267   
2767.6     325.42     0.27124   
2767.8     360.27     0.29016   
2768       371.79     0.30167   
2768.2     366.54     0.29968   
2768.4     376.69     0.31598   
2768.6     354.2      0.28851   
2768.8     315.08     0.28942   
2769       320.98     0.30226   
2769.2     338.98     0.28478   
2769.4     347.5      0.27132   
2769.6     356.04     0.30348   
2769.8     359.13     0.28898   
2770       371.54     0.29961   
2770.2     378.27     0.29628   
2770.4     377.61     0.28415   
2770.6     349.76     0.31862   
2770.8     334.75     0.28269   
2771       320.53     0.30953   
2771.2     294.98     0.3148    
2771.4     291.04     0.30032   
2771.6     279.95     0.27857   
2771.8     280.34     0.25638   
2772       281.07     0.2496    
2772.2     263.66     0.25367   
2772.4     239.14     0.25044   
2772.6     226.4      0.25972   
2772.8     222.76     0.25438   
2773       233.45     0.25748   
2773.2     230.99     0.27513   
2773.4     217.24     0.25325   
2773.6     197.2      0.2799    
2773.8     174.13     0.2642    
2774       181.05     0.27373   
2774.2     158.07     0.25664   
2774.4     145.9      0.23433   
2774.6     144.44     0.25732   
2774.8     155.09     0.25193   
2775       147.91     0.24312   
2775.2     153.34     0.25936   
2775.4     158.37     0.22373   
2775.6     162.72     0.25809   
2775.8     158.72     0.27246   
2776       157.94     0.29444   
2776.2     162.64     0.24777   
2776.4     156.93     0.24447   
2776.6     135.61     0.26289   
2776.8     128.72     0.26256   
2777       127.98     0.246     
2777.2     123.86     0.22822   
2777.4     112.58     0.22892   
2777.6     108.6      0.21883   
2777.8     103.61     0.22252   
2778       107        0.22566   
2778.2     105.2      0.229     
2778.4     107.89     0.23478   
2778.6     112.71     0.21934   
2778.8     115.65     0.22375   
2779       116.54     0.24257   
2779.2     116.67     0.22279   
2779.4     110.57     0.26155   
2779.6     117.18     0.25143   
2779.8     122.21     0.25013   
2780       118.93     0.24047   
2780.2     116.05     0.25085   
2780.4     112.39     0.2356    
2780.6     118.89     0.24463   
2780.8     127.26     0.27609   
2781       128.37     0.27223   
2781.2     128.99     0.26519   
2781.4     135.25     0.25453   
2781.6     138.43     0.22849   
2781.8     129.82     0.22241   
2782       132.26     0.24076   
2782.2     130.96     0.23903   
2782.4     121.81     0.26482   
2782.6     127.58     0.2705    
2782.8     141.08     0.27498   
2783       139.14     0.26601   
2783.2     135.42     0.24207   
2783.4     111.69     0.23521   
2783.6     99.95      0.21066   
2783.8     94.35001   0.21139   
2784       105.72     0.23328   
2784.2     122.17     0.24365   
2784.4     141.23     0.25184   
2784.6     158.87     0.2585    
2784.8     162.5      0.27299   
2785       160.78     0.28449   
2785.2     157.76     0.24786   
2785.4     141.52     0.23682   
2785.6     122.27     0.26994   
2785.8     113.73     0.29042   
2786       122.44     0.349     
2786.2     128.06     0.31863   
2786.4     134.65     0.29865   
2786.6     149.71     0.27726   
2786.8     162.48     0.29295   
2787       188.49     0.28888   
2787.2     200.3      0.24407   
2787.4     201.4      0.28308   
2787.6     193.18     0.28467   
2787.8     194.08     0.3226    
2788       195.72     0.30667   
2788.2     224.86     0.24585   
2788.4     220.95     0.23108   
2788.6     211.3      0.2422    
2788.8     210.29     0.29559   
2789       229.89     0.30742   
2789.2     239.5      0.2883    
2789.4     198.98     0.25395   
2789.6     165.14     0.25677   
2789.8     134.53     0.26193   
2790       121.9      0.25313   
2790.2     120.41     0.26477   
2790.4     117.47     0.25938   
2790.6     112.83     0.23636   
2790.8     109.32     0.25175   
2791       115.63     0.26371   
2791.2     118.52     0.27033   
2791.4     118.6      0.25372   
2791.6     119.67     0.23699   
2791.8     125.83     0.2291    
2792       120.2      0.23371   
2792.2     131.1      0.2367    
2792.4     140.65     0.25453   
2792.6     145.33     0.23455   
2792.8     143.94     0.25315   
2793       143.22     0.28148   
2793.2     136.66     0.25273   
2793.4     135.3      0.25566   
2793.6     133.54     0.27789   
2793.8     130.12     0.24947   
2794       134.07     0.26106   
2794.2     135.27     0.24155   
2794.4     130.57     0.23884   
2794.6     126.08     0.20253   
2794.8     112.24     0.21566   
2795       102.56     0.24595   
2795.2     110.21     0.23647   
2795.4     114.11     0.2497    
2795.6     124.68     0.2471    
2795.8     129.85     0.22801   
2796       130.08     0.25021   
