~Version
 VERS              .         2.0                           : CWLS LOG ASCII STANDARD - VERSION 2.0
 WRAP              .         NO                            : ONE LINE PER DEPTH STEP
 DLM               .         SPACE                         : DELIMITING CHARACTER(SPACE TAB OR COMMA)
~Well Information
#_______________________________________________________________________________
#
#PARAMETER_NAME    .UNIT     VALUE                         : DESCRIPTION
#_______________________________________________________________________________
STRT               .m        2699                          : First reference value
STOP               .m        2871                          : Last reference value
STEP               .m        0.2                           : Step increment
NULL               .         -9999                         : Missing value
COMP               .                                       : Company
WELL               .         405                           : Well name
FLD                .                                       : Field
LOC                .                                       : Location
CNTY               .                                       : County
STAT               .                                       : State
CTRY               .                                       : Country
SRVC               .                                       : Service Company
DATE               .                                       : Date
API                .                                       : API number
EREF               .m        140.4                         : 
Pad                .         4                             : 
X                  .m        222100                        : 
Y                  .m        250025                        : 
group              .         Pad4                          : 
Интер-р            .         Ярышев                        : 
Куст               .         4                             : 
Статус             .         Проверено                     : 
Тип                .         Нагнетательные                : 
~Parameter Information Block
#_______________________________________________________________________________
#
#PARAMETER_NAME    .UNIT     VALUE                         : DESCRIPTION
#_______________________________________________________________________________
SET                .         LAS1                          : 
REAL_CREATION_DATE .         Ср апр 11 2012-13_17_15       : 
TLFamily_DEPTH     .         Measured Depth                : 
TLFamily_KS        .         Potential Resistivity         : 
TLFamily_KS1       .         Extra Shallow Resistivity     : 
TLFamily_KS2       .         Shallow Resistivity           : 
TLFamily_KS3       .         Medium Resistivity            : 
TLFamily_KS4       .         Deep Resistivity              : 
TLFamily_KS5       .         Extra Deep Resistivity        : 
TLFamily_OKS3      .         Medium Resistivity Inverted   : 
TLFamily_RM        .         Mud Resistivity               : 
TLFamily_SP        .         Spontaneous Potential         : 
group              .         INI                           : 
~Curve Information
#_______________________________________________________________________________
#
#LOGNAME           .UNIT     LOG_ID                        : DESCRIPTION
#_______________________________________________________________________________
DEPTH              .m                                      : Measured Depth 
KS                 .ohm.m                                  : Potential Resistivity 
KS1                .ohm.m                                  : Extra Shallow Resistivity 
KS2                .ohm.m                                  : Shallow Resistivity 
KS3                .ohm.m                                  : Medium Resistivity 
KS4                .ohm.m                                  : Deep Resistivity 
KS5                .ohm.m                                  : Extra Deep Resistivity 
OKS3               .ohm.m                                  : Medium Resistivity Inverted 
RM                 .ohm.m                                  : Mud Resistivity 
SP                 .mV                                     : Spontaneous Potential 
~Ascii
# ...
2757.4     6.9852     7.1398     8.093      4.6168     2.9369     3.944      5.1986     1.235      122.3392  
2757.6     6.9173     6.7395     7.8762     4.51       2.9205     3.7739     4.9816     1.225      122.0569  
2757.8     6.9852     6.519      7.8302     4.4582     3.0717     3.7281     4.6902     1.218      121.694   
2758       7.0328     6.519      7.978      4.4776     3.4926     3.7477     4.5056     1.208      121.3794  
2758.2     7.1482     6.6818     7.9386     4.6168     3.8378     4.088      4.6319     1.202      121.2498  
2758.4     7.3384     6.5699     7.6463     4.9663     4.2159     4.5722     5.0108     1.191      121.2617  
2758.6     7.4267     6.5427     7.9846     5.8951     5.2943     5.3181     6.3678     1.188      121.4024  
2758.8     7.3384     7.4824     9.604      7.2478     6.33       5.8154     7.6502     1.196      121.854   
2759       7.7765     7.8149     10.0868    7.8756     6.9448     6.4043     8.1781     1.195      122.6783  
2759.2     8.8055     7.5944     9.0127     7.4969     6.7804     7.0324     8.3595     1.202      123.4562  
2759.4     9.522      7.781      8.474      7.1442     6.9908     7.4054     8.6574     1.218      123.8033  
2759.6     10.3698    8.4006     9.3136     7.5853     8.1218     7.6213     9.5113     1.239      123.8382  
2759.8     10.4015    10.3423    12.0544    8.0989     8.74       7.5952     9.2792     1.262      123.7803  
2760       10.2148    12.1438    14.1632    7.7623     8.043      7.2222     7.6017     1.261      123.6702  
2760.2     9.7122     11.1667    13.1154    6.5488     6.7015     6.4697     6.643      1.239      123.4459  
2760.4     9.0364     10.2032    13.0004    5.6103     5.8204     5.4228     6.2965     1.225      123.0624  
2760.6     8.5847     9.7961     13.3946    5.1184     5.2023     4.9909     5.9759     1.232      122.6531  
2760.8     8.4591     8.8361     12.3172    4.7883     4.5644     4.6114     5.5257     1.225      122.406   
2761       8.15       8.2831     11.4073    4.921      4.2685     4.4675     5.5678     1.232      122.3346  
2761.2     8.0006     8.0863     11.1347    5.2931     4.2817     4.4282     6.4487     1.235      122.4457  
2761.4     7.9904     8.0252     10.9606    5.8044     4.3474     4.5852     7.5077     1.242      122.8517  
2761.6     7.8953     8.1067     10.8456    6.3675     4.4165     4.6834     7.9417     1.242      123.4527  
2761.8     7.9701     8.239      10.458     6.8788     4.3408     4.7946     7.9903     1.245      123.7756  
2762       8.0685     8.222      10.077     7.3028     4.2225     4.9059     8.1314     1.247      123.5507  
2762.2     8.2248     8.3984     10.0244    7.2898     3.9923     5.0956     8.3077     1.252      123.1094  
2762.4     8.3232     8.3815     9.7748     7.0342     3.8049     5.0433     8.2818     1.252      123.0274  
2762.6     8.15       8.6766     9.9981     6.7623     3.703      4.775      8.217      1.242      123.479   
2762.8     7.9769     9.0498     10.4646    6.5358     3.5912     4.4282     7.7636     1.242      124.2131  
2763       7.9055     8.9344     10.5336    5.8012     3.4071     4.0945     6.8438     1.239      124.8763  
2763.2     7.858      8.1202     9.3215     5.0569     3.2032     3.7477     6.0212     1.215      125.2055  
2763.4     7.6712     7.8217     9.085      4.6135     3.0257     3.4336     5.7136     1.202      125.2195  
2763.6     7.9836     7.2212     8.4806     4.4485     3.098      3.3944     5.9953     1.191      125.0367  
2763.8     8.6696     7.055      8.5069     4.5488     3.4794     3.5121     6.5815     1.186      124.7033  
2764       8.9107     8.0049     8.704      5.1637     4.2027     3.8524     7.5045     1.185      124.3084  
2764.2     8.9345     8.5341     9.3576     6.141      4.9392     4.1992     8.3627     1.196      124.0045  
2764.4     9.048      8.5916     10.1952    6.8303     5.4456     4.6768     9.4865     1.203      123.8344  
2764.6     9.7495     8.6817     10.7175    7.3578     6.0045     5.5536     10.7042    1.205      123.736   
2764.8     10.2046    8.6936     12.3862    7.937      6.9843     6.0444     12.806     1.239      123.6604  
2765       10.2521    9.847      12.8515    8.8011     8.1942     6.2603     14.7783    1.252      123.5837  
2765.2     10.5       10.6036    13.3736    9.5648     8.0002     6.2472     15.2641    1.264      123.4942  
2765.4     11.1215    10.6409    13.2763    8.6102     6.8889     5.9986     14.3217    1.262      123.39    
2765.6     11.3796    10.0438    12.0018    6.5164     5.9519     5.2134     13.2724    1.252      123.2792  
2765.8     11.2471    10.6782    12.7573    6.0342     5.5113     4.703      13.3922    1.237      123.1785  
2766       11.1113    10.6646    13.5489    5.9404     5.2746     4.4675     14.0594    1.235      123.1115  
2766.2     11.1826    10.1422    13.6245    5.9274     5.2516     4.4478     15.2965    1.232      123.155   
2766.4     11.4645    9.389      13.4471    5.9503     5.4488     4.5198     16.5984    1.235      123.4408  
2766.6     12.052     9.6638     13.7625    6.3805     5.6954     4.6376     17.8129    1.239      123.8372  
2766.8     13.3017    9.8504     13.7099    6.8756     5.7184     4.8012     18.5189    1.242      123.9361  
2767       15.5056    10.0574    13.053     7.1701     5.7152     4.9778     19.1504    1.245      123.8605  
2767.2     18.0865    9.7011     12.7146    7.7073     5.6987     5.2657     19.3253    1.242      124.2549  
2767.4     20.5622    10.8817    13.8938    8.7946     5.8006     5.4228     18.5545    1.245      124.9216  
2767.6     23.177     16.4896    21.3075    10.458     6.0571     5.8416     16.0284    1.249      125.0736  
2767.8     22.0925    16.9838    23.6365    11.4634    6.4933     6.2996     14.9985    1.25       124.7379  
2768       19.2955    18.8609    31.1781    13.0016    6.6555     6.9147     15.6269    1.249      124.2114  
2768.2     17.662     17.185     33.4512    13.7394    6.7818     7.1633     16.3782    1.262      123.4939  
2768.4     16.6568    15.4922    32.5314    14.2637    7.05       7.2418     16.6114    1.262      122.6926  
2768.6     16.2358    14.1318    28.7967    14.5452    6.8922     7.1502     16.3329    1.259      122.2001  
2768.8     15.8622    13.5347    24.8386    15.1957    7.0895     6.81       16.7798    1.239      122.1654  
2769       15.8316    12.941     22.5623    15.6099    7.5103     6.6137     17.0648    1.228      122.2587  
2769.2     16.1203    12.6458    21.5604    15.9076    7.7964     6.4697     16.9611    1.218      122.5151  
2769.4     16.5006    12.7951    21.1662    15.9465    7.7668     6.365      16.4883    1.215      123.4762  
2769.6     16.7723    13.1615    20.8772    15.3445    7.6155     6.2734     16.0608    1.2        124.881   
2769.8     17.1255    13.2124    20.7359    14.4352    7.5695     6.3127     15.9701    1.198      125.6111  
2770       17.3496    12.9885    21.0217    14.0274    7.7372     6.4566     16.0867    1.198      125.6214  
2770.2     17.6892    13.3243    21.9677    14.1148    8.0298     6.7184     16.3329    1.198      125.7127  
2770.4     17.9745    13.6432    22.6838    14.7329    8.7992     6.967      16.7118    1.195      125.8955  
2770.6     17.9473    14.2539    23.8729    15.4416    9.7263     7.1829     17.0324    1.202      125.8402  
2770.8     18.0152    14.4371    24.2473    15.8008    10.2919    7.3072     17.2202    1.202      125.6604  
2771       18.005     14.0503    24.0568    16.1665    10.785     7.4774     17.9457    1.198      125.4986  
2771.2     17.9269    14.203     24.6514    16.5872    11.344     7.4905     18.4412    1.212      125.391   
2771.4     18.0016    14.3353    24.9634    16.9755    11.6201    7.3072     18.4768    1.242      125.3617  
2771.6     17.859     14.4982    25.1736    17.1438    11.6728    6.7838     18.0817    1.257      125.2901  
2771.8     17.6519    14.6712    25.2755    16.9464    11.39      6.594      17.5797    1.269      125.0965  
