~Version
 VERS              .         2.0                           : CWLS LOG ASCII STANDARD - VERSION 2.0
 WRAP              .         NO                            : ONE LINE PER DEPTH STEP
 DLM               .         SPACE                         : DELIMITING CHARACTER(SPACE TAB OR COMMA)
~Well Information
#_______________________________________________________________________________
#
#PARAMETER_NAME    .UNIT     VALUE                         : DESCRIPTION
#_______________________________________________________________________________
STRT               .m        2699                          : First reference value
STOP               .m        2871                          : Last reference value
STEP               .m        0.2                           : Step increment
NULL               .         -9999                         : Missing value
COMP               .                                       : Company
WELL               .         405                           : Well name
FLD                .                                       : Field
LOC                .                                       : Location
CNTY               .                                       : County
STAT               .                                       : State
CTRY               .                                       : Country
SRVC               .                                       : Service Company
DATE               .                                       : Date
API                .                                       : API number
EREF               .m        140.4                         : 
Pad                .         4                             : 
X                  .m        222100                        : 
Y                  .m        250025                        : 
group              .         Pad4                          : 
Интер-р            .         Ярышев                        : 
Куст               .         4                             : 
Статус             .         Проверено                     : 
Тип                .         Нагнетательные                : 
~Parameter Information Block
#_______________________________________________________________________________
#
#PARAMETER_NAME    .UNIT     VALUE                         : DESCRIPTION
#_______________________________________________________________________________
SET                .         LAS1                          : 
REAL_CREATION_DATE .         Ср апр 11 2012-13_17_15       : 
TLFamily_DEPTH     .         Measured Depth                : 
TLFamily_KS        .         Potential Resistivity         : 
TLFamily_KS1       .         Extra Shallow Resistivity     : 
TLFamily_KS2       .         Shallow Resistivity           : 
TLFamily_KS3       .         Medium Resistivity            : 
TLFamily_KS4       .         Deep Resistivity              : 
TLFamily_KS5       .         Extra Deep Resistivity        : 
TLFamily_OKS3      .         Medium Resistivity Inverted   : 
TLFamily_RM        .         Mud Resistivity               : 
TLFamily_SP        .         Spontaneous Potential         : 
group              .         INI                           : 
~Curve Information
#_______________________________________________________________________________
#
#LOGNAME           .UNIT     LOG_ID                        : DESCRIPTION
#_______________________________________________________________________________
DEPTH              .m                                      : Measured Depth 
KS                 .ohm.m                                  : Potential Resistivity 
KS1                .ohm.m                                  : Extra Shallow Resistivity 
KS2                .ohm.m                                  : Shallow Resistivity 
KS3                .ohm.m                                  : Medium Resistivity 
KS4                .ohm.m                                  : Deep Resistivity 
KS5                .ohm.m                                  : Extra Deep Resistivity 
OKS3               .ohm.m                                  : Medium Resistivity Inverted 
RM                 .ohm.m                                  : Mud Resistivity 
SP                 .mV                                     : Spontaneous Potential 
~Ascii
# ...
2713.6     7.6067     7.876      9.893      6.5811     5.5047     5.148      6.6204     1.254      130.4137  
2713.8     7.7425     7.5876     9.2295     6.2963     5.3338     5.148      6.3645     1.252      130.1098  
2714       7.8342     7.5673     9.0029     5.9662     5.2088     5.1218     6.1832     1.252      128.9674  
2714.2     7.8376     7.4757     8.993      5.8983     5.2549     5.2985     6.3127     1.252      127.3669  
2714.4     7.7459     7.5299     9.3248     6.1863     5.7711     5.462      6.6689     1.252      126.382   
2714.6     7.3452     7.9777     10.3529    6.5552     6.1492     5.6322     6.5264     1.259      126.3103  
2714.8     7.2501     8.1101     10.55      6.6523     6.0768     5.6649     6.0892     1.249      126.57    
2715       7.2841     7.4519     9.4003     6.1086     5.5902     5.6322     5.5678     1.252      126.6093  
2715.2     7.1856     7.2992     8.9733     5.8044     5.2812     5.3312     5.4124     1.25       126.5654  
2715.4     7.1279     7.0855     8.7927     5.7138     5.1562     5.2396     5.4059     1.249      126.7972  
2715.6     7.1279     7.1873     8.8354     5.6944     5.051      5.2396     5.367      1.249      127.2262  
2715.8     7.2196     6.9939     8.6448     5.6879     4.959      5.2985     5.3767     1.249      127.6465  
2716       7.2909     6.9973     8.4905     5.6944     5.0083     5.4359     5.5031     1.249      127.9081  
2716.2     7.4912     6.9464     8.4707     5.7624     5.1858     6.064      5.8172     1.252      127.9496  
2716.4     7.7256     6.9804     8.4675     6.1281     5.8533     6.5482     6.4973     1.249      127.8637  
2716.6     7.5014     7.4757     9.9325     7.1118     6.7541     6.81       7.5434     1.255      127.776   
2716.8     7.3724     8.6291     11.2201    7.7332     7.2605     6.9147     7.6664     1.254      127.7542  
2717       7.5965     8.239      10.2051    7.4096     6.4319     6.8034     6.9086     1.242      127.8606  
2717.2     7.6441     8.1372     9.3905     6.3513     5.5639     6.3258     6.0115     1.235      128.1927  
2717.4     7.4641     7.6792     8.7434     5.8595     5.1957     5.835      5.788      1.235      128.5865  
2717.6     7.2977     7.686      9.3084     5.6232     5.1069     5.5929     5.7621     1.242      128.5064  
2717.8     7.1618     7.4824     9.6368     5.6491     5.1496     5.3966     5.7978     1.227      127.6097  
2718       7.043      7.686      10.0376    5.5067     4.9853     5.2985     5.6196     1.228      126.189   
2718.2     6.9581     7.7063     9.4726     5.2899     4.64       5.1611     5.3994     1.222      124.9832  
2718.4     6.9649     7.1771     8.681      5.0342     4.3474     4.9909     5.2764     1.213      124.6005  
2718.6     6.9207     6.8854     8.4478     4.9436     4.2718     4.8862     5.3735     1.212      124.9698  
2718.8     7.0124     6.8955     8.6251     5.1896     4.3277     4.9124     5.5095     1.208      125.4557  
2719       7.0701     6.9804     8.6383     5.6362     4.4987     4.9255     5.6488     1.202      125.6682  
2719.2     6.992      7.4451     9.108      6.0051     4.548      4.8731     5.6844     1.198      125.9383  
2719.4     6.8562     7.4553     8.9142     6.0051     4.4526     4.7554     5.6261     1.19       126.4851  
2719.6     6.6592     7.4621     8.8222     5.7494     4.1896     4.6114     5.4836     1.188      126.7142  
2719.8     6.4147     7.228      8.5167     5.4614     3.9726     4.402      5.4869     1.186      126.2626  
2720       6.2144     6.7904     8.2441     5.3093     3.8411     4.2319     5.652      1.188      125.7573  
2720.2     6.0276     6.4477     7.9977     5.2219     3.8016     4.0945     6.0277     1.188      125.9175  
2720.4     5.9902     6.3358     7.9419     5.1151     3.772      4.0094     6.3095     1.188      126.6882  
2720.6     6.0751     6.0304     7.3309     4.9307     3.7161     3.944      6.643      1.188      127.5031  
2720.8     6.2042     5.983      7.0452     4.7559     3.7523     3.8917     6.8633     1.191      128.0423  
2721       6.3061     6.0813     6.8777     4.7592     3.9364     3.8131     7.1288     1.195      128.4679  
2721.2     6.4792     6.3358     7.0123     4.7365     4.0647     3.7804     7.3361     1.195      128.853   
2721.4     6.6932     6.3663     6.9631     4.6912     4.0318     3.7346     7.5822     1.202      128.8598  
2721.6     6.9988     6.2781     6.8974     4.6168     3.9627     3.6823     7.8607     1.2        128.0356  
2721.8     7.2943     6.485      7.0747     4.5294     3.8937     3.643      8.0356     1.208      126.5106  
2722       7.6373     6.7632     7.3539     4.4712     3.8805     3.643      8.068      1.21       125.1661  
2722.2     7.8682     7.0957     7.6463     4.4453     3.8805     3.6823     8.3271     1.215      124.5246  
2722.4     8.1263     7.1941     8.0076     4.51       3.9463     3.7673     8.7416     1.228      124.3787  
2722.6     8.4523     7.2382     8.3164     4.6589     4.0778     3.9178     8.6412     1.228      124.5634  
2722.8     8.656      7.4214     8.8156     5.0601     4.3737     4.0487     8.1781     1.235      125.1871  
2723       8.8258     8.0863     9.7715     5.4226     4.6499     4.1403     7.9773     1.252      126.1867  
2723.2     8.982      8.4256     10.123     5.7106     4.6894     4.2581     7.647      1.245      126.9212  
2723.4     9.3081     8.5748     10.0014    5.6362     4.4921     4.3301     7.1547     1.252      126.3761  
2723.6     9.5084     8.1779     9.6303     5.5456     4.4197     4.4936     7.1936     1.252      124.8005  
2723.8     9.6205     8.2525     10.0934    5.7365     4.6894     4.7815     8.0356     1.252      123.7647  
2724       9.6069     8.2966     10.5894    6.3093     5.1661     5.3377     9.2792     1.239      123.6582  
2724.2     9.8922     8.931      11.6537    6.662      5.7349     6.509      11.0766    1.237      123.7826  
2724.4     10.6087    8.066      10.7602    7.1507     6.9777     8.5963     13.7323    1.225      123.9699  
2724.6     11.1487    7.9574     11.2398    9.4451     9.7066     10.0947    19.0209    1.222      124.5742  
2724.8     10.9075    9.8368     15.3884    11.8948    12.7019    11.0238    21.7802    1.252      125.7237  
2725       11.9025    11.6349    16.7581    12.4126    12.4421    11.5277    20.2386    1.225      126.8294  
2725.2     13.1115    10.8953    14.0088    10.6327    9.4041     11.1416    16.5693    1.235      127.1174  
2725.4     12.7515    11.109     13.3551    9.0665     7.8884     8.8776     13.7161    1.245      126.3396  
2725.6     12.5919    12.0284    15.4278    8.2963     6.8199     7.5952     11.9219    1.254      124.7899  
2725.8     12.7244    11.316     15.4771    7.183      5.7382     6.8492     10.1342    1.242      123.3962  
2726       12.378     10.8817    15.615     6.3093     4.7814     6.2865     9.6938     1.25       122.7414  
2726.2     12.5715    9.3687     14.2814    5.9986     4.6894     6.3258     10.4127    1.242      122.1938  
2726.4     12.9417    8.4459     14.0614    6.6199     5.314      6.5744     12.1       1.254      121.5708  
2726.6     13.1319    9.8979     17.553     7.9856     6.0308     6.9212     12.6279    1.276      121.3085  
2726.8     14.5853    11.3296    17.1852    9.2962     6.1492     7.4381     12.2587    1.252      121.3238  
2727       15.9879    10.149     15.2143    10.5486    6.136      7.8438     12.0903    1.245      121.3861  
2727.2     15.9369    11.1837    16.8895    13.7718    6.7212     7.5559     12.0191    1.272      121.4465  
2727.4     15.0676    14.5389    22.1287    16.0565    7.3065     7.3072     10.9406    1.276      121.5099  
2727.6     14.0895    16.8865    24.8649    16.2086    6.7574     6.967      9.1303     1.255      121.588   
2727.8     12.5987    14.7899    21.5111    14.3252    5.4784     6.3912     8.2882     1.242      121.751   
2728       11.495     10.936     18.6304    12.3285    4.9885     5.3574     8.1781     1.235      122.2515  
