~Version
 VERS              .         2.0                           : CWLS LOG ASCII STANDARD - VERSION 2.0
 WRAP              .         NO                            : ONE LINE PER DEPTH STEP
 DLM               .         SPACE                         : DELIMITING CHARACTER(SPACE TAB OR COMMA)
~Well Information
#_______________________________________________________________________________
#
#PARAMETER_NAME    .UNIT     VALUE                         : DESCRIPTION
#_______________________________________________________________________________
STRT               .m        2699                          : First reference value
STOP               .m        2871                          : Last reference value
STEP               .m        0.2                           : Step increment
NULL               .         -9999                         : Missing value
COMP               .                                       : Company
WELL               .         405                           : Well name
FLD                .                                       : Field
LOC                .                                       : Location
CNTY               .                                       : County
STAT               .                                       : State
CTRY               .                                       : Country
SRVC               .                                       : Service Company
DATE               .                                       : Date
API                .                                       : API number
EREF               .m        140.4                         : 
Pad                .         4                             : 
X                  .m        222100                        : 
Y                  .m        250025                        : 
group              .         Pad4                          : 
Интер-р            .         Ярышев                        : 
Куст               .         4                             : 
Статус             .         Проверено                     : 
Тип                .         Нагнетательные                : 
~Parameter Information Block
#_______________________________________________________________________________
#
#PARAMETER_NAME    .UNIT     VALUE                         : DESCRIPTION
#_______________________________________________________________________________
SET                .         LAS3                          : 
REAL_CREATION_DATE .         Ср апр 11 2012-13_17_15       : 
TLFamily_DEPTH     .         Measured Depth                : 
TLFamily_GR        .         Gamma Ray                     : 
TLFamily_TNPH      .         Neutron Porosity              : 
group              .         INI                           : 
~Curve Information
#_______________________________________________________________________________
#
#LOGNAME           .UNIT     LOG_ID                        : DESCRIPTION
#_______________________________________________________________________________
DEPTH              .m                                      : Measured Depth 
GR                 .gAPI                                   :  
TNPH               .v/v                                    : Neutron Porosity 
~Ascii
# ...
2844.8     60.48      0.17889   
2845       58.85      0.197     
2845.2     59.74      0.20528   
2845.4     65.68      0.23523   
2845.6     77.76      0.2327    
2845.8     88.95      0.23834   
2846       90.9       0.22612   
2846.2     86.72      0.22678   
2846.4     79.2       0.2027    
2846.6     72.49      0.1967    
2846.8     58.06      0.17944   
2847       66.79      0.16647   
2847.2     71.08      0.17706   
2847.4     68.98      0.19993   
2847.6     79.02      0.24469   
2847.8     86.64      0.29566   
2848       79.74      0.29133   
2848.2     68.99001   0.26529   
2848.4     56.82      0.20699   
2848.6     55.98      0.18846   
2848.8     50.08      0.15871   
2849       48.03      0.18328   
2849.2     58.01      0.19649   
2849.4     61.57      0.20815   
2849.6     62.79      0.20145   
2849.8     72.08      0.20421   
2850       77.62      0.20776   
2850.2     84.46      0.25662   
2850.4     93.77      0.26917   
2850.6     106.63     0.21913   
2850.8     117.5      0.20061   
2851       109.17     0.18462   
2851.2     103.3      0.21732   
2851.4     98.99001   0.22014   
2851.6     97.12      0.24515   
2851.8     91.19      0.22364   
2852       84.7       0.22068   
2852.2     76.63      0.23023   
2852.4     75.09      0.24249   
2852.6     71.16      0.19288   
2852.8     59.26      0.18229   
2853       48.07      0.18237   
2853.2     54.47      0.1996    
2853.4     54.67      0.19626   
2853.6     55.12      0.19488   
2853.8     56.02      0.18783   
2854       54.88      0.23064   
2854.2     56.94      0.25021   
2854.4     68.19      0.26654   
2854.6     80.02      0.27415   
2854.8     83.13      0.22975   
2855       82.61      0.18239   
2855.2     75.23      0.17849   
2855.4     77.24      0.18792   
2855.6     71.16      0.21422   
2855.8     72.97      0.25866   
2856       78.54      0.25827   
2856.2     77.71      0.24135   
2856.4     78.76      0.25777   
2856.6     72.76      0.26022   
2856.8     63.7       0.2976    
2857       52.89      0.35293   
2857.2     39.11      0.3152    
2857.4     48.41      0.23567   
2857.6     68.36      0.19621   
2857.8     69.98      0.14948   
2858       72.12      0.18988   
2858.2     79.65      0.18245   
2858.4     78.48      0.20237   
2858.6     82.39      0.19018   
2858.8     89.71      0.19927   
2859       84.99      0.22207   
2859.2     79.08      0.25348   
2859.4     88.67      0.251     
2859.6     97.02      0.24045   
2859.8     102.69     0.24883   
2860       98.16      0.2703    
2860.2     99.82001   0.24973   
2860.4     94.73      0.24121   
2860.6     79.86      0.20685   
2860.8     70.66      0.19598   
2861       58.46      0.18613   
2861.2     50.61      0.16446   
2861.4     52.94      0.17465   
2861.6     51.64      0.17662   
2861.8     58.03      0.20088   
2862       69.37      0.19846   
2862.2     80.02      0.21005   
2862.4     84.11      0.19853   
2862.6     81.91      0.22439   
2862.8     77.76      0.22788   
2863       86.99001   0.24723   
2863.2     90.3       0.23085   
2863.4     90.23      0.22296   
2863.6     93.21      0.21286   
2863.8     98         0.20936   
2864       93.89      0.19494   
2864.2     89.91      0.21477   
2864.4     89.58      0.20661   
2864.6     86.79      0.19391   
2864.8     97.38      0.19591   
2865       100.44     0.21865   
2865.2     98.07      0.2067    
2865.4     100.98     0.23118   
2865.6     110.56     0.22717   
2865.8     110.14     0.22773   
2866       110.27     0.25774   
2866.2     104.79     0.26255   
2866.4     101.84     0.24608   
2866.6     97.79      0.25589   
2866.8     92.41      0.23507   
2867       80.62      0.2502    
2867.2     66.68999   0.2279    
2867.4     70.21      0.24164   
2867.6     73.34      0.26816   
2867.8     67.39999   0.32202   
2868       67.85      0.27075   
2868.2     69.62      0.23222   
2868.4     89.95      0.22207   
2868.6     95.38      0.19556   
2868.8     94.34      0.19994   
2869       94.35001   0.2604    
2869.2     91.25      0.25175   
2869.4     94.28001   0.23474   
2869.6     104.8      0.18776   
2869.8     97.09      0.17202   
2870       96.96999   0.16858   
2870.2     88.66      0.15692   
2870.4     84.77      0.15708   
2870.6     85.71      0.15903   
2870.8     86.7       0.16588   
2871       89.92      0.17513   
