~Version
 VERS              .         2.0                           : CWLS LOG ASCII STANDARD - VERSION 2.0
 WRAP              .         NO                            : ONE LINE PER DEPTH STEP
 DLM               .         SPACE                         : DELIMITING CHARACTER(SPACE TAB OR COMMA)
~Well Information
#_______________________________________________________________________________
#
#PARAMETER_NAME    .UNIT     VALUE                         : DESCRIPTION
#_______________________________________________________________________________
STRT               .m        2699                          : First reference value
STOP               .m        2871                          : Last reference value
STEP               .m        0.2                           : Step increment
NULL               .         -9999                         : Missing value
COMP               .                                       : Company
WELL               .         405                           : Well name
FLD                .                                       : Field
LOC                .                                       : Location
CNTY               .                                       : County
STAT               .                                       : State
CTRY               .                                       : Country
SRVC               .                                       : Service Company
DATE               .                                       : Date
API                .                                       : API number
EREF               .m        140.4                         : 
Pad                .         4                             : 
X                  .m        222100                        : 
Y                  .m        250025                        : 
group              .         Pad4                          : 
Интер-р            .         Ярышев                        : 
Куст               .         4                             : 
Статус             .         Проверено                     : 
Тип                .         Нагнетательные                : 
~Parameter Information Block
#_______________________________________________________________________________
#
#PARAMETER_NAME    .UNIT     VALUE                         : DESCRIPTION
#_______________________________________________________________________________
SET                .         LAS1                          : 
REAL_CREATION_DATE .         Ср апр 11 2012-13_17_15       : 
TLFamily_DEPTH     .         Measured Depth                : 
TLFamily_KS        .         Potential Resistivity         : 
TLFamily_KS1       .         Extra Shallow Resistivity     : 
TLFamily_KS2       .         Shallow Resistivity           : 
TLFamily_KS3       .         Medium Resistivity            : 
TLFamily_KS4       .         Deep Resistivity              : 
TLFamily_KS5       .         Extra Deep Resistivity        : 
TLFamily_OKS3      .         Medium Resistivity Inverted   : 
TLFamily_RM        .         Mud Resistivity               : 
TLFamily_SP        .         Spontaneous Potential         : 
group              .         INI                           : 
~Curve Information
#_______________________________________________________________________________
#
#LOGNAME           .UNIT     LOG_ID                        : DESCRIPTION
#_______________________________________________________________________________
DEPTH              .m                                      : Measured Depth 
KS                 .ohm.m                                  : Potential Resistivity 
KS1                .ohm.m                                  : Extra Shallow Resistivity 
KS2                .ohm.m                                  : Shallow Resistivity 
KS3                .ohm.m                                  : Medium Resistivity 
KS4                .ohm.m                                  : Deep Resistivity 
KS5                .ohm.m                                  : Extra Deep Resistivity 
OKS3               .ohm.m                                  : Medium Resistivity Inverted 
RM                 .ohm.m                                  : Mud Resistivity 
SP                 .mV                                     : Spontaneous Potential 
~Ascii
2699.0     5.7321     4.7277     0.0585     -9999      -9999      0.5677     11.8863    1.175      121.6968  
2699.2     6.4045     6.1153     0.0553     -9999      -9999      0.4891     9.8427     1.175      123.4132  
2699.4     6.8019     6.7259     0.9783     -9999      -9999      0.4499     8.7319     1.178      124.3412  
2699.6     7.026      7.0482     5.2156     -9999      -9999      0.4368     8.0842     1.178      124.4747  
2699.8     7.1822     7.2009     7.078      -9999      -9999      0.4237     7.6146     1.175      124.0999  
2700       7.2909     7.3467     7.9222     -9999      -9999      0.4237     7.3361     1.173      123.773   
2700.2     7.3554     7.3841     8.4083     -9999      -9999      0.4106     7.1612     1.171      123.8182  
2700.4     7.4063     7.4112     8.6744     -9999      -9999      0.4106     6.9604     1.175      124.5855  
2700.6     7.4369     7.4553     8.8682     -9999      -9999      0.4106     6.7726     1.173      126.1755  
2700.8     7.4675     7.4655     8.9667     2.8272     -9999      0.4106     6.6301     1.171      127.5458  
2701       7.515      7.3603     8.947      4.0796     -9999      0.4106     6.5102     1.186      127.8067  
2701.2     7.549      7.3603     9.0456     4.7042     -9999      0.4106     6.4131     1.191      127.4426  
2701.4     7.5965     7.4383     9.2        5.1702     -9999      0.4106     6.3127     1.191      127.0943  
2701.6     7.6407     7.5367     9.2886     5.4193     -9999      0.4106     6.2058     1.195      126.8616  
2701.8     7.678      7.5367     9.2886     5.6362     -9999      0.4106     6.1249     1.195      126.6383  
2702       7.678      7.6249     9.3675     5.7753     -9999      0.4106     6.0212     1.198      126.2716  
2702.2     7.6339     7.7267     9.4923     5.8724     -9999      0.4106     5.9726     1.198      125.7576  
2702.4     7.5659     7.6555     9.489      5.9662     -9999      0.4106     5.9921     1.202      125.559   
2702.6     7.4471     7.6249     9.5613     6.0827     -9999      0.4106     6.073      1.202      126.0913  
2702.8     7.3079     7.6181     9.7288     6.1766     2.2498     0.4106     6.1054     1.202      126.9219  
2703       7.1618     7.5639     9.6171     6.2187     3.3512     0.4106     6.1443     1.202      127.3535  
2703.2     7.0056     7.513      9.4792     6.1637     3.8871     0.4106     6.1443     1.202      127.1684  
2703.4     6.8426     7.3196     9.2098     6.1151     4.2356     0.4106     6.2285     1.202      126.4324  
2703.6     6.7204     7.1669     8.9832     6.0245     4.3803     0.4106     6.2091     1.202      125.6089  
2703.8     6.7238     6.8989     8.6251     5.8595     4.4197     0.4106     5.9403     1.207      125.3047  
2704       6.7611     6.7463     8.2507     5.6685     4.4197     0.4106     5.8075     1.205      125.5437  
2704.2     6.8019     6.7497     8.1423     5.5197     4.4296     0.4106     5.788      1.208      126.274   
2704.4     6.9173     6.6547     7.9353     5.4452     4.4658     0.4106     5.8399     1.208      127.7332  
2704.6     7.0362     6.8005     8.0569     5.3902     4.5315     0.4106     5.8658     1.208      129.5055  
2704.8     7.1618     6.9057     8.1456     5.4193     4.6006     0.4106     5.9467     1.208      130.5142  
2705       7.318      7.0346     8.2178     5.4388     4.6828     0.4106     5.9986     1.205      130.2063  
2705.2     7.3928     7.1839     8.4116     5.5067     4.7715     0.4106     6.1637     1.205      129.255   
2705.4     7.498      7.3739     8.6613     5.5909     4.8932     0.4106     6.3451     1.203      128.4841  
2705.6     7.6339     7.228      8.6514     5.7656     5.1727     0.4106     6.7013     1.205      127.8149  
2705.8     7.4946     7.4316     9.4496     6.3157     5.7053     0.4106     7.3296     1.205      127.2719  
2706       7.4097     8.3238     10.6617    6.6394     5.9585     0.4106     7.2551     1.212      127.0764  
2706.2     7.6135     7.8658     9.6171     6.374      5.508      0.4106     6.7629     1.208      127.185   
2706.4     7.5693     7.8183     9.1507     5.7818     5.0083     0.4106     6.2803     1.215      127.6656  
2706.6     7.3928     7.6046     8.9536     5.565      4.7683     0.4106     6.222      1.215      128.4637  
2706.8     7.2773     7.4689     9.0883     5.4679     4.6696     0.4237     6.2479     1.222      128.7802  
2707       7.155      7.3739     9.4135     5.4452     4.6269     2.0072     6.3257     1.223      128.0517  
2707.2     7.1177     7.2178     9.2821     5.4226     4.5578     2.8774     6.3418     1.222      127.1195  
2707.4     7.1007     7.0889     8.9733     5.3643     4.4855     3.342      6.1572     1.225      126.7955  
2707.6     7.0871     7.0482     8.8321     5.387      4.4526     3.6561     6.0957     1.23       126.9219  
2707.8     7.0871     7.1093     8.7828     5.442      4.4263     3.7739     6.073      1.228      127.3521  
2708       7.0667     7.0889     8.681      5.5294     4.3902     3.9047     5.8917     1.232      128.2275  
2708.2     7.0566     7.0821     8.6251     5.6944     4.3145     3.9636     5.7621     1.228      129.6223  
2708.4     7.0769     7.0346     8.5332     5.7268     4.2554     4.0094     5.6974     1.228      131.2324  
2708.6     7.1075     6.9159     8.4149     5.6362     4.2488     4.0749     5.7136     1.235      132.019   
2708.8     7.1584     6.9125     8.428      5.5876     4.2751     4.1665     5.7751     1.232      131.2044  
2709       7.2501     6.9634     8.4609     5.6038     4.3869     4.3889     5.9241     1.228      129.7794  
2709.2     7.3248     6.9125     8.4543     5.7624     4.6499     4.6376     6.3354     1.232      129.324   
2709.4     7.1482     7.1941     9.085      6.251      5.1595     4.7292     6.9021     1.232      129.5246  
2709.6     7.1415     7.6758     9.535      6.497      5.3601     4.9255     7.0576     1.235      129.5668  
2709.8     7.4505     7.0753     8.8091     6.2672     5.1825     5.0956     6.9054     1.237      129.8814  
2710       7.3961     7.15       8.6416     6.1928     5.3699     5.0302     7.1094     1.239      130.341   
2710.2     7.2773     7.8217     9.5153     6.2963     5.6067     4.9124     7.1806     1.249      130.1856  
2710.4     7.4403     7.3942     8.9076     6.1539     5.4916     4.8731     6.9701     1.235      129.352   
2710.6     7.5218     7.4112     8.924      5.6944     5.1332     4.7554     6.6042     1.242      128.4438  
2710.8     7.4471     7.5435     9.0029     5.497      4.9524     4.5067     6.4811     1.24       127.9664  
2711       7.4301     7.3942     8.8354     5.3643     4.742      4.4151     6.358      1.239      127.8407  
2711.2     7.4131     7.2789     8.9142     5.2381     4.6367     4.3497     6.2544     1.235      127.7922  
2711.4     7.3622     7.245      9.0719     5.2122     4.5776     4.2973     6.1249     1.239      127.7823  
2711.6     7.3724     7.1534     8.9799     5.2867     4.5578     4.3104     6.099      1.239      128.2468  
2711.8     7.3724     7.1432     8.9766     5.5067     4.5611     4.3497     6.1249     1.242      129.4327  
2712       7.4097     7.1635     8.9602     5.6588     4.6039     4.3889     6.2155     1.245      130.4246  
2712.2     7.3961     7.2246     8.9635     5.7656     4.6532     4.4282     6.2997     1.245      130.2912  
2712.4     7.3928     7.3196     9.0193     5.963      4.6828     4.4806     6.2414     1.247      129.4373  
2712.6     7.4369     7.2789     8.9602     6.0504     4.6696     4.5525     6.0698     1.245      129.2452  
2712.8     7.481      7.2009     8.7992     6.031      4.7189     4.6507     6.073      1.249      130.1273  
2713       7.5524     7.1568     8.8485     6.0957     4.8472     4.8601     6.222      1.245      130.9119  
2713.2     7.6271     7.245      9.085      6.2704     5.1266     5.0106     6.426      1.249      130.9058  
2713.4     7.5625     7.4621     9.3576     6.5488     5.4193     5.1087     6.6948     1.245      130.5642  
