~Version
 VERS              .         2.0                           : CWLS LOG ASCII STANDARD - VERSION 2.0
 WRAP              .         NO                            : ONE LINE PER DEPTH STEP
 DLM               .         SPACE                         : DELIMITING CHARACTER(SPACE TAB OR COMMA)
~Well Information
#_______________________________________________________________________________
#
#PARAMETER_NAME    .UNIT     VALUE                         : DESCRIPTION
#_______________________________________________________________________________
STRT               .m        2699                          : First reference value
STOP               .m        2871                          : Last reference value
STEP               .m        0.2                           : Step increment
NULL               .         -9999                         : Missing value
COMP               .                                       : Company
WELL               .         405                           : Well name
FLD                .                                       : Field
LOC                .                                       : Location
CNTY               .                                       : County
STAT               .                                       : State
CTRY               .                                       : Country
SRVC               .                                       : Service Company
DATE               .                                       : Date
API                .                                       : API number
EREF               .m        140.4                         : 
Pad                .         4                             : 
X                  .m        222100                        : 
Y                  .m        250025                        : 
group              .         Pad4                          : 
Интер-р            .         Ярышев                        : 
Куст               .         4                             : 
Статус             .         Проверено                     : 
Тип                .         Нагнетательные                : 
~Parameter Information Block
#_______________________________________________________________________________
#
#PARAMETER_NAME    .UNIT     VALUE                         : DESCRIPTION
#_______________________________________________________________________________
SET                .         LAS1                          : 
REAL_CREATION_DATE .         Ср апр 11 2012-13_17_15       : 
TLFamily_DEPTH     .         Measured Depth                : 
TLFamily_KS        .         Potential Resistivity         : 
TLFamily_KS1       .         Extra Shallow Resistivity     : 
TLFamily_KS2       .         Shallow Resistivity           : 
TLFamily_KS3       .         Medium Resistivity            : 
TLFamily_KS4       .         Deep Resistivity              : 
TLFamily_KS5       .         Extra Deep Resistivity        : 
TLFamily_OKS3      .         Medium Resistivity Inverted   : 
TLFamily_RM        .         Mud Resistivity               : 
TLFamily_SP        .         Spontaneous Potential         : 
group              .         INI                           : 
~Curve Information
#_______________________________________________________________________________
#
#LOGNAME           .UNIT     LOG_ID                        : DESCRIPTION
#_______________________________________________________________________________
DEPTH              .m                                      : Measured Depth 
KS                 .ohm.m                                  : Potential Resistivity 
KS1                .ohm.m                                  : Extra Shallow Resistivity 
KS2                .ohm.m                                  : Shallow Resistivity 
KS3                .ohm.m                                  : Medium Resistivity 
KS4                .ohm.m                                  : Deep Resistivity 
KS5                .ohm.m                                  : Extra Deep Resistivity 
OKS3               .ohm.m                                  : Medium Resistivity Inverted 
RM                 .ohm.m                                  : Mud Resistivity 
SP                 .mV                                     : Spontaneous Potential 
~Ascii
# ...
2786.6     16.5923    11.7841    20.1217    13.8948    13.0076    13.5103    26.7676    1.232      128.5859  
2786.8     18.2801    11.1905    17.3724    14.364     13.4712    14.7142    29.9479    1.245      129.9003  
2787       19.4143    10.8478    16.9158    14.9238    14.6187    15.807     33.6074    1.261      130.0423  
2787.2     20.7354    12.2828    19.4253    16.3833    16.2955    16.7034    34.0932    1.266      128.3154  
2787.4     22.3213    13.6738    21.7476    17.4836    16.8314    17.7372    31.3987    1.245      125.9955  
2787.6     23.2042    15.5838    24.3262    17.914     16.8446    18.3       28.6006    1.235      124.7584  
2787.8     23.5981    15.5939    25.1736    17.7943    16.4467    19.0459    26.7546    1.242      124.3792  
2788       24.3452    15.4752    26.3791    17.3736    16.2725    19.9489    26.1943    1.239      124.5409  
2788.2     25.2757    14.6339    27.4664    17.1309    16.5158    21.1528    26.3142    1.25       125.7088  
2788.4     26.3998    15.3327    29.6179    17.8817    17.3936    23.0111    25.3264    1.255      127.2129  
2788.6     28.1215    15.4413    30.3832    19.27      18.6529    25.3733    24.2285    1.255      127.881   
2788.8     29.412     15.7941    30.8956    21.2602    20.3034    28.4944    23.0756    1.259      127.6512  
2789       30.6854    16.9645    33.9274    24.1792    23.3841    32.7606    22.6967    1.242      127.2196  
2789.2     30.9628    17.8475    38.0139    29.1837    28.0633    35.234     22.5078    1.215      127.1371  
2789.4     28.4883    22.3891    50.0623    37.5346    31.0316    35.7313    19.5164    1.195      127.3966  
2789.6     26.4575    23.2644    51.4913    39.3436    28.2337    33.873     15.8147    1.19       127.7277  
2789.8     23.8902    21.4766    47.881     36.0201    22.4438    28.9132    12.6247    1.198      128.0105  
2790       21.5606    19.4139    44.6225    32.4604    18.1465    24.0123    10.8661    1.202      128.3431  
2790.2     19.6724    16.2012    38.6476    29.6482    15.4834    20.1975    10.0047    1.205      128.6953  
2790.4     17.7877    16.1164    39.298     28.7162    13.8625    16.8735    9.4476     1.222      128.4454  
2790.6     16.7044    16.0044    36.8443    28.124     12.5901    14.8778    9.0525     1.235      127.1521  
2790.8     15.5396    14.0978    30.0153    25.9396    11.1533    13.1962    8.6186     1.25       125.6634  
2791       14.5446    13.8163    27.1379    23.8555    9.9696     11.0631    8.1231     1.262      124.9214  
2791.2     13.7635    12.6764    23.9944    22.3346    9.3285     9.8133     7.579      1.245      124.774   
2791.4     12.4934    12.4694    22.8809    21.5191    9.1181     8.8515     6.9863     1.227      124.7842  
2791.6     11.6648    12.5848    22.3455    20.7683    8.8715     7.9354     6.452      1.222      124.804   
2791.8     10.7208    11.1124    19.4188    19.2991    8.4539     7.2287     5.9953     1.228      124.8003  
2792       9.6782     11.031     18.8801    17.1374    8.043      6.4043     5.2213     1.24       124.744   
2792.2     8.9379     9.9047     16.7187    15.1342    7.392      5.4097     4.4149     1.235      124.6008  
2792.4     8.0516     9.3517     15.1749    13.1213    6.6917     4.5983     3.7704     1.212      124.363   
2792.6     7.5524     8.1677     13.0858    10.9952    5.9124     3.9571     3.0482     1.196      124.2645  
2792.8     7.2671     6.6479     10.0671    9.1571     5.2943     3.5252     2.6661     1.185      124.8027  
2793       6.7611     6.2917     9.5317     8.416      5.6132     3.4271     2.8668     1.178      125.859   
2793.2     6.1906     6.0169     9.4529     9.1182     6.7837     3.4467     3.5275     1.168      126.6763  
2793.4     5.9631     5.8744     9.7518     9.5519     8.0364     3.6299     4.023      1.185      127.1875  
2793.6     6.1091     5.9626     9.0062     9.3221     8.5723     3.8131     4.1785     1.195      127.5745  
2793.8     6.3128     5.7726     7.2193     8.6911     8.8452     3.9178     4.3501     1.205      127.6602  
2794       6.3808     6.2408     7.0419     8.2445     9.5324     4.101      4.891      1.237      127.3826  
2794.2     6.6015     5.9931     7.055      8.3739     10.2261    4.2843     5.2764     1.225      126.7537  
2794.4     6.6558     6.787      8.0437     8.3157     10.7259    4.245      5.4415     1.218      125.9515  
2794.6     6.5234     7.3705     8.3032     7.9921     10.6305    4.1272     5.2828     1.217      125.339   
2794.8     6.2619     8.2559     8.4116     6.7979     9.391      3.8524     4.7387     1.228      125.0296  
2795       6.014      7.2687     7.4656     5.4646     7.5761     3.5972     4.4343     1.222      124.9303  
2795.2     5.6846     6.4308     6.8579     4.3547     6.4418     3.3158     4.3631     1.207      124.9819  
2795.4     5.5148     5.5385     6.7003     3.9857     5.9256     3.2635     4.8942     1.181      125.0403  
2795.6     5.5657     5.3316     6.6937     3.9469     5.8335     3.3682     5.5905     1.171      124.9605  
2795.8     5.5046     5.0059     6.5755     4.1605     5.965      3.5776     6.5264     1.176      124.8889  
2796       5.5556     5.8065     6.8612     4.3158     6.0308     3.7477     6.8794     1.202      125.1303  
2796.2     5.654      5.586      6.2864     4.4259     5.7086     3.9375     6.3483     1.222      125.6272  
2796.4     5.7186     6.3561     6.4441     4.3385     5.2845     3.9309     5.2828     1.218      125.75    
2796.6     5.7321     5.525      5.7904     4.3158     4.7748     3.8131     4.5412     1.212      125.5827  
2796.8     5.7423     6.3663     6.339      4.0893     4.0186     3.7346     3.7607     1.212      125.7904  
2797       6.2347     5.257      5.163      3.5456     3.2328     3.7477     3.1195     1.205      126.1929  
2797.2     6.2246     5.4096     5.1335     2.989      2.7429     4.0094     3.1162     1.212      126.5073  
2797.4     6.1363     5.8235     5.6919     2.9567     2.9303     5.0236     3.5534     1.218      126.7855  
2797.6     6.6185     4.4767     4.9594     3.2285     3.7194     7.2811     5.0302     1.198      126.834   
2797.8     6.9886     5.0229     6.4244     4.2317     5.531      12.3848    7.4656     1.205      126.6292  
2798       8.3708     5.3418     7.2554     6.1928     9.243      17.6653    11.4944    1.185      126.477   
2798.2     10.4695    5.3044     8.4806     9.2347     13.0504    21.7286    12.8125    1.176      126.4161  
2798.4     10.9245    9.7995     12.3862    12.0049    15.9996    23.4561    11.4685    1.2        126.3345  
2798.6     11.4237    15.5566    14.8596    11.6489    13.9348    22.6643    8.8356     1.225      126.198   
2798.8     10.0484    14.0944    11.7522    9.4936     10.4727    19.216     6.1119     1.23       125.9295  
2799       8.9481     11.6959    12.5373    6.7623     7.0369     13.6542    4.5347     1.228      125.4882  
2799.2     8.4727     9.1583     12.4289    5.2705     5.2483     10.1667    3.8773     1.208      125.0833  
2799.4     8.1738     8.2356     13.0694    4.0505     4.3211     8.4196     3.7477     1.207      124.9231  
2799.6     8.1908     7.686      11.6996    3.578      3.8345     7.7391     3.8935     1.222      124.9559  
2799.8     8.4047     7.4316     10.3989    3.5165     3.8509     8.1513     4.3145     1.225      125.117   
2800       8.6934     7.591      10.4055    3.9987     4.3014     9.1132     4.9331     1.217      125.4559  
2800.2     8.6696     7.8862     11.1248    5.8595     5.6823     9.5712     6.2868     1.183      126.0177  
2800.4     7.7527     9.9115     14.6033    8.1506     6.3793     9.4207     6.5912     1.185      126.8334  
2800.6     7.2909     11.1192    14.4523    10.2315    5.393      8.8776     5.8658     1.178      127.8037  
2800.8     6.4079     9.7961     11.4533    8.8076     4.0252     7.3072     4.5153     1.171      128.4794  
2801       5.6608     8.317      10.123     7.0536     2.9698     5.5209     3.806      1.188      128.382   
