~Version
 VERS              .         2.0                           : CWLS LOG ASCII STANDARD - VERSION 2.0
 WRAP              .         NO                            : ONE LINE PER DEPTH STEP
 DLM               .         SPACE                         : DELIMITING CHARACTER(SPACE TAB OR COMMA)
~Well Information
#_______________________________________________________________________________
#
#PARAMETER_NAME    .UNIT     VALUE                         : DESCRIPTION
#_______________________________________________________________________________
STRT               .m        2699                          : First reference value
STOP               .m        2871                          : Last reference value
STEP               .m        0.2                           : Step increment
NULL               .         -9999                         : Missing value
COMP               .                                       : Company
WELL               .         405                           : Well name
FLD                .                                       : Field
LOC                .                                       : Location
CNTY               .                                       : County
STAT               .                                       : State
CTRY               .                                       : Country
SRVC               .                                       : Service Company
DATE               .                                       : Date
API                .                                       : API number
EREF               .m        140.4                         : 
Pad                .         4                             : 
X                  .m        222100                        : 
Y                  .m        250025                        : 
group              .         Pad4                          : 
Интер-р            .         Ярышев                        : 
Куст               .         4                             : 
Статус             .         Проверено                     : 
Тип                .         Нагнетательные                : 
~Parameter Information Block
#_______________________________________________________________________________
#
#PARAMETER_NAME    .UNIT     VALUE                         : DESCRIPTION
#_______________________________________________________________________________
SET                .         LAS1                          : 
REAL_CREATION_DATE .         Ср апр 11 2012-13_17_15       : 
TLFamily_DEPTH     .         Measured Depth                : 
TLFamily_KS        .         Potential Resistivity         : 
TLFamily_KS1       .         Extra Shallow Resistivity     : 
TLFamily_KS2       .         Shallow Resistivity           : 
TLFamily_KS3       .         Medium Resistivity            : 
TLFamily_KS4       .         Deep Resistivity              : 
TLFamily_KS5       .         Extra Deep Resistivity        : 
TLFamily_OKS3      .         Medium Resistivity Inverted   : 
TLFamily_RM        .         Mud Resistivity               : 
TLFamily_SP        .         Spontaneous Potential         : 
group              .         INI                           : 
~Curve Information
#_______________________________________________________________________________
#
#LOGNAME           .UNIT     LOG_ID                        : DESCRIPTION
#_______________________________________________________________________________
DEPTH              .m                                      : Measured Depth 
KS                 .ohm.m                                  : Potential Resistivity 
KS1                .ohm.m                                  : Extra Shallow Resistivity 
KS2                .ohm.m                                  : Shallow Resistivity 
KS3                .ohm.m                                  : Medium Resistivity 
KS4                .ohm.m                                  : Deep Resistivity 
KS5                .ohm.m                                  : Extra Deep Resistivity 
OKS3               .ohm.m                                  : Medium Resistivity Inverted 
RM                 .ohm.m                                  : Mud Resistivity 
SP                 .mV                                     : Spontaneous Potential 
~Ascii
# ...
2830.4     13.5122    8.6868     12.1726    9.4613     1.8815     0.7116     13.4959    1.235      113.2441  
2830.6     14.4495    8.9955     12.2088    10.3933    2.161      0.7116     14.1306    1.212      117.2534  
2830.8     15.526     9.7927     12.7409    10.8593    2.2991     0.7182     14.5128    1.186      120.2522  
2831       16.1848    10.6985    13.48      10.9855    2.3879     0.7116     15.1702    1.252      121.9576  
2831.2     16.6602    11.316     14.5705    11.034     2.5851     0.7247     15.9961    1.225      122.7967  
2831.4     16.8402    12.0148    16.6202    10.911     3.029      0.7509     16.6243    1.222      123.3569  
2831.6     16.8266    12.1811    18.072     10.5842    3.7326     0.8294     16.8834    1.215      123.873   
2831.8     16.6195    12.3134    18.8735    10.3027    4.7189     0.9275     16.7247    1.245      124.1464  
2832       16.2867    12.2862    19.1626    10.2315    6.2182     1.1042     16.4235    1.235      124.0843  
2832.2     15.9335    12.0929    19.087     10.2444    9.0622     1.3398     18.6323    1.222      123.8868  
2832.4     15.543     11.7502    18.5976    10.4839    11.127     2.0203     21.0256    1.202      123.6888  
2832.6     14.8808    11.472     18.2888    11.2185    12.7775    3.5776     23.7622    1.249      123.0746  
2832.8     15.0302    11.4211    17.6877    12.3091    15.8911    7.9354     30.1033    1.232      121.3652  
2833       17.2376    8.0999     14.1205    15.063     27.3328    18.1364    54.6541    1.186      118.3483  
2833.2     21.0444    7.8217     14.3012    18.8654    37.1898    26.0865    66.6626    1.237      114.5755  
2833.4     27.5646    8.9209     16.8862    23.917     47.8326    31.5305    70.3114    1.242      111.3119  
2833.6     33.7588    12.7951    21.2582    28.1402    54.7451    35.9668    65.5224    1.262      109.4509  
2833.8     37.569     18.0128    26.7766    31.6999    57.2132    35.162     56.6285    1.195      108.6857  
2834       40.8325    24.177     35.6782    30.153     49.6406    34.1216    45.1976    1.244      108.3652  
2834.2     41.7979    18.2305    34.9115    26.605     39.8459    32.512     35.6726    1.158      108.4632  
2834.4     39.1854    21.7208    50.8737    24.629     34.8423    30.0124    36.4542    1.269      109.3886  
2834.6     33.0218    25.0964    62.9504    28.3829    36.5881    25.6612    41.7428    1.181      111.0377  
2834.8     31.6057    24.825     72.9781    27.713     30.7094    24.1628    36.9302    1.245      112.6236  
2835       33.7486    15.119     51.6189    24.0141    20.8853    20.6686    22.2659    1.188      113.8151  
2835.2     32.2442    12.8901    39.1469    23.396     15.0395    16.193     13.7517    1.158      115.2566  
2835.4     27.2861    19.4241    52.7951    34.36      16.3382    12.6531    12.7963    1.171      117.7653  
2835.6     23.3434    16.8695    52.6616    45.7835    15.2434    12.3325    12.9842    1.2        120.7612  
2835.8     22.722     17.1002    56.3603    50.7413    12.5638    10.9061    12.1389    1.242      122.7323  
2836       21.6149    15.3056    44.4879    51.0536    10.0354    9.5189     11.7729    1.228      123.639   
2836.2     20.8848    16.4658    38.6607    46.3854    8.0857     8.786      11.475     1.188      124.1713  
2836.4     21.1836    14.0944    28.5602    39.2336    6.5404     8.8384     11.6499    1.237      124.068   
2836.6     21.2855    12.2727    24.5627    31.6805    5.5771     8.7468     13.2983    1.228      123.1845  
2836.8     20.3177    12.5237    26.7503    37.1269    6.787      8.5243     17.3206    1.198      122.5213  
2837       18.1001    15.2309    37.2319    47.5251    9.5652     8.3345     22.9104    1.228      122.8694  
2837.2     15.2373    17.5412    43.0754    56.8875    12.8893    7.6802     24.7532    1.212      123.6598  
2837.4     13.9537    19.5157    43.1805    47.2435    14.6614    6.5744     20.2872    1.208      124.248   
2837.6     12.9791    15.2208    28.1956    30.9362    12.8367    4.6768     13.6805    1.178      124.6395  
2837.8     12.0859    11.2481    20.3254    20.6906    9.9927     3.1065     9.1173     1.245      124.8189  
2838       11.6784    9.423      17.0866    14.5679    8.0265     1.8436     6.805      1.223      124.633   
2838.2     11.1045    8.7682     15.7234    11.3317    6.7212     1.3659     5.9726     1.188      124.049   
2838.4     10.4966    9.1617     15.6413    9.7072     5.702      1.0519     5.6974     1.232      123.6191  
2838.6     9.9703     8.6291     13.9333    8.7267     4.8505     0.9275     6.235      1.208      124.2378  
2838.8     9.3794     8.2152     13.3847    8.2251     4.7485     0.8621     7.4851     1.195      125.5824  
2839       9.1145     7.5503     12.7639    8.7558     5.0412     0.7771     9.2792     1.198      126.4169  
2839.2     9.2673     8.1101     13.6179    9.8561     5.0116     0.7116     10.0273    1.215      126.4352  
2839.4     9.7054     7.6181     10.8193    10.4483    4.0778     0.6724     9.4379     1.218      126.1233  
2839.6     10.0993    8.0286     9.4627     9.6231     3.2361     0.6331     7.9708     1.19       125.7876  
2839.8     9.9125     8.1949     9.0948     9.0665     3.1506     0.6069     6.8406     1.218      125.6053  
2840       9.325      8.1779     9.7551     8.6846     3.3611     0.6331     5.72       1.222      125.634   
2840.2     8.853      7.6148     10.6814    8.7979     3.9529     0.6854     5.6196     1.171      125.521   
2840.4     8.6153     7.4621     12.0642    9.0923     4.6104     0.6593     5.8204     1.218      125.0284  
2840.6     8.9413     7.4723     11.8245    8.6166     4.8472     0.6462     5.0658     1.217      124.1612  
2840.8     10.2216    6.5631     8.7467     7.1442     4.5907     0.6462     4.2368     1.164      122.3747  
2841       11.4747    6.865      7.7645     6.2737     4.8537     0.764      4.0781     1.239      119.4924  
2841.2     11.9467    7.9235     8.3821     6.6523     6.8823     0.9275     4.3922     1.228      117.1149  
2841.4     11.855     10.6036    10.366     8.2736     10.9461    1.4314     5.2699     1.178      116.7669  
2841.6     11.6003    10.2982    12.2613    12.1311    21.0629    2.8971     7.4009     1.242      117.9226  
2841.8     10.5985    9.5858     15.4377    17.9529    37.7586    4.8601     10.2702    1.228      119.1204  
2842       9.3726     11.2753    22.9893    24.1953    46.6457    6.7772     12.1648    1.176      119.8252  
2842.2     9.4677     11.6247    23.2225    23.4025    41.4772    8.9169     10.9503    1.222      120.1866  
2842.4     9.9974     9.5824     15.1847    16.6778    27.6715    9.4665     8.3724     1.208      119.8953  
2842.6     9.0568     9.8979     13.8282    13.0501    20.3198    7.3334     6.9993     1.215      118.4597  
2842.8     8.3946     10.6171    14.449     10.9046    14.8061    5.8416     6.2382     1.208      115.2645  
2843       8.7307     9.06       12.465     7.8561     9.4962     4.9517     5.5808     1.18       109.9415  
2843.2     9.2945     8.0999     10.1657    5.3417     5.6297     3.9963     5.3346     1.225      104.3084  
2843.4     9.7699     8.5307     9.3741     4.0731     4.16       3.8393     6.2058     1.218      101.0822  
2843.6     9.9805     8.9344     9.0094     3.7592     4.0384     4.4347     8.5311     1.181      101.0604  
2843.8     9.8276     9.9318     10.5697    4.5877     5.1529     4.6899     12.2069    1.213      103.3444  
2844       9.376      10.6816    14.5278    6.5358     6.2675     4.7946     17.5635    1.185      105.8554  
2844.2     9.5594     11.2481    15.5362    7.9759     5.6494     4.6507     17.6639    1.235      106.5423  
2844.4     10.4321    9.2805     11.9591    7.4225     3.4104     4.1468     12.9874    1.208      105.4993  
2844.6     10.9075    9.4196     10.7996    5.6621     2.207      2.9494     8.489      1.222      104.5019  
2844.8     10.6562    9.9556     10.839     4.5229     1.5001     2.1642     6.9831     1.225      104.7719  
