~Version
 VERS              .         2.0                           : CWLS LOG ASCII STANDARD - VERSION 2.0
 WRAP              .         NO                            : ONE LINE PER DEPTH STEP
 DLM               .         SPACE                         : DELIMITING CHARACTER(SPACE TAB OR COMMA)
~Well Information
#_______________________________________________________________________________
#
#PARAMETER_NAME    .UNIT     VALUE                         : DESCRIPTION
#_______________________________________________________________________________
STRT               .m        2699                          : First reference value
STOP               .m        2871                          : Last reference value
STEP               .m        0.2                           : Step increment
NULL               .         -9999                         : Missing value
COMP               .                                       : Company
WELL               .         405                           : Well name
FLD                .                                       : Field
LOC                .                                       : Location
CNTY               .                                       : County
STAT               .                                       : State
CTRY               .                                       : Country
SRVC               .                                       : Service Company
DATE               .                                       : Date
API                .                                       : API number
EREF               .m        140.4                         : 
Pad                .         4                             : 
X                  .m        222100                        : 
Y                  .m        250025                        : 
group              .         Pad4                          : 
Интер-р            .         Ярышев                        : 
Куст               .         4                             : 
Статус             .         Проверено                     : 
Тип                .         Нагнетательные                : 
~Parameter Information Block
#_______________________________________________________________________________
#
#PARAMETER_NAME    .UNIT     VALUE                         : DESCRIPTION
#_______________________________________________________________________________
SET                .         LAS1                          : 
REAL_CREATION_DATE .         Ср апр 11 2012-13_17_15       : 
TLFamily_DEPTH     .         Measured Depth                : 
TLFamily_KS        .         Potential Resistivity         : 
TLFamily_KS1       .         Extra Shallow Resistivity     : 
TLFamily_KS2       .         Shallow Resistivity           : 
TLFamily_KS3       .         Medium Resistivity            : 
TLFamily_KS4       .         Deep Resistivity              : 
TLFamily_KS5       .         Extra Deep Resistivity        : 
TLFamily_OKS3      .         Medium Resistivity Inverted   : 
TLFamily_RM        .         Mud Resistivity               : 
TLFamily_SP        .         Spontaneous Potential         : 
group              .         INI                           : 
~Curve Information
#_______________________________________________________________________________
#
#LOGNAME           .UNIT     LOG_ID                        : DESCRIPTION
#_______________________________________________________________________________
DEPTH              .m                                      : Measured Depth 
KS                 .ohm.m                                  : Potential Resistivity 
KS1                .ohm.m                                  : Extra Shallow Resistivity 
KS2                .ohm.m                                  : Shallow Resistivity 
KS3                .ohm.m                                  : Medium Resistivity 
KS4                .ohm.m                                  : Deep Resistivity 
KS5                .ohm.m                                  : Extra Deep Resistivity 
OKS3               .ohm.m                                  : Medium Resistivity Inverted 
RM                 .ohm.m                                  : Mud Resistivity 
SP                 .mV                                     : Spontaneous Potential 
~Ascii
# ...
2845       9.9465     10.2202    11.2201    4.0343     1.145      1.8371     6.4455     1.222      106.6725  
2845.2     9.3386     10.02      11.6307    3.5586     0.9708     1.7127     6.5685     1.222      110.2373  
2845.4     8.9039     8.3034     11.1511    3.2608     0.905      1.7193     7.0122     1.175      114.6776  
2845.6     8.8598     7.3807     10.5631    3.2058     0.8754     1.9287     7.2454     1.212      118.3322  
2845.8     9.1586     6.9295     9.5317     3.3806     0.9346     2.2427     7.1159     1.175      120.2772  
2846       9.6782     6.4986     8.6186     3.9113     1.224      2.5568     6.0342     1.222      120.9117  
2846.2     10.0008    6.3527     8.9306     5.3902     1.8125     2.7728     4.9201     1.21       120.723   
2846.4     9.9669     8.4663     11.2266    7.9694     2.6509     3.0018     4.253      1.195      120.0886  
2846.6     10.5238    10.1727    12.0741    8.8496     2.9336     3.3028     3.602      1.208      119.3326  
2846.8     10.8057    8.9955     9.7748     7.8594     2.9238     3.8131     3.4401     1.208      118.5939  
2847       10.5849    8.8462     9.9587     6.9759     3.3775     5.0171     3.7348     1.223      118.3018  
2847.2     10.7072    9.1041     10.7832    7.1183     4.6203     6.8361     4.7679     1.164      118.8916  
2847.4     10.5713    8.9955     11.5026    7.8044     6.5437     10.749     6.805      1.208      119.9883  
2847.6     10.4083    8.948      12.3533    9.1344     9.8644     18.987     9.4833     1.168      120.4695  
2847.8     10.0382    8.6359     12.8624    12.2184    18.0939    26.852     13.8294    1.213      119.4844  
2848       8.6187     9.9658     16.0913    20.4026    30.7949    28.8477    20.6596    1.191      117.2448  
2848.2     7.1958     11.8724    25.1933    24.6808    37.9493    28.4421    18.697     1.235      114.5158  
2848.4     7.4844     9.5722     16.8928    21.1728    30.6404    25.4583    12.8449    1.175      111.8685  
2848.6     8.8123     7.3841     10.6945    12.1149    16.5355    16.8997    7.2648     1.208      109.7713  
2848.8     9.1926     7.7131     8.9569     7.662      10.3839    9.7414     4.3566     1.176      109.1079  
2849       9.2741     7.8692     7.666      4.9436     6.3859     6.7707     3.7121     1.225      110.2281  
2849.2     9.1926     7.3807     7.0616     3.578      4.3375     6.5482     3.9226     1.175      112.2504  
2849.4     9.2164     6.8175     7.6496     2.8596     3.6504     8.171      4.9493     1.218      114.6627  
2849.6     9.2673     6.5834     8.0273     2.9308     4.2685     12.869     7.0705     1.195      117.5272  
2849.8     9.2877     6.7938     9.3149     4.3061     6.5897     22.0166    12.1162    1.215      120.5068  
2850       8.9277     7.2518     11.6602    7.9662     12.0804    25.7724    20.6402    1.215      123.2026  
2850.2     7.6339     9.3483     19.8819    14.2443    15.9996    26.6754    32.1566    1.215      125.336   
2850.4     8.0414     10.9191    20.5224    19.3768    14.0893    26.165     34.7766    1.208      126.7204  
2850.6     9.4201     8.0524     11.2234    17.037     7.8457     21.7679    23.4092    1.183      127.4246  
2850.8     10.3166    7.7233     8.6843     11.0373    4.2981     11.7959    12.385     1.198      127.332   
2851       10.5442    7.4858     8.0602     7.1701     2.618      7.8045     9.2371     1.168      126.3112  
2851.2     10.5849    7.8353     8.993      5.2349     1.8914     5.6453     7.3717     1.202      124.7983  
2851.4     10.6189    7.7946     10.366     4.209      1.5067     4.2319     6.1605     1.168      123.3795  
2851.6     10.3981    7.7878     11.8803    3.8563     1.3193     3.2373     6.4099     1.198      122.3943  
2851.8     10.1502    8.4086     12.7048    3.7301     1.1878     2.7335     6.2382     1.212      121.8604  
2852       10.6528    7.971      10.6912    3.4615     1.0102     2.3344     5.9824     1.183      121.435   
2852.2     11.057     7.1534     8.5726     3.3903     0.928      2.1511     5.9953     1.195      120.4166  
2852.4     11.0366    6.8786     8.3525     4.5844     1.3127     2.0857     6.0083     1.186      117.9728  
2852.6     11.0604    7.0686     9.3248     7.1313     2.2169     2.4456     6.0147     1.205      114.4312  
2852.8     11.2234    7.5299     11.2299    10.746     3.098      2.6681     6.1022     1.168      111.31    
2853       10.7683    8.4357     14.5442    13.8818    3.9627     2.6615     6.1637     1.202      109.1861  
2853.2     10.6223    10.7019    15.7924    14.2151    3.8805     2.5045     6.1637     1.181      107.2525  
2853.4     11.0502    9.3585     11.923     10.856     2.6969     2.439      6.1637     1.223      105.1823  
2853.6     11.4407    8.4188     9.7387     7.3189     1.9506     2.3016     6.1637     1.18       103.9701  
2853.8     11.8448    7.7708     8.3098     5.5067     1.8585     2.7531     6.1637     1.2        104.9601  
2854       12.2829    7.401      8.4478     5.0504     2.4996     4.3366     6.1637     1.196      108.6842  
2854.2     12.704     8.1677     9.4726     6.1345     4.765      6.7184     6.1637     1.212      113.9442  
2854.4     13.3696    8.2763     10.642     9.0503     11.9095    10.8472    6.1637     1.213      118.54    
2854.6     13.6209    8.6291     12.0051    13.8203    26.1985    13.314     6.1637     1.2        121.1829  
2854.8     13.6718    9.4671     18.9392    19.8913    46.2676    14.6881    6.1637     1.202      121.7601  
2855       13.7024    9.657      22.4079    24.7552    50.43      14.3936    6.1637     1.163      120.9542  
2855.2     13.7567    9.769      18.2198    21.8427    39.0047    12.3194    6.1637     1.181      119.8976  
2855.4     14.0182    9.9115     16.8994    17.6066    24.5842    9.1917     6.1637     1.181      119.2002  
2855.6     14.059     10.9564    16.6957    14.309     15.4998    6.5221     6.1637     1.181      119.0937  
2855.8     14.0556    11.1531    16.5906    10.5001    10.5253    5.3704     6.1637     1.181      119.6618  
2856       14.059     11.1531    16.5348    7.3157     8.0167     5.1545     6.1637     1.181      120.5136  
2856.2     14.0556    11.1531    15.8745    6.675      6.7508     5.8285     6.1637     1.181      121.2329  
2856.4     14.0556    11.1497    15.7399    7.0504     6.2182     7.9616     6.1624     1.181      121.9902  
2856.6     14.059     11.1531    15.7399    7.3707     6.5536     11.7829    -9999      1.181      122.7968  
2856.8     14.059     11.1497    15.7399    7.4646     8.0693     20.3611    -9999      1.181      123.0961  
2857       14.059     11.1531    15.7399    7.5358     13.1391    31.0332    -9999      1.181      122.8126  
2857.2     14.059     11.1531    15.7399    7.649      23.5616    43.3215    -9999      1.181      122.4192  
2857.4     14.0624    11.143     15.7399    8.1603     31.3506    51.4352    -9999      1.181      121.7675  
2857.6     14.059     11.143     15.7399    8.2315     36.6802    51.2389    -9999      1.181      120.0531  
2857.8     14.0556    11.143     15.7399    8.2315     37.4726    46.8287    -9999      1.181      117.581   
2858       14.059     11.1396    15.7399    8.2315     24.16      35.077     -9999      1.181      115.8767  
2858.2     14.0556    11.143     15.7399    8.2315     10.7423    22.7625    -9999      1.181      115.3422  
2858.4     14.0556    11.1396    15.7399    8.2315     6.2708     13.3009    -9999      1.181      115.1646  
2858.6     14.0556    11.1396    15.7399    8.2315     5.3371     7.8634     -9999      1.181      114.6065  
2858.8     14.0556    11.1396    15.7464    8.2315     5.2286     5.5667     -9999      -9999      113.601   
2859       -9999      11.1362    15.7497    8.2315     5.1924     3.8786     -9999      -9999      113.3052  
2859.2     -9999      -9999      15.7432    8.2315     5.2023     2.6615     -9999      -9999      115.3909  
2859.4     -9999      -9999      15.7497    8.2315     4.9557     2.0923     -9999      -9999      119.7074  
