~Version
 VERS              .         2.0                           : CWLS LOG ASCII STANDARD - VERSION 2.0
 WRAP              .         NO                            : ONE LINE PER DEPTH STEP
 DLM               .         SPACE                         : DELIMITING CHARACTER(SPACE TAB OR COMMA)
~Well Information
#_______________________________________________________________________________
#
#PARAMETER_NAME    .UNIT     VALUE                         : DESCRIPTION
#_______________________________________________________________________________
STRT               .m        2699                          : First reference value
STOP               .m        2871                          : Last reference value
STEP               .m        0.2                           : Step increment
NULL               .         -9999                         : Missing value
COMP               .                                       : Company
WELL               .         405                           : Well name
FLD                .                                       : Field
LOC                .                                       : Location
CNTY               .                                       : County
STAT               .                                       : State
CTRY               .                                       : Country
SRVC               .                                       : Service Company
DATE               .                                       : Date
API                .                                       : API number
EREF               .m        140.4                         : 
Pad                .         4                             : 
X                  .m        222100                        : 
Y                  .m        250025                        : 
group              .         Pad4                          : 
Интер-р            .         Ярышев                        : 
Куст               .         4                             : 
Статус             .         Проверено                     : 
Тип                .         Нагнетательные                : 
~Parameter Information Block
#_______________________________________________________________________________
#
#PARAMETER_NAME    .UNIT     VALUE                         : DESCRIPTION
#_______________________________________________________________________________
SET                .         LAS1                          : 
REAL_CREATION_DATE .         Ср апр 11 2012-13_17_15       : 
TLFamily_DEPTH     .         Measured Depth                : 
TLFamily_KS        .         Potential Resistivity         : 
TLFamily_KS1       .         Extra Shallow Resistivity     : 
TLFamily_KS2       .         Shallow Resistivity           : 
TLFamily_KS3       .         Medium Resistivity            : 
TLFamily_KS4       .         Deep Resistivity              : 
TLFamily_KS5       .         Extra Deep Resistivity        : 
TLFamily_OKS3      .         Medium Resistivity Inverted   : 
TLFamily_RM        .         Mud Resistivity               : 
TLFamily_SP        .         Spontaneous Potential         : 
group              .         INI                           : 
~Curve Information
#_______________________________________________________________________________
#
#LOGNAME           .UNIT     LOG_ID                        : DESCRIPTION
#_______________________________________________________________________________
DEPTH              .m                                      : Measured Depth 
KS                 .ohm.m                                  : Potential Resistivity 
KS1                .ohm.m                                  : Extra Shallow Resistivity 
KS2                .ohm.m                                  : Shallow Resistivity 
KS3                .ohm.m                                  : Medium Resistivity 
KS4                .ohm.m                                  : Deep Resistivity 
KS5                .ohm.m                                  : Extra Deep Resistivity 
OKS3               .ohm.m                                  : Medium Resistivity Inverted 
RM                 .ohm.m                                  : Mud Resistivity 
SP                 .mV                                     : Spontaneous Potential 
~Ascii
# ...
2772       17.5941    14.5898    25.0948    16.3089    10.6141    6.5875     16.7085    1.269      124.9323  
2772.2     17.4787    13.8264    23.7809    15.5452    9.9861     6.3301     16.307     1.259      124.8292  
2772.4     17.061     14.1453    23.978     15.1374    9.5685     5.8808     16.5725    1.255      124.6243  
2772.6     16.555     14.1759    24.1915    15.0695    9.3351     5.6583     17.2591    1.239      124.3675  
2772.8     16.0795    13.8264    23.8794    14.9238    9.0655     5.6583     18.4444    1.239      124.2492  
2773       16.1576    13.1208    22.6444    14.487     8.8189     5.8808     20.0443    1.235      124.2734  
2773.2     16.4599    11.8079    20.7688    14.3349    8.9373     6.1687     22.5898    1.234      124.3821  
2773.4     16.6297    12.6187    22.0203    15.0662    9.4765     6.3127     24.805     1.242      124.647   
2773.6     17.0032    13.2328    22.7462    16.3542    9.9368     6.2734     25.1548    1.239      125.1943  
2773.8     17.1187    14.0775    22.986     16.3963    9.4403     5.979      22.8424    1.25       125.866   
2774       17.1696    13.8604    21.9677    15.4416    8.4868     5.5406     19.4516    1.245      126.2784  
2774.2     17.2206    13.5483    21.2517    14.0404    7.4051     4.9517     17.3012    1.242      126.3285  
2774.4     17.1798    12.829     20.7228    12.953     6.7739     4.6507     16.7604    1.242      126.1549  
2774.6     17.0983    12.3744    20.6013    12.3026    6.6127     4.4675     17.2397    1.244      125.9957  
2774.8     17.2477    12.3168    21.0644    12.1861    6.8002     4.6638     18.276     1.249      125.9827  
2775       17.8386    11.8995    20.6407    12.3479    7.3032     5.1218     20.0961    1.249      125.9612  
2775.2     18.6333    11.567     19.9082    13.0339    8.0232     5.8285     22.9946    1.249      125.9071  
2775.4     19.3736    12.2625    20.979     14.3899    9.6376     7.2156     26.0097    1.252      125.909   
2775.6     20.3788    12.6119    21.8035    17.6357    12.5835    8.4589     29.5916    1.262      125.8994  
2775.8     20.6301    13.7145    24.6481    22.3993    16.3711    9.7152     34.1289    1.266      125.7581  
2776       20.4263    16.2419    30.4062    25.8587    19.2611    10.291     35.8032    1.242      125.4424  
2776.2     20.8135    16.2283    30.1664    26.8004    18.2518    10.3041    32.963     1.228      124.9806  
2776.4     21.333     14.9969    27.5386    23.2666    15.5656    9.7021     28.2703    1.208      124.4016  
2776.6     21.1938    15.0036    27.3711    19.9754    13.389     8.1317     25.9676    1.198      123.8928  
2776.8     21.0784    14.5965    26.9999    18.3412    11.9983    7.2614     24.5589    1.195      123.6625  
2777       21.221     14.3964    27.0492    16.9432    10.9724    6.6791     24.507     1.198      123.676   
2777.2     21.5538    13.5313    26.435     16.1536    10.2984    6.208      24.8179    1.198      123.799   
2777.4     22.1888    13.1547    25.6368    15.94      10.0716    6.064      24.7661    1.212      123.9675  
2777.6     22.8952    13.952     26.6123    16.7781    10.3083    5.9332     24.4099    1.225      124.2954  
2777.8     23.4419    14.834     27.4105    18.2117    10.6732    5.9266     23.9338    1.252      124.8986  
2778       23.5744    15.0274    27.4138    19.4091    10.9264    5.9986     23.3541    1.262      125.5998  
2778.2     23.4419    15.6313    28.9084    21.4964    11.2125    6.0771     22.9558    1.272      126.2446  
2778.4     22.8171    16.1028    30.646     23.6258    11.4558    6.1687     22.7161    1.259      126.8093  
2778.6     22.0971    16.4997    32.1044    24.5966    11.5018    6.2865     22.6351    1.242      127.213   
2778.8     21.676     15.8653    31.1321    24.2957    11.2914    6.4566     23.0043    1.239      127.3299  
2779       21.6081    14.4574    29.1482    23.4899    11.173     6.7445     23.8852    1.235      126.9088  
2779.2     21.7236    13.9893    28.1102    23.163     11.63      7.0259     25.1807    1.247      126.0881  
2779.4     21.9579    14.3998    28.5076    23.6808    12.3106    7.3727     25.8316    1.252      125.4454  
2779.6     22.4096    14.6271    28.0511    24.1953    13.1589    7.8045     25.5434    1.255      125.1626  
2779.8     22.6846    14.8849    27.8934    24.3992    14.303     8.2953     24.7208    1.266      125.0362  
2780       22.6948    15.4616    28.731     24.5481    15.3552    8.6944     23.6488    1.266      124.9419  
2780.2     22.7356    15.7093    29.112     24.4251    16.8709    9.2441     23.0529    1.242      124.8528  
2780.4     22.4775    15.4277    29.0956    24.0109    18.2518    9.6759     23.0497    1.23       124.7605  
2780.6     22.165     15.6211    30.1106    23.7326    19.1658    10.1863    23.1404    1.215      124.6634  
2780.8     22.2398    15.1834    29.6803    23.3054    19.6031    11.1678    23.1468    1.198      124.576   
2781       22.9189    14.281     28.2678    22.9235    20.4809    12.1885    23.5484    1.193      124.5571  
2781.2     23.7781    13.5143    27.4171    23.4963    21.7993    13.314     23.4869    1.195      124.7354  
2781.4     24.7731    14.2098    28.8328    25.0982    23.7819    14.6619    22.972     1.202      125.1686  
2781.6     25.6289    16.0994    31.8942    27.2988    25.1234    15.3555    21.9939    1.208      125.555   
2781.8     25.4285    18.0705    34.118     28.8262    25.5212    15.7873    20.8734    1.215      125.6309  
2782       24.3249    18.8372    35.1527    28.9978    24.3968    15.8659    19.8759    1.252      125.7302  
2782.2     23.4419    18.3724    35.7636    27.7713    22.6542    15.8659    19.1504    1.255      126.0025  
2782.4     22.8306    16.2928    33.7698    26.0917    21.1615    15.892     19.3998    1.269      125.9731  
2782.6     22.2262    15.4345    33.4282    25.5901    21.1878    15.8135    19.8564    1.266      125.6497  
2782.8     21.676     15.6313    34.5614    26.425     21.7007    15.6434    19.7269    1.25       125.5873  
2783       20.8882    16.8763    35.5403    27.2761    21.4245    15.0676    17.9262    1.242      125.7265  
2783.2     19.2445    17.7991    34.9753    27.1402    19.5472    13.6673    15.384     1.242      125.5691  
2783.4     17.842     17.7821    33.2147    25.4866    16.5848    12.1624    12.3624    1.242      125.1129  
2783.6     16.7927    14.6814    27.4237    22.3475    13.389     10.8014    11.271     1.242      124.7528  
2783.8     16.1135    12.5509    23.9911    19.2182    11.3966    9.9507     11.7308    1.239      124.6451  
2784       16.015     10.5764    21.0743    17.325     10.9034    10.0227    13.4052    1.247      124.6711  
2784.2     16.4089    10.3796    20.6374    17.2668    11.5873    10.9061    15.7564    1.252      124.7625  
2784.4     17.2274    10.8512    20.6538    18.0855    12.9978    12.3063    17.2299    1.259      124.9527  
2784.6     18.0084    12.1573    21.0611    19.2344    14.0762    13.9683    18.3149    1.267      125.2836  
2784.8     18.6163    13.3922    21.383     20.2246    14.7896    15.2639    18.8039    1.266      125.7085  
2785       18.6469    14.0911    21.8199    20.8395    15.0625    15.6696    18.6776    1.252      126.1654  
2785.2     18.2224    14.9799    23.597     21.1048    15.171     15.2508    18.2825    1.242      126.6159  
2785.4     17.19      15.0308    25.0258    20.5871    15.1184    14.3086    17.4048    1.228      126.8404  
2785.6     16.2561    15.5193    26.4284    18.7069    13.9808    13.1439    16.213     1.202      126.499   
2785.8     15.7773    12.924     22.1188    15.5711    12.2383    12.2147    15.6981    1.19       125.8403  
2786       15.5056    11.5467    20.1808    12.8009    10.9494    11.5735    17.6445    1.188      125.7079  
2786.2     15.5837    10.2982    18.522     12.1667    11.3604    11.5538    20.7244    1.191      126.2897  
2786.4     15.7501    10.3864    18.7618    12.9369    12.3599    12.0838    24.2803    1.202      127.2575  
