~Version
 VERS              .         2.0                           : CWLS LOG ASCII STANDARD - VERSION 2.0
 WRAP              .         NO                            : ONE LINE PER DEPTH STEP
 DLM               .         SPACE                         : DELIMITING CHARACTER(SPACE TAB OR COMMA)
~Well Information
#_______________________________________________________________________________
#
#PARAMETER_NAME    .UNIT     VALUE                         : DESCRIPTION
#_______________________________________________________________________________
STRT               .m        2792                          : First reference value
STOP               .m        3022                          : Last reference value
STEP               .m        0.2                           : Step increment
NULL               .         -9999                         : Missing value
COMP               .                                       : Company
WELL               .         406                           : Well name
FLD                .                                       : Field
LOC                .                                       : Location
CNTY               .                                       : County
STAT               .                                       : State
CTRY               .                                       : Country
SRVC               .                                       : Service Company
DATE               .                                       : Date
API                .                                       : API number
EREF               .m        140.4                         : 
Pad                .         4                             : 
X                  .m        222100                        : 
Y                  .m        250025                        : 
group              .         Pad4                          : 
Интер-р            .         Пузин                         : 
Куст               .         4                             : 
Статус             .         Проверено                     : 
Тип                .         Нагнетательные                : 
~Parameter Information Block
#_______________________________________________________________________________
#
#PARAMETER_NAME    .UNIT     VALUE                         : DESCRIPTION
#_______________________________________________________________________________
SET                .         LAS1                          : 
REAL_CREATION_DATE .         Ср апр 11 2012-13_17_16       : 
TLFamily_DEPTH     .         Measured Depth                : 
TLFamily_KS        .         Potential Resistivity         : 
TLFamily_KS1       .         Extra Shallow Resistivity     : 
TLFamily_KS2       .         Shallow Resistivity           : 
TLFamily_KS3       .         Medium Resistivity            : 
TLFamily_KS4       .         Deep Resistivity              : 
TLFamily_KS5       .         Extra Deep Resistivity        : 
TLFamily_LLD       .         Lateral Log Resistivity       : 
TLFamily_OKS3      .         Medium Resistivity Inverted   : 
TLFamily_RM        .         Mud Resistivity               : 
group              .         INI                           : 
~Curve Information
#_______________________________________________________________________________
#
#LOGNAME           .UNIT     LOG_ID                        : DESCRIPTION
#_______________________________________________________________________________
DEPTH              .m                                      : Measured Depth 
KS                 .ohm.m                                  : Potential Resistivity 
KS1                .ohm.m                                  : Extra Shallow Resistivity 
KS2                .ohm.m                                  : Shallow Resistivity 
KS3                .ohm.m                                  : Medium Resistivity 
KS4                .ohm.m                                  : Deep Resistivity 
KS5                .ohm.m                                  : Extra Deep Resistivity 
LLD                .ohm.m                                  : Lateral Log Resistivity 
OKS3               .ohm.m                                  : Medium Resistivity Inverted 
RM                 .ohm.m                                  : Mud Resistivity 
~Ascii
# ...
2821.2     5.929      1.973      6.443      8.858      7.5913     5.9991     5.611      12.0032    0.134     
2821.4     6.0378     1.9508     6.3905     8.9092     7.5895     6.016      5.453      12.1973    0.134     
2821.6     6.1457     1.9717     6.4134     8.915      7.608      6.037      5.6898     12.3704    0.133     
2821.8     6.2602     1.9778     6.4706     8.8928     7.6453     6.0715     5.8182     12.4418    0.13      
2822       6.3579     1.9815     6.542      8.8589     7.7156     6.1537     5.9331     12.5515    0.13      
2822.2     6.4434     2.0086     6.6472     8.8735     7.8152     6.2824     6.1416     12.6733    0.132     
2822.4     6.5201     2.0418     6.7947     9.0336     8.0547     6.5054     6.224      12.8559    0.132     
2822.6     6.5665     2.059      7.0096     9.2923     8.6318     6.827      6.4926     13.0801    0.132     
2822.8     6.5862     2.1328     7.5575     9.7554     9.548      7.0508     6.6473     13.1627    0.134     
2823       6.6185     2.2088     7.5748     10.4228    9.8655     7.1285     6.8191     12.9596    0.134     
2823.2     6.657      2.1939     7.5449     10.7596    9.7158     7.0646     8.1681     12.4859    0.134     
2823.4     6.6732     2.1886     7.524      10.7479    9.6201     6.8906     6.9662     12.1463    0.137     
2823.6     6.6732     2.1727     7.5063     10.709     9.5503     6.7216     6.6719     12.0655    0.137     
2823.8     6.6405     2.1563     7.4737     10.7627    9.4859     6.5914     6.5176     12.0268    0.137     
2824       6.6003     2.1644     7.5317     10.8935    9.4426     6.4709     6.3563     11.9551    0.137     
2824.2     6.5821     2.1613     7.588      10.9899    9.4519     6.3481     6.4883     11.867     0.136     
2824.4     6.5643     2.1342     7.5231     11.012     9.5153     6.2319     6.6176     11.7969    0.134     
2824.6     6.5521     2.1123     7.3844     10.9919    9.5461     6.1145     6.3132     11.7423    0.133     
2824.8     6.5518     2.0854     7.2771     10.9811    9.5269     5.9858     6.0851     11.6937    0.13      
2825       6.5633     2.0586     7.2022     10.9949    9.5111     5.8952     6.0386     11.6662    0.128     
2825.2     6.5653     2.0586     7.1894     11.0449    9.5664     5.8484     6.0661     11.6355    0.127     
2825.4     6.5842     2.0627     7.1709     11.0905    9.6827     5.8454     5.9726     11.5749    0.126     
2825.6     6.6213     2.0551     7.1204     11.1088    9.855      5.8722     6.397      11.4567    0.127     
2825.8     6.6328     2.0608     7.1497     11.1921    10.0861    5.8912     6.2842     11.3496    0.127     
2826       6.6241     2.1109     7.2739     11.3774    10.3753    5.9204     6.2692     11.2273    0.127     
2826.2     6.5933     2.1334     7.3962     11.5478    10.6522    5.9606     6.5467     11.0729    0.127     
2826.4     6.5716     2.1642     7.4588     11.6224    10.8735    6.0169     6.8143     10.8742    0.124     
2826.6     6.5424     2.1632     7.5416     11.6371    11.0457    6.0799     6.7228     10.7857    0.125     
2826.8     6.5087     2.1612     7.5096     11.612     11.1961    6.1541     6.6107     10.6736    0.127     
2827       6.4726     2.1598     7.5593     11.6093    11.3538    6.2264     6.4915     10.6286    0.127     
2827.2     6.4379     2.1744     7.4973     11.5815    11.5278    6.29       6.2229     10.5915    0.127     
2827.4     6.3924     2.1575     7.4626     11.5465    11.6496    6.3414     6.2669     10.5496    0.127     
2827.6     6.3487     2.1419     7.471      11.5209    11.6938    6.3726     6.1297     10.5424    0.127     
2827.8     6.2759     2.1394     7.4835     11.5161    11.7069    6.3956     6.1564     10.609     0.127     
2828       6.1902     2.1394     7.4751     11.4383    11.6488    6.4044     6.1504     10.7146    0.127     
2828.2     6.1086     2.13       7.4125     11.2768    11.5292    6.4044     5.9695     10.8414    0.127     
2828.4     6.0581     2.0791     7.3254     11.1323    11.4018    6.4093     5.7003     10.9917    0.127     
2828.6     6.0225     2.051      7.1853     11.0256    11.2809    6.4251     5.5218     11.1378    0.127     
2828.8     6.0107     2.0316     7.07       10.9424    11.1787    6.4415     5.4571     11.2566    0.127     
2829       6.0009     2.0316     6.9975     10.8667    11.1055    6.4807     5.508      11.3696    0.128     
2829.2     6.0128     2.0316     6.9504     10.7843    11.0093    6.5102     5.6554     11.4568    0.13      
2829.4     6.0321     1.9986     6.815      10.6749    10.8665    6.5211     5.5883     11.5494    0.127     
2829.6     6.0628     1.9857     6.7017     10.4944    10.6415    6.5276     5.5534     11.6229    0.13      
2829.8     6.0918     1.9675     6.6596     10.2567    10.431     6.5423     5.4852     11.7413    0.13      
2830       6.1349     1.9697     6.6843     10.057     10.3243    6.5579     5.5283     11.8835    0.13      
2830.2     6.1848     1.9801     6.7274     9.965      10.2544    6.6128     5.7192     12.0614    0.13      
2830.4     6.2604     1.98       6.691      9.89       10.2101    6.7019     5.8572     12.184     0.13      
2830.6     6.3297     1.9618     6.6689     9.9198     10.2319    6.7963     6.0166     12.3249    0.13      
2830.8     6.3571     2.0142     6.8062     10.1009    10.2733    6.9128     6.0652     12.5533    0.13      
2831       6.3822     2.0248     6.9032     10.2398    10.3442    7.0454     6.1821     12.7968    0.13      
2831.2     6.4035     2.0358     7.0515     10.4136    10.4193    7.1816     6.3661     12.9666    0.13      
2831.4     6.4175     2.0744     7.2677     10.5771    10.5234    7.3174     6.4097     12.9373    0.128     
2831.6     6.4352     2.0999     7.1679     10.6762    10.5631    7.4402     6.7991     12.7813    0.127     
2831.8     6.4591     2.0604     7.1712     10.5731    10.5432    7.4578     6.344      12.7817    0.127     
2832       6.4912     2.045      7.0511     10.4815    10.3398    7.3561     6.287      12.9961    0.13      
2832.2     6.4979     2.0316     7.0599     10.3861    10.0161    7.2699     6.2935     13.334     0.13      
2832.4     6.4997     2.0203     7.0643     10.4768    9.9395     7.1813     6.1913     13.7966    0.13      
2832.6     6.5163     2.0067     7.0946     10.5479    9.9508     7.1481     6.1155     14.4427    0.129     
2832.8     6.5576     1.9971     7.0894     10.5634    10.0149    7.1562     6.0829     15.1858    0.127     
2833       6.6366     1.9663     7.0088     10.5867    10.0642    7.1693     6.1225     15.9554    0.127     
2833.2     6.7475     1.9554     6.9783     10.6235    10.085     7.1697     6.2282     16.6021    0.13      
2833.4     6.8812     1.9314     6.8824     10.6341    10.1036    7.1916     6.3447     17.2021    0.128     
2833.6     7.0315     1.9017     6.793      10.63      10.1701    7.2117     6.4707     17.9556    0.127     
2833.8     7.1903     1.9176     6.7915     10.6666    10.2809    7.2391     6.3729     18.7998    0.127     
2834       7.3443     1.8994     6.8667     10.7111    10.4327    7.2343     6.4303     19.424     0.127     
2834.2     7.5658     1.9236     6.8375     10.7881    10.4823    7.2456     7.0244     19.7912    0.13      
2834.4     7.8124     1.8636     6.7459     10.6874    10.4026    7.2554     7.6849     20.1535    0.128     
2834.6     8.0961     1.8325     6.5697     10.5436    10.4874    7.2947     6.8108     20.3061    0.129     
2834.8     8.376      1.8539     6.9388     10.554     10.7719    7.408      7.9951     19.9953    0.125     
2835       8.6696     1.9564     7.2539     10.9893    11.1672    7.504      8.944      19.5212    0.127     
2835.2     8.9557     2.0032     7.4839     11.7351    11.6356    7.5994     12.1603    18.78      0.128     
2835.4     9.1693     2.1812     8.2155     12.5697    12.1231    7.6663     11.1158    18.0436    0.129     
2835.6     9.3522     2.2682     8.3963     13.0803    12.6251    7.7143     13.1601    17.401     0.127     
