~Version
 VERS              .         2.0                           : CWLS LOG ASCII STANDARD - VERSION 2.0
 WRAP              .         NO                            : ONE LINE PER DEPTH STEP
 DLM               .         SPACE                         : DELIMITING CHARACTER(SPACE TAB OR COMMA)
~Well Information
#_______________________________________________________________________________
#
#PARAMETER_NAME    .UNIT     VALUE                         : DESCRIPTION
#_______________________________________________________________________________
STRT               .m        2792                          : First reference value
STOP               .m        3022                          : Last reference value
STEP               .m        0.2                           : Step increment
NULL               .         -9999                         : Missing value
COMP               .                                       : Company
WELL               .         406                           : Well name
FLD                .                                       : Field
LOC                .                                       : Location
CNTY               .                                       : County
STAT               .                                       : State
CTRY               .                                       : Country
SRVC               .                                       : Service Company
DATE               .                                       : Date
API                .                                       : API number
EREF               .m        140.4                         : 
Pad                .         4                             : 
X                  .m        222100                        : 
Y                  .m        250025                        : 
group              .         Pad4                          : 
Интер-р            .         Пузин                         : 
Куст               .         4                             : 
Статус             .         Проверено                     : 
Тип                .         Нагнетательные                : 
~Parameter Information Block
#_______________________________________________________________________________
#
#PARAMETER_NAME    .UNIT     VALUE                         : DESCRIPTION
#_______________________________________________________________________________
SET                .         LAS1                          : 
REAL_CREATION_DATE .         Ср апр 11 2012-13_17_16       : 
TLFamily_DEPTH     .         Measured Depth                : 
TLFamily_KS        .         Potential Resistivity         : 
TLFamily_KS1       .         Extra Shallow Resistivity     : 
TLFamily_KS2       .         Shallow Resistivity           : 
TLFamily_KS3       .         Medium Resistivity            : 
TLFamily_KS4       .         Deep Resistivity              : 
TLFamily_KS5       .         Extra Deep Resistivity        : 
TLFamily_LLD       .         Lateral Log Resistivity       : 
TLFamily_OKS3      .         Medium Resistivity Inverted   : 
TLFamily_RM        .         Mud Resistivity               : 
group              .         INI                           : 
~Curve Information
#_______________________________________________________________________________
#
#LOGNAME           .UNIT     LOG_ID                        : DESCRIPTION
#_______________________________________________________________________________
DEPTH              .m                                      : Measured Depth 
KS                 .ohm.m                                  : Potential Resistivity 
KS1                .ohm.m                                  : Extra Shallow Resistivity 
KS2                .ohm.m                                  : Shallow Resistivity 
KS3                .ohm.m                                  : Medium Resistivity 
KS4                .ohm.m                                  : Deep Resistivity 
KS5                .ohm.m                                  : Extra Deep Resistivity 
LLD                .ohm.m                                  : Lateral Log Resistivity 
OKS3               .ohm.m                                  : Medium Resistivity Inverted 
RM                 .ohm.m                                  : Mud Resistivity 
~Ascii
# ...
2967.2     4.4665     1.7776     5.9129     9.1469     6.1139     4.5959     3.5252     7.1078     0.124     
2967.4     4.4225     1.7599     5.6356     8.9781     5.8693     4.0654     3.5543     7.2512     0.126     
2967.6     4.394      1.7492     5.3815     8.6993     5.7499     3.6594     3.6299     7.4313     0.127     
2967.8     4.3993     1.7406     5.2391     8.2588     5.6298     3.3337     3.633      7.5888     0.127     
2968       4.4199     1.717      5.0852     7.8033     5.5455     3.0843     3.6116     7.6846     0.127     
2968.2     4.4627     1.7027     4.9951     7.38       5.506      2.8864     3.669      7.7103     0.127     
2968.4     4.5437     1.6564     4.8874     7.008      5.5296     2.7621     3.6696     7.7382     0.124     
2968.6     4.674      1.6213     4.7523     6.6804     5.5597     2.7054     3.6288     7.9013     0.124     
2968.8     4.8125     1.6024     4.7584     6.4355     5.6419     2.7354     3.8462     8.129      0.124     
2969       4.9735     1.6264     4.8379     6.4578     6.0617     2.8261     4.1681     8.2822     0.124     
2969.2     5.1183     1.7593     5.2034     6.7114     6.8424     2.9302     5.5179     8.1175     0.127     
2969.4     5.2442     1.9381     5.6103     7.0916     7.7655     3.0364     6.6135     7.7731     0.128     
2969.6     5.3147     2.0035     5.7891     7.3397     8.3887     3.1594     5.1574     7.5703     0.13      
2969.8     5.3136     1.9827     5.8504     7.4831     8.7297     3.2718     5.0077     7.4567     0.127     
2970       5.2463     2.057      6.2375     7.778      9.0372     3.3773     5.8036     7.1987     0.128     
2970.2     5.1312     2.2352     6.8907     8.1757     9.3388     3.4487     7.7746     6.7521     0.129     
2970.4     4.9892     2.2925     7.1449     8.3848     9.322      3.4822     5.693      6.3171     0.127     
2970.6     4.8177     2.1778     6.7889     8.2627     8.9277     3.4844     3.8506     6.0417     0.127     
2970.8     4.6397     2.0402     6.5405     8.0121     8.321      3.4058     3.6577     5.9517     0.127     
2971       4.502      1.9562     6.353      7.8671     7.8311     3.3425     3.6686     5.9622     0.127     
2971.2     4.4178     1.8694     6.129      7.8055     7.4575     3.3344     3.675      5.9733     0.126     
2971.4     4.3638     1.8096     5.8718     7.7922     7.1541     3.3803     3.6628     5.968      0.122     
2971.6     4.3066     1.7861     5.6532     7.7637     6.9312     3.4282     3.7958     5.8724     0.12      
2971.8     4.2369     1.819      5.5572     7.7057     6.7825     3.4902     3.8953     5.7493     0.118     
2972       4.1785     1.8216     5.4932     7.6255     6.6446     3.555      3.8167     5.6415     0.12      
2972.2     4.1112     1.8018     5.3814     7.5068     6.5006     3.6248     3.5197     5.5674     0.12      
2972.4     4.049      1.7622     5.2905     7.3443     6.3837     3.7214     3.3761     5.539      0.121     
2972.6     3.9972     1.7427     5.2324     7.1431     6.3149     3.8437     3.4219     5.5615     0.122     
2972.8     3.9624     1.7254     5.1661     6.9246     6.2763     4.0123     3.4721     5.6075     0.12      
2973       3.9489     1.7244     5.0728     6.6811     6.2348     4.1738     3.4585     5.6759     0.12      
2973.2     3.9486     1.6785     4.8858     6.4374     6.1809     4.3932     3.3251     5.7097     0.117     
2973.4     3.945      1.6496     4.7836     6.2716     6.1937     4.7418     3.2762     5.7087     0.118     
2973.6     3.8912     1.6541     4.8156     6.3135     6.3899     5.1588     3.4572     5.7423     0.12      
2973.8     3.8319     1.7818     5.1359     6.4535     6.5792     5.5303     4.1067     5.8151     0.12      
2974       3.8193     1.7592     5.1535     6.3993     6.5388     5.8132     3.74       5.6249     0.121     
2974.2     3.7661     1.7349     4.9933     6.1614     6.3504     5.9801     3.2486     5.427      0.122     
2974.4     3.7273     1.7074     4.8539     5.9527     6.1743     5.9899     3.1172     5.4009     0.123     
2974.6     3.7007     1.6563     4.7359     5.7672     5.9743     5.9451     3.0415     5.4303     0.121     
2974.8     3.6993     1.6276     4.6211     5.574      5.7468     5.9046     2.9344     5.5248     0.118     
2975       3.7297     1.5821     4.4917     5.4493     5.5848     5.8658     2.8822     5.5718     0.12      
2975.2     3.7634     1.5529     4.5546     5.4475     5.5592     5.8368     3.3525     5.4385     0.121     
2975.4     3.7823     1.5938     4.7025     5.5842     5.6123     5.7986     4.1233     5.2222     0.123     
2975.6     3.8152     1.6859     4.8083     5.6913     5.609      5.7534     3.7549     5.0099     0.124     
2975.8     3.8074     1.757      4.8713     5.6832     5.4889     5.6217     3.64       4.8275     0.127     
2976       3.7475     1.8216     4.9195     5.623      5.3085     5.4539     3.3655     4.6534     0.124     
2976.2     3.6543     1.7841     4.8849     5.5031     5.1313     5.2619     3.1501     4.5676     0.124     
2976.4     3.5412     1.7413     4.8673     5.4076     4.9846     5.0751     3.0539     4.5029     0.124     
2976.6     3.4578     1.6783     4.894      5.3316     4.8511     4.9212     2.8536     4.4377     0.124     
2976.8     3.3833     1.6329     4.7698     5.236      4.7482     4.8044     2.9169     4.3432     0.126     
2977       3.3167     1.6242     4.6297     5.1737     4.6813     4.6983     2.8941     4.2905     0.127     
2977.2     3.2498     1.6087     4.5462     5.141      4.6276     4.5968     2.8563     4.2701     0.126     
2977.4     3.2081     1.592      4.4405     5.1382     4.5522     4.5164     2.9043     4.2462     0.124     
2977.6     3.1637     1.5542     4.2916     5.1431     4.4474     4.4412     2.7087     4.2047     0.124     
2977.8     3.1337     1.5296     4.1398     5.0994     4.3702     4.3784     2.6221     4.1626     0.123     
2978       3.1157     1.5016     4.0517     4.9761     4.3416     4.3206     2.6683     4.1472     0.122     
2978.2     3.1089     1.4929     3.9911     4.8279     4.2978     4.2808     2.6591     4.1586     0.123     
2978.4     3.0906     1.4899     3.9724     4.6553     4.2479     4.2508     2.6508     4.2007     0.122     
2978.6     3.0548     1.5081     4.0243     4.535      4.2289     4.2119     2.7866     4.2425     0.124     
2978.8     3.034      1.5613     4.0625     4.4722     4.2374     4.1668     2.7638     4.2904     0.126     
2979       2.9985     1.5482     3.9315     4.3406     4.2304     4.1088     2.6336     4.359      0.127     
2979.2     2.9929     1.4703     3.8023     4.1581     4.194      4.0446     2.4412     4.4762     0.125     
2979.4     3.0043     1.4208     3.7316     4.065      4.1239     3.9713     2.4929     4.6797     0.124     
2979.6     3.0148     1.4173     3.7401     4.0363     4.0771     3.9143     2.7204     4.8762     0.124     
2979.8     3.0179     1.4445     3.7569     4.0001     4.0681     3.853      2.7858     5.004      0.124     
2980       3.0222     1.496      3.7918     3.9405     4.0586     3.8015     2.7641     5.0909     0.124     
2980.2     3.0314     1.4863     3.726      3.8662     3.9942     3.7583     2.5321     5.1903     0.127     
2980.4     3.0314     1.4547     3.6608     3.7883     3.8871     3.7256     2.5099     5.3197     0.127     
2980.6     3.0532     1.439      3.6895     3.727      3.7798     3.7099     2.6177     5.474      0.126     
2980.8     3.1094     1.4086     3.6357     3.6905     3.6933     3.7319     2.5369     5.6471     0.124     
2981       3.1978     1.387      3.588      3.6379     3.6928     3.7839     2.5751     5.825      0.124     
2981.2     3.3216     1.3736     3.5043     3.6325     3.7833     3.8769     2.7341     6.0031     0.125     
2981.4     3.4995     1.3716     3.4786     3.6844     3.965      4.0194     2.9032     6.1466     0.127     
2981.6     3.685      1.3879     3.5402     3.8224     4.1672     4.2103     3.9319     6.1995     0.127     
