~Version
 VERS              .         2.0                           : CWLS LOG ASCII STANDARD - VERSION 2.0
 WRAP              .         NO                            : ONE LINE PER DEPTH STEP
 DLM               .         SPACE                         : DELIMITING CHARACTER(SPACE TAB OR COMMA)
~Well Information
#_______________________________________________________________________________
#
#PARAMETER_NAME    .UNIT     VALUE                         : DESCRIPTION
#_______________________________________________________________________________
STRT               .m        2792                          : First reference value
STOP               .m        3022                          : Last reference value
STEP               .m        0.2                           : Step increment
NULL               .         -9999                         : Missing value
COMP               .                                       : Company
WELL               .         406                           : Well name
FLD                .                                       : Field
LOC                .                                       : Location
CNTY               .                                       : County
STAT               .                                       : State
CTRY               .                                       : Country
SRVC               .                                       : Service Company
DATE               .                                       : Date
API                .                                       : API number
EREF               .m        140.4                         : 
Pad                .         4                             : 
X                  .m        222100                        : 
Y                  .m        250025                        : 
group              .         Pad4                          : 
Интер-р            .         Пузин                         : 
Куст               .         4                             : 
Статус             .         Проверено                     : 
Тип                .         Нагнетательные                : 
~Parameter Information Block
#_______________________________________________________________________________
#
#PARAMETER_NAME    .UNIT     VALUE                         : DESCRIPTION
#_______________________________________________________________________________
SET                .         LAS1                          : 
REAL_CREATION_DATE .         Ср апр 11 2012-13_17_16       : 
TLFamily_DEPTH     .         Measured Depth                : 
TLFamily_KS        .         Potential Resistivity         : 
TLFamily_KS1       .         Extra Shallow Resistivity     : 
TLFamily_KS2       .         Shallow Resistivity           : 
TLFamily_KS3       .         Medium Resistivity            : 
TLFamily_KS4       .         Deep Resistivity              : 
TLFamily_KS5       .         Extra Deep Resistivity        : 
TLFamily_LLD       .         Lateral Log Resistivity       : 
TLFamily_OKS3      .         Medium Resistivity Inverted   : 
TLFamily_RM        .         Mud Resistivity               : 
group              .         INI                           : 
~Curve Information
#_______________________________________________________________________________
#
#LOGNAME           .UNIT     LOG_ID                        : DESCRIPTION
#_______________________________________________________________________________
DEPTH              .m                                      : Measured Depth 
KS                 .ohm.m                                  : Potential Resistivity 
KS1                .ohm.m                                  : Extra Shallow Resistivity 
KS2                .ohm.m                                  : Shallow Resistivity 
KS3                .ohm.m                                  : Medium Resistivity 
KS4                .ohm.m                                  : Deep Resistivity 
KS5                .ohm.m                                  : Extra Deep Resistivity 
LLD                .ohm.m                                  : Lateral Log Resistivity 
OKS3               .ohm.m                                  : Medium Resistivity Inverted 
RM                 .ohm.m                                  : Mud Resistivity 
~Ascii
# ...
2835.8     9.4736     2.2865     8.5535     13.4907    12.8468    7.8163     10.49      17.0677    0.129     
2836       9.5057     2.3308     8.7736     14.1294    13.086     7.8952     9.6333     16.2324    0.128     
2836.2     9.5125     2.4802     9.4271     15.0054    13.575     7.9148     12.8413    15.089     0.127     
2836.4     9.444      2.5316     9.8486     15.6565    14.2184    8.0051     17.3666    14.2288    0.131     
2836.6     9.2876     2.5772     9.9784     16.2242    14.6592    8.0688     9.9548     13.4767    0.133     
2836.8     9.1195     2.5965     10.3197    16.8085    15.1036    8.0089     12.2377    12.7606    0.132     
2837       8.951      2.6132     10.3313    17.5145    15.6427    8.0055     12.2048    12.3261    0.134     
2837.2     8.7701     2.5432     10.192     17.9012    15.9046    7.99       10.0913    12.1376    0.132     
2837.4     8.5748     2.5271     9.9322     18.0158    16.1484    7.971      8.5643     11.9465    0.13      
2837.6     8.4096     2.5519     10.1023    18.2266    16.4866    7.9769     8.5219     11.7006    0.131     
2837.8     8.2579     2.5033     9.9407     18.3652    16.8401    8.045      9.7956     11.5697    0.134     
2838       8.0241     2.4945     9.8437     18.4766    17.2756    8.1208     8.5015     11.3789    0.136     
2838.2     7.7648     2.604      10.1153    18.8122    17.9013    8.1486     7.9082     11.1001    0.137     
2838.4     7.5109     2.6083     10.1169    18.933     18.5339    8.1745     10.9971    10.8146    0.136     
2838.6     7.2378     2.5571     9.8127     18.4004    18.7388    8.2139     7.6099     10.792     0.134     
2838.8     6.9932     2.4467     9.4165     17.6037    18.708     8.1466     6.2355     10.9005    0.134     
2839       6.7921     2.3382     9.0406     16.7498    18.4957    8.0623     6.0334     11.0867    0.134     
2839.2     6.6499     2.237      8.6385     15.8565    18.2191    8.0069     5.736      11.1951    0.134     
2839.4     6.558      2.1584     8.2351     15.0296    17.7585    7.9672     5.4199     11.2399    0.133     
2839.6     6.5059     2.0964     7.8818     14.3516    17.2703    7.9306     5.5506     11.2428    0.13      
2839.8     6.4712     2.0668     7.5984     13.8036    16.7318    7.8971     5.6072     11.2338    0.126     
2840       6.4471     2.0556     7.4372     13.3219    16.2475    7.8952     5.6034     11.2343    0.124     
2840.2     6.4369     2.0444     7.3059     12.9185    15.8476    7.9004     5.6656     11.2718    0.124     
2840.4     6.4143     2.0313     7.2563     12.6138    15.5116    7.9226     5.6364     11.3477    0.125     
2840.6     6.4141     2.0717     7.2844     12.3163    15.1628    7.952      5.7903     11.4024    0.127     
2840.8     6.4253     2.0586     7.197      12.0207    14.8125    7.9823     6.2544     11.3809    0.124     
2841       6.4304     2.0514     7.1489     11.6807    14.3816    8.0467     6.0738     11.3743    0.124     
2841.2     6.4143     2.0279     7.1299     11.4848    13.9846    8.1318     5.8508     11.4827    0.124     
2841.4     6.3982     2.0511     7.2223     11.4146    13.7194    8.23       5.8111     11.6121    0.124     
2841.6     6.3717     2.0676     7.2639     11.4928    13.5632    8.3917     6.0851     11.7997    0.126     
2841.8     6.3181     2.116      7.3762     11.611     13.5419    8.5374     5.9941     11.8972    0.124     
2842       6.2969     2.1386     7.5565     11.6025    13.4066    8.6065     6.0785     11.865     0.126     
2842.2     6.2931     2.0751     7.3133     11.4432    13.0212    8.6148     6.5761     11.8489    0.124     
2842.4     6.274      2.0619     7.1638     11.1523    12.4565    8.5811     5.8808     11.9596    0.124     
2842.6     6.2657     2.0311     7.0372     10.9555    11.9362    8.4777     5.3916     12.2295    0.124     
2842.8     6.2694     2.002      6.9691     10.7788    11.4492    8.3542     5.4345     12.5543    0.124     
2843       6.3073     1.9778     6.9075     10.5991    11.0394    8.2556     5.5607     12.9321    0.124     
2843.2     6.3449     1.9685     6.8604     10.4859    10.7402    8.1698     5.7046     13.2838    0.124     
2843.4     6.3824     1.9899     6.8707     10.4571    10.5541    8.1063     5.7844     13.5305    0.124     
2843.6     6.4333     2.0094     6.9258     10.4181    10.4199    8.061      5.9226     13.7101    0.126     
2843.8     6.4986     1.9864     6.881      10.3677    10.3209    8.0507     5.79       14.0445    0.124     
2844       6.5773     1.9992     6.8379     10.3558    10.2439    8.0502     5.8147     14.5198    0.124     
2844.2     6.6958     1.9736     6.8273     10.3113    10.1557    8.0378     5.7666     15.0516    0.124     
2844.4     6.8658     1.9289     6.6937     10.222     10.0632    8.0441     5.6604     15.5207    0.124     
2844.6     7.0575     1.9073     6.6086     10.0799    9.9991     8.0912     5.7183     15.8261    0.124     
2844.8     7.2761     1.884      6.5156     9.9947     10.0281    8.1865     5.9612     16.04      0.124     
2845       7.5191     1.8889     6.6027     10.0027    10.2469    8.3615     6.2084     16.1068    0.124     
2845.2     7.7654     1.9448     6.9465     10.3057    10.8419    8.577      6.8522     15.8776    0.126     
2845.4     7.9483     2.1322     7.6762     11.1209    11.73      8.776      9.0766     15.0114    0.124     
2845.6     8.0491     2.3916     8.3371     12.1195    12.3575    8.8933     16.8411    13.7108    0.124     
2845.8     8.0346     2.5094     8.5584     12.6766    12.3997    8.888      12.6299    12.8373    0.124     
2846       7.9306     2.4743     8.7153     12.7381    12.3255    8.7516     9.9823     12.5999    0.124     
2846.2     7.803      2.4079     8.7974     12.6832    12.23      8.53       7.7971     12.6691    0.124     
2846.4     7.7436     2.3413     8.8464     12.6879    12.1281    8.3696     6.9836     12.8473    0.126     
2846.6     7.6466     2.2836     8.6251     12.8678    12.065     8.305      6.6223     12.9151    0.126     
2846.8     7.5484     2.4579     8.9875     13.2924    12.1479    8.2525     6.8918     12.7919    0.124     
2847       7.454      2.498      9.2135     13.9878    12.5804    8.1919     8.9087     12.5168    0.126     
2847.2     7.3443     2.4659     8.9669     14.4999    12.9231    8.1229     9.8719     12.0349    0.124     
2847.4     7.2205     2.3942     8.6703     14.6384    12.824     7.9651     7.6925     11.6762    0.124     
2847.6     7.0836     2.3557     8.6494     14.6052    12.6227    7.7531     6.3219     11.4499    0.127     
2847.8     6.9601     2.333      8.4503     14.3849    12.4431    7.5633     6.3757     11.2392    0.127     
2848       6.8712     2.243      8.1443     13.8448    12.228     7.4692     6.3109     11.1277    0.127     
2848.2     6.8142     2.1523     7.8684     13.1766    12.0447    7.4082     5.5644     11.0987    0.127     
2848.4     6.8062     2.11       7.6978     12.7924    12.0242    7.3915     5.4388     11.076     0.127     
2848.6     6.8133     2.1078     7.5792     12.7067    12.1593    7.4344     5.8942     11.0152    0.125     
2848.8     6.8216     2.1414     7.5784     12.8103    12.4032    7.5139     5.9714     10.8316    0.124     
2849       6.8109     2.1893     7.6506     12.9506    12.7363    7.6165     6.2691     10.5817    0.124     
2849.2     6.7928     2.2253     7.8061     13.0155    13.1481    7.7291     6.7842     10.2646    0.129     
2849.4     6.7621     2.2533     7.9373     13.023     13.6006    7.8442     6.981      9.95       0.127     
2849.6     6.6963     2.271      8.1048     12.9947    14.0179    7.9294     7.0106     9.7442     0.127     
2849.8     6.5719     2.292      8.2483     12.9692    14.2093    7.9635     6.4533     9.6026     0.13      
2850       6.4027     2.3317     8.2037     12.9351    14.1723    7.972      6.4017     9.4836     0.127     
2850.2     6.2259     2.3145     8.2218     12.7362    13.917     7.9397     5.949      9.4368     0.129     
