~Version
 VERS              .         2.0                           : CWLS LOG ASCII STANDARD - VERSION 2.0
 WRAP              .         NO                            : ONE LINE PER DEPTH STEP
 DLM               .         SPACE                         : DELIMITING CHARACTER(SPACE TAB OR COMMA)
~Well Information
#_______________________________________________________________________________
#
#PARAMETER_NAME    .UNIT     VALUE                         : DESCRIPTION
#_______________________________________________________________________________
STRT               .m        2792                          : First reference value
STOP               .m        3022                          : Last reference value
STEP               .m        0.2                           : Step increment
NULL               .         -9999                         : Missing value
COMP               .                                       : Company
WELL               .         406                           : Well name
FLD                .                                       : Field
LOC                .                                       : Location
CNTY               .                                       : County
STAT               .                                       : State
CTRY               .                                       : Country
SRVC               .                                       : Service Company
DATE               .                                       : Date
API                .                                       : API number
EREF               .m        140.4                         : 
Pad                .         4                             : 
X                  .m        222100                        : 
Y                  .m        250025                        : 
group              .         Pad4                          : 
Интер-р            .         Пузин                         : 
Куст               .         4                             : 
Статус             .         Проверено                     : 
Тип                .         Нагнетательные                : 
~Parameter Information Block
#_______________________________________________________________________________
#
#PARAMETER_NAME    .UNIT     VALUE                         : DESCRIPTION
#_______________________________________________________________________________
SET                .         LAS1                          : 
REAL_CREATION_DATE .         Ср апр 11 2012-13_17_16       : 
TLFamily_DEPTH     .         Measured Depth                : 
TLFamily_KS        .         Potential Resistivity         : 
TLFamily_KS1       .         Extra Shallow Resistivity     : 
TLFamily_KS2       .         Shallow Resistivity           : 
TLFamily_KS3       .         Medium Resistivity            : 
TLFamily_KS4       .         Deep Resistivity              : 
TLFamily_KS5       .         Extra Deep Resistivity        : 
TLFamily_LLD       .         Lateral Log Resistivity       : 
TLFamily_OKS3      .         Medium Resistivity Inverted   : 
TLFamily_RM        .         Mud Resistivity               : 
group              .         INI                           : 
~Curve Information
#_______________________________________________________________________________
#
#LOGNAME           .UNIT     LOG_ID                        : DESCRIPTION
#_______________________________________________________________________________
DEPTH              .m                                      : Measured Depth 
KS                 .ohm.m                                  : Potential Resistivity 
KS1                .ohm.m                                  : Extra Shallow Resistivity 
KS2                .ohm.m                                  : Shallow Resistivity 
KS3                .ohm.m                                  : Medium Resistivity 
KS4                .ohm.m                                  : Deep Resistivity 
KS5                .ohm.m                                  : Extra Deep Resistivity 
LLD                .ohm.m                                  : Lateral Log Resistivity 
OKS3               .ohm.m                                  : Medium Resistivity Inverted 
RM                 .ohm.m                                  : Mud Resistivity 
~Ascii
# ...
2981.8     3.8808     1.4858     3.7839     4.0253     4.33       4.4268     4.5249     6.1326     0.128     
2982       4.0397     1.6254     4.098      4.2326     4.4341     4.6203     4.2558     6.0271     0.13      
2982.2     4.1213     1.7557     4.4019     4.4585     4.5262     4.7143     4.4748     5.9216     0.129     
2982.4     4.1309     1.8869     4.8198     4.6922     4.5162     4.758      4.2854     5.8585     0.127     
2982.6     4.098      1.902      5.061      4.8675     4.3989     4.7463     3.7045     5.8671     0.126     
2982.8     4.0254     1.866      5.1824     4.9319     4.326      4.7039     3.5119     6.0018     0.123     
2983       3.9211     1.8376     5.2822     4.9694     4.243      4.6475     3.509      6.16       0.122     
2983.2     3.8118     1.8452     5.3661     5.0597     4.1672     4.6156     3.4895     6.4553     0.123     
2983.4     3.6869     1.8032     5.2788     5.1779     4.1184     4.6072     2.9395     6.876      0.12      
2983.6     3.5541     1.7654     5.1552     5.2869     4.0666     4.5709     2.6555     7.3337     0.12      
2983.8     3.4872     1.6785     4.9234     5.3172     3.9424     4.502      2.4167     7.7728     0.119     
2984       3.5156     1.5297     4.4004     5.1402     3.7244     4.4195     2.372      8.2355     0.117     
2984.2     3.6098     1.4005     3.9454     4.751      3.4423     4.3521     2.3498     8.9402     0.117     
2984.4     3.7837     1.309      3.6062     4.4108     3.2435     4.3576     2.4346     10.4127    0.119     
2984.6     4.0881     1.2201     3.3401     4.196      3.1759     4.5416     2.61       13.13      0.12      
2984.8     4.5423     1.1821     3.287      4.1357     3.275      4.8782     4.1674     15.5724    0.12      
2985       5.1665     1.3214     3.467      4.2713     3.491      5.2601     5.2221     16.565     0.123     
2985.2     5.6936     1.536      3.784      4.4921     3.7519     5.5207     6.3791     16.8149    0.12      
2985.4     6.0704     1.6924     4.1454     4.7078     4.0214     5.7147     6.3779     16.8506    0.12      
2985.6     6.3391     1.7961     4.6359     4.867      4.2765     5.872      6.9179     16.8442    0.121     
2985.8     6.5421     1.8818     5.3862     5.0858     4.5325     6.0045     7.1171     16.7934    0.124     
2986       6.7144     1.9206     5.8828     5.3614     4.8199     6.1489     7.0706     16.7801    0.121     
2986.2     6.8695     1.943      6.2235     5.6562     5.1085     6.289      7.2052     16.7448    0.124     
2986.4     7.0272     1.9778     6.4081     5.9507     5.3103     6.4703     7.265      16.7731    0.124     
2986.6     7.1964     1.9722     6.5558     6.3111     5.4835     6.7256     6.4887     17.0167    0.124     
2986.8     7.4026     1.9774     6.5094     6.838      5.637      7.1352     6.164      17.7495    0.127     
2987       7.6756     1.9184     6.4782     7.7518     5.9048     7.4098     6.3078     19.1185    0.127     
2987.2     8.0022     1.8829     6.5542     8.9955     6.3681     7.9997     7.2519     20.7308    0.125     
2987.4     8.2676     1.9823     6.7466     10.2941    7.0342     8.6025     8.6037     21.1993    0.127     
2987.6     8.5362     2.2365     7.5446     11.318     7.6448     9.1926     15.2949    20.9133    0.125     
2987.8     8.7108     2.3069     8.0246     11.8579    8.1181     9.7558     9.8537     20.5074    0.127     
2988       8.786      2.3058     8.1344     12.3054    8.5615     10.3198    8.6366     20.7772    0.127     
2988.2     8.8542     2.3185     8.4123     12.7195    9.2253     10.9025    7.983      21.3917    0.126     
2988.4     8.9382     2.2434     8.4475     13.0824    10.0384    11.5862    8.5854     22.0375    0.124     
2988.6     9.0648     2.2031     8.6929     13.4934    10.917     12.175     12.1631    22.0103    0.124     
2988.8     9.2005     2.2714     9.1283     14.0218    11.6845    12.532     10.3717    20.9369    0.124     
2989       9.3521     2.3797     9.125      14.5088    12.2509    12.4475    9.973      19.1016    0.127     
2989.2     9.5036     2.3448     8.9162     14.5094    12.4169    11.941     9.5237     17.077     0.127     
2989.4     9.6573     2.276      8.7306     14.3495    12.5493    11.1648    8.6443     15.3933    0.127     
2989.6     9.6997     2.2274     8.5637     14.6796    12.9582    10.4137    9.9008     14.5914    0.127     
2989.8     9.6343     2.3411     8.74       15.5639    13.6407    9.9031     11.8132    14.4149    0.127     
2990       9.5063     2.5239     9.4041     16.6321    14.5422    9.6992     12.3849    14.3996    0.124     
2990.2     9.3394     2.6431     10.2393    17.7093    15.5246    9.7176     13.58      14.256     0.124     
2990.4     9.1734     2.7378     10.8046    18.5944    16.5415    9.8216     13.0789    14.0291    0.126     
2990.6     8.9745     2.7204     10.7326    19.2718    17.4214    9.9033     9.2363     13.8435    0.124     
2990.8     8.7005     2.7254     11.0702    19.8671    18.1066    9.906      9.609      13.7486    0.126     
2991       8.385      2.7725     11.1344    20.6501    18.8824    9.8848     9.5733     13.8776    0.126     
2991.2     7.9703     2.7868     11.3911    21.7238    20.3145    9.9127     9.4913     14.3211    0.127     
2991.4     7.395      2.8802     11.7857    22.9726    22.2987    9.6974     9.6836     14.5533    0.124     
2991.6     6.8505     3.0519     12.5146    22.7825    22.6778    9.1447     5.6896     14.0612    0.126     
2991.8     6.5508     2.7107     11.3724    20.093     20.466     8.383      4.141      12.7417    0.125     
2992       6.4497     2.2114     9.4445     16.7306    17.7363    7.3914     4.2651     11.3836    0.127     
2992.2     6.4667     1.9024     8.0067     14.742     15.9769    6.2893     4.2032     10.6051    0.126     
2992.4     6.4976     1.8618     7.1686     13.7936    15.0444    5.3778     6.7866     10.0091    0.126     
2992.6     6.4878     2.0966     7.3724     13.7598    15.0158    4.7889     11.494     9.2505     0.127     
2992.8     6.4168     2.357      7.8497     14.0558    15.6317    4.407      6.5247     8.5185     0.124     
2993       6.3624     2.3283     7.4532     13.7152    15.7521    4.165      4.6217     8.3212     0.127     
2993.2     6.3162     2.0676     6.8957     12.729     14.6257    3.9946     4.1793     8.2966     0.124     
2993.4     6.3366     2.0003     6.9219     11.6395    13.3862    3.8544     5.9308     8.2153     0.124     
2993.6     6.4007     1.9829     7.0224     11.3919    13.0949    3.9331     6.6544     8.0863     0.122     
2993.8     6.3673     2.0854     7.1749     11.768     13.4579    4.0904     9.1259     7.8623     0.127     
2994       6.2226     2.2955     7.6876     12.6478    14.3705    4.1775     10.5253    7.6288     0.128     
2994.2     6.0162     2.5508     8.3772     13.1941    14.7117    4.2315     6.8442     7.3387     0.126     
2994.4     5.8415     2.4455     8.0364     12.6559    14.1969    4.2504     4.9749     7.0251     0.127     
2994.6     5.6887     2.222      7.4711     11.5661    13.0362    4.2123     4.9032     6.7331     0.127     
2994.8     5.518      2.0855     7.1162     10.7917    11.9681    4.073      5.5083     6.5988     0.128     
2995       5.3903     2.0774     7.0023     10.2424    11.2231    3.8226     5.4971     6.5763     0.13      
2995.2     5.2427     2.0623     6.7599     9.7621     10.6853    3.6253     5.1398     6.7931     0.13      
2995.4     5.0766     2.0775     6.6451     9.4316     10.274     3.4892     4.7559     7.2279     0.128     
2995.6     4.9554     2.0078     6.3552     9.0627     9.7881     3.3907     4.1184     7.6524     0.127     
2995.8     4.8755     1.8367     5.8231     8.4251     9.0452     3.3303     4.093      8.0658     0.127     
2996       4.8217     1.7683     5.4462     7.7925     8.2517     3.2813     4.1045     8.694      0.127     
2996.2     4.7859     1.6839     5.182      7.2849     7.6223     3.2447     3.9244     9.5341     0.125     
