~Version
 VERS              .         2.0                           : CWLS LOG ASCII STANDARD - VERSION 2.0
 WRAP              .         NO                            : ONE LINE PER DEPTH STEP
 DLM               .         SPACE                         : DELIMITING CHARACTER(SPACE TAB OR COMMA)
~Well Information
#_______________________________________________________________________________
#
#PARAMETER_NAME    .UNIT     VALUE                         : DESCRIPTION
#_______________________________________________________________________________
STRT               .m        2792                          : First reference value
STOP               .m        3022                          : Last reference value
STEP               .m        0.2                           : Step increment
NULL               .         -9999                         : Missing value
COMP               .                                       : Company
WELL               .         406                           : Well name
FLD                .                                       : Field
LOC                .                                       : Location
CNTY               .                                       : County
STAT               .                                       : State
CTRY               .                                       : Country
SRVC               .                                       : Service Company
DATE               .                                       : Date
API                .                                       : API number
EREF               .m        140.4                         : 
Pad                .         4                             : 
X                  .m        222100                        : 
Y                  .m        250025                        : 
group              .         Pad4                          : 
Интер-р            .         Пузин                         : 
Куст               .         4                             : 
Статус             .         Проверено                     : 
Тип                .         Нагнетательные                : 
~Parameter Information Block
#_______________________________________________________________________________
#
#PARAMETER_NAME    .UNIT     VALUE                         : DESCRIPTION
#_______________________________________________________________________________
SET                .         LAS1                          : 
REAL_CREATION_DATE .         Ср апр 11 2012-13_17_16       : 
TLFamily_DEPTH     .         Measured Depth                : 
TLFamily_KS        .         Potential Resistivity         : 
TLFamily_KS1       .         Extra Shallow Resistivity     : 
TLFamily_KS2       .         Shallow Resistivity           : 
TLFamily_KS3       .         Medium Resistivity            : 
TLFamily_KS4       .         Deep Resistivity              : 
TLFamily_KS5       .         Extra Deep Resistivity        : 
TLFamily_LLD       .         Lateral Log Resistivity       : 
TLFamily_OKS3      .         Medium Resistivity Inverted   : 
TLFamily_RM        .         Mud Resistivity               : 
group              .         INI                           : 
~Curve Information
#_______________________________________________________________________________
#
#LOGNAME           .UNIT     LOG_ID                        : DESCRIPTION
#_______________________________________________________________________________
DEPTH              .m                                      : Measured Depth 
KS                 .ohm.m                                  : Potential Resistivity 
KS1                .ohm.m                                  : Extra Shallow Resistivity 
KS2                .ohm.m                                  : Shallow Resistivity 
KS3                .ohm.m                                  : Medium Resistivity 
KS4                .ohm.m                                  : Deep Resistivity 
KS5                .ohm.m                                  : Extra Deep Resistivity 
LLD                .ohm.m                                  : Lateral Log Resistivity 
OKS3               .ohm.m                                  : Medium Resistivity Inverted 
RM                 .ohm.m                                  : Mud Resistivity 
~Ascii
# ...
2879.6     8.4356     1.859      6.6385     11.1955    13.7503    12.141     12.2374    15.263     0.129     
2879.8     8.6167     2.146      7.4251     12.1372    14.536     12.6727    22.2097    14.1107    0.13      
2880       8.5442     2.501      8.5964     13.3764    15.5491    13.4272    29.1757    12.8822    0.13      
2880.2     8.2602     2.8855     10.1119    14.709     16.7678    13.9013    36.4315    11.9082    0.128     
2880.4     7.9612     3.0059     10.462     15.3367    17.2734    13.8562    19.9479    11.5532    0.13      
2880.6     7.6756     2.6441     9.7177     14.8581    16.7207    13.515     5.5813     11.5696    0.127     
2880.8     7.4936     2.3652     9.1785     14.0638    15.585     12.9851    5.7043     11.818     0.126     
2881       7.3552     2.2793     8.885      13.8544    15.2023    12.6397    5.8466     12.1283    0.128     
2881.2     7.2638     2.262      8.925      14.0446    15.2903    12.5199    6.2875     12.4249    0.13      
2881.4     7.2122     2.2176     8.5282     14.4136    15.3755    12.4853    6.4341     12.3963    0.13      
2881.6     7.1705     2.2709     8.4101     14.8614    15.4541    12.3914    7.6966     11.918     0.127     
2881.8     7.1189     2.3233     8.4613     15.194     15.4178    12.2462    9.0152     11.1907    0.128     
2882       6.9839     2.3515     8.3943     15.2627    15.1775    12.0419    8.4227     10.5623    0.13      
2882.2     6.8142     2.3951     8.4734     15.0546    14.829     11.724     7.1371     10.2718    0.133     
2882.4     6.6945     2.3254     8.2545     14.5285    14.379     11.3107    6.5375     10.3634    0.134     
2882.6     6.6184     2.1692     7.814      13.5905    13.8307    10.9148    4.8838     10.7344    0.134     
2882.8     6.5923     2.068      7.5522     12.7167    13.3566    10.6024    5.028      11.0339    0.136     
2883       6.6024     2.0006     7.4062     12.3241    13.1972    10.4104    5.4585     10.9394    0.13      
2883.2     6.6005     2.0901     7.6558     12.4411    13.4864    10.279     7.6375     10.5909    0.13      
2883.4     6.4911     2.2623     7.8796     12.8129    14.0321    10.1156    8.624      10.1449    0.13      
2883.6     6.2993     2.3611     7.9262     12.8887    14.305     9.9234     6.9524     9.8615     0.13      
2883.8     6.12       2.2998     7.8356     12.5761    14.1389    9.7017     5.5562     9.7885     0.131     
2884       5.9513     2.1694     7.6438     12.119     13.7637    9.41       5.0859     9.9054     0.133     
2884.2     5.8482     2.0805     7.43       11.6177    13.2901    9.0844     5.0524     10.0425    0.13      
2884.4     5.8163     1.9851     7.1399     11.1101    12.7286    8.8092     5.0432     10.2308    0.129     
2884.6     5.8513     1.8876     6.6446     10.5883    12.0704    8.6277     4.4381     10.5814    0.125     
2884.8     5.9416     1.7947     6.256      10.1839    11.5729    8.5305     4.4047     10.9472    0.122     
2885       6.0511     1.7905     6.0781     10.0072    11.3975    8.4846     4.6496     11.0134    0.123     
2885.2     6.1457     1.9027     6.3504     10.0976    11.4867    8.5732     6.1779     10.741     0.124     
2885.4     6.1661     2.0226     6.614      10.4169    11.7813    8.6607     7.738      10.4543    0.124     
2885.6     6.1508     2.1147     6.736      10.6194    11.9559    8.7298     6.5048     10.4962    0.124     
2885.8     6.1245     2.0578     6.6814     10.4839    11.8831    8.7919     5.2813     10.8164    0.124     
2886       6.126      1.983      6.5951     10.0852    11.6811    8.8873     4.8887     11.3812    0.122     
2886.2     6.1675     1.8859     6.4934     9.861      11.6279    8.9948     4.9877     11.9449    0.122     
2886.4     6.2175     1.8918     6.5856     9.9971     11.7822    9.1084     5.0621     12.2935    0.124     
2886.6     6.2719     1.9999     6.8409     10.3029    12.0128    9.1941     7.1015     12.2291    0.124     
2886.8     6.3026     2.1155     6.993      10.497     12.1342    9.229      7.7334     12.032     0.124     
2887       6.292      2.1555     7.073      10.4983    12.0477    9.1593     7.1866     11.9871    0.124     
2887.2     6.2722     2.0892     6.8872     10.3477    11.769     8.9207     5.3657     12.1445    0.124     
2887.4     6.3025     2.0264     6.7383     10.052     11.2531    8.6888     5.7955     12.2898    0.124     
2887.6     6.3367     1.9732     6.6614     9.7557     10.7015    8.5139     5.7852     12.3997    0.125     
2887.8     6.381      1.9655     6.6322     9.5473     10.2998    8.4571     5.756      12.6446    0.127     
2888       6.4236     1.9693     6.5409     9.4273     10.0661    8.446      5.7694     13.2171    0.127     
2888.2     6.4669     1.9396     6.5162     9.3894     9.8805     8.5385     5.6041     14.065     0.125     
2888.4     6.5359     1.9473     6.4823     9.4239     9.8083     8.5887     5.6935     14.9012    0.124     
2888.6     6.6119     1.9643     6.5904     9.5804     9.7054     8.6409     6.3409     15.3403    0.124     
2888.8     6.7087     1.9472     6.4917     9.6402     9.6018     8.6707     6.1554     15.6764    0.124     
2889       6.8262     1.8869     6.3333     9.5522     9.4967     8.7238     5.8835     15.7364    0.125     
2889.2     6.9594     1.8579     6.2513     9.4054     9.5188     8.8518     5.9245     15.589     0.127     
2889.4     7.1065     1.8393     6.2925     9.4446     9.6703     9.1014     6.3152     15.2877    0.127     
2889.6     7.2601     1.8815     6.4328     9.6027     9.944      9.6077     7.1629     15.1358    0.127     
2889.8     7.4014     1.9026     6.4863     9.8071     10.3219    10.3621    6.7061     15.522     0.127     
2890       7.5974     1.862      6.3506     9.8961     10.7649    11.4154    6.0911     16.4504    0.127     
2890.2     7.9429     1.7637     6.1406     10.1483    11.4461    12.6264    5.7422     17.6592    0.127     
2890.4     8.4121     1.6611     6.2052     10.8332    12.555     13.8103    7.0342     18.3901    0.127     
2890.6     8.8802     1.7694     6.6194     11.9943    14.0484    14.8302    19.4066    17.7114    0.127     
2890.8     9.2485     2.0925     7.3681     13.4296    15.697     15.8116    101.9314   15.9033    0.127     
2891       9.295      2.5327     8.5828     15.1399    17.3951    16.4763    162.595    14.1637    0.127     
2891.2     8.9238     2.997      10.1605    16.7259    18.899     16.7176    215.1334   12.6954    0.127     
2891.4     8.3452     3.2461     11.4345    17.7885    19.5858    16.5774    46.0485    11.6378    0.127     
2891.6     7.8195     3.0808     11.9683    17.8847    18.9528    16.0382    9.2164     11.0339    0.124     
2891.8     7.4221     2.7098     11.2824    17.3179    17.4407    14.9303    5.8103     10.7821    0.125     
2892       7.0998     2.4454     10.1892    16.3281    15.8038    13.4898    5.0504     11.0064    0.127     
2892.2     6.9235     2.2105     9.0473     15.1731    14.3767    12.0356    4.7576     11.6438    0.127     
2892.4     6.8425     1.9919     8.0017     14.1812    13.3359    11.0372    4.4007     12.5527    0.127     
2892.6     6.8216     1.8892     7.4695     13.6251    12.8576    10.3743    5.0778     13.2425    0.13      
2892.8     6.8603     1.9478     7.3558     13.7829    12.8596    9.9527     6.4049     13.7443    0.127     
2893       6.9285     1.9992     7.2864     14.1902    12.9237    9.7155     6.5082     14.0609    0.127     
2893.2     7.0101     1.999      7.1285     14.115     12.8493    9.566      6.2033     13.9826    0.127     
2893.4     7.0922     1.9875     7.0114     13.6048    12.7483    9.4644     6.3626     13.3842    0.128     
2893.6     7.1292     2.027      7.09       13.1416    12.7282    9.3522     7.4749     12.5747    0.13      
2893.8     7.1067     2.1359     7.4047     12.892     12.8579    9.2058     7.8803     11.8911    0.129     
2894       7.0988     2.1877     7.5841     12.5844    13.0782    9.0651     8.2046     11.3662    0.125     
