~Version
 VERS              .         2.0                           : CWLS LOG ASCII STANDARD - VERSION 2.0
 WRAP              .         NO                            : ONE LINE PER DEPTH STEP
 DLM               .         SPACE                         : DELIMITING CHARACTER(SPACE TAB OR COMMA)
~Well Information
#_______________________________________________________________________________
#
#PARAMETER_NAME    .UNIT     VALUE                         : DESCRIPTION
#_______________________________________________________________________________
STRT               .m        2792                          : First reference value
STOP               .m        3024                          : Last reference value
STEP               .m        0.2                           : Step increment
NULL               .         -9999                         : Missing value
COMP               .                                       : Company
WELL               .         406                           : Well name
FLD                .                                       : Field
LOC                .                                       : Location
CNTY               .                                       : County
STAT               .                                       : State
CTRY               .                                       : Country
SRVC               .                                       : Service Company
DATE               .                                       : Date
API                .                                       : API number
EREF               .m        140.4                         : 
Pad                .         4                             : 
X                  .m        222100                        : 
Y                  .m        250025                        : 
group              .         Pad4                          : 
Интер-р            .         Пузин                         : 
Куст               .         4                             : 
Статус             .         Проверено                     : 
Тип                .         Нагнетательные                : 
~Parameter Information Block
#_______________________________________________________________________________
#
#PARAMETER_NAME    .UNIT     VALUE                         : DESCRIPTION
#_______________________________________________________________________________
SET                .         LAS3                          : 
REAL_CREATION_DATE .         Ср апр 11 2012-13_17_16       : 
TLFamily_DEPTH     .         Measured Depth                : 
TLFamily_GR        .         Gamma Ray                     : 
TLFamily_TNPH      .         Neutron Porosity              : 
group              .         INI                           : 
~Curve Information
#_______________________________________________________________________________
#
#LOGNAME           .UNIT     LOG_ID                        : DESCRIPTION
#_______________________________________________________________________________
DEPTH              .m                                      : Measured Depth 
GR                 .gAPI                                   :  
TNPH               .v/v                                    : Neutron Porosity 
~Ascii
# ...
2986.4     92.86      0.256     
2986.6     83.64      0.251     
2986.8     76.78001   0.246     
2987       73.14999   0.243     
2987.2     68.55      0.213     
2987.4     70.03      0.208     
2987.6     81.81      0.23      
2987.8     97.62      0.255     
2988       105.93     0.296     
2988.2     111.74     0.353     
2988.4     116.83     0.361     
2988.6     120        0.32      
2988.8     118.74     0.285     
2989       112.07     0.258     
2989.2     104.73     0.239     
2989.4     102.73     0.241     
2989.6     107.93     0.255     
2989.8     112.36     0.276     
2990       112.62     0.308     
2990.2     111.57     0.327     
2990.4     109.38     0.317     
2990.6     108.19     0.3       
2990.8     110.87     0.296     
2991       112.4      0.287     
2991.2     104.65     0.285     
2991.4     90.45      0.268     
2991.6     80.5       0.24      
2991.8     78.98      0.23      
2992       84.49001   0.242     
2992.2     92.89      0.244     
2992.4     98.2       0.241     
2992.6     96         0.238     
2992.8     87.03      0.226     
2993       74.57      0.219     
2993.2     68.94      0.212     
2993.4     65.59      0.201     
2993.6     58.94      0.199     
2993.8     54.09      0.195     
2994       58.13      0.192     
2994.2     63.07      0.194     
2994.4     62.55      0.198     
2994.6     60.37      0.197     
2994.8     57.26      0.191     
2995       57.31      0.188     
2995.2     58.31      0.202     
2995.4     56.35      0.215     
2995.6     56.01      0.221     
2995.8     56.72      0.226     
2996       59.17      0.231     
2996.2     59.69      0.227     
2996.4     60.26      0.213     
2996.6     60.5       0.203     
2996.8     64.79      0.209     
2997       73.28      0.223     
2997.2     85.31      0.24      
2997.4     103.03     0.255     
2997.6     114.45     0.281     
2997.8     116.41     0.314     
2998       117.1      0.32      
2998.2     115.87     0.313     
2998.4     112.05     0.301     
2998.6     109.18     0.307     
2998.8     106.65     0.321     
2999       97.56      0.333     
2999.2     83.59      0.38      
2999.4     62.42      0.426     
2999.6     38.69      0.446     
2999.8     25.74      0.45      
3000       20.96      0.469     
3000.2     19.24      0.494     
3000.4     21.98      0.489     
3000.6     28.88      0.449     
3000.8     42.88      0.431     
3001       63.04      0.401     
3001.2     88.84      0.383     
3001.4     112.24     0.352     
3001.6     124        0.333     
3001.8     125.36     0.339     
3002       117.23     0.336     
3002.2     109.04     0.327     
3002.4     101.14     0.297     
3002.6     92.77      0.255     
3002.8     86.12      0.238     
3003       86.79      0.248     
3003.2     92.9       0.275     
3003.4     100.16     0.285     
3003.6     102.05     0.28      
3003.8     100.85     0.284     
3004       98.2       0.278     
3004.2     95.49      0.269     
3004.4     90.07      0.262     
3004.6     82.25      0.252     
3004.8     78.21      0.264     
3005       77.73      0.295     
3005.2     79.51      0.296     
3005.4     87.53      0.26      
3005.6     98.10001   0.224     
3005.8     101.06     0.214     
3006       96.86      0.213     
3006.2     89.3       0.203     
3006.4     83.61      0.186     
3006.6     88.47      0.186     
3006.8     98.57001   0.204     
3007       102.46     0.209     
3007.2     96.93      0.21      
3007.4     87.81      0.214     
3007.6     82.83      0.224     
3007.8     81.68999   0.229     
3008       86.28999   0.234     
3008.2     93.71001   0.247     
3008.4     106.97     0.251     
3008.6     124.65     0.25      
3008.8     137.09     0.244     
3009       137.19     0.231     
3009.2     130.69     0.216     
3009.4     122.55     0.209     
3009.6     116.08     0.205     
3009.8     109.54     0.203     
3010       100.35     0.208     
3010.2     87.35      0.201     
3010.4     75.49      0.196     
3010.6     70.31999   0.196     
3010.8     66.75999   0.2       
3011       64.74      0.204     
3011.2     63.13      0.202     
3011.4     60.33      0.204     
3011.6     60.64      0.209     
3011.8     62.75      0.214     
3012       62.35      0.218     
3012.2     58.29      0.222     
3012.4     53.59      0.22      
3012.6     53.23      0.209     
3012.8     55.36      0.187     
3013       53         0.162     
3013.2     47.58      0.144     
3013.4     46.01      0.137     
3013.6     49.24      0.142     
3013.8     50.26      0.151     
3014       51.04      0.164     
3014.2     55.53      0.174     
3014.4     59.22      0.192     
3014.6     61.75999   0.218     
3014.8     62.2       0.229     
3015       63.4       0.231     
3015.2     66.41      0.235     
3015.4     68.6       0.24      
3015.6     76.6       0.244     
3015.8     86.68999   0.257     
3016       87.36      0.272     
3016.2     81.79      0.258     
3016.4     78.95      0.245     
3016.6     81.75999   0.235     
3016.8     90.02      0.231     
3017       98.49      0.231     
3017.2     104.42     0.234     
3017.4     100.8      0.243     
3017.6     91.6       0.246     
3017.8     83.94      0.24      
3018       81.34      0.229     
3018.2     77.14      0.212     
3018.4     67.78      0.199     
3018.6     60.37      0.191     
3018.8     58.2       0.196     
3019       58.94      0.206     
3019.2     60.35      0.21      
3019.4     63.74      0.214     
3019.6     68         0.217     
3019.8     71.94      0.227     
3020       78.04      0.236     
3020.2     89.15      0.254     
3020.4     106.58     0.269     
3020.6     120.23     0.285     
3020.8     124.64     0.287     
3021       124.62     0.262     
3021.2     123.22     0.244     
3021.4     121.56     0.226     
3021.6     120.52     0.216     
3021.8     117.37     0.223     
3022       114.93     0.232     
3022.2     113.98     0.236     
3022.4     115.02     0.244     
3022.6     117.78     0.239     
3022.8     120.88     0.243     
3023       121.84     0.26      
3023.2     120.43     0.248     
3023.4     117.31     0.229     
3023.6     116.42     0.208     
3023.8     119.41     0.196     
3024       122.4      0.195     
