~Version
 VERS              .         2.0                           : CWLS LOG ASCII STANDARD - VERSION 2.0
 WRAP              .         NO                            : ONE LINE PER DEPTH STEP
 DLM               .         SPACE                         : DELIMITING CHARACTER(SPACE TAB OR COMMA)
~Well Information
#_______________________________________________________________________________
#
#PARAMETER_NAME    .UNIT     VALUE                         : DESCRIPTION
#_______________________________________________________________________________
STRT               .m        2792                          : First reference value
STOP               .m        3024                          : Last reference value
STEP               .m        0.2                           : Step increment
NULL               .         -9999                         : Missing value
COMP               .                                       : Company
WELL               .         406                           : Well name
FLD                .                                       : Field
LOC                .                                       : Location
CNTY               .                                       : County
STAT               .                                       : State
CTRY               .                                       : Country
SRVC               .                                       : Service Company
DATE               .                                       : Date
API                .                                       : API number
EREF               .m        140.4                         : 
Pad                .         4                             : 
X                  .m        222100                        : 
Y                  .m        250025                        : 
group              .         Pad4                          : 
Интер-р            .         Пузин                         : 
Куст               .         4                             : 
Статус             .         Проверено                     : 
Тип                .         Нагнетательные                : 
~Parameter Information Block
#_______________________________________________________________________________
#
#PARAMETER_NAME    .UNIT     VALUE                         : DESCRIPTION
#_______________________________________________________________________________
SET                .         LAS3                          : 
REAL_CREATION_DATE .         Ср апр 11 2012-13_17_16       : 
TLFamily_DEPTH     .         Measured Depth                : 
TLFamily_GR        .         Gamma Ray                     : 
TLFamily_TNPH      .         Neutron Porosity              : 
group              .         INI                           : 
~Curve Information
#_______________________________________________________________________________
#
#LOGNAME           .UNIT     LOG_ID                        : DESCRIPTION
#_______________________________________________________________________________
DEPTH              .m                                      : Measured Depth 
GR                 .gAPI                                   :  
TNPH               .v/v                                    : Neutron Porosity 
~Ascii
# ...
2889.2     72.28      0.18      
2889.4     74.17      0.17      
2889.6     74.68001   0.166     
2889.8     75.63      0.172     
2890       76.81      0.181     
2890.2     77.28      0.184     
2890.4     78.4       0.173     
2890.6     78.92999   0.149     
2890.8     71.00999   0.127     
2891       56.82      0.122     
2891.2     51.33      0.139     
2891.4     55.81      0.169     
2891.6     63.98      0.184     
2891.8     69.79      0.201     
2892       74.05      0.216     
2892.2     78.39      0.23      
2892.4     87.74001   0.237     
2892.6     101.26     0.244     
2892.8     116.49     0.252     
2893       131.08     0.255     
2893.2     136.02     0.257     
2893.4     128.91     0.252     
2893.6     106.92     0.237     
2893.8     94.37      0.231     
2894       85.63      0.226     
2894.2     76.12      0.219     
2894.4     68.41      0.208     
2894.6     63.41      0.199     
2894.8     60.89      0.191     
2895       58.94      0.182     
2895.2     54.04      0.178     
2895.4     50.36      0.177     
2895.6     52.57      0.179     
2895.8     59.49      0.188     
2896       65.02      0.187     
2896.2     67.93      0.19      
2896.4     71.41      0.2       
2896.6     74.52      0.216     
2896.8     81.07001   0.227     
2897       89.46      0.238     
2897.2     100.66     0.242     
2897.4     113.89     0.238     
2897.6     119.3      0.24      
2897.8     120.16     0.234     
2898       120.73     0.231     
2898.2     123.31     0.239     
2898.4     127.95     0.253     
2898.6     135.23     0.26      
2898.8     141.94     0.27      
2899       143.5      0.27      
2899.2     143.06     0.262     
2899.4     142.33     0.255     
2899.6     140.22     0.253     
2899.8     135.54     0.27      
2900       132.12     0.285     
2900.2     130.61     0.286     
2900.4     128.84     0.286     
2900.6     127.1      0.28      
2900.8     124.92     0.272     
2901       126.13     0.273     
2901.2     132.18     0.279     
2901.4     131.16     0.279     
2901.6     127.44     0.272     
2901.8     123.61     0.271     
2902       118.81     0.265     
2902.2     116.82     0.256     
2902.4     115.12     0.241     
2902.6     111.19     0.228     
2902.8     106.8      0.218     
2903       110.73     0.215     
2903.2     121.77     0.222     
2903.4     134.55     0.25      
2903.6     147.35     0.288     
2903.8     154.26     0.305     
2904       154.66     0.307     
2904.2     154.43     0.311     
2904.4     152.51     0.308     
2904.6     154.77     0.306     
2904.8     157.57     0.296     
2905       155.64     0.283     
2905.2     153.87     0.269     
2905.4     151.58     0.269     
2905.6     146.34     0.294     
2905.8     141.95     0.306     
2906       140.02     0.298     
2906.2     141.24     0.296     
2906.4     140.27     0.299     
2906.6     138.45     0.294     
2906.8     137.99     0.271     
2907       130.94     0.261     
2907.2     121.86     0.258     
2907.4     119.3      0.254     
2907.6     122.5      0.267     
2907.8     126.37     0.278     
2908       128.65     0.278     
2908.2     132.03     0.262     
2908.4     136.78     0.249     
2908.6     138.7      0.261     
2908.8     140.26     0.271     
2909       147.93     0.263     
2909.2     160.19     0.26      
2909.4     173.44     0.268     
2909.6     188.7      0.273     
2909.8     211.12     0.274     
2910       218.58     0.285     
2910.2     208        0.289     
2910.4     201.06     0.284     
2910.6     200.77     0.273     
2910.8     201.63     0.272     
2911       204.01     0.272     
2911.2     214.7      0.286     
2911.4     231.8      0.303     
2911.6     242.38     0.329     
2911.8     239.08     0.334     
2912       231.97     0.314     
2912.2     225.08     0.305     
2912.4     218.72     0.314     
2912.6     221.52     0.315     
2912.8     232.61     0.307     
2913       245.4      0.306     
2913.2     259.86     0.324     
2913.4     271.35     0.339     
2913.6     271.01     0.335     
2913.8     265.52     0.316     
2914       252.72     0.302     
2914.2     237.1      0.29      
2914.4     224.23     0.281     
2914.6     213.93     0.285     
2914.8     204.46     0.291     
2915       194.11     0.296     
2915.2     187.04     0.303     
2915.4     187.48     0.306     
2915.6     196.52     0.311     
2915.8     211.76     0.318     
2916       227.23     0.329     
2916.2     243.81     0.334     
2916.4     257.27     0.334     
2916.6     267.35     0.347     
2916.8     281.22     0.352     
2917       309.15     0.356     
2917.2     336.75     0.356     
2917.4     349.36     0.348     
2917.6     353.57     0.349     
2917.8     361.71     0.367     
2918       373.27     0.395     
2918.2     379.77     0.394     
2918.4     381.29     0.366     
2918.6     381.07     0.332     
2918.8     390.53     0.314     
2919       405.21     0.312     
2919.2     415        0.325     
2919.4     415.49     0.33      
2919.6     411.58     0.347     
2919.8     428.51     0.374     
2920       453.69     0.377     
2920.2     460.74     0.359     
2920.4     443.58     0.357     
2920.6     418.97     0.365     
2920.8     400.39     0.349     
2921       382.56     0.345     
2921.2     358.7      0.352     
2921.4     337.38     0.364     
2921.6     331.33     0.375     
2921.8     345.76     0.377     
2922       358.54     0.395     
2922.2     365.11     0.388     
2922.4     366.68     0.366     
2922.6     373.77     0.369     
2922.8     382.03     0.367     
2923       386.64     0.384     
2923.2     388.16     0.385     
2923.4     385        0.383     
2923.6     368.68     0.39      
2923.8     351.52     0.395     
2924       340.79     0.408     
2924.2     333.6      0.411     
2924.4     331.49     0.403     
2924.6     333.96     0.401     
2924.8     329.41     0.396     
2925       322.47     0.386     
2925.2     317.01     0.378     
2925.4     296.62     0.373     
2925.6     267.98     0.382     
2925.8     247.21     0.383     
2926       239.63     0.356     
2926.2     241.17     0.336     
2926.4     241.59     0.338     
2926.6     236.44     0.329     
2926.8     230.35     0.32      
2927       221.65     0.329     
2927.2     211.82     0.357     
2927.4     198.57     0.371     
2927.6     186.31     0.358     
2927.8     174.61     0.341     
2928       163.98     0.332     
2928.2     156.96     0.318     
2928.4     156.51     0.304     
2928.6     161.5      0.304     
2928.8     168.23     0.31      
2929       176.17     0.32      
2929.2     177.67     0.342     
2929.4     174.44     0.338     
2929.6     170.77     0.319     
2929.8     168.38     0.299     
2930       170.14     0.294     
2930.2     171.37     0.294     
2930.4     162.45     0.281     
2930.6     153.83     0.286     
2930.8     150.17     0.289     
2931       148.19     0.288     
2931.2     141.2      0.28      
2931.4     132.64     0.279     
2931.6     126.99     0.273     
2931.8     124.48     0.266     
2932       121.1      0.272     
2932.2     117.44     0.282     
2932.4     117.68     0.288     
2932.6     121.25     0.296     
2932.8     126.58     0.307     
2933       132.01     0.305     
2933.2     133.78     0.303     
2933.4     134.02     0.296     
2933.6     133.76     0.281     
2933.8     135.34     0.261     
2934       138.46     0.266     
2934.2     136.87     0.293     
2934.4     135.14     0.306     
2934.6     136.03     0.321     
2934.8     136.1      0.327     
2935       135.03     0.332     
2935.2     137.15     0.358     
2935.4     141.15     0.332     
2935.6     146.96     0.315     
2935.8     155.76     0.316     
2936       162.88     0.313     
2936.2     161.87     0.305     
2936.4     156.6      0.29      
2936.6     148.12     0.301     
2936.8     137.53     0.317     
2937       133.85     0.334     
2937.2     136.15     0.363     
2937.4     143.02     0.383     
2937.6     150.91     0.368     
