~Version
 VERS              .         2.0                           : CWLS LOG ASCII STANDARD - VERSION 2.0
 WRAP              .         NO                            : ONE LINE PER DEPTH STEP
 DLM               .         SPACE                         : DELIMITING CHARACTER(SPACE TAB OR COMMA)
~Well Information
#_______________________________________________________________________________
#
#PARAMETER_NAME    .UNIT     VALUE                         : DESCRIPTION
#_______________________________________________________________________________
STRT               .m        2792                          : First reference value
STOP               .m        3022                          : Last reference value
STEP               .m        0.2                           : Step increment
NULL               .         -9999                         : Missing value
COMP               .                                       : Company
WELL               .         406                           : Well name
FLD                .                                       : Field
LOC                .                                       : Location
CNTY               .                                       : County
STAT               .                                       : State
CTRY               .                                       : Country
SRVC               .                                       : Service Company
DATE               .                                       : Date
API                .                                       : API number
EREF               .m        140.4                         : 
Pad                .         4                             : 
X                  .m        222100                        : 
Y                  .m        250025                        : 
group              .         Pad4                          : 
Интер-р            .         Пузин                         : 
Куст               .         4                             : 
Статус             .         Проверено                     : 
Тип                .         Нагнетательные                : 
~Parameter Information Block
#_______________________________________________________________________________
#
#PARAMETER_NAME    .UNIT     VALUE                         : DESCRIPTION
#_______________________________________________________________________________
SET                .         LAS1                          : 
REAL_CREATION_DATE .         Ср апр 11 2012-13_17_16       : 
TLFamily_DEPTH     .         Measured Depth                : 
TLFamily_KS        .         Potential Resistivity         : 
TLFamily_KS1       .         Extra Shallow Resistivity     : 
TLFamily_KS2       .         Shallow Resistivity           : 
TLFamily_KS3       .         Medium Resistivity            : 
TLFamily_KS4       .         Deep Resistivity              : 
TLFamily_KS5       .         Extra Deep Resistivity        : 
TLFamily_LLD       .         Lateral Log Resistivity       : 
TLFamily_OKS3      .         Medium Resistivity Inverted   : 
TLFamily_RM        .         Mud Resistivity               : 
group              .         INI                           : 
~Curve Information
#_______________________________________________________________________________
#
#LOGNAME           .UNIT     LOG_ID                        : DESCRIPTION
#_______________________________________________________________________________
DEPTH              .m                                      : Measured Depth 
KS                 .ohm.m                                  : Potential Resistivity 
KS1                .ohm.m                                  : Extra Shallow Resistivity 
KS2                .ohm.m                                  : Shallow Resistivity 
KS3                .ohm.m                                  : Medium Resistivity 
KS4                .ohm.m                                  : Deep Resistivity 
KS5                .ohm.m                                  : Extra Deep Resistivity 
LLD                .ohm.m                                  : Lateral Log Resistivity 
OKS3               .ohm.m                                  : Medium Resistivity Inverted 
RM                 .ohm.m                                  : Mud Resistivity 
~Ascii
# ...
2806.6     5.628      1.8969     6.5981     9.3477     8.313      5.3439     5.9413     9.2671     0.127     
2806.8     5.6097     1.8969     6.5832     9.5296     8.4421     5.4746     5.5207     9.2794     0.127     
2807       5.5709     1.8969     6.6015     9.7249     8.5516     5.5999     5.3151     9.2545     0.127     
2807.2     5.5173     1.8978     6.6462     9.8793     8.6166     5.7172     5.665      9.1807     0.127     
2807.4     5.4685     1.9193     6.6794     9.86       8.6284     5.7827     5.8694     9.2105     0.127     
2807.6     5.3819     1.9226     6.6282     9.8588     8.7552     5.8816     5.469      9.4844     0.128     
2807.8     5.2655     1.9138     6.5163     9.8557     8.8058     5.9209     5.0737     9.8066     0.13      
2808       5.1951     1.9017     6.6555     9.7184     8.704      5.9423     4.9284     10.0841    0.129     
2808.2     5.2013     1.7968     6.4986     9.4959     8.6209     5.9588     4.7106     10.2707    0.129     
2808.4     5.2579     1.7568     6.1923     9.2535     8.5938     5.9374     4.2569     10.403     0.129     
2808.6     5.3367     1.7349     5.9951     9.0653     8.6032     5.9061     4.5533     10.4566    0.128     
2808.8     5.421      1.7788     5.9065     8.9369     8.638      5.8705     4.6843     10.447     0.13      
2809       5.5165     1.8127     5.919      8.8196     8.6856     5.8604     4.918      10.2985    0.129     
2809.2     5.5809     1.8199     5.8849     8.7523     8.6872     5.8708     5.6806     10.0495    0.127     
2809.4     5.6241     1.8417     6.0232     8.6791     8.6919     5.8734     5.6396     9.9339     0.129     
2809.6     5.6598     1.8577     6.17       8.6376     8.7022     5.8866     5.3069     9.7545     0.128     
2809.8     5.6886     1.8839     6.265      8.6446     8.7383     5.9344     5.7086     9.5234     0.13      
2810       5.6761     1.9419     6.4566     8.727      8.7708     5.9729     6.0237     9.5869     0.13      
2810.2     5.6313     1.9348     6.549      8.8614     8.7984     5.9897     6.1034     9.721      0.13      
2810.4     5.5989     1.9536     6.5697     8.998      8.8221     6.0352     5.6096     9.7823     0.13      
2810.6     5.582      1.9706     6.6998     9.193      8.8131     6.0752     5.5521     9.8418     0.13      
2810.8     5.5449     1.9389     6.6232     9.3349     8.8396     6.1141     5.8691     9.9424     0.13      
2811       5.5124     1.9473     6.6375     9.4504     8.8371     6.1559     5.7402     10.0999    0.131     
2811.2     5.4876     1.9508     6.6141     9.5188     8.8227     6.1841     5.3168     10.2598    0.134     
2811.4     5.4433     1.9456     6.629      9.5735     8.7999     6.1802     5.2444     10.393     0.134     
2811.6     5.4033     1.9463     6.5271     9.5491     8.783      6.1483     5.308      10.4776    0.134     
2811.8     5.3721     1.926      6.4609     9.3948     8.6607     6.0935     5.1945     10.6945    0.135     
2812       5.3724     1.8773     6.2952     9.0336     8.4028     6.0427     4.9929     11.1055    0.135     
2812.2     5.474      1.7909     6.1047     8.6383     8.1729     6.0168     4.5727     11.5357    0.136     
2812.4     5.6649     1.706      5.9521     8.4066     8.0249     6.0218     4.4545     11.7779    0.134     
2812.6     5.8807     1.6949     5.7368     8.3514     7.9742     6.0536     4.6315     11.844     0.134     
2812.8     6.057      1.7287     5.6562     8.3899     8.0814     6.0932     5.0659     11.7449    0.134     
2813       6.1614     1.8473     5.9063     8.4987     8.3068     6.1621     5.3383     11.5063    0.134     
2813.2     6.2124     1.9513     6.4559     8.7087     8.6495     6.2948     6.1787     11.2505    0.133     
2813.4     6.2281     2.062      6.8128     9.0126     8.9838     6.4349     7.9826     10.8627    0.13      
2813.6     6.2145     2.0808     6.9948     9.3528     9.2227     6.528      8.0341     10.4844    0.13      
2813.8     6.1813     2.0839     7.0788     9.5864     9.2649     6.5446     6.9281     10.094     0.127     
2814       6.1283     2.0684     7.1293     9.6482     9.2335     6.4971     6.4881     9.8955     0.125     
2814.2     6.0686     2.0245     7.0562     9.7008     9.1564     6.4606     6.0156     9.7361     0.127     
2814.4     6.0442     1.9871     7.0363     9.8313     9.1659     6.4292     5.5564     9.5287     0.125     
2814.6     6.021      1.9868     6.9683     10.0555    9.2013     6.4098     5.9327     9.3469     0.127     
2814.8     5.9834     2.0016     6.9702     10.3235    9.2935     6.3915     5.8818     9.2227     0.125     
2815       5.945      2.0316     6.9335     10.5129    9.3338     6.3915     5.9431     9.0718     0.127     
2815.2     5.8971     2.0532     7.0556     10.6799    9.3611     6.3766     5.9228     8.8986     0.127     
2815.4     5.8251     2.0817     7.1504     10.8041    9.4123     6.3737     6.3377     8.6575     0.125     
2815.6     5.7366     2.1259     7.2176     10.887     9.5042     6.3869     6.6        8.425      0.127     
2815.8     5.6247     2.0973     7.1264     10.9473    9.6325     6.3814     5.8396     8.3179     0.127     
2816       5.517      2.0457     7.0103     10.8366    9.636      6.3476     5.3908     8.4157     0.127     
2816.2     5.4255     1.9908     6.8711     10.504     9.4954     6.2969     5.0774     8.5335     0.127     
2816.4     5.3436     1.9431     6.7602     10.2018    9.4508     6.2442     4.9802     8.674      0.127     
2816.6     5.2471     1.9373     6.667      10.1125    9.5889     6.214      4.9222     8.8614     0.128     
2816.8     5.1497     1.9453     6.6233     10.0374    9.7342     6.1989     5.0158     9.0565     0.13      
2817       5.0859     1.927      6.5797     9.8823     9.7499     6.1862     5.0084     9.1488     0.127     
2817.2     5.056      1.8718     6.4572     9.6516     9.6795     6.1736     4.8498     9.2099     0.127     
2817.4     5.0417     1.832      6.197      9.4008     9.5533     6.1604     4.7429     9.2954     0.127     
2817.6     5.0411     1.8168     6.0341     9.1699     9.379      6.1159     4.4625     9.4486     0.127     
2817.8     5.0456     1.8154     5.8479     8.9131     9.1953     6.06       4.3736     9.6569     0.13      
2818       5.0638     1.7804     5.7607     8.6523     8.992      6.043      4.3757     9.9006     0.13      
2818.2     5.1185     1.7488     5.7414     8.4006     8.7488     6.0544     4.4273     10.1598    0.13      
2818.4     5.2199     1.7488     5.7328     8.2296     8.6034     6.0552     4.6884     10.327     0.13      
2818.6     5.3562     1.7658     5.7441     8.1744     8.553      6.0742     5.0589     10.4252    0.13      
2818.8     5.4979     1.818      5.7928     8.144      8.4637     6.1151     5.2774     10.4431    0.127     
2819       5.5816     1.8428     5.8733     8.1695     8.4095     6.1007     5.4097     10.4524    0.128     
2819.2     5.6426     1.9437     5.8929     8.2483     8.3998     6.0559     5.5394     10.3589    0.128     
2819.4     5.6863     1.8725     6.2291     8.3011     8.3407     6.0415     5.4822     10.1326    0.125     
2819.6     5.6677     1.9426     6.2219     8.3022     8.2352     6.0415     6.8448     10.296     0.129     
2819.8     5.6222     1.9912     6.6058     8.2912     8.1261     6.0493     5.5332     10.7879    0.125     
2820       5.5954     1.9679     6.6088     8.3617     8.1321     6.0417     5.0612     11.2452    0.13      
2820.2     5.5907     1.9537     6.6184     8.6188     8.1581     6.0599     5.1862     11.4894    0.13      
2820.4     5.6444     1.9465     6.5744     8.7549     8.0333     6.0778     5.4103     11.6413    0.13      
2820.6     5.6977     1.9618     6.4904     8.8761     7.9149     6.029      5.6043     11.7692    0.13      
2820.8     5.7604     1.9696     6.4541     8.9534     7.7928     5.9922     5.6582     11.8116    0.131     
2821       5.8309     1.9904     6.4547     8.9025     7.6663     5.9896     5.6853     11.8828    0.133     
