~Version
 VERS              .         2.0                           : CWLS LOG ASCII STANDARD - VERSION 2.0
 WRAP              .         NO                            : ONE LINE PER DEPTH STEP
 DLM               .         SPACE                         : DELIMITING CHARACTER(SPACE TAB OR COMMA)
~Well Information
#_______________________________________________________________________________
#
#PARAMETER_NAME    .UNIT     VALUE                         : DESCRIPTION
#_______________________________________________________________________________
STRT               .m        2792                          : First reference value
STOP               .m        3022                          : Last reference value
STEP               .m        0.2                           : Step increment
NULL               .         -9999                         : Missing value
COMP               .                                       : Company
WELL               .         406                           : Well name
FLD                .                                       : Field
LOC                .                                       : Location
CNTY               .                                       : County
STAT               .                                       : State
CTRY               .                                       : Country
SRVC               .                                       : Service Company
DATE               .                                       : Date
API                .                                       : API number
EREF               .m        140.4                         : 
Pad                .         4                             : 
X                  .m        222100                        : 
Y                  .m        250025                        : 
group              .         Pad4                          : 
Интер-р            .         Пузин                         : 
Куст               .         4                             : 
Статус             .         Проверено                     : 
Тип                .         Нагнетательные                : 
~Parameter Information Block
#_______________________________________________________________________________
#
#PARAMETER_NAME    .UNIT     VALUE                         : DESCRIPTION
#_______________________________________________________________________________
SET                .         LAS1                          : 
REAL_CREATION_DATE .         Ср апр 11 2012-13_17_16       : 
TLFamily_DEPTH     .         Measured Depth                : 
TLFamily_KS        .         Potential Resistivity         : 
TLFamily_KS1       .         Extra Shallow Resistivity     : 
TLFamily_KS2       .         Shallow Resistivity           : 
TLFamily_KS3       .         Medium Resistivity            : 
TLFamily_KS4       .         Deep Resistivity              : 
TLFamily_KS5       .         Extra Deep Resistivity        : 
TLFamily_LLD       .         Lateral Log Resistivity       : 
TLFamily_OKS3      .         Medium Resistivity Inverted   : 
TLFamily_RM        .         Mud Resistivity               : 
group              .         INI                           : 
~Curve Information
#_______________________________________________________________________________
#
#LOGNAME           .UNIT     LOG_ID                        : DESCRIPTION
#_______________________________________________________________________________
DEPTH              .m                                      : Measured Depth 
KS                 .ohm.m                                  : Potential Resistivity 
KS1                .ohm.m                                  : Extra Shallow Resistivity 
KS2                .ohm.m                                  : Shallow Resistivity 
KS3                .ohm.m                                  : Medium Resistivity 
KS4                .ohm.m                                  : Deep Resistivity 
KS5                .ohm.m                                  : Extra Deep Resistivity 
LLD                .ohm.m                                  : Lateral Log Resistivity 
OKS3               .ohm.m                                  : Medium Resistivity Inverted 
RM                 .ohm.m                                  : Mud Resistivity 
~Ascii
# ...
2996.4     4.7933     1.6114     4.7671     6.7523     7.0749     3.2646     3.787      10.513     0.127     
2996.6     4.8339     1.5435     4.4622     6.2055     6.6962     3.3579     3.6529     11.7627    0.128     
2996.8     4.9222     1.4554     4.1456     5.7703     6.5081     3.5518     3.4788     13.4517    0.13      
2997       5.0912     1.3497     3.8254     5.4524     6.5618     3.9999     3.3406     16.1895    0.13      
2997.2     5.3689     1.2119     3.5785     5.3816     7.0602     4.8858     3.9703     20.2561    0.13      
2997.4     5.7725     1.1292     3.6136     5.6138     8.0505     6.1154     4.0418     24.4665    0.129     
2997.6     6.3995     1.2006     3.8876     6.078      9.1944     7.6166     11.3825    27.6661    0.134     
2997.8     7.1962     1.3998     4.2337     6.5767     10.083     9.1523     15.4439    28.8549    0.134     
2998       7.8914     1.6621     4.6402     7.0206     10.81      10.5034    15.9531    29.0749    0.137     
2998.2     8.4251     1.8625     5.0908     7.4286     11.5341    11.8796    15.2125    29.7888    0.134     
2998.4     8.7992     1.9983     5.7686     7.8534     12.3094    13.3972    14.4691    30.6951    0.134     
2998.6     9.0774     2.0983     6.6516     8.3568     13.2679    15.1223    13.3786    33.305     0.131     
2998.8     9.3003     2.1762     7.4317     8.9914     14.4037    17.14      13.5434    36.3641    0.13      
2999       9.5226     2.2284     8.0581     9.7504     15.7621    19.7402    13.3859    38.858     0.129     
2999.2     9.7979     2.2418     8.4225     10.6731    17.5106    22.8146    12.6733    40.6735    0.127     
2999.4     10.1979    2.2029     8.4815     11.5975    18.7554    24.497     13.04      40.7389    0.121     
2999.6     11.071     1.8823     6.4784     11.0004    16.5208    24.5516    31.4507    33.6934    0.115     
2999.8     12.0733    1.0636     4.1435     9.2887     12.1224    25.4122    41.7941    23.6052    0.11      
3000       12.3148    1.2755     5.9942     9.6005     12.1772    24.6222    45.0376    19.3185    0.113     
3000.2     12.188     1.9391     7.9098     12.4048    13.6961    24.643     43.1665    19.8963    0.111     
3000.4     12.1209    1.6639     7.3229     14.5666    14.9594    24.7189    29.305     20.5975    0.119     
3000.6     12.46      1.7561     10.6831    13.9738    14.0134    23.0568    24.9553    16.887     0.116     
3000.8     13.0139    0.7837     5.1841     10.5636    11.0119    21.7493    22.0333    11.8802    0.111     
3001       12.8167    1.0398     4.4269     10.724     8.7874     23.0893    23.4782    10.0748    0.114     
3001.2     12.0237    2.0035     9.0515     16.9616    12.7786    22.7661    24.9023    14.266     0.119     
3001.4     11.4202    2.5075     12.1376    24.3336    19.3604    25.0071    14.6875    18.7625    0.126     
3001.6     11.1489    2.4743     12.4411    29.1353    24.7855    28.4482    10.9956    20.9291    0.125     
3001.8     11.0975    2.3657     11.5105    30.6709    27.9591    30.1687    10.56      21.3641    0.124     
3002       11.0662    2.3465     10.6995    29.9545    29.8407    28.8978    11.2441    21.3047    0.124     
3002.2     11.139     2.4446     10.2324    27.6761    30.4671    26.6396    14.0465    19.8043    0.121     
3002.4     11.2174    2.2191     8.7906     26.0839    30.9755    24.652     12.3369    18.6205    0.119     
3002.6     11.2328    2.3283     9.6201     24.8535    31.7031    22.7134    11.8855    18.0637    0.126     
3002.8     11.2036    2.3554     9.53       23.8529    32.746     20.888     11.0362    17.692     0.124     
3003       11.2416    2.2526     9.2161     22.3069    32.8889    19.7436    11.2341    17.1468    0.127     
3003.2     11.1955    2.32       9.3986     21.0694    33.9784    18.7152    14.1523    16.6087    0.127     
3003.4     11.0957    2.4876     9.9871     20.7768    36.0668    17.7806    15.8332    16.0706    0.127     
3003.6     10.9554    2.6008     10.3851    20.9537    38.5288    17.0844    14.1236    15.3587    0.127     
3003.8     10.8192    2.6273     10.5766    21.2661    40.6493    16.5614    13.2322    14.4709    0.127     
3004       10.6743    2.6324     10.5749    21.4649    41.1907    16.0487    12.3155    13.7554    0.128     
3004.2     10.4718    2.6165     10.5283    21.5764    39.8452    15.5768    13.2969    13.5957    0.129     
3004.4     10.2206    2.6217     10.5507    21.7465    39.1413    15.3037    13.0537    13.5911    0.127     
3004.6     9.925      2.6261     10.5607    22.0583    38.9475    15.4621    10.6793    13.5911    0.127     
3004.8     9.5456     2.5992     10.6347    22.9003    41.1203    16.0424    10.5592    13.5991    0.127     
3005       9.1177     2.6976     11.2101    24.5762    44.2056    16.9681    11.4528    13.604     0.122     
3005.2     8.6541     2.8944     11.624     26.6676    45.9963    17.9425    19.8589    13.604     0.122     
3005.4     8.244      3.0061     12.7713    27.636     45.6914    18.8706    20.3372    13.5957    0.126     
3005.6     7.783      2.9032     12.1977    27.4029    44.4504    19.596     7.8157     13.5911    0.127     
3005.8     7.3311     2.7983     11.4175    25.8249    41.7282    20.1418    7.3311     13.6002    0.127     
3006       6.9138     2.6962     10.9759    24.2507    38.8361    20.3352    7.1011     13.5963    0.128     
3006.2     6.5869     2.5848     10.3049    22.3092    35.5875    19.8394    5.8168     13.5983    0.127     
3006.4     6.3976     2.2987     8.8554     19.4563    31.1427    18.7085    4.0448     13.5872    0.124     
3006.6     6.3368     2.003      7.5887     16.2866    25.9787    17.3901    4.1269     13.5905    0.124     
3006.8     6.336      1.8459     7.2394     14.4992    22.3081    16.0483    6.4583     13.4914    0.124     
3007       6.336      1.8431     7.2059     13.9326    20.7049    15.2497    7.2166     13.4295    0.124     
3007.2     6.336      1.8431     7.1402     13.5704    19.6406    14.9356    7.2193     13.4251    0.124     
3007.4     6.336      1.8431     7.1334     13.1617    18.4913    14.7712    6.8684     13.4289    0.124     
3007.6     6.336      1.8431     7.1401     12.6488    17.3407    14.5432    6.392      13.4223    0.124     
3007.8     6.3339     1.8355     7.1464     12.1656    16.339     14.2824    6.2614     -9999      0.124     
3008       6.3292     1.8386     7.1445     11.6599    15.4231    14.0263    5.8018     -9999      0.124     
3008.2     6.336      1.8355     7.134      11.1381    14.4679    13.6165    4.9564     -9999      0.124     
3008.4     6.336      1.8347     7.1334     10.8533    13.9123    12.636     4.8787     -9999      0.124     
3008.6     6.336      1.8431     7.1334     10.8058    13.8152    11.8129    7.4154     -9999      0.124     
3008.8     6.336      1.8431     7.1334     10.807     13.7265    11.3438    7.3772     -9999      0.124     
3009       6.336      1.8431     7.1334     10.8009    13.5625    10.9556    7.3693     -9999      0.123     
3009.2     6.3305     1.8359     7.1334     10.8009    13.6846    10.6156    7.6597     -9999      0.12      
3009.4     6.309      1.8355     7.1334     10.8009    14.1005    10.0221    8.9984     -9999      0.121     
3009.6     6.309      1.8027     7.1334     10.8009    14.5978    9.5404     10.3812    -9999      0.12      
3009.8     6.309      1.8027     7.1334     10.8009    14.8913    9.2063     9.8133     -9999      0.12      
3010       6.309      1.8104     7.1403     10.8009    14.6656    8.9169     7.8362     -9999      -9999     
3010.2     -9999      1.8027     7.1593     10.803     13.6824    8.5421     4.725      -9999      -9999     
3010.4     -9999      -9999      7.1593     10.8056    12.4202    7.9751     3.9106     -9999      -9999     
3010.6     -9999      -9999      7.1593     10.8009    11.6787    7.2815     4.2858     -9999      -9999     
3010.8     -9999      -9999      7.1593     10.8009    11.6223    6.6045     4.3012     -9999      -9999     
