~Version
 VERS              .         2.0                           : CWLS LOG ASCII STANDARD - VERSION 2.0
 WRAP              .         NO                            : ONE LINE PER DEPTH STEP
 DLM               .         SPACE                         : DELIMITING CHARACTER(SPACE TAB OR COMMA)
~Well Information
#_______________________________________________________________________________
#
#PARAMETER_NAME    .UNIT     VALUE                         : DESCRIPTION
#_______________________________________________________________________________
STRT               .m        2792                          : First reference value
STOP               .m        3022                          : Last reference value
STEP               .m        0.2                           : Step increment
NULL               .         -9999                         : Missing value
COMP               .                                       : Company
WELL               .         406                           : Well name
FLD                .                                       : Field
LOC                .                                       : Location
CNTY               .                                       : County
STAT               .                                       : State
CTRY               .                                       : Country
SRVC               .                                       : Service Company
DATE               .                                       : Date
API                .                                       : API number
EREF               .m        140.4                         : 
Pad                .         4                             : 
X                  .m        222100                        : 
Y                  .m        250025                        : 
group              .         Pad4                          : 
Интер-р            .         Пузин                         : 
Куст               .         4                             : 
Статус             .         Проверено                     : 
Тип                .         Нагнетательные                : 
~Parameter Information Block
#_______________________________________________________________________________
#
#PARAMETER_NAME    .UNIT     VALUE                         : DESCRIPTION
#_______________________________________________________________________________
SET                .         LAS1                          : 
REAL_CREATION_DATE .         Ср апр 11 2012-13_17_16       : 
TLFamily_DEPTH     .         Measured Depth                : 
TLFamily_KS        .         Potential Resistivity         : 
TLFamily_KS1       .         Extra Shallow Resistivity     : 
TLFamily_KS2       .         Shallow Resistivity           : 
TLFamily_KS3       .         Medium Resistivity            : 
TLFamily_KS4       .         Deep Resistivity              : 
TLFamily_KS5       .         Extra Deep Resistivity        : 
TLFamily_LLD       .         Lateral Log Resistivity       : 
TLFamily_OKS3      .         Medium Resistivity Inverted   : 
TLFamily_RM        .         Mud Resistivity               : 
group              .         INI                           : 
~Curve Information
#_______________________________________________________________________________
#
#LOGNAME           .UNIT     LOG_ID                        : DESCRIPTION
#_______________________________________________________________________________
DEPTH              .m                                      : Measured Depth 
KS                 .ohm.m                                  : Potential Resistivity 
KS1                .ohm.m                                  : Extra Shallow Resistivity 
KS2                .ohm.m                                  : Shallow Resistivity 
KS3                .ohm.m                                  : Medium Resistivity 
KS4                .ohm.m                                  : Deep Resistivity 
KS5                .ohm.m                                  : Extra Deep Resistivity 
LLD                .ohm.m                                  : Lateral Log Resistivity 
OKS3               .ohm.m                                  : Medium Resistivity Inverted 
RM                 .ohm.m                                  : Mud Resistivity 
~Ascii
# ...
2923.4     10.8225    2.5097     9.9954     19.1516    22.1468    10.8557    12.9215    22.4447    0.124     
2923.6     10.8648    2.5279     10.1021    19.3435    22.8864    11.1283    12.4585    22.3727    0.124     
2923.8     10.8942    2.5539     10.2075    19.5491    23.6461    11.4542    13.1088    22.2595    0.124     
2924       10.9105    2.5819     10.3339    19.8044    24.4239    11.7569    13.3124    22.0714    0.124     
2924.2     10.9215    2.5935     10.4245    20.0339    25.0481    12.077     12.5634    22.0297    0.126     
2924.4     10.922     2.5846     10.4031    20.1506    25.412     12.3831    12.2023    22.0486    0.127     
2924.6     10.922     2.5882     10.4629    20.3207    25.7127    12.6928    13.1441    22.0179    0.127     
2924.8     10.922     2.5916     10.5116    20.5056    25.995     12.9778    13.036     22.0094    0.124     
2925       10.9028    2.5986     10.5362    20.6366    26.2359    13.2519    12.9907    22.0094    0.124     
2925.2     10.8625    2.6197     10.6175    20.7531    26.3566    13.5265    13.2123    21.9685    0.124     
2925.4     10.8187    2.6344     10.654     20.8964    26.4468    13.7731    12.6137    21.8344    0.124     
2925.6     10.7752    2.6261     10.671     20.9756    26.4482    13.957     12.1595    21.7282    0.125     
2925.8     10.7319    2.6038     10.6186    20.9716    26.4135    14.0731    12.3911    21.6225    0.127     
2926       10.6852    2.6206     10.5806    20.9447    26.3552    14.1708    12.488     21.6435    0.127     
2926.2     10.6267    2.622      10.5705    20.941     26.3668    14.239     11.9763    21.8072    0.125     
2926.4     10.5808    2.6054     10.5468    20.8159    26.2776    14.2731    11.1615    22.1709    0.124     
2926.6     10.5848    2.5509     10.3579    20.4647    25.9403    14.3034    10.1986    22.7007    0.124     
2926.8     10.6336    2.4464     10.0065    19.9602    25.3907    14.4277    10.2241    23.3051    0.124     
2927       10.6743    2.4329     9.8578     19.7856    25.2285    14.5772    11.4929    23.6609    0.125     
2927.2     10.7176    2.5105     10.0432    20.0159    25.5805    14.7622    15.454     23.7378    0.127     
2927.4     10.7445    2.5549     10.2363    20.3376    26.0669    14.8984    14.0868    23.6776    0.127     
2927.6     10.7425    2.5785     10.2725    20.4122    26.2853    15.1783    13.2836    23.6153    0.127     
2927.8     10.7332    2.5711     10.2922    20.3085    26.2458    15.3568    12.5684    23.5513    0.127     
2928       10.7332    2.5469     10.151     19.9893    25.8735    15.4131    12.0916    23.553     0.124     
2928.2     10.7606    2.4902     10.0295    19.6109    25.3672    15.4104    11.4126    23.6963    0.127     
2928.4     10.7968    2.4427     9.8674     19.2186    24.9108    15.4003    11.3428    24.0231    0.127     
2928.6     10.8738    2.422      9.7427     18.9171    24.6976    15.392     11.5577    24.6192    0.127     
2928.8     10.9966    2.3928     9.6005     18.643     24.4651    15.4631    11.3366    25.2852    0.13      
2929       11.1719    2.3343     9.4174     18.4526    24.2356    15.6229    11.5083    25.9956    0.127     
2929.2     11.3771    2.3141     9.3391     18.5136    24.2464    15.8835    12.6159    26.6287    0.127     
2929.4     11.5846    2.3372     9.4017     18.8441    24.6668    16.2697    14.3066    27.1754    0.127     
2929.6     11.7578    2.3803     9.6102     19.3954    25.4038    16.834     16.5906    27.5063    0.127     
2929.8     11.8884    2.4754     10.0571    20.1707    26.5162    17.5178    21.8988    27.3877    0.127     
2930       11.9703    2.6084     10.6689    21.0402    27.8117    18.1896    24.8976    26.8701    0.127     
2930.2     12.024     2.7067     11.0245    21.6912    28.8455    18.7535    20.3268    26.24      0.127     
2930.4     12.0512    2.7115     11.0079    21.8655    29.1365    19.1288    15.8093    25.7055    0.13      
2930.6     12.0554    2.6828     11.0062    21.7269    28.878     19.2158    14.6552    25.366     0.13      
2930.8     12.0691    2.6568     11.0007    21.5752    28.5862    19.0375    14.4607    25.1958    0.13      
2931       12.1013    2.6343     10.9468    21.42      28.3145    18.7816    14.1698    25.1907    0.13      
2931.2     12.1854    2.5763     10.7898    21.2278    27.9801    18.5935    13.1196    25.426     0.128     
2931.4     12.2918    2.5082     10.5109    21.0929    27.793     18.4493    13.3746    25.6379    0.13      
2931.6     12.4161    2.5245     10.4832    21.1882    27.7919    18.3884    16.6613    25.529     0.127     
2931.8     12.5264    2.5621     10.548     21.4905    28.015     18.4396    17.0322    25.2832    0.127     
2932       12.6044    2.6178     10.6695    21.9087    28.2932    18.6117    16.8586    25.0825    0.129     
2932.2     12.6619    2.6396     10.8191    22.2859    28.6358    18.839     17.3091    24.8165    0.128     
2932.4     12.689     2.655      10.9403    22.5251    28.9644    19.1482    17.8376    24.5964    0.127     
2932.6     12.6807    2.6873     11.173     22.7437    29.3699    19.4508    17.2095    24.463     0.13      
2932.8     12.6443    2.7335     11.3008    22.9939    29.835     19.6997    16.2552    24.409     0.127     
2933       12.6118    2.7263     11.251     23.0807    30.2109    19.954     15.3799    24.4833    0.127     
2933.2     12.6113    2.68       11.1103    22.923     30.3655    20.181     13.9989    24.7199    0.129     
2933.4     12.6377    2.6152     11.0308    22.7737    30.548     20.3877    14.3112    25.0762    0.13      
2933.6     12.6786    2.6068     10.899     22.8113    30.9151    20.6064    16.1435    25.3578    0.13      
2933.8     12.7116    2.6317     10.952     23.0376    31.506     20.8614    16.544     25.5281    0.13      
2934       12.7539    2.638      11.0395    23.24      32.1981    21.1973    16.635     25.6132    0.13      
2934.2     12.7691    2.6642     11.0536    23.45      32.8709    21.5855    16.8587    25.5634    0.13      
2934.4     12.7805    2.6896     11.1976    23.5964    33.4548    21.963     17.6       25.3369    0.13      
2934.6     12.8042    2.6916     11.1536    23.6489    33.7929    22.3636    15.644     25.0636    0.13      
2934.8     12.8104    2.6852     11.1541    23.5609    33.9296    22.7967    15.2373    24.9561    0.13      
2935       12.8104    2.6782     11.1816    23.5361    34.125     23.2345    15.4926    24.9211    0.13      
2935.2     12.8171    2.6775     11.1717    23.4861    34.3111    23.6704    15.6187    24.9032    0.13      
2935.4     12.8665    2.6475     11.0788    23.2883    34.288     24.2304    14.3158    24.9524    0.13      
2935.6     12.9397    2.582      10.8694    23.0932    34.3604    24.914     13.8201    25.0514    0.13      
2935.8     13.0133    2.5546     10.7864    23.205     34.891     25.6294    17.8232    24.8207    0.13      
2936       13.0785    2.631      11.0942    23.8188    35.8144    26.4026    20.8246    23.9819    0.13      
2936.2     13.1104    2.7339     11.4195    24.5356    36.7871    27.2069    24.2623    22.9632    0.131     
2936.4     13.0636    2.8095     11.7436    25.1782    37.6597    27.9771    22.525     22.0321    0.133     
2936.6     12.9466    2.9092     12.1286    25.7014    38.312     28.5743    20.7011    21.3285    0.134     
2936.8     12.7996    2.9501     12.3374    25.9578    38.5905    28.994     16.7419    20.837     0.136     
2937       12.654     2.8971     12.1906    25.8549    38.3905    29.3304    14.5044    20.6781    0.136     
2937.2     12.5096    2.8387     12.0636    25.6159    37.9617    29.6959    13.5101    20.8732    0.137     
2937.4     12.3391    2.8053     12.0546    25.6624    37.9813    30.1567    14.5057    21.0163    0.137     
2937.6     12.1367    2.8413     12.2041    26.1212    38.6259    30.7864    18.3241    20.7097    0.137     
2937.8     11.8839    2.9327     12.4721    26.7911    39.4452    31.4638    19.3331    20.0925    0.137     
