~Version
 VERS              .         2.0                           : CWLS LOG ASCII STANDARD - VERSION 2.0
 WRAP              .         NO                            : ONE LINE PER DEPTH STEP
 DLM               .         SPACE                         : DELIMITING CHARACTER(SPACE TAB OR COMMA)
~Well Information
#_______________________________________________________________________________
#
#PARAMETER_NAME    .UNIT     VALUE                         : DESCRIPTION
#_______________________________________________________________________________
STRT               .m        2792                          : First reference value
STOP               .m        3022                          : Last reference value
STEP               .m        0.2                           : Step increment
NULL               .         -9999                         : Missing value
COMP               .                                       : Company
WELL               .         406                           : Well name
FLD                .                                       : Field
LOC                .                                       : Location
CNTY               .                                       : County
STAT               .                                       : State
CTRY               .                                       : Country
SRVC               .                                       : Service Company
DATE               .                                       : Date
API                .                                       : API number
EREF               .m        140.4                         : 
Pad                .         4                             : 
X                  .m        222100                        : 
Y                  .m        250025                        : 
group              .         Pad4                          : 
Интер-р            .         Пузин                         : 
Куст               .         4                             : 
Статус             .         Проверено                     : 
Тип                .         Нагнетательные                : 
~Parameter Information Block
#_______________________________________________________________________________
#
#PARAMETER_NAME    .UNIT     VALUE                         : DESCRIPTION
#_______________________________________________________________________________
SET                .         LAS1                          : 
REAL_CREATION_DATE .         Ср апр 11 2012-13_17_16       : 
TLFamily_DEPTH     .         Measured Depth                : 
TLFamily_KS        .         Potential Resistivity         : 
TLFamily_KS1       .         Extra Shallow Resistivity     : 
TLFamily_KS2       .         Shallow Resistivity           : 
TLFamily_KS3       .         Medium Resistivity            : 
TLFamily_KS4       .         Deep Resistivity              : 
TLFamily_KS5       .         Extra Deep Resistivity        : 
TLFamily_LLD       .         Lateral Log Resistivity       : 
TLFamily_OKS3      .         Medium Resistivity Inverted   : 
TLFamily_RM        .         Mud Resistivity               : 
group              .         INI                           : 
~Curve Information
#_______________________________________________________________________________
#
#LOGNAME           .UNIT     LOG_ID                        : DESCRIPTION
#_______________________________________________________________________________
DEPTH              .m                                      : Measured Depth 
KS                 .ohm.m                                  : Potential Resistivity 
KS1                .ohm.m                                  : Extra Shallow Resistivity 
KS2                .ohm.m                                  : Shallow Resistivity 
KS3                .ohm.m                                  : Medium Resistivity 
KS4                .ohm.m                                  : Deep Resistivity 
KS5                .ohm.m                                  : Extra Deep Resistivity 
LLD                .ohm.m                                  : Lateral Log Resistivity 
OKS3               .ohm.m                                  : Medium Resistivity Inverted 
RM                 .ohm.m                                  : Mud Resistivity 
~Ascii
# ...
2908.8     6.1091     1.9778     6.6166     9.3526     8.6655     5.9781     5.3393     12.2202    0.128     
2909       6.1623     1.9689     6.5886     9.3669     8.736      6.0597     5.2994     12.4508    0.13      
2909.2     6.2185     1.9605     6.5485     9.4021     8.8387     6.2305     5.1523     12.8142    0.13      
2909.4     6.2937     1.9388     6.5115     9.5324     9.0085     6.4916     5.1373     13.2711    0.131     
2909.6     6.3771     1.9648     6.639      9.7566     9.3485     6.8368     5.6336     13.6721    0.134     
2909.8     6.4916     2.0013     6.8008     9.9869     9.8159     7.2573     6.0148     13.9702    0.136     
2910       6.6437     2.0012     6.7824     10.1327    10.1984    7.6881     6.1105     14.1312    0.135     
2910.2     6.8289     1.9728     6.6852     10.0996    10.3632    8.072      5.8824     14.2498    0.134     
2910.4     7.0295     1.967      6.7505     10.1268    10.5953    8.4008     6.0282     14.286     0.132     
2910.6     7.1884     1.9998     6.9302     10.4252    11.1131    8.6543     7.6012     14.1959    0.127     
2910.8     7.2623     2.2008     7.5132     11.1092    11.7372    8.8454     10.0682    13.647     0.127     
2911       7.2667     2.3738     8.0571     11.7682    12.1403    8.9576     11.9931    12.8496    0.13      
2911.2     7.1929     2.4296     8.3768     11.9893    12.1307    8.9931     8.9037     12.2404    0.13      
2911.4     7.072      2.4126     8.4412     12.026     12.0273    8.9238     6.9025     11.889     0.129     
2911.6     6.9451     2.3598     8.4732     12.0101    11.8359    8.6787     6.4195     11.678     0.125     
2911.8     6.8429     2.304      8.3779     11.9661    11.5238    8.3514     5.8828     11.5832    0.124     
2912       6.7629     2.2109     8.0995     11.9022    11.1211    8.0317     5.4633     11.6325    0.124     
2912.2     6.6955     2.1716     7.9376     11.8888    10.7925    7.7512     5.3348     11.7548    0.124     
2912.4     6.6628     2.1451     7.8032     11.9616    10.6051    7.5653     5.8594     11.9318    0.124     
2912.6     6.6559     2.12       7.6652     12.0959    10.5092    7.4626     5.8853     12.0645    0.124     
2912.8     6.6462     2.134      7.5938     12.2195    10.4501    7.3905     5.7365     12.2309    0.124     
2913       6.6462     2.1259     7.5182     12.3225    10.4429    7.3359     5.8246     12.4331    0.124     
2913.2     6.6577     2.1343     7.5002     12.3513    10.4814    7.276      5.9146     12.6038    0.124     
2913.4     6.663      2.1501     7.5179     12.2509    10.5614    7.2094     6.2246     12.7079    0.124     
2913.6     6.6623     2.1557     7.5485     12.1266    10.6519    7.1454     6.1641     12.8135    0.124     
2913.8     6.638      2.1754     7.5645     12.0019    10.7686    7.0718     6.3135     12.8945    0.124     
2914       6.6114     2.1933     7.6327     11.9035    10.9446    6.9738     6.4743     12.9495    0.124     
2914.2     6.5696     2.2229     7.7264     11.7965    11.0831    6.7992     6.4095     12.9818    0.124     
2914.4     6.5504     2.1833     7.6015     11.5653    11.0561    6.5751     6.4023     13.0296    0.122     
2914.6     6.5349     2.1085     7.3443     11.2277    10.8815    6.3388     5.4009     13.2743    0.121     
2914.8     6.5305     2.0853     7.2674     10.8982    10.6938    6.1193     5.4828     13.6892    0.123     
2915       6.5715     2.0404     7.0712     10.6672    10.6233    5.993      5.4329     14.2349    0.124     
2915.2     6.6694     1.9869     6.9221     10.4794    10.5336    5.9773     5.708      14.7275    0.124     
2915.4     6.8145     1.9508     6.7984     10.3683    10.4312    6.0013     5.8051     15.2158    0.124     
2915.6     6.9685     1.9579     6.724      10.4169    10.4567    6.0822     6.4246     15.6611    0.124     
2915.8     7.1115     2.0079     6.8434     10.6197    10.5869    6.1883     7.0838     16.0171    0.124     
2916       7.271      2.0421     7.0012     10.8368    10.7801    6.3171     7.153      16.3465    0.124     
2916.2     7.4249     2.0586     7.0484     10.9783    10.9436    6.4784     7.0043     16.7845    0.123     
2916.4     7.565      2.0593     7.1892     11.098     11.1425    6.6815     7.0138     17.2875    0.122     
2916.6     7.692      2.0917     7.4427     11.3345    11.5002    6.9067     7.847      17.5541    0.124     
2916.8     7.7854     2.1842     7.8082     11.6604    11.9638    7.1044     8.8942     17.9465    0.124     
2917       7.8665     2.2691     8.1372     12.0947    12.4248    7.2337     9.2007     18.0862    0.124     
2917.2     7.9355     2.3139     8.2717     12.4125    12.6437    7.2937     9.6128     17.9475    0.124     
2917.4     7.9773     2.3083     8.2668     12.5171    12.6056    7.2855     8.008      18.0471    0.124     
2917.6     7.9828     2.3094     8.3285     12.5956    12.539     7.2445     7.6337     18.5643    0.124     
2917.8     8.0281     2.2829     8.3567     12.7275    12.5067    7.2455     7.6587     19.1061    0.124     
2918       8.1188     2.2651     8.3359     12.7363    12.4281    7.2781     7.7505     19.6538    0.124     
2918.2     8.2564     2.1962     8.1305     12.6154    12.2755    7.3448     7.01       20.4594    0.124     
2918.4     8.4075     2.1356     7.848      12.5492    12.1297    7.4666     6.9266     21.3082    0.124     
2918.6     8.5994     2.132      7.8631     12.6313    12.1126    7.6348     8.6869     21.9224    0.124     
2918.8     8.8189     2.1471     7.8817     12.8046    12.2016    7.8452     8.8896     22.3001    0.124     
2919       8.964      2.1437     7.8856     12.9831    12.3255    8.1191     8.775      22.6106    0.124     
2919.2     9.1605     2.1517     7.9526     13.1799    12.4763    8.435      9.5739     22.8285    0.124     
2919.4     9.411      2.1663     8.0768     13.4214    12.8357    8.7487     9.976      22.9339    0.124     
2919.6     9.663      2.1981     8.3094     13.6982    13.3306    9.0256     11.4453    22.8792    0.124     
2919.8     9.9356     2.2501     8.4448     14.1079    13.8888    9.253      11.8265    22.6929    0.124     
2920       10.1625    2.302      8.6021     14.5681    14.4738    9.452      12.2754    22.436     0.124     
2920.2     10.3398    2.3663     8.8909     15.1       15.1026    9.5958     13.1308    22.0693    0.124     
2920.4     10.4458    2.444      9.2434     15.7529    15.7773    9.7414     14.4913    21.6149    0.124     
2920.6     10.4769    2.5351     9.6594     16.4945    16.528     9.8537     13.2352    21.3691    0.124     
2920.8     10.4554    2.6022     10.0909    17.165     17.2039    9.9669     12.3382    21.3074    0.124     
2921       10.4365    2.6044     10.2659    17.5017    17.7821    10.0652    11.7367    21.3376    0.124     
2921.2     10.4173    2.5896     10.2785    17.7874    18.2251    10.1418    11.3749    21.3013    0.124     
2921.4     10.3987    2.5662     10.2918    18.0996    18.5547    10.165     11.5027    21.3204    0.124     
2921.6     10.3966    2.5469     10.1843    18.3513    18.7196    10.1972    10.4928    21.5412    0.124     
2921.8     10.4097    2.5104     10.0335    18.5398    18.9523    10.2292    10.4878    21.8692    0.124     
2922       10.4338    2.4901     9.9357     18.685     19.2265    10.2639    10.989     22.1247    0.124     
2922.2     10.4917    2.4775     9.9031     18.8255    19.5541    10.3163    11.3601    22.1933    0.124     
2922.4     10.5524    2.4725     9.8838     18.942     19.9258    10.3687    11.549     22.1836    0.124     
2922.6     10.6129    2.4719     9.8393     19.0117    20.3493    10.4141    11.73      22.2268    0.124     
2922.8     10.6641    2.4896     9.834      18.9874    20.7542    10.4713    11.51      22.3542    0.127     
2923       10.7181    2.4819     9.837      18.9678    21.0595    10.5584    11.3014    22.4904    0.124     
2923.2     10.7765    2.4851     9.8585     19.0153    21.4747    10.6858    11.8628    22.5       0.124     
