~Version
 VERS              .         2.0                           : CWLS LOG ASCII STANDARD - VERSION 2.0
 WRAP              .         NO                            : ONE LINE PER DEPTH STEP
 DLM               .         SPACE                         : DELIMITING CHARACTER(SPACE TAB OR COMMA)
~Well Information
#_______________________________________________________________________________
#
#PARAMETER_NAME    .UNIT     VALUE                         : DESCRIPTION
#_______________________________________________________________________________
STRT               .m        2792                          : First reference value
STOP               .m        3022                          : Last reference value
STEP               .m        0.2                           : Step increment
NULL               .         -9999                         : Missing value
COMP               .                                       : Company
WELL               .         406                           : Well name
FLD                .                                       : Field
LOC                .                                       : Location
CNTY               .                                       : County
STAT               .                                       : State
CTRY               .                                       : Country
SRVC               .                                       : Service Company
DATE               .                                       : Date
API                .                                       : API number
EREF               .m        140.4                         : 
Pad                .         4                             : 
X                  .m        222100                        : 
Y                  .m        250025                        : 
group              .         Pad4                          : 
Интер-р            .         Пузин                         : 
Куст               .         4                             : 
Статус             .         Проверено                     : 
Тип                .         Нагнетательные                : 
~Parameter Information Block
#_______________________________________________________________________________
#
#PARAMETER_NAME    .UNIT     VALUE                         : DESCRIPTION
#_______________________________________________________________________________
SET                .         LAS1                          : 
REAL_CREATION_DATE .         Ср апр 11 2012-13_17_16       : 
TLFamily_DEPTH     .         Measured Depth                : 
TLFamily_KS        .         Potential Resistivity         : 
TLFamily_KS1       .         Extra Shallow Resistivity     : 
TLFamily_KS2       .         Shallow Resistivity           : 
TLFamily_KS3       .         Medium Resistivity            : 
TLFamily_KS4       .         Deep Resistivity              : 
TLFamily_KS5       .         Extra Deep Resistivity        : 
TLFamily_LLD       .         Lateral Log Resistivity       : 
TLFamily_OKS3      .         Medium Resistivity Inverted   : 
TLFamily_RM        .         Mud Resistivity               : 
group              .         INI                           : 
~Curve Information
#_______________________________________________________________________________
#
#LOGNAME           .UNIT     LOG_ID                        : DESCRIPTION
#_______________________________________________________________________________
DEPTH              .m                                      : Measured Depth 
KS                 .ohm.m                                  : Potential Resistivity 
KS1                .ohm.m                                  : Extra Shallow Resistivity 
KS2                .ohm.m                                  : Shallow Resistivity 
KS3                .ohm.m                                  : Medium Resistivity 
KS4                .ohm.m                                  : Deep Resistivity 
KS5                .ohm.m                                  : Extra Deep Resistivity 
LLD                .ohm.m                                  : Lateral Log Resistivity 
OKS3               .ohm.m                                  : Medium Resistivity Inverted 
RM                 .ohm.m                                  : Mud Resistivity 
~Ascii
# ...
2865       7.4089     2.1894     7.8039     12.9058    14.8179    8.2214     7.1761     13.2999    0.13      
2865.2     7.4267     2.2004     7.8704     12.8613    14.7741    8.3759     7.1585     13.2021    0.13      
2865.4     7.4211     2.2176     7.9336     12.8667    14.7684    8.5196     7.5125     13.1188    0.13      
2865.6     7.3881     2.2401     8.0885     12.9266    14.7683    8.6771     7.5025     13.09      0.13      
2865.8     7.3501     2.301      8.3182     13.1065    14.8768    8.8094     7.5554     13.0344    0.127     
2866       7.3124     2.3095     8.3339     13.2661    14.9633    8.9217     7.8121     12.9153    0.127     
2866.2     7.2554     2.3108     8.3398     13.3738    14.8804    8.9904     7.6558     12.7778    0.127     
2866.4     7.1819     2.3081     8.2763     13.3301    14.6368    9.0012     7.2244     12.6984    0.13      
2866.6     7.1345     2.2672     8.1051     13.1059    14.2522    9.0381     6.6146     12.745     0.13      
2866.8     7.107      2.1687     7.8686     12.8855    14.0349    9.1086     6.0871     13.0136    0.13      
2867       7.0787     2.1544     7.8164     12.983     14.0853    9.1832     6.0091     13.3414    0.13      
2867.2     7.0412     2.2302     8.0349     13.1755    14.2066    9.2324     6.7926     13.5028    0.13      
2867.4     7.0023     2.2337     8.0737     13.1181    14.1564    9.2851     7.7353     13.6587    0.129     
2867.6     6.9845     2.1939     7.9134     12.8953    13.9314    9.3182     6.6268     13.9492    0.128     
2867.8     6.9834     2.1352     7.6724     12.6976    13.6431    9.3063     6.4986     14.4491    0.128     
2868       6.9721     2.1394     7.6498     12.5038    13.3795    9.2887     6.2281     14.996     0.13      
2868.2     6.974      2.1394     7.6801     12.4535    13.271     9.2989     6.4023     15.5307    0.13      
2868.4     6.9902     2.1394     7.6376     12.3723    13.2338    9.4039     6.673      16.0233    0.13      
2868.6     7.027      2.1217     7.4523     12.175     13.0951    9.5291     6.4138     16.6226    0.13      
2868.8     7.0942     2.0623     7.3087     11.858     12.8439    9.6183     6.0593     17.4553    0.13      
2869       7.1585     2.0533     7.3048     11.6607    12.7042    9.6836     6.0255     18.371     0.13      
2869.2     7.2761     2.0362     7.2444     11.5562    12.6176    9.7408     6.7042     19.1324    0.129     
2869.4     7.4757     2.0489     7.193      11.426     12.5228    9.7619     6.5102     19.6465    0.13      
2869.6     7.7429     2.0129     7.1228     11.1885    12.3386    9.7471     7.1242     19.8462    0.131     
2869.8     8.0827     1.9891     7.0666     10.902     12.1096    9.7104     7.2102     20.1926    0.132     
2870       8.4756     1.867      6.8943     10.6344    11.8413    9.6892     6.9478     20.6194    0.13      
2870.2     8.8169     1.8698     6.5961     10.6595    11.7996    9.759      6.5746     20.3889    0.128     
2870.4     9.1358     2.0539     7.0057     11.044     12.1577    9.8248     8.9747     19.5445    0.129     
2870.6     9.4091     2.1888     7.7137     11.6453    12.7218    10.0653    17.7751    18.5525    0.129     
2870.8     9.6463     2.1591     7.7373     12.0321    13.0412    10.4681    12.9318    18.0652    0.13      
2871       9.7806     2.1478     8.3005     12.3008    13.8912    10.7444    10.5065    17.9645    0.131     
2871.2     9.786      2.3361     9.5629     13.2933    15.3582    10.9606    11.2882    17.687     0.134     
2871.4     9.7864     2.5688     10.1166    15.0428    16.1851    11.1818    28.392     16.8976    0.134     
2871.6     9.7412     2.6748     10.3216    16.2219    16.3622    11.2654    15.6346    15.9593    0.134     
2871.8     9.5176     2.699      10.4023    16.8927    16.5372    11.1819    11.8217    15.4212    0.131     
2872       9.1944     2.7005     10.506     17.4164    16.6552    11.0226    11.3781    15.2275    0.135     
2872.2     8.9058     2.6741     10.7034    17.659     16.6819    10.8589    9.9926     15.1612    0.137     
2872.4     8.7048     2.505      10.4687    17.6776    16.5569    10.6883    8.2391     15.239     0.137     
2872.6     8.5616     2.4037     9.9234     17.6366    16.3658    10.5363    7.7097     15.3368    0.134     
2872.8     8.4816     2.3625     9.5234     17.5913    16.3354    10.3878    7.9529     15.3687    0.131     
2873       8.4309     2.3188     9.1411     17.485     16.4106    10.365     7.9654     15.3317    0.134     
2873.2     8.4024     2.2771     8.7836     17.2414    16.5278    10.3756    7.9202     15.3304    0.136     
2873.4     8.4072     2.2308     8.4523     16.9372    16.6615    10.4649    7.6118     15.3115    0.135     
2873.6     8.4516     2.1708     8.1746     16.548     16.7961    10.6493    7.3638     15.2959    0.134     
2873.8     8.5588     2.1051     7.936      15.8888    17.0835    10.9378    7.3599     15.3702    0.133     
2874       8.6943     2.0395     7.907      15.5998    18.0796    11.2492    7.4166     15.4713    0.131     
2874.2     8.7592     2.1174     8.3707     16.3443    19.6282    11.5352    8.9763     15.1676    0.132     
2874.4     8.773      2.3698     9.0158     17.1232    20.9304    11.8035    17.3856    14.1756    0.126     
2874.6     8.7097     2.5082     9.4218     17.2364    21.5244    12.0257    13.6964    13.1455    0.124     
2874.8     8.5135     2.5345     9.4424     17.1041    21.6228    12.0116    10.2713    12.4415    0.124     
2875       8.2754     2.5286     9.5973     16.9725    21.5939    11.7804    9.4844     12.0438    0.127     
2875.2     8.0739     2.4555     9.5917     16.7869    21.4386    11.601     8.6636     11.7779    0.127     
2875.4     7.8615     2.4119     9.4952     16.5977    21.1861    11.5281    7.696      11.5636    0.127     
2875.6     7.6634     2.3914     9.4183     16.4948    21.001     11.4908    7.4865     11.5348    0.127     
2875.8     7.4836     2.358      9.1915     16.4601    20.7395    11.4885    6.7036     11.7207    0.127     
2876       7.3272     2.3018     8.8546     16.3041    20.1507    11.4605    6.3957     12.0405    0.127     
2876.2     7.2272     2.2457     8.5945     15.992     19.2508    11.3658    6.1595     12.4011    0.127     
2876.4     7.1674     2.1847     8.2417     15.6102    18.2984    11.2552    6.2245     12.6294    0.129     
2876.6     7.1746     2.1354     7.95       15.0517    17.4749    11.1845    6.1644     12.8444    0.128     
2876.8     7.1856     2.0573     7.589      14.4749    17.0745    11.1667    6.043      13.1089    0.13      
2877       7.1936     2.0807     7.572      14.1646    17.0664    11.2157    6.5174     13.4762    0.127     
2877.2     7.1786     2.1538     7.6873     14.193     17.2428    11.3472    7.5146     13.7409    0.128     
2877.4     7.0838     2.2657     8.039      14.2519    17.4105    11.445     8.1005     13.744     0.129     
2877.6     6.9871     2.4005     8.2661     14.1714    17.5257    11.5398    8.6585     13.6934    0.127     
2877.8     6.8973     2.2973     8.0724     13.6763    17.1529    11.4339    6.1165     13.7488    0.129     
2878       6.8486     2.1615     7.6631     12.8458    16.2341    11.1578    5.5819     13.9457    0.13      
2878.2     6.8734     2.0056     7.1699     11.9838    15.1724    10.8696    5.2033     14.1753    0.127     
2878.4     6.9321     1.8939     6.9107     11.3885    14.4778    10.814     4.9981     14.4072    0.127     
2878.6     7.0103     1.9197     6.912      11.2417    14.344     10.9304    6.8772     14.4851    0.127     
2878.8     7.1102     2.0352     7.0797     11.3997    14.4141    11.1187    7.0865     14.9874    0.127     
2879       7.3041     1.9837     6.9557     11.3035    14.141     11.3114    5.9998     15.9793    0.127     
2879.2     7.6242     1.7624     6.3197     10.8405    13.5633    11.5494    4.875      16.6215    0.127     
2879.4     8.0499     1.7064     6.1655     10.6822    13.3835    11.8108    5.6485     16.293     0.127     
