~Version
 VERS              .         2.0                           : CWLS LOG ASCII STANDARD - VERSION 2.0
 WRAP              .         NO                            : ONE LINE PER DEPTH STEP
 DLM               .         SPACE                         : DELIMITING CHARACTER(SPACE TAB OR COMMA)
~Well Information
#_______________________________________________________________________________
#
#PARAMETER_NAME    .UNIT     VALUE                         : DESCRIPTION
#_______________________________________________________________________________
STRT               .m        2792                          : First reference value
STOP               .m        3022                          : Last reference value
STEP               .m        0.2                           : Step increment
NULL               .         -9999                         : Missing value
COMP               .                                       : Company
WELL               .         406                           : Well name
FLD                .                                       : Field
LOC                .                                       : Location
CNTY               .                                       : County
STAT               .                                       : State
CTRY               .                                       : Country
SRVC               .                                       : Service Company
DATE               .                                       : Date
API                .                                       : API number
EREF               .m        140.4                         : 
Pad                .         4                             : 
X                  .m        222100                        : 
Y                  .m        250025                        : 
group              .         Pad4                          : 
Интер-р            .         Пузин                         : 
Куст               .         4                             : 
Статус             .         Проверено                     : 
Тип                .         Нагнетательные                : 
~Parameter Information Block
#_______________________________________________________________________________
#
#PARAMETER_NAME    .UNIT     VALUE                         : DESCRIPTION
#_______________________________________________________________________________
SET                .         LAS1                          : 
REAL_CREATION_DATE .         Ср апр 11 2012-13_17_16       : 
TLFamily_DEPTH     .         Measured Depth                : 
TLFamily_KS        .         Potential Resistivity         : 
TLFamily_KS1       .         Extra Shallow Resistivity     : 
TLFamily_KS2       .         Shallow Resistivity           : 
TLFamily_KS3       .         Medium Resistivity            : 
TLFamily_KS4       .         Deep Resistivity              : 
TLFamily_KS5       .         Extra Deep Resistivity        : 
TLFamily_LLD       .         Lateral Log Resistivity       : 
TLFamily_OKS3      .         Medium Resistivity Inverted   : 
TLFamily_RM        .         Mud Resistivity               : 
group              .         INI                           : 
~Curve Information
#_______________________________________________________________________________
#
#LOGNAME           .UNIT     LOG_ID                        : DESCRIPTION
#_______________________________________________________________________________
DEPTH              .m                                      : Measured Depth 
KS                 .ohm.m                                  : Potential Resistivity 
KS1                .ohm.m                                  : Extra Shallow Resistivity 
KS2                .ohm.m                                  : Shallow Resistivity 
KS3                .ohm.m                                  : Medium Resistivity 
KS4                .ohm.m                                  : Deep Resistivity 
KS5                .ohm.m                                  : Extra Deep Resistivity 
LLD                .ohm.m                                  : Lateral Log Resistivity 
OKS3               .ohm.m                                  : Medium Resistivity Inverted 
RM                 .ohm.m                                  : Mud Resistivity 
~Ascii
# ...
2850.4     6.0623     2.2883     8.1831     12.4221    13.5123    7.8745     5.8121     9.5111     0.128     
2850.6     5.9139     2.2221     7.9833     12.0355    13.0162    7.7958     5.0212     9.5238     0.13      
2850.8     5.8042     2.1776     7.7769     11.7109    12.5504    7.6886     5.188      9.4327     0.13      
2851       5.7326     2.1177     7.4925     11.452     12.1423    7.5469     5.1425     9.479      0.13      
2851.2     5.6597     2.0731     7.1857     11.2703    11.8273    7.3943     4.8173     9.6814     0.13      
2851.4     5.5945     2.0586     7.0566     11.1089    11.5485    7.2203     4.7237     9.9138     0.13      
2851.6     5.5581     2.0345     6.8957     10.8962    11.2365    7.0563     4.7365     10.1598    0.127     
2851.8     5.5537     1.996      6.7271     10.5963    10.8162    6.9388     4.6245     10.4212    0.127     
2852       5.5587     1.9725     6.5758     10.1813    10.4077    6.8227     4.638      10.7483    0.127     
2852.2     5.5909     1.9774     6.4982     9.8476     10.0516    6.7804     4.657      11.1374    0.127     
2852.4     5.6409     1.9297     6.3482     9.5759     9.8596     6.805      4.7437     11.5988    0.128     
2852.6     5.6795     1.9311     6.3909     9.4142     9.8678     6.8424     4.7978     12.0854    0.13      
2852.8     5.724      1.9781     6.4651     9.4423     9.8453     6.8559     5.1364     12.3447    0.128     
2853       5.777      2.0163     6.6337     9.4022     9.7301     6.8348     5.4266     12.4291    0.127     
2853.2     5.8361     2.0027     6.5681     9.1813     9.5141     6.7793     5.604      12.6469    0.129     
2853.4     5.8987     1.9775     6.4751     8.9208     9.2746     6.6869     5.1871     13.0134    0.13      
2853.6     5.9964     1.9375     6.4021     8.7017     9.0024     6.5767     5.0331     13.4807    0.13      
2853.8     6.1117     1.8718     6.2808     8.5315     8.7224     6.4922     4.9804     13.9371    0.13      
2854       6.2454     1.8841     6.2623     8.4392     8.4592     6.4599     4.9235     14.3188    0.13      
2854.2     6.3949     1.9049     6.3233     8.4543     8.2909     6.4433     5.5106     14.5538    0.13      
2854.4     6.5212     1.9258     6.4369     8.5767     8.2272     6.4509     5.9848     14.683     0.13      
2854.6     6.6435     1.9912     6.5863     8.7634     8.2441     6.4855     6.6061     14.6282    0.13      
2854.8     6.7545     2.0139     6.6963     9.0245     8.328      6.5461     6.8038     14.5864    0.128     
2855       6.8659     2.0311     6.8397     9.2615     8.3899     6.6107     6.7561     14.5937    0.13      
2855.2     6.9791     2.0296     6.86       9.4526     8.4148     6.6933     6.7595     14.7699    0.13      
2855.4     7.1107     2.0113     6.9085     9.611      8.4857     6.7706     6.6091     15.0616    0.13      
2855.6     7.2676     2.021      7.0296     9.8006     8.6099     6.8462     6.8596     15.3032    0.128     
2855.8     7.4326     1.9912     6.9806     9.9723     8.7756     6.9745     7.0985     15.4855    0.13      
2856       7.5642     2.003      7.0158     10.251     9.0002     7.197      6.8881     15.8487    0.13      
2856.2     7.6729     2.0483     7.2613     10.7347    9.4577     7.53       7.127      16.2029    0.132     
2856.4     7.7097     2.1234     7.7        11.4501    10.1755    7.9034     7.2331     16.4087    0.128     
2856.6     7.7668     2.2995     8.3733     12.2164    10.9861    8.1923     9.4654     16.1143    0.13      
2856.8     7.8512     2.3297     8.3007     12.7776    11.5469    8.2805     11.6279    15.506     0.132     
2857       7.8737     2.326      8.2876     12.9088    11.7321    8.1708     9.7281     14.9162    0.134     
2857.2     7.8737     2.3071     8.2076     12.8136    11.7179    8.0482     7.891      14.7788    0.137     
2857.4     7.8895     2.252      8.1407     12.6644    11.6657    7.9989     7.317      15.0249    0.137     
2857.6     7.9217     2.1903     8.0692     12.7017    11.794     7.9999     6.791      15.5671    0.136     
2857.8     7.958      2.2127     8.1366     13.0703    12.196     8.0328     7.2311     15.9623    0.134     
2858       7.9914     2.2614     8.3405     13.4802    12.6991    8.1371     7.6197     16.1395    0.134     
2858.2     7.9724     2.3256     8.402      13.9259    13.2486    8.3272     8.6995     16.0823    0.13      
2858.4     7.9432     2.404      8.8166     14.2504    13.7352    8.4793     7.9888     15.7547    0.13      
2858.6     7.9284     2.3812     8.7361     14.5281    13.9986    8.5039     9.1002     15.278     0.127     
2858.8     7.8957     2.3515     8.5855     14.5354    13.9032    8.4206     7.9923     14.9689    0.125     
2859       7.8665     2.3238     8.4486     14.3532    13.7105    8.2368     7.6646     14.8116    0.124     
2859.2     7.8554     2.2741     8.2011     13.9835    13.4729    8.0723     7.0161     14.8894    0.124     
2859.4     7.8798     2.1891     7.9976     13.5177    13.2849    8.0038     6.6167     15.1222    0.124     
2859.6     7.9481     2.1195     7.8484     13.1759    13.3576    8.1217     6.472      15.536     0.124     
2859.8     8.0595     2.0932     7.8073     13.341     13.9347    8.3329     6.9783     16.0699    0.124     
2860       8.1823     2.1364     7.9146     13.8596    14.5832    8.5942     7.1441     16.1567    0.124     
2860.2     8.3066     2.2356     8.1658     14.3637    15.0882    8.9512     8.0902     15.9645    0.124     
2860.4     8.3048     2.3097     8.3024     14.9718    15.7429    9.3138     10.5638    15.5887    0.125     
2860.6     8.2393     2.5031     8.9516     15.5237    16.4137    9.5235     9.4088     15.0582    0.124     
2860.8     8.1876     2.5064     9.2276     15.9463    17.0605    9.5974     12.457     14.3513    0.127     
2861       8.0781     2.5083     9.326      15.8648    17.1997    9.5866     10.98      13.7806    0.127     
2861.2     7.9618     2.4628     9.201      15.6402    16.9288    9.3791     8.6102     13.4316    0.125     
2861.4     7.8587     2.422      9.049      15.2968    16.4058    9.0432     7.7771     13.2164    0.127     
2861.6     7.7639     2.3607     8.8316     14.8818    15.8048    8.7088     6.9172     13.1896    0.127     
2861.8     7.6955     2.2959     8.5954     14.5071    15.3284    8.433      6.4979     13.3393    0.124     
2862       7.6459     2.2605     8.5014     14.3359    15.1305    8.2339     6.4874     13.4454    0.127     
2862.2     7.6277     2.2564     8.4248     14.3691    15.0427    8.1036     6.8835     13.4237    0.127     
2862.4     7.626      2.2372     8.3014     14.3469    14.998     8.0546     7.5211     13.3934    0.127     
2862.6     7.5846     2.2567     8.1926     14.4057    15.0018    8.0248     7.1266     13.3336    0.127     
2862.8     7.5297     2.3091     8.2872     14.5861    15.1166    8.0179     7.9576     13.1959    0.127     
2863       7.4506     2.3404     8.4442     14.6056    15.1424    7.9992     8.1802     13.1094    0.125     
2863.2     7.382      2.3401     8.4556     14.4755    15.1069    7.9745     8.1218     13.0942    0.127     
2863.4     7.3154     2.307      8.3523     14.2322    14.9486    7.9339     7.3865     13.1497    0.127     
2863.6     7.2741     2.2486     8.1283     13.8865    14.7087    7.8804     6.6264     13.3231    0.128     
2863.8     7.2446     2.2061     8.0258     13.5298    14.4921    7.8401     6.2024     13.5074    0.13      
2864       7.2568     2.1625     7.8376     13.223     14.3894    7.8437     6.2421     13.6745    0.128     
2864.2     7.2938     2.1417     7.7985     13.0399    14.5057    7.8867     6.5593     13.6911    0.13      
2864.4     7.3222     2.1645     7.8005     13.0383    14.6831    7.9463     7.0686     13.5747    0.128     
2864.6     7.3538     2.1993     7.8542     13.0225    14.7819    8.0096     7.4847     13.4607    0.127     
2864.8     7.3861     2.1993     7.8105     12.9552    14.8315    8.1017     7.3337     13.4015    0.127     
