~Version
 VERS              .         2.0                           : CWLS LOG ASCII STANDARD - VERSION 2.0
 WRAP              .         NO                            : ONE LINE PER DEPTH STEP
 DLM               .         SPACE                         : DELIMITING CHARACTER(SPACE TAB OR COMMA)
~Well Information
#_______________________________________________________________________________
#
#PARAMETER_NAME    .UNIT     VALUE                         : DESCRIPTION
#_______________________________________________________________________________
STRT               .m        2792                          : First reference value
STOP               .m        3024                          : Last reference value
STEP               .m        0.2                           : Step increment
NULL               .         -9999                         : Missing value
COMP               .                                       : Company
WELL               .         406                           : Well name
FLD                .                                       : Field
LOC                .                                       : Location
CNTY               .                                       : County
STAT               .                                       : State
CTRY               .                                       : Country
SRVC               .                                       : Service Company
DATE               .                                       : Date
API                .                                       : API number
EREF               .m        140.4                         : 
Pad                .         4                             : 
X                  .m        222100                        : 
Y                  .m        250025                        : 
group              .         Pad4                          : 
Интер-р            .         Пузин                         : 
Куст               .         4                             : 
Статус             .         Проверено                     : 
Тип                .         Нагнетательные                : 
~Parameter Information Block
#_______________________________________________________________________________
#
#PARAMETER_NAME    .UNIT     VALUE                         : DESCRIPTION
#_______________________________________________________________________________
SET                .         LAS3                          : 
REAL_CREATION_DATE .         Ср апр 11 2012-13_17_16       : 
TLFamily_DEPTH     .         Measured Depth                : 
TLFamily_GR        .         Gamma Ray                     : 
TLFamily_TNPH      .         Neutron Porosity              : 
group              .         INI                           : 
~Curve Information
#_______________________________________________________________________________
#
#LOGNAME           .UNIT     LOG_ID                        : DESCRIPTION
#_______________________________________________________________________________
DEPTH              .m                                      : Measured Depth 
GR                 .gAPI                                   :  
TNPH               .v/v                                    : Neutron Porosity 
~Ascii
2792.0     70.83      -9999     
2792.2     70.71      -9999     
2792.4     68.33      -9999     
2792.6     65.91      -9999     
2792.8     63.65      0.359     
2793       62.33      0.355     
2793.2     61.56      0.361     
2793.4     61.89      0.389     
2793.6     62.17      0.384     
2793.8     61.07      0.366     
2794       56.63      0.353     
2794.2     52.13      0.353     
2794.4     51.6       0.343     
2794.6     62.37      0.306     
2794.8     78.98      0.285     
2795       89.79      0.266     
2795.2     95.42      0.263     
2795.4     97         0.275     
2795.6     95.34      0.276     
2795.8     95.64      0.283     
2796       96.41      0.289     
2796.2     96.96999   0.279     
2796.4     98.18      0.273     
2796.6     100.2      0.268     
2796.8     100.46     0.271     
2797       99.94      0.272     
2797.2     100.83     0.276     
2797.4     101.98     0.284     
2797.6     104.33     0.274     
2797.8     106.58     0.269     
2798       108.18     0.269     
2798.2     109.12     0.26      
2798.4     107.47     0.26      
2798.6     106.81     0.266     
2798.8     108.94     0.273     
2799       109.86     0.277     
2799.2     108.46     0.273     
2799.4     104.16     0.276     
2799.6     104.52     0.27      
2799.8     109.07     0.267     
2800       109.68     0.275     
2800.2     107.87     0.29      
2800.4     106.6      0.288     
2800.6     104.64     0.286     
2800.8     101.7      0.287     
2801       98.64      0.281     
2801.2     97.95      0.279     
2801.4     99.79      0.27      
2801.6     97.48      0.263     
2801.8     95.52      0.263     
2802       95.83      0.256     
2802.2     98.10001   0.251     
2802.4     98.82      0.255     
2802.6     96.31      0.277     
2802.8     97.81      0.3       
2803       101.51     0.315     
2803.2     104.69     0.298     
2803.4     106.62     0.269     
2803.6     108.78     0.259     
2803.8     110.81     0.271     
2804       114.84     0.294     
2804.2     116.12     0.275     
2804.4     113.84     0.248     
2804.6     112.36     0.236     
2804.8     109.74     0.226     
2805       106.66     0.233     
2805.2     102.24     0.252     
2805.4     97.85      0.259     
2805.6     97.89      0.262     
2805.8     101.98     0.268     
2806       106.23     0.273     
2806.2     106.55     0.262     
2806.4     102.64     0.244     
2806.6     100.63     0.241     
2806.8     100.18     0.242     
2807       100.46     0.248     
2807.2     100.49     0.258     
2807.4     100.21     0.26      
2807.6     100.28     0.262     
2807.8     99.6       0.27      
2808       101.06     0.283     
2808.2     106.17     0.297     
2808.4     112.32     0.316     
2808.6     117.21     0.31      
2808.8     117.16     0.296     
2809       112.76     0.293     
2809.2     106.59     0.276     
2809.4     100.88     0.254     
2809.6     99.02      0.237     
2809.8     101.04     0.234     
2810       101.35     0.247     
2810.2     98.36      0.257     
2810.4     97.73      0.265     
2810.6     101.11     0.267     
2810.8     103.59     0.258     
2811       104.83     0.244     
2811.2     107.46     0.243     
2811.4     111.11     0.251     
2811.6     115.74     0.26      
2811.8     119.07     0.266     
2812       121.15     0.275     
2812.2     120.31     0.282     
2812.4     120.33     0.278     
2812.6     119.37     0.282     
2812.8     114.67     0.278     
2813       108.68     0.248     
2813.2     103.11     0.221     
2813.4     97.57      0.204     
2813.6     93.06      0.206     
2813.8     92.49      0.226     
2814       94.99      0.242     
2814.2     97.42      0.244     
2814.4     99.54001   0.241     
2814.6     101.27     0.255     
2814.8     102.89     0.264     
2815       103.25     0.26      
2815.2     104.35     0.254     
2815.4     105.64     0.254     
2815.6     105.42     0.258     
2815.8     104.88     0.267     
2816       105.95     0.278     
2816.2     108.3      0.287     
2816.4     108.28     0.285     
2816.6     106.12     0.279     
2816.8     107        0.286     
2817       109.61     0.294     
2817.2     112.21     0.299     
2817.4     114.2      0.292     
2817.6     116.34     0.283     
2817.8     115.34     0.282     
2818       114.9      0.275     
2818.2     114.54     0.258     
2818.4     113.11     0.256     
2818.6     110.83     0.261     
2818.8     108.71     0.26      
2819       106.57     0.262     
2819.2     102.68     0.263     
2819.4     99.01      0.254     
2819.6     96.81      0.251     
2819.8     93.62      0.244     
2820       93.19      0.251     
2820.2     100.01     0.266     
2820.4     104.61     0.278     
2820.6     103.74     0.275     
2820.8     104.5      0.265     
2821       105.53     0.274     
2821.2     103.45     0.288     
2821.4     103.26     0.288     
2821.6     105.36     0.28      
2821.8     103.35     0.277     
2822       98.64      0.267     
2822.2     93.94      0.25      
2822.4     93.46      0.236     
2822.6     97.34      0.223     
2822.8     96.46      0.209     
2823       94.16      0.201     
2823.2     94.89      0.205     
2823.4     94.27      0.22      
2823.6     93.7       0.233     
2823.8     95.64      0.249     
2824       99.5       0.259     
2824.2     102.88     0.257     
2824.4     105.11     0.248     
2824.6     105.31     0.248     
2824.8     103.76     0.245     
2825       105.05     0.235     
2825.2     105.02     0.24      
2825.4     103.38     0.248     
2825.6     102.59     0.254     
2825.8     103.02     0.25      
2826       102.94     0.234     
2826.2     102.83     0.23      
2826.4     101.15     0.24      
2826.6     98.92      0.24      
2826.8     97.42      0.234     
2827       93.64999   0.228     
2827.2     92.81999   0.231     
2827.4     96.56      0.243     
2827.6     101.97     0.255     
2827.8     102.26     0.258     
2828       99.51      0.267     
2828.2     98.69      0.277     
2828.4     100.44     0.272     
2828.6     100.55     0.261     
2828.8     99.58      0.264     
2829       98.86      0.266     
2829.2     96.96      0.261     
2829.4     97.43      0.256     
2829.6     99.93      0.25      
2829.8     102.38     0.246     
2830       103.04     0.254     
2830.2     102.21     0.252     
2830.4     99.52      0.255     
2830.6     99.02      0.265     
2830.8     102.14     0.268     
2831       105.18     0.263     
2831.2     105.22     0.264     
2831.4     101.32     0.262     
2831.6     97.25999   0.254     
2831.8     94.32      0.256     
2832       94.73      0.256     
2832.2     96.73      0.254     
2832.4     98.9       0.254     
2832.6     98.26      0.254     
2832.8     98.17001   0.251     
2833       99.53      0.244     
2833.2     98.3       0.24      
2833.4     95.91      0.24      
2833.6     93.63      0.245     
2833.8     94.92      0.242     
2834       95.52      0.232     
2834.2     92.36      0.227     
2834.4     88.63      0.215     
2834.6     85.35      0.201     
2834.8     86.17      0.184     
2835       84.28001   0.16      
2835.2     79.51      0.146     
2835.4     74.89999   0.144     
2835.6     71.1       0.14      
2835.8     69.87      0.138     
2836       72.47      0.143     
2836.2     74.77      0.147     
2836.4     74.32999   0.146     
2836.6     74.29      0.15      
2836.8     78.41      0.161     
2837       83.41      0.163     
2837.2     83.54      0.162     
2837.4     81.61      0.175     
2837.6     80.22      0.189     
2837.8     81.62      0.19      
2838       82.9       0.18      
2838.2     83.54      0.175     
2838.4     83.92      0.176     
2838.6     83.74      0.187     
2838.8     84.41      0.202     
2839       87.3       0.218     
2839.2     91.66      0.233     
2839.4     95.21      0.239     
2839.6     96.14      0.232     
2839.8     95.64      0.247     
2840       96.41      0.258     
2840.2     98.4       0.241     
2840.4     99.18      0.232     
