~Version
 VERS              .         2.0                           : CWLS LOG ASCII STANDARD - VERSION 2.0
 WRAP              .         NO                            : ONE LINE PER DEPTH STEP
 DLM               .         SPACE                         : DELIMITING CHARACTER(SPACE TAB OR COMMA)
~Well Information
#_______________________________________________________________________________
#
#PARAMETER_NAME    .UNIT     VALUE                         : DESCRIPTION
#_______________________________________________________________________________
STRT               .m        2792                          : First reference value
STOP               .m        3024                          : Last reference value
STEP               .m        0.2                           : Step increment
NULL               .         -9999                         : Missing value
COMP               .                                       : Company
WELL               .         406                           : Well name
FLD                .                                       : Field
LOC                .                                       : Location
CNTY               .                                       : County
STAT               .                                       : State
CTRY               .                                       : Country
SRVC               .                                       : Service Company
DATE               .                                       : Date
API                .                                       : API number
EREF               .m        140.4                         : 
Pad                .         4                             : 
X                  .m        222100                        : 
Y                  .m        250025                        : 
group              .         Pad4                          : 
Интер-р            .         Пузин                         : 
Куст               .         4                             : 
Статус             .         Проверено                     : 
Тип                .         Нагнетательные                : 
~Parameter Information Block
#_______________________________________________________________________________
#
#PARAMETER_NAME    .UNIT     VALUE                         : DESCRIPTION
#_______________________________________________________________________________
SET                .         LAS3                          : 
REAL_CREATION_DATE .         Ср апр 11 2012-13_17_16       : 
TLFamily_DEPTH     .         Measured Depth                : 
TLFamily_GR        .         Gamma Ray                     : 
TLFamily_TNPH      .         Neutron Porosity              : 
group              .         INI                           : 
~Curve Information
#_______________________________________________________________________________
#
#LOGNAME           .UNIT     LOG_ID                        : DESCRIPTION
#_______________________________________________________________________________
DEPTH              .m                                      : Measured Depth 
GR                 .gAPI                                   :  
TNPH               .v/v                                    : Neutron Porosity 
~Ascii
# ...
2937.8     154.49     0.341     
2938       146.44     0.304     
2938.2     130.71     0.286     
2938.4     116.89     0.284     
2938.6     111.43     0.283     
2938.8     110.96     0.29      
2939       114.83     0.298     
2939.2     121.85     0.297     
2939.4     134.06     0.308     
2939.6     153.16     0.331     
2939.8     169.35     0.356     
2940       175.67     0.343     
2940.2     171.31     0.331     
2940.4     161.1      0.318     
2940.6     148.94     0.306     
2940.8     136.14     0.313     
2941       128.89     0.318     
2941.2     129.52     0.322     
2941.4     130.82     0.334     
2941.6     137.14     0.351     
2941.8     151.62     0.364     
2942       167.72     0.357     
2942.2     189.28     0.355     
2942.4     211.57     0.341     
2942.6     226.89     0.343     
2942.8     228.5      0.338     
2943       219.64     0.336     
2943.2     212.59     0.354     
2943.4     210.73     0.364     
2943.6     219.01     0.358     
2943.8     226.37     0.355     
2944       222.56     0.348     
2944.2     218.02     0.346     
2944.4     224.99     0.383     
2944.6     237.54     0.409     
2944.8     238.25     0.4       
2945       212.41     0.366     
2945.2     177.55     0.338     
2945.4     155.32     0.335     
2945.6     141.88     0.348     
2945.8     135.52     0.355     
2946       136.03     0.351     
2946.2     134.09     0.338     
2946.4     128.66     0.325     
2946.6     124.45     0.318     
2946.8     125.04     0.312     
2947       123.49     0.289     
2947.2     115.31     0.25      
2947.4     107.49     0.22      
2947.6     96.51      0.202     
2947.8     88.91      0.186     
2948       109.95     0.19      
2948.2     137.09     0.218     
2948.4     158.23     0.248     
2948.6     167.22     0.263     
2948.8     174.45     0.269     
2949       174.44     0.284     
2949.2     165.95     0.298     
2949.4     151.72     0.302     
2949.6     143.76     0.315     
2949.8     142.43     0.315     
2950       144.28     0.298     
2950.2     142.64     0.294     
2950.4     139.66     0.301     
2950.6     138.52     0.288     
2950.8     137.33     0.279     
2951       135.51     0.285     
2951.2     132.08     0.291     
2951.4     131.34     0.295     
2951.6     136.67     0.291     
2951.8     144.42     0.289     
2952       150.33     0.291     
2952.2     151.42     0.294     
2952.4     154.01     0.305     
2952.6     153.58     0.32      
2952.8     147.65     0.329     
2953       145.61     0.341     
2953.2     144.9      0.355     
2953.4     140.9      0.347     
2953.6     138.53     0.329     
2953.8     141.65     0.317     
2954       146.41     0.318     
2954.2     145.52     0.319     
2954.4     141.85     0.309     
2954.6     133.46     0.286     
2954.8     123.19     0.275     
2955       120.8      0.267     
2955.2     133.05     0.271     
2955.4     140.53     0.285     
2955.6     140.67     0.292     
2955.8     146.03     0.293     
2956       149.91     0.293     
2956.2     148.66     0.309     
2956.4     145.22     0.311     
2956.6     145.47     0.315     
2956.8     150.17     0.31      
2957       153.06     0.321     
2957.2     153.78     0.332     
2957.4     152.39     0.322     
2957.6     150.9      0.321     
2957.8     149.8      0.317     
2958       142.37     0.307     
2958.2     134.67     0.304     
2958.4     133.77     0.299     
2958.6     138.03     0.3       
2958.8     137.82     0.303     
2959       135.52     0.302     
2959.2     133.2      0.309     
2959.4     132.93     0.294     
2959.6     135.28     0.282     
2959.8     136        0.273     
2960       137.1      0.271     
2960.2     137.02     0.282     
2960.4     134.46     0.297     
2960.6     134.52     0.313     
2960.8     140.33     0.315     
2961       142.77     0.318     
2961.2     141.66     0.322     
2961.4     141.21     0.326     
2961.6     140.96     0.332     
2961.8     140.91     0.339     
2962       139.8      0.328     
2962.2     138.64     0.305     
2962.4     138.76     0.291     
2962.6     138.56     0.291     
2962.8     137.38     0.28      
2963       137.22     0.264     
2963.2     137.69     0.258     
2963.4     135.01     0.243     
2963.6     128.26     0.224     
2963.8     119.02     0.205     
2964       114.53     0.188     
2964.2     121.39     0.173     
2964.4     130.3      0.159     
2964.6     127.53     0.142     
2964.8     108.12     0.122     
2965       76.08      0.112     
2965.2     50.39      0.111     
2965.4     44.54      0.123     
2965.6     47.31      0.133     
2965.8     48.2       0.145     
2966       44.92      0.144     
2966.2     44.06      0.143     
2966.4     45.05      0.152     
2966.6     44.06      0.165     
2966.8     42.86      0.175     
2967       42.23      0.181     
2967.2     43.58      0.184     
2967.4     44.71      0.175     
2967.6     43.01      0.165     
2967.8     40.43      0.165     
2968       38.38      0.167     
2968.2     37.99      0.164     
2968.4     38.04      0.161     
2968.6     39.16      0.152     
2968.8     42.64      0.142     
2969       44.81      0.137     
2969.2     44.91      0.133     
2969.4     45.34      0.136     
2969.6     45.37      0.139     
2969.8     46.15      0.138     
2970       44.59      0.139     
2970.2     42.93      0.145     
2970.4     43.26      0.158     
2970.6     42.77      0.168     
2970.8     40.74      0.166     
2971       40.93      0.164     
2971.2     41.99      0.164     
2971.4     40.98      0.169     
2971.6     41.23      0.177     
2971.8     44.31      0.168     
2972       49.22      0.166     
2972.2     50.33      0.174     
2972.4     51.47      0.183     
2972.6     51.71      0.188     
2972.8     52.17      0.185     
2973       52.58      0.181     
2973.2     50.54      0.177     
2973.4     49.14      0.174     
2973.6     49.81      0.17      
2973.8     48.49      0.169     
2974       44.54      0.172     
2974.2     44.78      0.174     
2974.4     49.64      0.172     
2974.6     55.93      0.176     
2974.8     60.55      0.177     
2975       62.05      0.173     
2975.2     62.57      0.176     
2975.4     61.89999   0.18      
2975.6     61.02      0.184     
2975.8     59.44      0.184     
2976       57.31      0.19      
2976.2     56.73      0.195     
2976.4     55.92      0.202     
2976.6     54.75      0.208     
2976.8     56.45      0.204     
2977       57.98      0.191     
2977.2     57.05      0.18      
2977.4     54.36      0.185     
2977.6     53.07      0.191     
2977.8     52.89      0.188     
2978       49.57      0.185     
2978.2     46.75      0.184     
2978.4     46.9       0.189     
2978.6     47.33      0.199     
2978.8     47.3       0.204     
2979       47.19      0.208     
2979.2     46.81      0.211     
2979.4     48.2       0.213     
2979.6     50.39      0.213     
2979.8     52.57      0.207     
2980       51.8       0.207     
2980.2     45.19      0.203     
2980.4     42.98      0.2       
2980.6     45.62      0.2       
2980.8     46.36      0.197     
2981       45.13      0.194     
2981.2     43.4       0.185     
2981.4     42.64      0.172     
2981.6     46         0.172     
2981.8     50.88      0.177     
2982       52.77      0.173     
2982.2     53.53      0.178     
2982.4     55.8       0.19      
2982.6     55.36      0.21      
2982.8     56.63      0.219     
2983       57.25      0.217     
2983.2     57.05      0.215     
2983.4     58.93      0.214     
2983.6     60.38      0.221     
2983.8     61.31      0.234     
2984       62.8       0.239     
2984.2     67.49      0.238     
2984.4     76.37      0.23      
2984.6     87.72      0.228     
2984.8     97.91      0.231     
2985       103.69     0.229     
2985.2     104.38     0.225     
2985.4     101.35     0.221     
2985.6     102.68     0.237     
2985.8     103.61     0.25      
2986       101.73     0.244     
2986.2     98.78999   0.248     
