~Version
 VERS              .         2.0                           : CWLS LOG ASCII STANDARD - VERSION 2.0
 WRAP              .         NO                            : ONE LINE PER DEPTH STEP
 DLM               .         SPACE                         : DELIMITING CHARACTER(SPACE TAB OR COMMA)
~Well Information
#_______________________________________________________________________________
#
#PARAMETER_NAME    .UNIT     VALUE                         : DESCRIPTION
#_______________________________________________________________________________
STRT               .m        2792                          : First reference value
STOP               .m        3022                          : Last reference value
STEP               .m        0.2                           : Step increment
NULL               .         -9999                         : Missing value
COMP               .                                       : Company
WELL               .         406                           : Well name
FLD                .                                       : Field
LOC                .                                       : Location
CNTY               .                                       : County
STAT               .                                       : State
CTRY               .                                       : Country
SRVC               .                                       : Service Company
DATE               .                                       : Date
API                .                                       : API number
EREF               .m        140.4                         : 
Pad                .         4                             : 
X                  .m        222100                        : 
Y                  .m        250025                        : 
group              .         Pad4                          : 
Интер-р            .         Пузин                         : 
Куст               .         4                             : 
Статус             .         Проверено                     : 
Тип                .         Нагнетательные                : 
~Parameter Information Block
#_______________________________________________________________________________
#
#PARAMETER_NAME    .UNIT     VALUE                         : DESCRIPTION
#_______________________________________________________________________________
SET                .         LAS1                          : 
REAL_CREATION_DATE .         Ср апр 11 2012-13_17_16       : 
TLFamily_DEPTH     .         Measured Depth                : 
TLFamily_KS        .         Potential Resistivity         : 
TLFamily_KS1       .         Extra Shallow Resistivity     : 
TLFamily_KS2       .         Shallow Resistivity           : 
TLFamily_KS3       .         Medium Resistivity            : 
TLFamily_KS4       .         Deep Resistivity              : 
TLFamily_KS5       .         Extra Deep Resistivity        : 
TLFamily_LLD       .         Lateral Log Resistivity       : 
TLFamily_OKS3      .         Medium Resistivity Inverted   : 
TLFamily_RM        .         Mud Resistivity               : 
group              .         INI                           : 
~Curve Information
#_______________________________________________________________________________
#
#LOGNAME           .UNIT     LOG_ID                        : DESCRIPTION
#_______________________________________________________________________________
DEPTH              .m                                      : Measured Depth 
KS                 .ohm.m                                  : Potential Resistivity 
KS1                .ohm.m                                  : Extra Shallow Resistivity 
KS2                .ohm.m                                  : Shallow Resistivity 
KS3                .ohm.m                                  : Medium Resistivity 
KS4                .ohm.m                                  : Deep Resistivity 
KS5                .ohm.m                                  : Extra Deep Resistivity 
LLD                .ohm.m                                  : Lateral Log Resistivity 
OKS3               .ohm.m                                  : Medium Resistivity Inverted 
RM                 .ohm.m                                  : Mud Resistivity 
~Ascii
# ...
2938       11.5915    3.0132     12.6335    27.3578    39.9387    31.8881    18.6115    19.342     0.137     
2938.2     11.3147    3.0427     12.7715    27.4237    39.5689    31.9736    15.9516    18.7673    0.136     
2938.4     11.0782    2.8875     12.2553    26.7521    38.3116    31.6656    10.7328    18.6127    0.134     
2938.6     10.9044    2.7129     11.4896    25.3347    36.3837    31.0456    8.9731     18.9883    0.134     
2938.8     10.8142    2.5377     10.7791    23.9112    34.5157    30.1922    8.7273     19.7462    0.133     
2939       10.8143    2.4437     10.3373    22.7975    33.1244    29.3672    9.2701     20.5687    0.129     
2939.2     10.881     2.38       9.9881     21.9926    32.3185    28.8261    10.6892    21.1824    0.125     
2939.4     10.9872    2.3773     9.7957     21.4994    31.9228    28.692     11.919     21.5512    0.124     
2939.6     11.0797    2.4477     9.9356     21.4379    32.0109    28.7771    14.5471    21.6652    0.124     
2939.8     11.1422    2.5294     10.0959    21.7187    32.4158    29.0027    14.7053    21.6225    0.127     
2940       11.1612    2.5627     10.1829    21.8661    32.7975    29.3063    14.6761    21.5438    0.127     
2940.2     11.1277    2.6393     10.3991    21.8536    33.0885    29.4793    15.1909    21.6243    0.127     
2940.4     11.0215    2.6811     10.6562    21.8451    33.3022    29.3975    13.9541    21.7616    0.127     
2940.6     10.9143    2.7442     11.0094    21.6615    33.179     29.1736    13.4268    21.9232    0.124     
2940.8     10.8452    2.6549     10.7108    21.084     32.5655    28.7492    10.0032    22.3994    0.125     
2941       10.8069    2.5561     10.352     20.1937    31.2698    28.1336    9.5645     23.297     0.125     
2941.2     10.8391    2.4074     9.7959     19.4284    29.6639    27.4097    8.9465     24.5746    0.124     
2941.4     10.9427    2.2956     9.3456     18.7902    28.2449    26.884     9.1721     25.9589    0.126     
2941.6     11.0867    2.2709     9.2578     18.5798    27.4878    26.5797    11.8976    27.0928    0.124     
2941.8     11.3037    2.3254     9.3914     18.6908    27.3889    26.5582    12.3372    28.0801    0.126     
2942       11.6111    2.2935     9.0577     18.5333    27.0503    26.8496    10.8503    29.2374    0.124     
2942.2     11.946     2.2246     8.8037     18.2719    26.6435    27.1915    10.8924    30.2412    0.124     
2942.4     12.295     2.2732     8.9875     18.3632    26.661     27.4691    15.6687    30.4857    0.124     
2942.6     12.6531    2.348      9.2954     18.7728    26.9588    27.8216    18.7945    29.926     0.125     
2942.8     12.9489    2.4428     9.6572     19.073     27.1791    28.2481    18.1233    29.2754    0.125     
2943       13.1968    2.472      9.778      19.2532    27.3577    28.574     16.7616    28.6675    0.127     
2943.2     13.4227    2.5061     10.0258    19.3517    27.5263    28.9498    17.208     28.3048    0.127     
2943.4     13.6117    2.4896     10.1904    19.5808    27.9127    29.3364    15.4285    28.0477    0.124     
2943.6     13.8024    2.5103     10.384     19.9081    28.4694    29.8749    18.4205    27.6238    0.124     
2943.8     13.9912    2.5378     10.6208    20.4663    29.2634    30.5419    19.4761    26.9486    0.124     
2944       14.1566    2.6051     10.8891    21.2283    30.1883    31.3392    19.7739    26.0789    0.124     
2944.2     14.2768    2.6572     11.1719    22.092     31.1614    32.2614    20.5744    25.1466    0.127     
2944.4     14.3669    2.6887     11.3667    23.1472    32.2525    33.3228    20.4862    24.315     0.127     
2944.6     14.3567    2.7905     11.8761    24.5942    33.7311    34.3665    29.7689    23.2384    0.127     
2944.8     14.2283    2.9668     12.6103    26.4102    35.4675    35.2799    35.0865    21.8469    0.127     
2945       13.994     3.1389     13.2794    28.0811    36.9522    35.9011    32.3644    20.4522    0.127     
2945.2     13.6881    3.2021     13.7391    29.0659    37.7965    36.1311    24.6956    19.2559    0.127     
2945.4     13.3283    3.2068     13.8393    29.5025    38.1962    35.8795    18.4041    18.4044    0.127     
2945.6     12.9853    3.1726     13.8398    29.5407    38.2738    35.1479    14.7525    17.7161    0.127     
2945.8     12.6303    3.0817     13.4713    29.4267    38.2175    34.1046    12.4898    17.0752    0.127     
2946       12.2697    3.0385     13.3847    29.4021    38.2821    32.9205    12.7093    16.1904    0.127     
2946.2     11.9325    3.0613     13.3996    29.4982    38.7444    31.7242    14.9361    15.0481    0.127     
2946.4     11.6249    2.9914     12.9483    29.2303    38.9802    30.6276    12.1615    14.057     0.127     
2946.6     11.2791    2.9037     12.5235    28.5366    38.7238    29.473     11.4933    13.2494    0.124     
2946.8     10.9553    2.8733     12.2175    27.8099    38.2015    28.1687    10.7696    12.5998    0.124     
2947       10.6888    2.8109     11.9247    27.2       37.7129    26.9689    10.3938    12.0542    0.124     
2947.2     10.4156    2.794      11.7226    26.6928    37.6403    26.0397    10.6864    11.6373    0.127     
2947.4     10.2095    2.7454     11.541     26.03      37.3848    25.5288    10.6573    11.4343    0.127     
2947.6     9.9315     2.6374     11.0744    25.7335    37.7069    25.4933    9.1762     11.4311    0.125     
2947.8     9.5347     2.8529     11.9134    26.3899    39.4344    25.9728    30.676     11.1055    0.126     
2948       9.078      3.1648     13.1458    27.9141    42.3408    26.1341    54.262     10.2734    0.127     
2948.2     8.6008     3.3579     13.406     28.4986    43.4583    26.029     17.6928    9.2244     0.124     
2948.4     8.0279     3.205      12.5992    27.307     41.5507    25.2465    7.616      8.4573     0.124     
2948.6     7.4415     2.9883     11.8574    24.957     38.1339    23.5541    5.8379     8.0183     0.126     
2948.8     6.9627     2.7302     11.1122    22.4128    34.3267    21.2467    5.0837     7.7883     0.127     
2949       6.6005     2.4515     10.2076    20.1089    30.7532    19.2551    4.7075     7.8596     0.127     
2949.2     6.3158     2.2561     9.3206     18.2409    27.8282    17.6206    4.1837     8.2677     0.127     
2949.4     6.1278     2.1572     8.5692     17.0002    25.7182    16.3175    4.396      8.5953     0.127     
2949.6     6.0465     2.112      8.1286     16.1004    24.0978    15.3713    4.9315     8.7644     0.127     
2949.8     6.0308     2.061      7.5281     15.188     22.4666    14.663     4.5799     8.9171     0.127     
2950       6.0153     2.0201     7.097      14.4159    20.9457    14.1341    4.6526     9.0301     0.127     
2950.2     6.0242     2.0025     6.8823     13.7467    19.6292    13.7223    5.1528     9.0918     0.127     
2950.4     6.0349     2.0041     6.8721     13.1617    18.7463    13.4174    5.1464     9.0862     0.128     
2950.6     6.0076     2.077      7.0777     12.6537    18.0928    13.282     6.3375     8.985      0.13      
2950.8     5.9466     2.1512     7.2454     12.2839    17.5889    13.1387    6.3707     8.6791     0.13      
2951       5.8301     2.2572     7.4017     11.7847    16.8195    12.9053    6.5882     8.3031     0.13      
2951.2     5.6967     2.2555     7.3648     11.0511    15.7501    12.4852    5.1741     8.2346     0.128     
2951.4     5.553      2.1488     7.1247     10.3047    14.5219    11.9493    4.2165     8.4155     0.127     
2951.6     5.4358     2.0309     6.9379     9.7375     13.4144    11.3785    4.185      8.703      0.127     
2951.8     5.4053     1.9392     6.6473     9.3404     12.4678    10.9301    4.1915     9.0678     0.127     
2952       5.3937     1.8549     6.4033     9.0956     11.8357    10.6029    4.1795     9.4664     0.127     
2952.2     5.395      1.9147     6.2524     8.9847     11.4354    10.3645    5.1832     9.77       0.127     
2952.4     5.4183     1.9068     6.1858     8.9726     11.0139    10.2115    4.7491     10.0261    0.128     
