~Version
 VERS              .         2.0                           : CWLS LOG ASCII STANDARD - VERSION 2.0
 WRAP              .         NO                            : ONE LINE PER DEPTH STEP
 DLM               .         SPACE                         : DELIMITING CHARACTER(SPACE TAB OR COMMA)
~Well Information
#_______________________________________________________________________________
#
#PARAMETER_NAME    .UNIT     VALUE                         : DESCRIPTION
#_______________________________________________________________________________
STRT               .m        2792                          : First reference value
STOP               .m        3022                          : Last reference value
STEP               .m        0.2                           : Step increment
NULL               .         -9999                         : Missing value
COMP               .                                       : Company
WELL               .         406                           : Well name
FLD                .                                       : Field
LOC                .                                       : Location
CNTY               .                                       : County
STAT               .                                       : State
CTRY               .                                       : Country
SRVC               .                                       : Service Company
DATE               .                                       : Date
API                .                                       : API number
EREF               .m        140.4                         : 
Pad                .         4                             : 
X                  .m        222100                        : 
Y                  .m        250025                        : 
group              .         Pad4                          : 
Интер-р            .         Пузин                         : 
Куст               .         4                             : 
Статус             .         Проверено                     : 
Тип                .         Нагнетательные                : 
~Parameter Information Block
#_______________________________________________________________________________
#
#PARAMETER_NAME    .UNIT     VALUE                         : DESCRIPTION
#_______________________________________________________________________________
SET                .         LAS1                          : 
REAL_CREATION_DATE .         Ср апр 11 2012-13_17_16       : 
TLFamily_DEPTH     .         Measured Depth                : 
TLFamily_KS        .         Potential Resistivity         : 
TLFamily_KS1       .         Extra Shallow Resistivity     : 
TLFamily_KS2       .         Shallow Resistivity           : 
TLFamily_KS3       .         Medium Resistivity            : 
TLFamily_KS4       .         Deep Resistivity              : 
TLFamily_KS5       .         Extra Deep Resistivity        : 
TLFamily_LLD       .         Lateral Log Resistivity       : 
TLFamily_OKS3      .         Medium Resistivity Inverted   : 
TLFamily_RM        .         Mud Resistivity               : 
group              .         INI                           : 
~Curve Information
#_______________________________________________________________________________
#
#LOGNAME           .UNIT     LOG_ID                        : DESCRIPTION
#_______________________________________________________________________________
DEPTH              .m                                      : Measured Depth 
KS                 .ohm.m                                  : Potential Resistivity 
KS1                .ohm.m                                  : Extra Shallow Resistivity 
KS2                .ohm.m                                  : Shallow Resistivity 
KS3                .ohm.m                                  : Medium Resistivity 
KS4                .ohm.m                                  : Deep Resistivity 
KS5                .ohm.m                                  : Extra Deep Resistivity 
LLD                .ohm.m                                  : Lateral Log Resistivity 
OKS3               .ohm.m                                  : Medium Resistivity Inverted 
RM                 .ohm.m                                  : Mud Resistivity 
~Ascii
# ...
2894.2     7.1372     2.0699     7.2182     12.0607    13.1982    8.9932     7.054      11.1786    0.127     
2894.4     7.2196     1.9174     6.7835     11.3451    13.091     9.0082     5.4361     11.5574    0.127     
2894.6     7.3318     1.8296     6.7201     10.9544    13.1424    9.1192     5.2959     12.147     0.128     
2894.8     7.5026     1.8505     6.8891     11.2895    13.9459    9.4658     6.7999     12.6491    0.13      
2895       7.6445     1.9322     7.1931     12.2775    15.4923    10.0444    7.5509     12.6167    0.131     
2895.2     7.6622     2.1863     7.9506     13.7873    17.4634    10.7044    10.1702    11.9751    0.134     
2895.4     7.4484     2.5561     8.9701     15.5514    19.55      11.2694    25.5019    10.9171    0.134     
2895.6     7.0402     2.9896     10.1335    16.7563    20.695     11.4464    29.6417    10.0214    0.134     
2895.8     6.6442     2.8866     10.2727    16.5331    20.2175    11.1667    9.0078     9.3783     0.134     
2896       6.2915     2.4987     9.2433     15.216     18.2694    10.5371    5.3027     9.0836     0.133     
2896.2     6.0286     2.1971     8.5589     13.7941    16.0204    9.5747     4.3023     9.0183     0.13      
2896.4     5.8535     2.0178     7.8602     12.6541    14.2757    8.5469     4.2498     9.1955     0.13      
2896.6     5.7841     1.8608     7.1188     11.6788    12.8959    7.9035     4.0696     9.3665     0.13      
2896.8     5.7817     1.7358     6.4383     10.9226    11.9087    7.5407     3.9417     9.9253     0.13      
2897       5.8484     1.6716     6.0373     10.5544    11.4596    7.3468     3.9213     10.711     0.129     
2897.2     6.0022     1.6734     5.8918     10.5632    11.4601    7.2996     4.1723     11.2773    0.128     
2897.4     6.1768     1.743      5.9084     10.7966    11.6925    7.3614     5.1394     11.3951    0.124     
2897.6     6.3298     1.8429     6.0607     10.9875    11.938     7.4901     6.732      11.261     0.124     
2897.8     6.4066     1.9448     6.2374     11.0352    12.1638    7.6502     7.0686     10.9906    0.121     
2898       6.4304     2.0306     6.5904     10.9805    12.3434    7.7869     7.3347     10.7914    0.124     
2898.2     6.4175     2.0716     6.8736     10.88      12.4933    7.9204     6.8049     10.6375    0.124     
2898.4     6.384      2.0855     7.0788     10.723     12.5273    8.108      6.4811     10.525     0.124     
2898.6     6.3401     2.0855     7.1923     10.588     12.5211    8.3621     6.0218     10.4447    0.124     
2898.8     6.2859     2.0788     7.2501     10.4918    12.5456    8.6569     5.9402     10.4017    0.124     
2899       6.2593     2.0708     7.2309     10.4583    12.6477    9.0298     5.9021     10.3841    0.124     
2899.2     6.2263     2.0607     7.2261     10.5644    12.7812    9.4423     5.7547     10.4092    0.124     
2899.4     6.187      2.0563     7.1789     10.7238    12.9243    9.7837     5.6092     10.4948    0.124     
2899.6     6.1628     2.039      7.0972     10.8394    12.9441    10.0376    5.5248     10.6188    0.124     
2899.8     6.1607     2.0192     7.0706     10.8719    12.7817    10.1789    5.3666     10.7427    0.124     
2900       6.1718     2.0049     6.9977     10.865     12.5004    10.2305    5.3945     10.8331    0.126     
2900.2     6.1794     2.0151     6.9751     10.8566    12.202     10.2302    5.6094     10.9121    0.124     
2900.4     6.1778     2.0226     7.002      10.8851    11.9508    10.1692    5.7368     11.0266    0.124     
2900.6     6.1595     2.0762     7.125      10.9164    11.7356    10.1025    5.935      11.0309    0.124     
2900.8     6.1353     2.108      7.2107     10.9362    11.5147    10.0086    5.8423     10.9164    0.121     
2901       6.1096     2.0992     7.1789     10.8576    11.2543    9.9058     5.4931     10.8396    0.124     
2901.2     6.0754     2.0893     7.108      10.7201    11.0139    9.7821     5.2104     10.9232    0.124     
2901.4     6.0528     2.0591     7.0814     10.5308    10.862     9.6403     5.1091     11.036     0.126     
2901.6     6.0665     2.0384     7.0185     10.3621    10.7445    9.4768     5.2768     11.0356    0.124     
2901.8     6.0996     2.0189     6.9311     10.2025    10.5796    9.3461     5.3157     11.0454    0.124     
2902       6.1615     1.9991     6.8279     10.0466    10.4131    9.226      5.2827     11.0913    0.124     
2902.2     6.2537     1.9651     6.7117     9.9082     10.2271    9.1919     5.2648     11.2022    0.127     
2902.4     6.3058     1.9176     6.5648     9.8428     10.2395    9.2036     5.1477     11.3524    0.124     
2902.6     6.3211     2.0545     6.8331     10.0157    10.4298    9.202      7.2618     11.2716    0.126     
2902.8     6.3225     2.1662     7.3982     10.3931    10.7088    9.1794     8.262      10.9104    0.124     
2903       6.3026     2.2266     7.4895     10.7355    10.7079    9.1461     8.1026     10.4433    0.124     
2903.2     6.2488     2.2334     7.3589     10.7439    10.5009    9.0548     6.2637     10.1541    0.126     
2903.4     6.1577     2.1675     7.2681     10.5506    10.2117    8.9487     5.0744     10.2016    0.127     
2903.6     6.059      2.101      7.2552     10.4092    10.0563    8.9007     4.8985     10.4714    0.127     
2903.8     6.0125     2.0634     7.2806     10.4266    10.0261    8.9018     4.9905     10.7401    0.127     
2904       6.0057     2.0333     7.2238     10.4417    10.0322    8.9057     5.1001     10.8499    0.127     
2904.2     6.037      2.0182     7.088      10.4371    10.0167    8.8851     5.2361     10.8495    0.127     
2904.4     6.0694     2.0285     6.9814     10.4377    9.9814     8.7937     5.4794     10.799     0.125     
2904.6     6.0883     2.0396     6.8923     10.4881    10.0013    8.6391     5.41       10.7604    0.127     
2904.8     6.1062     2.051      6.9532     10.5299    10.0073    8.4764     5.4794     10.7178    0.127     
2905       6.1197     2.049      6.9451     10.5786    9.9979     8.3038     5.5129     10.6899    0.127     
2905.2     6.1202     2.0964     7.1418     10.5898    9.9972     8.1048     5.598      10.6426    0.127     
2905.4     6.0982     2.1259     7.1779     10.5493    10.0203    7.8896     5.6159     10.6025    0.127     
2905.6     6.1052     2.0952     7.0987     10.3989    9.9367     7.7181     5.4955     10.5028    0.125     
2905.8     6.1015     2.0855     7.0774     10.1996    9.8224     7.5406     5.422      10.4219    0.124     
2906       6.0842     2.09       7.1083     10.1338    9.7674     7.42       5.4171     10.4391    0.126     
2906.2     6.0643     2.099      7.0615     10.1376    9.7428     7.3393     5.4022     10.5282    0.126     
2906.4     6.0302     2.0819     7.0668     10.2042    9.7698     7.2347     5.2928     10.6461    0.127     
2906.6     6.0032     2.1103     7.1416     10.2693    9.797      7.1215     5.6829     10.7462    0.127     
2906.8     6.022      2.0715     7.1455     10.1999    9.7841     7.0296     5.0285     10.8702    0.127     
2907       6.0258     2.0024     6.909      10.0597    9.6809     6.9197     4.7827     11.0766    0.127     
2907.2     6.0333     2.0746     6.9515     10.0508    9.6224     6.751      5.0409     11.1085    0.13      
2907.4     6.0501     2.072      6.9592     10.0758    9.5451     6.6468     6.2781     10.9792    0.127     
2907.6     6.0605     2.072      6.9192     10.0243    9.3408     6.4727     5.5134     10.8003    0.127     
2907.8     6.0363     2.0912     6.9026     9.9103     9.0602     6.2801     5.1858     10.7882    0.127     
2908       6.0187     2.0628     6.8161     9.7611     8.8553     6.1042     5.0565     10.9659    0.13      
2908.2     6.023      2.0193     6.7544     9.5429     8.6898     6.0091     5.0523     11.2887    0.129     
2908.4     6.0313     1.9948     6.7316     9.408      8.6295     5.9552     5.1106     11.6981    0.127     
2908.6     6.0638     1.9797     6.6979     9.3512     8.6341     5.9419     5.1952     11.9979    0.127     
