~Version
 VERS              .         2.0                           : CWLS LOG ASCII STANDARD - VERSION 2.0
 WRAP              .         NO                            : ONE LINE PER DEPTH STEP
 DLM               .         SPACE                         : DELIMITING CHARACTER(SPACE TAB OR COMMA)
~Well Information
#_______________________________________________________________________________
#
#PARAMETER_NAME    .UNIT     VALUE                         : DESCRIPTION
#_______________________________________________________________________________
STRT               .m        2792                          : First reference value
STOP               .m        3024                          : Last reference value
STEP               .m        0.2                           : Step increment
NULL               .         -9999                         : Missing value
COMP               .                                       : Company
WELL               .         406                           : Well name
FLD                .                                       : Field
LOC                .                                       : Location
CNTY               .                                       : County
STAT               .                                       : State
CTRY               .                                       : Country
SRVC               .                                       : Service Company
DATE               .                                       : Date
API                .                                       : API number
EREF               .m        140.4                         : 
Pad                .         4                             : 
X                  .m        222100                        : 
Y                  .m        250025                        : 
group              .         Pad4                          : 
Интер-р            .         Пузин                         : 
Куст               .         4                             : 
Статус             .         Проверено                     : 
Тип                .         Нагнетательные                : 
~Parameter Information Block
#_______________________________________________________________________________
#
#PARAMETER_NAME    .UNIT     VALUE                         : DESCRIPTION
#_______________________________________________________________________________
SET                .         LAS3                          : 
REAL_CREATION_DATE .         Ср апр 11 2012-13_17_16       : 
TLFamily_DEPTH     .         Measured Depth                : 
TLFamily_GR        .         Gamma Ray                     : 
TLFamily_TNPH      .         Neutron Porosity              : 
group              .         INI                           : 
~Curve Information
#_______________________________________________________________________________
#
#LOGNAME           .UNIT     LOG_ID                        : DESCRIPTION
#_______________________________________________________________________________
DEPTH              .m                                      : Measured Depth 
GR                 .gAPI                                   :  
TNPH               .v/v                                    : Neutron Porosity 
~Ascii
# ...
2840.6     98.92      0.235     
2840.8     98.88      0.238     
2841       97.99      0.238     
2841.2     97.93999   0.239     
2841.4     100.46     0.238     
2841.6     100.37     0.232     
2841.8     96.98      0.228     
2842       93.07      0.23      
2842.2     91.66      0.244     
2842.4     95.13      0.249     
2842.6     99.99      0.251     
2842.8     103.76     0.258     
2843       105.6      0.268     
2843.2     105.43     0.269     
2843.4     103.14     0.268     
2843.6     99.08      0.26      
2843.8     99.39      0.255     
2844       100.69     0.256     
2844.2     100.62     0.257     
2844.4     101.49     0.25      
2844.6     100.22     0.244     
2844.8     97.18001   0.244     
2845       95.66      0.233     
2845.2     93.14      0.204     
2845.4     90.45999   0.187     
2845.6     86.49001   0.178     
2845.8     79.96001   0.18      
2846       77.3       0.191     
2846.2     79.8       0.205     
2846.4     82.47      0.217     
2846.6     83.41      0.224     
2846.8     85.28      0.226     
2847       83.88      0.232     
2847.2     81.8       0.241     
2847.4     81.94      0.252     
2847.6     88.32      0.253     
2847.8     97.28      0.257     
2848       102.14     0.275     
2848.2     103.63     0.282     
2848.4     103.42     0.276     
2848.6     102.37     0.273     
2848.8     102.23     0.269     
2849       100.12     0.253     
2849.2     97.78      0.24      
2849.4     96.16      0.23      
2849.6     94.45      0.228     
2849.8     94.65      0.235     
2850       97.62      0.239     
2850.2     102.46     0.235     
2850.4     106.47     0.234     
2850.6     108.34     0.247     
2850.8     111.06     0.268     
2851       113.28     0.282     
2851.2     114.51     0.284     
2851.4     115.41     0.283     
2851.6     114.32     0.283     
2851.8     114.94     0.283     
2852       117.81     0.287     
2852.2     119.14     0.291     
2852.4     119.96     0.277     
2852.6     122.06     0.264     
2852.8     122.63     0.271     
2853       119.12     0.27      
2853.2     113.74     0.259     
2853.4     112.79     0.264     
2853.6     114.05     0.271     
2853.8     115.87     0.284     
2854       116.91     0.288     
2854.2     114.16     0.275     
2854.4     111.04     0.259     
2854.6     106.49     0.254     
2854.8     102.99     0.255     
2855       103.56     0.265     
2855.2     101.7      0.26      
2855.4     99.95      0.25      
2855.6     99.58      0.261     
2855.8     99.43      0.265     
2856       99.06      0.257     
2856.2     99.31      0.251     
2856.4     100.25     0.247     
2856.6     98.21      0.235     
2856.8     94.3       0.23      
2857       89.48      0.225     
2857.2     88.3       0.227     
2857.4     92         0.23      
2857.6     93.96      0.229     
2857.8     96.82      0.233     
2858       98.77      0.24      
2858.2     98.96      0.232     
2858.4     97.12      0.211     
2858.6     95.87      0.201     
2858.8     94.32      0.209     
2859       93.52      0.224     
2859.2     96.91      0.231     
2859.4     101.88     0.222     
2859.6     104.12     0.212     
2859.8     106.64     0.203     
2860       106.25     0.197     
2860.2     103.14     0.202     
2860.4     101.89     0.211     
2860.6     99.5       0.202     
2860.8     96.21001   0.196     
2861       93.49      0.209     
2861.2     95.31      0.212     
2861.4     100.46     0.215     
2861.6     105.79     0.223     
2861.8     111.76     0.227     
2862       114.38     0.226     
2862.2     113.77     0.221     
2862.4     111.74     0.214     
2862.6     109.42     0.213     
2862.8     110.48     0.234     
2863       110.81     0.251     
2863.2     105.78     0.255     
2863.4     105.56     0.246     
2863.6     110        0.237     
2863.8     112.63     0.229     
2864       113.3      0.224     
2864.2     110.02     0.215     
2864.4     109.88     0.205     
2864.6     110.01     0.208     
2864.8     108.71     0.216     
2865       109.11     0.213     
2865.2     108.05     0.21      
2865.4     106.24     0.207     
2865.6     105.6      0.202     
2865.8     106.05     0.213     
2866       106.69     0.228     
2866.2     107.62     0.237     
2866.4     109.63     0.234     
2866.6     110.49     0.221     
2866.8     111.88     0.206     
2867       113.8      0.198     
2867.2     114.52     0.206     
2867.4     113.55     0.215     
2867.6     111.78     0.219     
2867.8     112.68     0.225     
2868       114.83     0.223     
2868.2     118.97     0.219     
2868.4     120.71     0.218     
2868.6     120.59     0.223     
2868.8     120.9      0.239     
2869       119.97     0.253     
2869.2     117.6      0.245     
2869.4     114.73     0.232     
2869.6     111.31     0.22      
2869.8     107.71     0.209     
2870       105.78     0.204     
2870.2     106.06     0.2       
2870.4     103.14     0.188     
2870.6     92.01      0.175     
2870.8     80.57999   0.166     
2871       79.79      0.159     
2871.2     82.03      0.155     
2871.4     81.95      0.156     
2871.6     81.91      0.154     
2871.8     87.44      0.166     
2872       95.71999   0.193     
2872.2     104.62     0.209     
2872.4     113.75     0.208     
2872.6     117.67     0.206     
2872.8     116.33     0.203     
2873       110.53     0.201     
2873.2     105.45     0.192     
2873.4     103.11     0.188     
2873.6     101.2      0.191     
2873.8     101.02     0.187     
2874       100.84     0.174     
2874.2     97.53999   0.152     
2874.4     90.49      0.142     
2874.6     83.64      0.148     
2874.8     82.3       0.169     
2875       86.07001   0.191     
2875.2     93.63      0.205     
2875.4     102.55     0.209     
2875.6     109.42     0.212     
2875.8     114        0.223     
2876       118.86     0.226     
2876.2     121.47     0.228     
2876.4     119.41     0.219     
2876.6     113.58     0.207     
2876.8     101.37     0.206     
2877       85.61      0.201     
2877.2     75.14      0.203     
2877.4     73.5       0.211     
2877.6     73.77      0.215     
2877.8     72.48      0.219     
2878       72.47      0.223     
2878.2     74.86      0.222     
2878.4     77.9       0.22      
2878.6     82.21      0.221     
2878.8     86.14      0.219     
2879       87.1       0.211     
2879.2     80.68      0.2       
2879.4     70.60001   0.185     
2879.6     62.96      0.173     
2879.8     55.47      0.166     
2880       48.46      0.171     
2880.2     47.32      0.179     
2880.4     51.69      0.19      
2880.6     61.73      0.199     
2880.8     76.18      0.213     
2881       91.68      0.224     
2881.2     107.31     0.226     
2881.4     118.28     0.234     
2881.6     122.5      0.236     
2881.8     118.92     0.227     
2882       108.92     0.212     
2882.2     95.76      0.206     
2882.4     87.3       0.2       
2882.6     80.57      0.186     
2882.8     72.95      0.176     
2883       70.28      0.174     
2883.2     67.59      0.177     
2883.4     64.5       0.178     
2883.6     65.34      0.178     
2883.8     68.85001   0.185     
2884       68.29001   0.189     
2884.2     64.38      0.195     
2884.4     61.7       0.207     
2884.6     62.81      0.216     
2884.8     65.03      0.214     
2885       67.43      0.209     
2885.2     71.51      0.216     
2885.4     77.95      0.214     
2885.6     81.59      0.208     
2885.8     81.65      0.207     
2886       82.17      0.211     
2886.2     84.35001   0.213     
2886.4     90.62      0.219     
2886.6     100.09     0.23      
2886.8     105.03     0.235     
2887       102.33     0.234     
2887.2     93.68      0.229     
2887.4     84.32999   0.213     
2887.6     78.96      0.199     
2887.8     74.43      0.203     
2888       70.95      0.209     
2888.2     69.79      0.2       
2888.4     69.6       0.189     
2888.6     70.4       0.19      
2888.8     71.82      0.202     
2889       72.04001   0.196     
