~Version
 VERS              .         2.0                           : CWLS LOG ASCII STANDARD - VERSION 2.0
 WRAP              .         NO                            : ONE LINE PER DEPTH STEP
 DLM               .         SPACE                         : DELIMITING CHARACTER(SPACE TAB OR COMMA)
~Well Information
#_______________________________________________________________________________
#
#PARAMETER_NAME    .UNIT     VALUE                         : DESCRIPTION
#_______________________________________________________________________________
STRT               .m        2792                          : First reference value
STOP               .m        3022                          : Last reference value
STEP               .m        0.2                           : Step increment
NULL               .         -9999                         : Missing value
COMP               .                                       : Company
WELL               .         406                           : Well name
FLD                .                                       : Field
LOC                .                                       : Location
CNTY               .                                       : County
STAT               .                                       : State
CTRY               .                                       : Country
SRVC               .                                       : Service Company
DATE               .                                       : Date
API                .                                       : API number
EREF               .m        140.4                         : 
Pad                .         4                             : 
X                  .m        222100                        : 
Y                  .m        250025                        : 
group              .         Pad4                          : 
Интер-р            .         Пузин                         : 
Куст               .         4                             : 
Статус             .         Проверено                     : 
Тип                .         Нагнетательные                : 
~Parameter Information Block
#_______________________________________________________________________________
#
#PARAMETER_NAME    .UNIT     VALUE                         : DESCRIPTION
#_______________________________________________________________________________
SET                .         LAS1                          : 
REAL_CREATION_DATE .         Ср апр 11 2012-13_17_16       : 
TLFamily_DEPTH     .         Measured Depth                : 
TLFamily_KS        .         Potential Resistivity         : 
TLFamily_KS1       .         Extra Shallow Resistivity     : 
TLFamily_KS2       .         Shallow Resistivity           : 
TLFamily_KS3       .         Medium Resistivity            : 
TLFamily_KS4       .         Deep Resistivity              : 
TLFamily_KS5       .         Extra Deep Resistivity        : 
TLFamily_LLD       .         Lateral Log Resistivity       : 
TLFamily_OKS3      .         Medium Resistivity Inverted   : 
TLFamily_RM        .         Mud Resistivity               : 
group              .         INI                           : 
~Curve Information
#_______________________________________________________________________________
#
#LOGNAME           .UNIT     LOG_ID                        : DESCRIPTION
#_______________________________________________________________________________
DEPTH              .m                                      : Measured Depth 
KS                 .ohm.m                                  : Potential Resistivity 
KS1                .ohm.m                                  : Extra Shallow Resistivity 
KS2                .ohm.m                                  : Shallow Resistivity 
KS3                .ohm.m                                  : Medium Resistivity 
KS4                .ohm.m                                  : Deep Resistivity 
KS5                .ohm.m                                  : Extra Deep Resistivity 
LLD                .ohm.m                                  : Lateral Log Resistivity 
OKS3               .ohm.m                                  : Medium Resistivity Inverted 
RM                 .ohm.m                                  : Mud Resistivity 
~Ascii
# ...
2952.6     5.4384     1.922      6.187      8.9088     10.4597    10.0895    5.0168     10.1065    0.129     
2952.8     5.4728     1.8652     5.9849     8.7513     9.7829     9.9743     4.6683     10.09      0.129     
2953       5.4888     1.8708     5.9789     8.6135     9.1866     9.7898     4.6082     9.9533     0.129     
2953.2     5.5142     1.9148     6.087      8.4227     8.6881     9.6388     5.4093     9.8015     0.129     
2953.4     5.5525     1.8608     5.883      8.1499     8.2764     9.5938     4.9354     9.7656     0.13      
2953.6     5.5637     1.8528     5.8656     7.8477     8.0299     9.6395     4.5818     10.0055    0.13      
2953.8     5.6151     1.8004     5.8136     7.6759     8.0052     9.9284     4.5731     10.4584    0.126     
2954       5.7057     1.7134     5.5872     7.6742     8.1682     10.533     4.2197     11.3884    0.129     
2954.2     5.8104     1.7274     5.7177     7.948      8.6486     11.4209    4.1859     12.4513    0.133     
2954.4     6.0003     1.7475     5.8945     8.4432     9.4254     12.6917    5.6377     13.3166    0.136     
2954.6     6.2247     1.7752     6.058      9.1772     10.4027    14.4108    6.1239     13.9238    0.135     
2954.8     6.3396     1.9651     6.6594     10.209     11.7637    15.9595    10.6405    14.0265    0.134     
2955       6.433      2.2716     7.471      11.1351    13.1225    16.714     16.9151    13.1762    0.133     
2955.2     6.5006     2.3244     7.5041     11.3319    13.4412    16.7809    8.4359     11.8722    0.128     
2955.4     6.4592     2.2754     7.4193     10.9211    12.5342    16.0681    5.6106     10.7089    0.124     
2955.6     6.4023     2.2237     7.4886     10.4405    11.4673    14.6668    5.8423     9.8758     0.124     
2955.8     6.3499     2.1539     7.4584     10.0749    10.6618    13.3951    5.344      9.3162     0.124     
2956       6.2832     2.1208     7.4706     9.8314     10.0813    12.4288    5.2545     8.9701     0.124     
2956.2     6.2575     2.0928     7.3938     9.7257     9.6937     11.6543    5.4013     8.7616     0.127     
2956.4     6.2438     2.0648     7.266      9.7901     9.4383     11.1355    5.5016     8.5424     0.127     
2956.6     6.2072     2.0692     7.251      10.0897    9.3301     10.7151    5.9974     8.3128     0.127     
2956.8     6.167      2.1259     7.3674     10.5594    9.3588     10.3566    6.3478     8.0687     0.13      
2957       6.0593     2.1608     7.5551     11.2191    9.5223     10.0522    6.2146     7.8058     0.13      
2957.2     5.8705     2.2827     7.9066     11.9429    9.7033     9.6901     6.9427     7.4646     0.13      
2957.4     5.6753     2.3567     8.0929     12.3214    9.817      9.2574     6.4693     7.0925     0.13      
2957.6     5.4262     2.3252     7.9955     12.2555    9.6521     8.7616     4.8608     6.8084     0.13      
2957.8     5.1625     2.2914     7.9025     11.912     9.3305     8.1962     4.3432     6.7128     0.13      
2958       4.9377     2.1741     7.5704     11.3667    8.9886     7.6707     3.9667     6.7786     0.13      
2958.2     4.7698     2.058      7.2124     10.7686    8.6297     7.184      3.6742     6.8889     0.13      
2958.4     4.6705     1.9509     6.7975     10.2101    8.3692     6.7413     3.7607     6.9626     0.13      
2958.6     4.623      1.8863     6.3676     9.6848     8.2292     6.3548     3.6476     7.0545     0.13      
2958.8     4.6027     1.8306     6.0009     9.2558     8.1641     6.0024     3.7435     7.1288     0.13      
2959       4.5758     1.8404     5.9076     8.9097     8.199      5.6792     4.0242     7.1285     0.13      
2959.2     4.569      1.8579     5.7686     8.6267     8.2359     5.3887     3.9213     7.1248     0.13      
2959.4     4.5547     1.8308     5.6055     8.2492     8.1125     5.1374     3.6553     7.1951     0.13      
2959.6     4.5497     1.8032     5.5488     7.8364     7.8521     4.8957     3.5489     7.3181     0.13      
2959.8     4.5644     1.7683     5.4525     7.4348     7.5743     4.6918     3.5921     7.4441     0.13      
2960       4.6212     1.7407     5.3597     7.0777     7.3222     4.5484     3.641      7.6014     0.13      
2960.2     4.6864     1.716      5.2675     6.8514     7.1592     4.4531     3.6546     7.7504     0.13      
2960.4     4.7527     1.7309     5.2404     6.7554     7.0674     4.3945     4.1452     7.7908     0.13      
2960.6     4.8229     1.7517     5.2732     6.7138     6.9986     4.3731     4.2466     7.8185     0.13      
2960.8     4.8724     1.7783     5.325      6.7083     6.9442     4.3791     4.2951     7.8944     0.131     
2961       4.902      1.8127     5.4138     6.737      6.9335     4.3826     4.3092     7.9892     0.134     
2961.2     4.9294     1.8346     5.5501     6.8075     6.9437     4.394      4.4203     8.0992     0.134     
2961.4     4.9476     1.8512     5.6596     6.8741     6.9567     4.4186     4.3542     8.2061     0.134     
2961.6     4.9637     1.8721     5.759      6.9273     6.9165     4.4344     4.5978     8.3046     0.134     
2961.8     4.9737     1.8917     5.7858     6.9752     6.8176     4.4605     4.4233     8.4786     0.137     
2962       4.9642     1.8889     5.8311     6.9997     6.6785     4.4774     4.4244     8.6422     0.137     
2962.2     4.9439     1.8883     5.8195     7.0478     6.5553     4.5159     4.3512     8.8781     0.137     
2962.4     4.8936     1.8971     5.8723     7.1083     6.4572     4.5554     4.3984     9.2634     0.137     
2962.6     4.8658     1.9013     5.9476     7.1328     6.3479     4.6635     3.869      9.8516     0.136     
2962.8     4.8843     1.8158     5.7845     7.0188     6.2769     4.8386     3.786      10.5505    0.134     
2963       4.9342     1.7448     5.5529     6.8908     6.1444     5.0729     3.9584     11.1465    0.134     
2963.2     5.0016     1.7442     5.452      6.8526     6.081      5.3632     4.2657     11.4064    0.133     
2963.4     5.0723     1.7622     5.4494     6.8567     6.0801     5.7586     4.4538     11.4234    0.13      
2963.6     5.1912     1.7414     5.2675     6.7975     6.0532     6.2428     3.911      11.2625    0.129     
2963.8     5.3386     1.6403     4.9416     6.6516     6.0609     6.745      3.9798     11.3061    0.125     
2964       5.4808     1.6032     5.2135     6.6139     6.2177     7.2818     4.9429     11.1971    0.124     
2964.2     5.6577     1.7095     5.3723     6.7987     6.5408     8.0753     6.9654     10.7635    0.122     
2964.4     5.9009     1.7559     5.3775     6.9915     6.984      9.2015     5.5679     10.4427    0.123     
2964.6     6.1643     1.7377     5.3453     7.3055     7.8668     10.5402    4.3837     10.8722    0.124     
2964.8     6.3941     1.6603     5.3413     8.2213     9.2431     11.9535    6.1763     11.8915    0.125     
2965       6.6308     1.7294     5.792      9.494      10.6789    13.2688    8.4494     12.1562    0.126     
2965.2     6.8076     2.0314     6.7732     10.7985    11.7955    14.2712    24.7225    11.3309    0.125     
2965.4     6.779      2.4359     7.84       11.7943    12.4043    14.6835    35.007     9.9092     0.126     
2965.6     6.4274     2.7859     8.816      12.6874    12.8361    14.2595    10.4695    8.8157     0.127     
2965.8     5.994      2.9465     9.8077     13.1013    12.6159    13.176     5.1981     7.9454     0.129     
2966       5.582      2.6501     9.354      12.9859    11.6717    11.678     4.3524     7.2754     0.127     
2966.2     5.2811     2.4222     8.9822     12.3708    10.2222    9.8665     4.1847     6.7195     0.127     
2966.4     5.0324     2.1663     8.1173     11.5481    8.9371     8.139      3.839      6.5003     0.127     
2966.6     4.8119     2.0878     7.5693     10.8015    7.8548     6.7516     3.4007     6.5593     0.126     
2966.8     4.6367     1.9537     6.8571     10.0268    7.0404     5.7204     3.3321     6.7908     0.125     
2967       4.5316     1.8394     6.3366     9.4312     6.468      5.2959     3.4443     6.9765     0.125     
