~Version
 VERS              .         2.0                           : CWLS LOG ASCII STANDARD - VERSION 2.0
 WRAP              .         NO                            : ONE LINE PER DEPTH STEP
 DLM               .         SPACE                         : DELIMITING CHARACTER(SPACE TAB OR COMMA)
~Well Information
#_______________________________________________________________________________
#
#PARAMETER_NAME    .UNIT     VALUE                         : DESCRIPTION
#_______________________________________________________________________________
STRT               .m        2792                          : First reference value
STOP               .m        3022                          : Last reference value
STEP               .m        0.2                           : Step increment
NULL               .         -9999                         : Missing value
COMP               .                                       : Company
WELL               .         406                           : Well name
FLD                .                                       : Field
LOC                .                                       : Location
CNTY               .                                       : County
STAT               .                                       : State
CTRY               .                                       : Country
SRVC               .                                       : Service Company
DATE               .                                       : Date
API                .                                       : API number
EREF               .m        140.4                         : 
Pad                .         4                             : 
X                  .m        222100                        : 
Y                  .m        250025                        : 
group              .         Pad4                          : 
Интер-р            .         Пузин                         : 
Куст               .         4                             : 
Статус             .         Проверено                     : 
Тип                .         Нагнетательные                : 
~Parameter Information Block
#_______________________________________________________________________________
#
#PARAMETER_NAME    .UNIT     VALUE                         : DESCRIPTION
#_______________________________________________________________________________
SET                .         LAS1                          : 
REAL_CREATION_DATE .         Ср апр 11 2012-13_17_16       : 
TLFamily_DEPTH     .         Measured Depth                : 
TLFamily_KS        .         Potential Resistivity         : 
TLFamily_KS1       .         Extra Shallow Resistivity     : 
TLFamily_KS2       .         Shallow Resistivity           : 
TLFamily_KS3       .         Medium Resistivity            : 
TLFamily_KS4       .         Deep Resistivity              : 
TLFamily_KS5       .         Extra Deep Resistivity        : 
TLFamily_LLD       .         Lateral Log Resistivity       : 
TLFamily_OKS3      .         Medium Resistivity Inverted   : 
TLFamily_RM        .         Mud Resistivity               : 
group              .         INI                           : 
~Curve Information
#_______________________________________________________________________________
#
#LOGNAME           .UNIT     LOG_ID                        : DESCRIPTION
#_______________________________________________________________________________
DEPTH              .m                                      : Measured Depth 
KS                 .ohm.m                                  : Potential Resistivity 
KS1                .ohm.m                                  : Extra Shallow Resistivity 
KS2                .ohm.m                                  : Shallow Resistivity 
KS3                .ohm.m                                  : Medium Resistivity 
KS4                .ohm.m                                  : Deep Resistivity 
KS5                .ohm.m                                  : Extra Deep Resistivity 
LLD                .ohm.m                                  : Lateral Log Resistivity 
OKS3               .ohm.m                                  : Medium Resistivity Inverted 
RM                 .ohm.m                                  : Mud Resistivity 
~Ascii
2792.0     0          0          0.0508     0          -9999      -9999      -9999      0.027      0.1       
2792.2     0          0          0.0508     0          -9999      -9999      -9999      0.027      0.1       
2792.4     0          0          0.0508     0          -9999      -9999      -9999      0.027      0.1       
2792.6     0          0          0.0508     0          -9999      -9999      -9999      0.027      0.1       
2792.8     0          0          0.0508     0          -9999      -9999      -9999      0.027      0.1       
2793       0          0          0.0508     0          0          -9999      -9999      0.0299     0.1       
2793.2     0          0          0.0508     0          0          -9999      -9999      0.0292     0.1       
2793.4     0          0          0.0508     0          0          -9999      -9999      0.0051     0.096     
2793.6     0          0          0.0624     0          0          -9999      -9999      1.0548     0.1       
2793.8     0          0          0.0663     0          0          -9999      -9999      7.2222     0.095     
2794       0          0          0.0461     0          0          -9999      -9999      13.9308    0.101     
2794.2     0.2673     0          0.0423     0          0          -9999      -9999      19.1744    0.11      
2794.4     1.3511     0.0229     0.0508     0          0          -9999      -9999      19.8038    0.117     
2794.6     2.575      0.4039     0.0508     0          0          -9999      -9999      17.5422    0.12      
2794.8     3.399      0.8734     0.0508     0          0          -9999      -9999      15.7093    0.122     
2795       3.9428     1.2022     0.3591     0          0          -9999      -9999      14.3799    0.124     
2795.2     4.3213     1.3958     1.5983     0          0          -9999      -9999      13.4622    0.124     
2795.4     4.6181     1.5305     3.0725     0          0          -9999      -9999      12.866     0.124     
2795.6     4.873      1.6192     4.0168     0          0          -9999      -9999      12.4263    0.124     
2795.8     5.0616     1.7053     4.6669     0          0          -9999      -9999      12.0857    0.124     
2796       5.1754     1.7688     5.09       0          0          -9999      -9999      11.7393    0.124     
2796.2     5.25       1.8729     5.5843     0.246      0          -9999      -9999      11.4273    0.127     
2796.4     5.3139     1.8985     5.833      1.8584     0          -9999      -9999      11.123     0.127     
2796.6     5.3621     1.9003     5.904      3.9178     0          -9999      -9999      10.9924    0.127     
2796.8     5.3973     1.8759     6.0137     5.2692     0          -9999      -9999      10.7916    0.127     
2797       5.4448     1.8797     6.0899     6.1508     0          -9999      -9999      10.6595    0.127     
2797.2     5.5088     1.8678     6.1053     6.7359     0          0.3378     -9999      10.5788    0.127     
2797.4     5.5777     1.8609     6.0883     7.2198     0          0.3378     -9999      10.5064    0.127     
2797.6     5.646      1.8805     6.1937     7.6351     0          0.3358     -9999      10.4034    0.127     
2797.8     5.7136     1.8969     6.2003     7.987      0          0.327      -9999      10.3152    0.127     
2798       5.7412     1.9146     6.2382     8.3375     0          0.3492     -9999      10.3056    0.127     
2798.2     5.7645     1.956      6.3999     8.6679     0.0847     0.3389     -9999      10.4361    0.127     
2798.4     5.7371     1.9789     6.5838     9.0167     1.4877     0.3274     -9999      10.725     0.127     
2798.6     5.6793     2.0432     6.8151     9.5439     3.7049     0.3248     5.4396     11.1317    0.129     
2798.8     5.6673     2.1399     7.299      10.0406    5.4839     0.3249     5.5545     11.2031    0.13      
2799       5.6766     2.0557     7.0929     10.2894    6.4094     0.3325     5.6897     10.8193    0.128     
2799.2     5.6883     1.9988     6.7373     10.0873    6.7242     0.3378     6.6791     10.3676    0.131     
2799.4     5.7006     1.96       6.6286     9.6673     6.9168     0.3378     5.1269     10.0511    0.134     
2799.6     5.7008     1.9613     6.6562     9.4204     7.1369     0.3378     4.8977     9.8525     0.134     
2799.8     5.6877     1.9573     6.7025     9.3219     7.3145     0.3441     5.2927     9.7288     0.135     
2800       5.6624     1.9957     6.6823     9.2568     7.4275     0.3507     5.3609     9.6191     0.136     
2800.2     5.6376     1.9923     6.6634     9.154      7.4618     0.3453     5.3328     9.5134     0.134     
2800.4     5.6346     1.9762     6.6035     9.0828     7.487      0.3378     5.09       9.3734     0.133     
2800.6     5.6346     1.9428     6.5221     9.0928     7.5182     0.3378     5.0407     9.1809     0.13      
2800.8     5.6319     1.9392     6.4906     9.198      7.5627     0.3378     5.1186     9.0029     0.13      
2801       5.6187     1.9518     6.5103     9.3011     7.6254     0.3378     5.2545     8.8842     0.129     
2801.2     5.6048     1.9633     6.5458     9.399      7.7143     0.3378     5.3481     8.8228     0.126     
2801.4     5.591      1.9613     6.5593     9.45       7.8207     0.3378     5.266      8.8477     0.124     
2801.6     5.5738     1.9515     6.5531     9.4757     7.9643     0.3378     5.2203     8.967      0.124     
2801.8     5.5408     1.9508     6.5669     9.4863     8.1944     0.3378     5.169      9.094      0.124     
2802       5.489      1.9716     6.653      9.5721     8.5374     0.3378     5.1517     9.1646     0.124     
2802.2     5.4391     2.0396     6.8668     9.7817     8.8066     0.3378     5.1909     9.2056     0.124     
2802.4     5.3957     2.0424     6.8349     9.9444     8.7978     0.3896     5.5412     9.1733     0.124     
2802.6     5.3379     2.0326     6.7356     9.8583     8.7028     0.8555     5.4379     9.0905     0.124     
2802.8     5.2601     2.0232     6.6643     9.6361     8.6658     1.8184     5.1282     9.1244     0.124     
2803       5.1679     1.9855     6.5817     9.4241     8.6658     2.515      5.104      9.2818     0.124     
2803.2     5.0764     1.9492     6.5089     9.2002     8.6606     3.0149     4.8348     9.5091     0.124     
2803.4     5.02       1.8908     6.3978     8.971      8.6014     3.3671     4.7055     9.7591     0.126     
2803.6     5.0264     1.8092     6.2262     8.7274     8.4865     3.6444     4.36       10.0266    0.127     
2803.8     5.0903     1.7504     5.9874     8.4995     8.3242     3.8482     4.1935     10.2782    0.125     
2804       5.1717     1.7364     5.8014     8.3168     8.1372     4.0141     4.179      10.4959    0.127     
2804.2     5.2525     1.7043     5.6408     8.1709     7.9708     4.1367     4.3548     10.6921    0.127     
2804.4     5.3336     1.6835     5.4928     8.0501     7.7961     4.2172     4.4768     10.852     0.127     
2804.6     5.4168     1.679      5.5936     7.9215     7.6185     4.2891     4.6526     10.9219    0.127     
2804.8     5.5212     1.727      5.7161     7.8566     7.519      4.3651     5.0118     10.8205    0.127     
2805       5.631      1.7608     5.8696     7.906      7.5396     4.436      5.4413     10.4971    0.127     
2805.2     5.6999     1.825      6.0643     8.0886     7.6407     4.5275     6.2217     10.1183    0.127     
2805.4     5.7155     1.8778     6.1594     8.2723     7.7413     4.6282     6.2426     9.8143     0.127     
2805.6     5.7097     1.8789     6.2588     8.4332     7.815      4.7294     6.0504     9.5723     0.127     
2805.8     5.6912     1.8807     6.389      8.6492     7.8729     4.8337     5.8175     9.4063     0.127     
2806       5.6847     1.8863     6.4987     8.8682     7.9508     4.9519     5.782      9.3486     0.127     
2806.2     5.6689     1.8712     6.5206     9.0303     8.0422     5.0717     5.531      9.2749     0.127     
2806.4     5.6531     1.8806     6.6147     9.1813     8.156      5.2076     5.6204     9.2425     0.127     
