~Version
 VERS              .         2.0                           : CWLS LOG ASCII STANDARD - VERSION 2.0
 WRAP              .         NO                            : ONE LINE PER DEPTH STEP
 DLM               .         SPACE                         : DELIMITING CHARACTER(SPACE TAB OR COMMA)
~Well Information
#_______________________________________________________________________________
#
#PARAMETER_NAME    .UNIT     VALUE                         : DESCRIPTION
#_______________________________________________________________________________
STRT               .m        2636.8                        : First reference value
STOP               .m        2825.1                        : Last reference value
STEP               .m        0.1                           : Step increment
NULL               .         -9999                         : Missing value
COMP               .                                       : Company
WELL               .         407                           : Well name
FLD                .                                       : Field
LOC                .                                       : Location
CNTY               .                                       : County
STAT               .                                       : State
CTRY               .                                       : Country
SRVC               .                                       : Service Company
DATE               .                                       : Date
API                .                                       : API number
EREF               .m        140.4                         : 
Pad                .         4                             : 
X                  .m        222100                        : 
Y                  .m        250025                        : 
group              .         Pad4                          : 
Интер-р            .         Зайцев                        : 
Куст               .         4                             : 
Статус             .         Не проверено                  : 
Тип                .         Эксплуатация                  : 
~Parameter Information Block
#_______________________________________________________________________________
#
#PARAMETER_NAME    .UNIT     VALUE                         : DESCRIPTION
#_______________________________________________________________________________
SET                .         LAS1                          : 
REAL_CREATION_DATE .         Ср апр 11 2012-13_17_16       : 
TLFamily_DEPTH     .         Measured Depth                : 
TLFamily_KS        .         Potential Resistivity         : 
TLFamily_KS1       .         Extra Shallow Resistivity     : 
TLFamily_KS2       .         Shallow Resistivity           : 
TLFamily_KS3       .         Medium Resistivity            : 
TLFamily_KS4       .         Deep Resistivity              : 
TLFamily_KS5       .         Extra Deep Resistivity        : 
TLFamily_LLD       .         Lateral Log Resistivity       : 
TLFamily_OKS3      .         Medium Resistivity Inverted   : 
TLFamily_RM        .         Mud Resistivity               : 
group              .         INI                           : 
~Curve Information
#_______________________________________________________________________________
#
#LOGNAME           .UNIT     LOG_ID                        : DESCRIPTION
#_______________________________________________________________________________
DEPTH              .m                                      : Measured Depth 
KS                 .ohm.m                                  : Potential Resistivity 
KS1                .ohm.m                                  : Extra Shallow Resistivity 
KS2                .ohm.m                                  : Shallow Resistivity 
KS3                .ohm.m                                  : Medium Resistivity 
KS4                .ohm.m                                  : Deep Resistivity 
KS5                .ohm.m                                  : Extra Deep Resistivity 
LLD                .ohm.m                                  : Lateral Log Resistivity 
OKS3               .ohm.m                                  : Medium Resistivity Inverted 
RM                 .ohm.m                                  : Mud Resistivity 
~Ascii
# ...
2658.7     6.2701     1.8658     6.9684     12.433     12.8068    9.9182     6.4282     13.2671    0.171     
2658.8     6.3037     1.947      7.0472     12.5348    12.9594    10.0494    6.5607     13.1749    0.173     
2658.9     6.3514     1.9604     6.9228     12.5616    13.0527    10.1732    7.4596     13.1698    0.171     
2659       6.4161     1.9358     6.8693     12.5562    13.1062    10.3016    9.9722     13.1705    0.168     
2659.1     6.4814     1.961      6.9613     12.4987    13.0587    10.4325    10.8838    13.114     0.165     
2659.2     6.5484     2.0308     7.0842     12.4365    13.1062    10.5116    10.7373    13.0176    0.164     
2659.3     6.6116     2.0433     7.2087     12.4001    13.2153    10.566     10.6745    13.0239    0.164     
2659.4     6.6501     1.9969     7.2143     12.3764    13.2879    10.6395    10.5005    13.0874    0.164     
2659.5     6.6785     2.0512     7.4365     12.295     13.273     10.7183    10.4282    13.0776    0.164     
2659.6     6.6992     2.0935     7.6788     12.2324    13.3394    10.7769    10.4292    13.0562    0.167     
2659.7     6.724      2.0716     7.6506     12.2208    13.4172    10.8057    10.4872    13.0829    0.169     
2659.8     6.7233     2.0704     7.7009     12.115     13.4319    10.8296    10.5121    13.1017    0.17      
2659.9     6.716      2.0723     7.747      11.9688    13.4038    10.8443    10.1007    13.0769    0.172     
2660       6.7087     2.0723     7.7731     11.8719    13.4295    10.8272    9.9085     13.1282    0.171     
2660.1     6.6961     2.0649     7.7142     11.7482    13.3857    10.7873    9.9017     13.2162    0.172     
2660.2     6.6802     2.0476     7.6777     11.6171    13.3448    10.7678    9.839      13.3264    0.175     
2660.3     6.6723     2.0027     7.578      11.4958    13.296     10.7653    9.8121     13.4587    0.174     
2660.4     6.6738     1.9582     7.4501     11.4204    13.2139    10.7556    9.7756     13.6228    0.171     
2660.5     6.6679     1.9375     7.3613     11.3889    13.1538    10.74      9.5235     13.738     0.169     
2660.6     6.6697     1.9057     7.235      11.4786    13.173     10.6906    9.4221     13.7704    0.169     
2660.7     6.6892     1.9326     7.3633     11.6671    13.2516    10.6125    9.054      13.6544    0.167     
2660.8     6.7173     2.0462     7.7197     11.8938    13.2997    10.5396    8.8963     13.4742    0.165     
2660.9     6.7464     2.1519     8.0276     12.0586    13.2337    10.4847    8.8963     13.2237    0.167     
2661       6.7761     2.1833     8.023      12.1377    13.0547    10.4413    8.7228     12.99      0.171     
2661.1     6.7912     2.0723     7.6693     12.0764    12.7764    10.4004    9.045      12.7466    0.171     
2661.2     6.7913     1.9977     7.4185     12.0141    12.572     10.3417    9.2149     12.5896    0.167     
2661.3     6.7673     2.0133     7.463      11.9113    12.3078    10.243     11.1647    12.5864    0.163     
2661.4     6.7816     2.1142     7.8169     11.9283    12.1813    10.1119    12.0003    12.6315    0.171     
2661.5     6.8125     2.1077     7.9209     12.0612    12.154     9.9774     13.5844    12.7031    0.172     
2661.6     6.805      2.0918     7.8867     12.2115    12.0906    9.867      11.8845    12.773     0.169     
2661.7     6.758      2.108      7.9987     12.1682    11.8304    9.7806     10.865     12.8171    0.167     
2661.8     6.7082     2.104      7.9935     12.0707    11.5418    9.6956     9.6627     12.881     0.161     
2661.9     6.6469     2.0607     7.8314     11.9357    11.2177    9.5728     9.1475     12.9958    0.162     
2662       6.5751     2.0029     7.5625     11.691     10.8513    9.4142     9.8081     13.1558    0.164     
2662.1     6.5198     1.8979     7.2504     11.4356    10.5453    9.2506     10.5547    13.3786    0.164     
2662.2     6.4705     1.8124     7.0158     11.1982    10.2764    9.0901     10.7534    13.6229    0.164     
2662.3     6.4349     1.7689     6.9022     10.9887    10.0579    8.9416     10.4522    13.8387    0.161     
2662.4     6.3956     1.7624     6.8271     10.8489    9.9401     8.8238     10.3231    13.9983    0.163     
2662.5     6.3722     1.7038     6.6619     10.7879    9.909      8.7537     9.4107     14.1616    0.166     
2662.6     6.3612     1.6855     6.5879     10.756     9.8995     8.7096     8.1899     14.2841    0.165     
2662.7     6.3598     1.6883     6.577      10.7886    9.9672     8.6775     7.8344     14.3571    0.162     
2662.8     6.3672     1.6809     6.5191     10.975     10.1494    8.6883     7.8254     14.3576    0.162     
2662.9     6.3949     1.7615     6.7347     11.1621    10.3108    8.7309     7.8215     14.2354    0.167     
2663       6.4262     1.8621     7.0011     11.2836    10.4151    8.7532     7.9845     13.9755    0.169     
2663.1     6.4738     1.8167     6.8728     11.5682    10.7252    8.7412     8.5672     13.9459    0.169     
2663.2     6.5092     1.796      6.7091     11.6961    10.9049    8.724      8.787      14.208     0.169     
2663.3     6.5144     1.9623     7.1687     11.4995    10.823     8.7369     9.1329     14.404     0.172     
2663.4     6.5236     1.9632     7.1754     11.2459    10.7006    8.7724     9.2811     14.42      0.168     
2663.5     6.5406     1.7464     6.4664     11.0177    10.6259    8.8233     9.3526     14.6995    0.165     
2663.6     6.5296     1.545      5.9305     10.6136    10.413     8.9139     10.8936    15.0699    0.168     
2663.7     6.5176     1.46       5.7511     10.1939    10.1714    9.0205     11.541     15.4291    0.169     
2663.8     6.5508     1.4678     5.8539     10.0807    10.2969    9.0881     9.4805     15.8485    0.169     
2663.9     6.6046     1.5073     5.951      10.2346    10.691     9.1448     8.5974     16.2711    0.169     
2664       6.6797     1.5558     6.1166     10.4897    11.1342    9.2762     7.98       16.4154    0.169     
2664.1     6.801      1.6015     6.2527     10.7932    11.5679    9.4821     7.2902     16.2423    0.169     
2664.2     6.9739     1.6954     6.4703     11.1185    11.959     9.6907     7.108      15.723     0.167     
2664.3     7.1335     1.827      6.7164     11.4613    12.3307    9.8558     7.2066     14.9658    0.168     
2664.4     7.2792     1.9501     7.0107     11.8059    12.6769    9.9884     7.2488     14.1119    0.169     
2664.5     7.4538     2.0775     7.346      12.1453    13.0077    10.1132    7.925      13.3144    0.168     
2664.6     7.6616     2.1698     7.6155     12.4592    13.3068    10.2195    10.6304    12.6215    0.165     
2664.7     7.8743     2.2449     7.857      12.8381    13.6575    10.2994    11.6656    12.065     0.164     
2664.8     8.0661     2.3242     8.2071     13.268     14.0674    10.3395    17.4307    11.6084    0.164     
2664.9     8.2121     2.4617     8.8293     13.7175    14.4781    10.3448    19.9014    11.1964    0.164     
2665       8.3104     2.6077     9.5076     14.1261    14.8689    10.333     21.6685    10.8765    0.165     
2665.1     8.3645     2.6837     9.9127     14.4628    15.1233    10.3009    23.2598    10.6229    0.168     
2665.2     8.3537     2.6596     10.0425    14.6551    15.1943    10.2483    23.6172    10.3912    0.172     
2665.3     8.2889     2.6053     10.0712    14.7597    15.1505    10.1547    22.4895    10.2314    0.174     
2665.4     8.1769     2.5391     10.0336    14.7361    15.0353    10.0195    22.0062    10.1126    0.175     
2665.5     8.0212     2.5625     10.2337    14.6141    14.8269    9.8508     22.3665    10.0418    0.176     
2665.6     7.8669     2.559      10.2237    14.5008    14.5472    9.663      18.7485    10.0394    0.179     
2665.7     7.7159     2.4616     9.8518     14.4184    14.2789    9.4754     17.1318    10.1551    0.18      
2665.8     7.5478     2.2894     9.1488     14.137     13.8888    9.344      13.7757    10.314     0.18      
2665.9     7.3581     2.0303     8.4265     13.6376    13.2443    9.2261     12.3373    10.7574    0.18      
