~Version
 VERS              .         2.0                           : CWLS LOG ASCII STANDARD - VERSION 2.0
 WRAP              .         NO                            : ONE LINE PER DEPTH STEP
 DLM               .         SPACE                         : DELIMITING CHARACTER(SPACE TAB OR COMMA)
~Well Information
#_______________________________________________________________________________
#
#PARAMETER_NAME    .UNIT     VALUE                         : DESCRIPTION
#_______________________________________________________________________________
STRT               .m        2636.8                        : First reference value
STOP               .m        2825.1                        : Last reference value
STEP               .m        0.1                           : Step increment
NULL               .         -9999                         : Missing value
COMP               .                                       : Company
WELL               .         407                           : Well name
FLD                .                                       : Field
LOC                .                                       : Location
CNTY               .                                       : County
STAT               .                                       : State
CTRY               .                                       : Country
SRVC               .                                       : Service Company
DATE               .                                       : Date
API                .                                       : API number
EREF               .m        140.4                         : 
Pad                .         4                             : 
X                  .m        222100                        : 
Y                  .m        250025                        : 
group              .         Pad4                          : 
Интер-р            .         Зайцев                        : 
Куст               .         4                             : 
Статус             .         Не проверено                  : 
Тип                .         Эксплуатация                  : 
~Parameter Information Block
#_______________________________________________________________________________
#
#PARAMETER_NAME    .UNIT     VALUE                         : DESCRIPTION
#_______________________________________________________________________________
SET                .         LAS1                          : 
REAL_CREATION_DATE .         Ср апр 11 2012-13_17_16       : 
TLFamily_DEPTH     .         Measured Depth                : 
TLFamily_KS        .         Potential Resistivity         : 
TLFamily_KS1       .         Extra Shallow Resistivity     : 
TLFamily_KS2       .         Shallow Resistivity           : 
TLFamily_KS3       .         Medium Resistivity            : 
TLFamily_KS4       .         Deep Resistivity              : 
TLFamily_KS5       .         Extra Deep Resistivity        : 
TLFamily_LLD       .         Lateral Log Resistivity       : 
TLFamily_OKS3      .         Medium Resistivity Inverted   : 
TLFamily_RM        .         Mud Resistivity               : 
group              .         INI                           : 
~Curve Information
#_______________________________________________________________________________
#
#LOGNAME           .UNIT     LOG_ID                        : DESCRIPTION
#_______________________________________________________________________________
DEPTH              .m                                      : Measured Depth 
KS                 .ohm.m                                  : Potential Resistivity 
KS1                .ohm.m                                  : Extra Shallow Resistivity 
KS2                .ohm.m                                  : Shallow Resistivity 
KS3                .ohm.m                                  : Medium Resistivity 
KS4                .ohm.m                                  : Deep Resistivity 
KS5                .ohm.m                                  : Extra Deep Resistivity 
LLD                .ohm.m                                  : Lateral Log Resistivity 
OKS3               .ohm.m                                  : Medium Resistivity Inverted 
RM                 .ohm.m                                  : Mud Resistivity 
~Ascii
2636.8     -9999      -0.3457    -0.1879    -0.2406    -0.4383    -9999      -9999      -0.1826    -9999     
2636.9     -0.2323    -0.3457    -0.1879    -0.2406    -0.4493    41.8817    -73.7724   -0.1826    0.108     
2637       -0.2323    -0.3457    -0.1879    -0.2406    -0.4517    41.8698    -79.0476   -0.1826    0.105     
2637.1     -0.2323    -0.3457    -0.181     -0.2406    -0.4517    41.8624    -81.3084   -0.1826    0.104     
2637.2     -0.2323    -0.3457    -0.1834    -0.2406    -0.4517    41.8624    -80.8845   -0.1826    0.104     
2637.3     -0.2323    -0.3457    -0.177     -0.2406    -0.4517    41.8682    -56.5348   -0.1826    0.104     
2637.4     -0.2323    -0.3457    -0.1878    -0.2406    -0.4415    41.8683    -46.1771   -0.1826    0.104     
2637.5     -0.2323    -0.3457    -0.1769    -0.2406    -0.4383    41.8694    -32.6161   -0.1826    0.104     
2637.6     -0.2323    -0.3457    -0.1879    -0.2406    -0.4383    41.874     -26.8043   -0.1826    0.104     
2637.7     -0.2323    -0.3457    -0.1879    -0.2406    -0.4345    41.8638    -16.228    -0.1826    0.104     
2637.8     -0.2323    -0.3457    -0.1819    -0.2406    -0.418     41.7484    -4.9966    -0.1826    0.104     
2637.9     -0.2323    -0.3457    -0.1745    -0.2406    -0.4214    26.8779    -2.1257    -0.1826    0.104     
2638       -0.2323    -0.3457    -0.1745    -0.2406    -0.4651    6.1307     -2.0621    -0.1751    0.104     
2638.1     -0.2323    -0.3457    -0.1807    -0.2406    -0.4652    0.1355     -2.0348    -0.159     0.104     
2638.2     -0.2323    -0.3457    -0.1961    -0.2406    -0.4652    0.1122     -1.934     -0.13      0.104     
2638.3     -0.2323    -0.3457    -0.1914    -0.2406    -0.4652    0.078      -2.1064    0.9825     0.101     
2638.4     -0.2323    -0.3457    -0.1879    -0.2406    -0.4652    0.0349     -2.1987    7.5257     0.099     
2638.5     -0.2323    -0.3457    -0.1745    -0.2406    -0.4422    -0.0043    -1.7871    15.2619    0.101     
2638.6     -0.2323    -0.3457    -0.1745    -0.2406    -0.4248    -0.038     -1.6107    21.826     0.101     
2638.7     -0.2323    -0.3457    -0.1824    -0.2406    -0.4278    -0.0313    -1.6161    27.3       0.102     
2638.8     -0.2323    -0.3457    -0.1879    -0.2406    -0.4444    0.0008     -1.3625    31.4526    0.101     
2638.9     -0.2323    -0.3457    -0.1879    -0.2406    -0.4517    0.0024     -1.2528    32.5097    0.102     
2639       -0.2323    -0.3261    -0.1879    -0.2406    -0.4517    -0.0242    -1.5995    31.1902    0.104     
2639.1     -0.2323    -0.1415    -0.1879    -0.2406    -0.4517    -0.0483    -1.7482    29.8834    0.104     
2639.2     -0.2253    0.1484     -0.1879    -0.2406    -0.4517    -0.0541    -2.1569    28.56      0.104     
2639.3     -0.0949    0.3913     -0.1879    -0.2406    -0.4517    -0.0513    -1.662     27.382     0.108     
2639.4     0.6087     0.5925     -0.1879    -0.2406    -0.4517    -0.0403    -1.3748    26.4736    0.108     
2639.5     1.6149     0.7809     -0.1864    -0.2406    -0.4517    -0.0294    -5.2089    25.577     0.105     
2639.6     2.4846     0.9643     -0.0855    -0.2406    -0.4652    -0.0205    -6.852     24.7507    0.107     
2639.7     3.2677     1.1313     0.6274     -0.2406    -0.4652    -0.0136    -18.8463   23.9155    0.106     
2639.8     3.8886     1.332      1.8199     -0.2406    -0.4652    -0.0113    -154.7704  22.9738    0.107     
2639.9     4.4496     1.4713     2.8192     -0.2406    -0.4652    -0.0015    -210.8205  22.1726    0.106     
2640       4.9463     1.5713     3.6931     -0.2406    -0.4652    0.0063     -444.7382  21.5183    0.104     
2640.1     5.3569     1.6513     4.3428     -0.2406    -0.4517    0.0095     -544.9886  20.8778    0.104     
2640.2     5.7186     1.7503     5.038      -0.2406    -0.4565    0.0149     -356.1367  20.3892    0.107     
2640.3     6.0397     1.8679     5.6841     -0.2406    -0.4583    0.0226     -275.3885  20.0369    0.109     
2640.4     6.3196     1.8652     6.067      -0.2406    -0.4517    0.0322     -275.4691  19.6372    0.106     
2640.5     6.5396     1.9084     6.4912     -0.2406    -0.4517    0.0391     -360.2873  19.2023    0.106     
2640.6     6.7237     1.966      6.9596     -0.2406    -0.4517    0.0423     -396.638   18.8722    0.109     
2640.7     6.8527     1.9668     7.1635     -0.2406    -0.4517    0.0423     -875.5239  18.5919    0.11      
2640.8     6.9364     1.9504     7.2639     -0.1066    -0.4517    0.0434     -637.972   18.3367    0.106     
2640.9     6.9911     1.9338     7.3612     1.1807     -0.4517    0.0503     -448.2054  18.1234    0.108     
2641       7.0548     1.9325     7.3979     3.1238     -0.4517    0.0561     -321.8368  18.0135    0.111     
2641.1     7.1098     1.9271     7.4121     4.7031     -0.4517    0.0561     -267.6788  17.9852    0.112     
2641.2     7.1599     1.9011     7.3712     6.0285     -0.4517    0.0561     -237.5579  18.0557    0.113     
2641.3     7.2089     1.8906     7.3475     7.0363     -0.4517    0.0561     -163.6887  18.2613    0.115     
2641.4     7.2485     1.8766     7.3414     7.8795     -0.4517    0.0592     -137.5629  18.5626    0.115     
2641.5     7.2838     1.8766     7.3414     8.6383     -0.4517    0.0661     -99.484    18.9009    0.115     
2641.6     7.3229     1.8637     7.2643     9.2708     -0.4517    0.0646     -83.1644   19.2047    0.115     
2641.7     7.3455     1.8572     7.303      9.8462     -0.4501    0.064      -72.2364   19.4603    0.115     
2641.8     7.3725     1.8736     7.3617     10.3351    -0.4429    0.0692     -46.8877   19.6543    0.115     
2641.9     7.4142     1.8901     7.3819     10.7944    -0.4517    0.0699     -38.0311   19.8259    0.115     
2642       7.4559     1.8906     7.3163     11.182     -0.4517    0.0699     -26.5718   19.9371    0.115     
2642.1     7.5039     1.8967     7.3448     11.4693    -0.4517    0.0699     -21.6607   20.0642    0.115     
2642.2     7.5447     1.9138     7.3694     11.6656    -0.4487    0.0699     -19.6849   20.1926    0.115     
2642.3     7.6257     1.9061     7.3136     11.8176    -0.4434    0.0699     -20.413    20.1894    0.115     
2642.4     7.696      1.9185     7.2769     11.9317    -0.4517    0.0699     -21.088    20.074     0.115     
2642.5     7.7774     1.9215     7.3        12.0414    -0.4425    0.0699     -18.6438   19.9645    0.115     
2642.6     7.8874     1.9325     7.3387     12.1695    -0.4383    0.0699     -17.5962   19.7631    0.115     
2642.7     7.9916     1.953      7.3515     12.2626    -0.4367    0.0699     -11.1379   19.5261    0.115     
2642.8     8.1218     1.9652     7.4535     12.3784    -0.2605    0.0699     3.247      19.3434    0.115     
2642.9     8.2546     1.9605     7.4658     12.4971    0.9334     0.0699     8.2257     19.1805    0.118     
2643       8.3831     1.9871     7.523      12.599     2.6465     0.0699     9.514      19.0078    0.117     
2643.1     8.5083     1.9793     7.6364     12.7407    4.1344     0.0699     10.0662    18.8989    0.113     
2643.2     8.6438     2.0048     7.7607     12.925     5.5413     0.0699     10.2516    18.7761    0.11      
2643.3     8.7795     2.0723     8.0662     13.1372    6.6997     0.0708     11.1289    18.5708    0.11      
2643.4     8.9071     2.1281     8.2675     13.3164    7.7882     0.0776     11.4709    18.403     0.11      
2643.5     9.0263     2.1096     8.251      13.5306    8.8648     0.08       11.8312    18.24      0.108     
2643.6     9.118      2.0863     8.35       13.7926    9.8465     0.0731     11.9856    18.0742    0.107     
2643.7     9.2148     2.093      8.5279     14.0676    10.8158    0.0699     12.5864    17.9077    0.106     
2643.8     9.3032     2.1368     8.9065     14.5023    11.8929    0.0699     13.0265    17.6397    0.105     
2643.9     9.408      2.2515     9.3926     15.1898    13.0985    0.0716     13.1048    17.2079    0.104     
2644       9.5116     2.446      9.9174     16.0485    14.2746    0.0785     13.7231    16.5899    0.104     
