~Version
 VERS              .         2.0                           : CWLS LOG ASCII STANDARD - VERSION 2.0
 WRAP              .         NO                            : ONE LINE PER DEPTH STEP
 DLM               .         SPACE                         : DELIMITING CHARACTER(SPACE TAB OR COMMA)
~Well Information
#_______________________________________________________________________________
#
#PARAMETER_NAME    .UNIT     VALUE                         : DESCRIPTION
#_______________________________________________________________________________
STRT               .m        2636.8                        : First reference value
STOP               .m        2825.1                        : Last reference value
STEP               .m        0.1                           : Step increment
NULL               .         -9999                         : Missing value
COMP               .                                       : Company
WELL               .         407                           : Well name
FLD                .                                       : Field
LOC                .                                       : Location
CNTY               .                                       : County
STAT               .                                       : State
CTRY               .                                       : Country
SRVC               .                                       : Service Company
DATE               .                                       : Date
API                .                                       : API number
EREF               .m        140.4                         : 
Pad                .         4                             : 
X                  .m        222100                        : 
Y                  .m        250025                        : 
group              .         Pad4                          : 
Интер-р            .         Зайцев                        : 
Куст               .         4                             : 
Статус             .         Не проверено                  : 
Тип                .         Эксплуатация                  : 
~Parameter Information Block
#_______________________________________________________________________________
#
#PARAMETER_NAME    .UNIT     VALUE                         : DESCRIPTION
#_______________________________________________________________________________
SET                .         LAS1                          : 
REAL_CREATION_DATE .         Ср апр 11 2012-13_17_16       : 
TLFamily_DEPTH     .         Measured Depth                : 
TLFamily_KS        .         Potential Resistivity         : 
TLFamily_KS1       .         Extra Shallow Resistivity     : 
TLFamily_KS2       .         Shallow Resistivity           : 
TLFamily_KS3       .         Medium Resistivity            : 
TLFamily_KS4       .         Deep Resistivity              : 
TLFamily_KS5       .         Extra Deep Resistivity        : 
TLFamily_LLD       .         Lateral Log Resistivity       : 
TLFamily_OKS3      .         Medium Resistivity Inverted   : 
TLFamily_RM        .         Mud Resistivity               : 
group              .         INI                           : 
~Curve Information
#_______________________________________________________________________________
#
#LOGNAME           .UNIT     LOG_ID                        : DESCRIPTION
#_______________________________________________________________________________
DEPTH              .m                                      : Measured Depth 
KS                 .ohm.m                                  : Potential Resistivity 
KS1                .ohm.m                                  : Extra Shallow Resistivity 
KS2                .ohm.m                                  : Shallow Resistivity 
KS3                .ohm.m                                  : Medium Resistivity 
KS4                .ohm.m                                  : Deep Resistivity 
KS5                .ohm.m                                  : Extra Deep Resistivity 
LLD                .ohm.m                                  : Lateral Log Resistivity 
OKS3               .ohm.m                                  : Medium Resistivity Inverted 
RM                 .ohm.m                                  : Mud Resistivity 
~Ascii
# ...
2819.3     0          0          0          0          0          4.1329     -9999      0          0         
2819.4     0          0          0          0          0          0          -9999      0          0         
2819.5     0          0          0          0          0          0          -9999      0          0         
2819.6     0          0          0          0          0          0          -9999      0          0         
2819.7     0          0          0          0          0          0          -9999      0          0         
2819.8     0          0          0          0          0          0          -9999      0          0         
2819.9     0          0          0          0          0          0          -9999      0          0         
2820       0          0          0          0          0          0          -9999      0          0         
2820.1     0          0          0          0          0          0          -9999      0          0         
2820.2     0          0          0          0          0          0          -9999      0          0         
2820.3     0          0          0          0          0          0          -9999      0          0         
2820.4     0          0          0          0          0          0          -9999      0          0         
2820.5     0          0          0          0          0          0          -9999      0          0         
2820.6     0          0          0          0          0          0          -9999      0          0         
2820.7     0          0          0          0          0          0          -9999      0          0         
2820.8     0          0          0          0          0          0          -9999      0          0         
2820.9     0          0          0          0          0          0          -9999      0          0         
2821       0          0          0          0          0          0          -9999      0          0         
2821.1     0          0          0          0          0          0          -9999      0          0         
2821.2     0          0          0          0          0          0          -9999      0          0         
2821.3     0          0          0          0          0          0          -9999      0          0         
2821.4     0          0          0          0          0          0          -9999      0          0         
2821.5     0          0          0          0          0          0          -9999      0          0         
2821.6     0          0          0          0          0          0          -9999      0          0         
2821.7     0          0          0          0          0          0          -9999      0          0         
2821.8     0          0          0          0          0          0          -9999      0          0         
2821.9     0          0          0          0          0          0          -9999      0          0         
2822       0          0          0          0          0          0          -9999      0          0         
2822.1     0          0          0          0          0          0          -9999      0          0         
2822.2     0          0          0          0          0          0          -9999      0          0         
2822.3     0          0          0          0          0          0          -9999      0          0         
2822.4     0          0          0          0          0          0          -9999      0          0         
2822.5     0          0          0          0          0          0          -9999      0          0         
2822.6     0          0          0          0          0          0          -9999      0          0         
2822.7     0          0          0          0          0          0          -9999      0          0         
2822.8     0          0          0          0          0          0          -9999      0          0         
2822.9     0          0          0          0          0          0          -9999      0          0         
2823       0          0          0          0          0          0          -9999      0          0         
2823.1     0          0          0          0          0          0          -9999      0          0         
2823.2     0          0          0          0          0          0          -9999      0          0         
2823.3     0          0          0          0          0          0          -9999      0          0         
2823.4     0          0          0          0          0          0          -9999      0          0         
2823.5     0          0          0          0          0          0          -9999      0          0         
2823.6     0          0          0          0          0          0          -9999      0          0         
2823.7     0          0          0          0          0          0          -9999      0          0         
2823.8     0          0          0          0          0          0          -9999      0          0         
2823.9     0          0          0          0          0          0          -9999      0          0         
2824       0          0          0          0          0          0          -9999      0          0         
2824.1     0          0          0          0          0          0          -9999      0          0         
2824.2     0          0          0          0          0          0          -9999      0          0         
2824.3     0          0          0          0          0          0          -9999      0          0         
2824.4     0          0          0          0          0          0          -9999      0          0         
2824.5     0          0          0          0          0          0          -9999      0          0         
2824.6     0          0          0          0          0          0          -9999      0          0         
2824.7     0          0          0          0          0          0          -9999      0          0         
2824.8     0          0          0          0          0          0          -9999      0          0         
2824.9     0          0          0          0          0          0          -9999      0          0         
2825       0          0          0          0          0          0          -9999      0          0         
2825.1     -9999      -9999      -9999      -9999      -9999      -9999      -9999      -9999      -9999     
