~Version
 VERS              .         2.0                           : CWLS LOG ASCII STANDARD - VERSION 2.0
 WRAP              .         NO                            : ONE LINE PER DEPTH STEP
 DLM               .         SPACE                         : DELIMITING CHARACTER(SPACE TAB OR COMMA)
~Well Information
#_______________________________________________________________________________
#
#PARAMETER_NAME    .UNIT     VALUE                         : DESCRIPTION
#_______________________________________________________________________________
STRT               .m        2636.8                        : First reference value
STOP               .m        2825.1                        : Last reference value
STEP               .m        0.1                           : Step increment
NULL               .         -9999                         : Missing value
COMP               .                                       : Company
WELL               .         407                           : Well name
FLD                .                                       : Field
LOC                .                                       : Location
CNTY               .                                       : County
STAT               .                                       : State
CTRY               .                                       : Country
SRVC               .                                       : Service Company
DATE               .                                       : Date
API                .                                       : API number
EREF               .m        140.4                         : 
Pad                .         4                             : 
X                  .m        222100                        : 
Y                  .m        250025                        : 
group              .         Pad4                          : 
Интер-р            .         Зайцев                        : 
Куст               .         4                             : 
Статус             .         Не проверено                  : 
Тип                .         Эксплуатация                  : 
~Parameter Information Block
#_______________________________________________________________________________
#
#PARAMETER_NAME    .UNIT     VALUE                         : DESCRIPTION
#_______________________________________________________________________________
SET                .         LAS1                          : 
REAL_CREATION_DATE .         Ср апр 11 2012-13_17_16       : 
TLFamily_DEPTH     .         Measured Depth                : 
TLFamily_KS        .         Potential Resistivity         : 
TLFamily_KS1       .         Extra Shallow Resistivity     : 
TLFamily_KS2       .         Shallow Resistivity           : 
TLFamily_KS3       .         Medium Resistivity            : 
TLFamily_KS4       .         Deep Resistivity              : 
TLFamily_KS5       .         Extra Deep Resistivity        : 
TLFamily_LLD       .         Lateral Log Resistivity       : 
TLFamily_OKS3      .         Medium Resistivity Inverted   : 
TLFamily_RM        .         Mud Resistivity               : 
group              .         INI                           : 
~Curve Information
#_______________________________________________________________________________
#
#LOGNAME           .UNIT     LOG_ID                        : DESCRIPTION
#_______________________________________________________________________________
DEPTH              .m                                      : Measured Depth 
KS                 .ohm.m                                  : Potential Resistivity 
KS1                .ohm.m                                  : Extra Shallow Resistivity 
KS2                .ohm.m                                  : Shallow Resistivity 
KS3                .ohm.m                                  : Medium Resistivity 
KS4                .ohm.m                                  : Deep Resistivity 
KS5                .ohm.m                                  : Extra Deep Resistivity 
LLD                .ohm.m                                  : Lateral Log Resistivity 
OKS3               .ohm.m                                  : Medium Resistivity Inverted 
RM                 .ohm.m                                  : Mud Resistivity 
~Ascii
# ...
2709.8     12.579     2.5143     10.856     21.8608    27.2016    17.0737    18.7606    32.1349    0.186     
2709.9     12.6726    2.5469     10.9528    22.2438    27.7232    17.4964    19.1965    32.3698    0.189     
2710       12.7637    2.5394     10.9839    22.6237    28.2595    17.9851    19.3833    32.4162    0.194     
2710.1     12.8575    2.4941     10.8417    22.9676    28.795     18.4871    19.8984    32.2993    0.196     
2710.2     12.9563    2.5355     10.9982    23.3807    29.4245    18.9076    22.3436    31.966     0.193     
2710.3     13.0488    2.6484     11.4489    23.8732    30.1642    19.2223    23.2969    31.5883    0.191     
2710.4     13.1636    2.7463     11.8439    24.4824    30.9437    19.4664    24.7253    31.2435    0.191     
2710.5     13.2869    2.8133     12.1612    25.0415    31.5303    19.675     25.3375    30.8287    0.188     
2710.6     13.3987    2.874      12.3414    25.4276    31.8876    19.8578    26.9051    30.4374    0.182     
2710.7     13.4952    2.9021     12.4671    25.572     31.9678    19.9689    35.8248    30.0347    0.18      
2710.8     13.5718    2.894      12.459     25.5687    31.8696    20.0133    39.3595    29.6829    0.18      
2710.9     13.6083    2.8355     12.3545    25.4734    31.671     20.0121    36.6166    29.3302    0.18      
2711       13.6521    2.8119     12.3223    25.3139    31.4049    19.9622    35.4411    28.9594    0.18      
2711.1     13.6867    2.7906     12.2932    25.201     31.3178    19.8725    32.0246    28.714     0.181     
2711.2     13.7188    2.7645     12.2236    25.2686    31.4421    19.7238    26.6616    28.6705    0.184     
2711.3     13.7276    2.7926     12.3234    25.3311    31.4815    19.572     24.9906    28.6744    0.186     
2711.4     13.7569    2.8462     12.5747    25.3584    31.4678    19.5024    24.309     28.7046    0.186     
2711.5     13.7792    2.8286     12.48      25.2781    31.3331    19.5121    24.0168    28.6617    0.189     
2711.6     13.7925    2.7744     12.2559    25.0772    31.0875    19.5937    24.536     28.5992    0.188     
2711.7     13.7925    2.6565     11.8192    24.9068    30.9745    19.7012    23.7361    28.7025    0.189     
2711.8     13.7928    2.584      11.56      24.9556    31.2316    19.7504    23.2979    28.9072    0.193     
2711.9     13.7999    2.7006     11.9332    25.2178    31.7767    19.7466    22.8645    29.2037    0.196     
2712       13.8399    2.7991     12.2833    25.7846    32.4818    19.7479    22.6787    29.6243    0.197     
2712.1     13.8986    2.9101     12.6267    26.2344    32.9599    19.8093    22.0522    29.6312    0.198     
2712.2     13.9536    2.9078     12.9386    26.5153    33.1762    19.9894    20.9643    29.448     0.201     
2712.3     13.9758    2.7623     12.0652    26.5986    33.1738    20.2104    20.6131    29.1488    0.199     
2712.4     13.9833    2.7766     12.0827    26.5895    33.0408    20.3751    24.5298    28.8387    0.197     
2712.5     13.9785    2.824      12.1868    26.4526    32.9155    20.4849    26.2084    28.5087    0.197     
2712.6     14.017     2.862      12.4016    26.7308    33.1989    20.5231    27.2559    28.44      0.197     
2712.7     14.0718    2.9513     12.6484    26.9916    33.542     20.5394    27.7804    28.3363    0.197     
2712.8     14.1434    2.959      12.6217    27.1965    33.8795    20.6432    27.8128    28.2361    0.197     
2712.9     14.1975    2.9388     12.5808    27.3184    34.1543    20.8398    27.0415    28.1377    0.197     
2713       14.2546    2.9531     12.6362    27.2856    34.2098    21.049     26.7109    27.9931    0.194     
2713.1     14.2473    2.9636     12.7195    27.2714    34.3664    21.2088    26.8388    27.8708    0.191     
2713.2     14.2399    2.9528     12.7062    27.3614    34.6256    21.3193    26.9434    27.9025    0.191     
2713.3     14.2269    2.9846     12.8693    27.4302    34.7891    21.4654    26.9647    27.9278    0.189     
2713.4     14.2242    3.0289     13.0912    27.3698    34.8636    21.6322    26.5981    27.9435    0.189     
2713.5     14.2241    2.9871     12.9634    27.3014    34.9883    21.7706    26.4409    28.0986    0.188     
2713.6     14.2125    2.9084     12.7215    27.268     35.2427    21.9201    26.5484    28.4372    0.186     
2713.7     14.1664    2.8728     12.5762    27.0755    35.1512    22.0988    25.3371    28.6952    0.186     
2713.8     14.1432    2.9329     12.8176    26.9269    35.1239    22.293     24.7983    28.9153    0.186     
2713.9     14.1308    2.9064     12.7453    27.0131    35.3809    22.4638    23.2545    29.2001    0.188     
2714       14.1368    2.8844     12.6742    27.1267    35.7478    22.64      22.5928    29.4059    0.19      
2714.1     14.1145    2.9528     12.8914    27.1913    36.016     22.8462    22.2995    29.3471    0.194     
2714.2     14.112     2.9588     12.919     27.3644    36.5299    23.0389    22.6352    29.1908    0.196     
2714.3     14.1117    2.9586     12.969     27.5583    36.9909    23.1882    22.8329    29.0523    0.193     
2714.4     14.087     2.933      12.8249    27.5451    37.091     23.3638    23.9395    28.8075    0.194     
2714.5     14.0878    2.901      12.6805    27.5252    37.1993    23.5784    25.0887    28.5451    0.193     
2714.6     14.0968    2.8825     12.508     27.3698    37.2738    23.7752    25.4175    28.3368    0.191     
2714.7     14.1114    2.8606     12.4675    27.2393    37.3348    23.9562    25.4344    28.2254    0.191     
2714.8     14.1207    2.8951     12.579     27.1601    37.3762    24.1228    25.0801    28.171     0.19      
2714.9     14.1717    2.9203     12.641     27.1993    37.5203    24.3084    24.9283    28.1259    0.187     
2715       14.1784    2.9248     12.6578    27.2473    37.6559    24.5271    25.0198    28.1369    0.183     
2715.1     14.1932    2.9186     12.7039    27.2008    37.6828    24.7779    25.1737    27.9881    0.181     
2715.2     14.1951    2.8645     12.5478    27.1694    37.7631    25.0348    25.2228    27.8325    0.181     
2715.3     14.1962    2.827      12.4421    27.1125    37.8111    25.2816    24.0708    27.6867    0.184     
2715.4     14.1674    2.854      12.5617    27.0171    37.8918    25.5185    23.577     27.7413    0.186     
2715.5     14.1523    2.8467     12.4765    26.9231    37.8714    25.7432    23.7492    27.9291    0.186     
2715.6     14.1508    2.8686     12.615     26.9132    37.8386    25.9771    24.5775    28.149     0.189     
2715.7     14.1594    2.8663     12.4764    26.7883    37.7011    26.263     24.9009    28.3374    0.194     
2715.8     14.1787    2.849      12.4198    26.7752    37.7183    26.6306    24.3742    28.4774    0.197     
2715.9     14.1725    2.8032     12.3009    26.7313    37.7622    27.0211    24.1485    28.4782    0.195     
2716       14.1814    2.7979     12.3043    26.8276    37.997     27.4263    23.2363    28.2833    0.192     
2716.1     14.1731    2.7942     12.3475    27.0651    38.2685    27.8505    22.1881    28.0382    0.194     
2716.2     14.191     2.87       12.4675    27.4542    38.8276    28.3153    21.9064    27.6546    0.193     
2716.3     14.2039    2.9535     12.7866    27.8854    39.4576    28.8424    23.9142    27.0922    0.191     
2716.4     14.2482    3.0449     13.1269    28.4127    40.1814    29.3845    24.7747    26.358     0.191     
2716.5     14.2708    3.0895     13.3602    28.961     41.0627    29.9123    27.145     25.6399    0.189     
2716.6     14.2851    3.0391     13.3368    29.2903    41.7027    30.3741    31.673     24.9582    0.186     
2716.7     14.2974    3.0547     13.3281    29.3997    41.9724    30.7372    33.1782    24.3571    0.183     
2716.8     14.2974    3.0786     13.3196    29.3663    41.976     31.0327    32.1624    23.9265    0.181     
2716.9     14.2972    3.0872     13.3668    29.2585    41.7878    31.2767    31.7271    23.7175    0.184     
2717       14.2936    3.1045     13.4572    29.1214    41.2318    31.4869    31.296     23.6364    0.186     
