~Version
 VERS              .         2.0                           : CWLS LOG ASCII STANDARD - VERSION 2.0
 WRAP              .         NO                            : ONE LINE PER DEPTH STEP
 DLM               .         SPACE                         : DELIMITING CHARACTER(SPACE TAB OR COMMA)
~Well Information
#_______________________________________________________________________________
#
#PARAMETER_NAME    .UNIT     VALUE                         : DESCRIPTION
#_______________________________________________________________________________
STRT               .m        2636.8                        : First reference value
STOP               .m        2825.1                        : Last reference value
STEP               .m        0.1                           : Step increment
NULL               .         -9999                         : Missing value
COMP               .                                       : Company
WELL               .         407                           : Well name
FLD                .                                       : Field
LOC                .                                       : Location
CNTY               .                                       : County
STAT               .                                       : State
CTRY               .                                       : Country
SRVC               .                                       : Service Company
DATE               .                                       : Date
API                .                                       : API number
EREF               .m        140.4                         : 
Pad                .         4                             : 
X                  .m        222100                        : 
Y                  .m        250025                        : 
group              .         Pad4                          : 
Интер-р            .         Зайцев                        : 
Куст               .         4                             : 
Статус             .         Не проверено                  : 
Тип                .         Эксплуатация                  : 
~Parameter Information Block
#_______________________________________________________________________________
#
#PARAMETER_NAME    .UNIT     VALUE                         : DESCRIPTION
#_______________________________________________________________________________
SET                .         LAS1                          : 
REAL_CREATION_DATE .         Ср апр 11 2012-13_17_16       : 
TLFamily_DEPTH     .         Measured Depth                : 
TLFamily_KS        .         Potential Resistivity         : 
TLFamily_KS1       .         Extra Shallow Resistivity     : 
TLFamily_KS2       .         Shallow Resistivity           : 
TLFamily_KS3       .         Medium Resistivity            : 
TLFamily_KS4       .         Deep Resistivity              : 
TLFamily_KS5       .         Extra Deep Resistivity        : 
TLFamily_LLD       .         Lateral Log Resistivity       : 
TLFamily_OKS3      .         Medium Resistivity Inverted   : 
TLFamily_RM        .         Mud Resistivity               : 
group              .         INI                           : 
~Curve Information
#_______________________________________________________________________________
#
#LOGNAME           .UNIT     LOG_ID                        : DESCRIPTION
#_______________________________________________________________________________
DEPTH              .m                                      : Measured Depth 
KS                 .ohm.m                                  : Potential Resistivity 
KS1                .ohm.m                                  : Extra Shallow Resistivity 
KS2                .ohm.m                                  : Shallow Resistivity 
KS3                .ohm.m                                  : Medium Resistivity 
KS4                .ohm.m                                  : Deep Resistivity 
KS5                .ohm.m                                  : Extra Deep Resistivity 
LLD                .ohm.m                                  : Lateral Log Resistivity 
OKS3               .ohm.m                                  : Medium Resistivity Inverted 
RM                 .ohm.m                                  : Mud Resistivity 
~Ascii
# ...
2724.4     14.7888    2.855      12.5555    26.042     34.5202    34.9519    29.357     25.657     0.178     
2724.5     14.8798    2.8969     12.7715    26.5976    34.9655    35.4611    28.9521    24.9512    0.179     
2724.6     14.9533    2.9748     13.1595    27.409     35.5946    35.8507    29.4723    24.2156    0.183     
2724.7     15.0435    3.101      13.6903    28.3767    36.4824    36.1023    29.7696    23.4557    0.185     
2724.8     15.1365    3.2029     14.0792    29.2812    37.3166    36.27      31.9262    22.6717    0.186     
2724.9     15.1773    3.298      14.4635    30.019     37.8762    36.3941    32.8505    21.8995    0.19      
2725       15.162     3.3302     14.6887    30.496     38.0605    36.4639    38.1787    21.1813    0.194     
2725.1     15.1214    3.2751     14.6313    30.8381    38.174     36.427     45.367     20.6066    0.195     
2725.2     15.0281    3.2551     14.4527    31.1024    38.2206    36.2701    47.4691    20.0441    0.196     
2725.3     14.9361    3.3113     14.6928    31.3157    38.332     36.0285    36.4082    19.4791    0.193     
2725.4     14.8464    3.3369     14.9582    31.6086    38.5738    35.6847    31.6679    18.895     0.188     
2725.5     14.7145    3.3441     15.067     31.9845    38.9733    35.2898    26.8439    18.3054    0.186     
2725.6     14.571     3.3558     15.0836    32.2525    39.2381    34.9152    25.0973    17.8124    0.186     
2725.7     14.3957    3.3586     15.1       32.3864    39.4226    34.5771    25.2348    17.4263    0.183     
2725.8     14.2267    3.3721     15.1044    32.5105    39.5839    34.2801    27.2205    17.0552    0.181     
2725.9     14.0553    3.4015     15.149     32.6761    39.8546    34.0083    28.0715    16.664     0.181     
2726       13.8944    3.4173     15.1165    32.9289    40.3158    33.6869    26.5075    16.2978    0.185     
2726.1     13.6969    3.3449     14.9457    33.0894    40.7862    33.255     22.6506    15.838     0.19      
2726.2     13.4767    3.2603     14.6735    33.2398    41.1383    32.7714    21.2849    15.295     0.191     
2726.3     13.2413    3.2744     14.6979    33.2192    41.3338    32.3079    18.7197    14.77      0.194     
2726.4     13.014     3.3092     14.747     32.9071    41.2989    31.8615    17.6204    14.3977    0.196     
2726.5     12.7818    3.2706     14.4699    32.6053    41.1244    31.3946    18.0637    14.0994    0.193     
2726.6     12.5486    3.2        14.0847    32.379     40.8835    30.9036    20.4645    13.7785    0.193     
2726.7     12.3205    3.2471     14.1141    32.042     40.6644    30.3959    21.412     13.4514    0.193     
2726.8     12.1094    3.2606     14.254     31.7854    40.558     29.7862    18.5972    13.1096    0.192     
2726.9     11.8929    3.1779     14.0421    31.5559    40.6144    29.0518    17.3909    12.7632    0.191     
2727       11.655     3.1051     13.6778    31.0696    40.4507    28.3558    15.7149    12.3827    0.19      
2727.1     11.3825    3.0545     13.3671    30.4712    40.0887    27.775     16.2496    12.0681    0.189     
2727.2     11.1163    3.0633     13.2585    29.9729    39.7894    27.2053    16.7867    11.8271    0.188     
2727.3     10.897     3.0576     13.1598    29.5962    39.455     26.6396    15.5467    11.535     0.186     
2727.4     10.7038    3.0842     13.2318    29.343     39.1435    26.1517    15.0153    11.2446    0.187     
2727.5     10.5228    3.0846     13.1511    28.9406    38.7171    25.7035    14.654     10.987     0.188     
2727.6     10.3513    3.0579     12.8509    28.4504    38.1862    25.2222    14.8843    10.8005    0.189     
2727.7     10.1557    2.9443     12.371     27.8869    37.6187    24.7038    15.0493    10.6363    0.193     
2727.8     9.9523     2.8944     12.2116    27.3423    37.0368    24.1678    14.9036    10.4376    0.196     
2727.9     9.7485     2.9008     12.3474    26.6056    36.4031    23.6224    14.8411    10.2092    0.193     
2728       9.5473     2.9154     12.2623    26.0811    36.0191    23.0497    13.7808    9.9775     0.191     
2728.1     9.3658     2.8364     11.94      25.6252    35.6625    22.4566    11.9903    9.6727     0.191     
2728.2     9.1546     2.8106     11.7848    25.1083    35.1628    21.8963    11.4177    9.3565     0.191     
2728.3     8.9353     2.7851     11.6004    24.53      34.5209    21.3383    12.3225    9.0627     0.191     
2728.4     8.7158     2.7795     11.4806    23.9568    33.8452    20.7244    12.7103    8.8442     0.191     
2728.5     8.5157     2.7556     11.2934    23.2532    32.983     20.0944    11.783     8.6672     0.191     
2728.6     8.3327     2.7027     10.9831    22.4083    31.87      19.4805    11.0577    8.5272     0.189     
2728.7     8.1373     2.6221     10.5923    21.4255    30.4735    18.879     10.9171    8.4299     0.187     
2728.8     7.936      2.5618     10.2088    20.5728    29.1909    18.2926    10.3588    8.4194     0.183     
2728.9     7.7424     2.4693     9.789      19.8138    28.0556    17.7075    10.1195    8.5024     0.181     
2729       7.544      2.4268     9.5625     19.1446    27.0082    17.1341    9.4069     8.6359     0.184     
2729.1     7.357      2.3985     9.4091     18.5414    26.0977    16.597     8.238      8.7932     0.186     
2729.2     7.1839     2.3234     9.1492     17.9929    25.3297    16.0946    7.868      9.036      0.186     
2729.3     7.0124     2.2233     8.7298     17.4524    24.595     15.6491    7.3646     9.3258     0.192     
2729.4     6.8567     2.1248     8.2618     16.8958    23.9158    15.2927    7.1489     9.532      0.197     
2729.5     6.7137     2.0929     8.1268     16.3028    23.1718    15.0029    6.984      9.6557     0.2       
2729.6     6.6167     2.1094     8.0679     15.7987    22.5156    14.7513    6.7344     9.7977     0.201     
2729.7     6.5317     2.1022     7.8636     15.4405    21.9862    14.544     6.6577     9.936      0.2       
2729.8     6.4692     2.0583     7.6515     15.1505    21.5436    14.4065    6.9531     10.0231    0.201     
2729.9     6.4314     2.0769     7.6182     14.9044    21.1705    14.3154    7.0797     10.0636    0.199     
2730       6.405      2.1384     7.6938     14.7128    20.8699    14.2129    7.5016     10.0903    0.197     
2730.1     6.402      2.2193     7.8441     14.6569    20.6995    14.1004    7.6738     10.0615    0.195     
2730.2     6.4084     2.273      7.9259     14.6721    20.5745    14.0029    7.6701     9.8882     0.192     
2730.3     6.4154     2.3421     8.1205     14.588     20.3444    13.8964    8.53       9.6425     0.191     
2730.4     6.4124     2.3995     8.2914     14.329     19.8708    13.7469    8.8985     9.4535     0.191     
2730.5     6.3812     2.3918     8.1933     13.9471    19.1637    13.5412    9.4047     9.393      0.191     
2730.6     6.3435     2.3271     7.9539     13.4088    18.2038    13.3009    9.643      9.4393     0.191     
2730.7     6.2958     2.2565     7.7225     12.8011    17.1256    13.0545    9.6521     9.6288     0.191     
2730.8     6.2559     2.2481     7.6675     12.2024    16.2772    12.7948    8.8108     9.8202     0.191     
2730.9     6.2226     2.2446     7.7637     11.7631    15.5866    12.5144    8.4502     10.0001    0.192     
2731       6.1866     2.1698     7.5732     11.4462    15.1491    12.2355    7.5546     10.1652    0.196     
2731.1     6.1266     2.1065     7.5343     11.1358    14.7119    11.977     6.6676     10.361     0.201     
2731.2     6.0381     2.0001     7.3237     10.72      14.2349    11.7445    6.4519     10.5914    0.202     
2731.3     5.9443     1.9489     7.0157     10.3804    13.8118    11.5294    6.2632     10.9777    0.202     
2731.4     5.8713     1.8844     6.7568     10.0992    13.4002    11.3434    6.1823     11.359     0.199     
2731.5     5.8386     1.8702     6.6743     9.8479     12.9119    11.2215    6.2207     11.6541    0.197     
2731.6     5.8314     1.9583     6.807      9.6657     12.4163    11.1293    6.4121     11.9554    0.195     
