~Version
 VERS              .         2.0                           : CWLS LOG ASCII STANDARD - VERSION 2.0
 WRAP              .         NO                            : ONE LINE PER DEPTH STEP
 DLM               .         SPACE                         : DELIMITING CHARACTER(SPACE TAB OR COMMA)
~Well Information
#_______________________________________________________________________________
#
#PARAMETER_NAME    .UNIT     VALUE                         : DESCRIPTION
#_______________________________________________________________________________
STRT               .m        2636.8                        : First reference value
STOP               .m        2825.1                        : Last reference value
STEP               .m        0.1                           : Step increment
NULL               .         -9999                         : Missing value
COMP               .                                       : Company
WELL               .         407                           : Well name
FLD                .                                       : Field
LOC                .                                       : Location
CNTY               .                                       : County
STAT               .                                       : State
CTRY               .                                       : Country
SRVC               .                                       : Service Company
DATE               .                                       : Date
API                .                                       : API number
EREF               .m        140.4                         : 
Pad                .         4                             : 
X                  .m        222100                        : 
Y                  .m        250025                        : 
group              .         Pad4                          : 
Интер-р            .         Зайцев                        : 
Куст               .         4                             : 
Статус             .         Не проверено                  : 
Тип                .         Эксплуатация                  : 
~Parameter Information Block
#_______________________________________________________________________________
#
#PARAMETER_NAME    .UNIT     VALUE                         : DESCRIPTION
#_______________________________________________________________________________
SET                .         LAS1                          : 
REAL_CREATION_DATE .         Ср апр 11 2012-13_17_16       : 
TLFamily_DEPTH     .         Measured Depth                : 
TLFamily_KS        .         Potential Resistivity         : 
TLFamily_KS1       .         Extra Shallow Resistivity     : 
TLFamily_KS2       .         Shallow Resistivity           : 
TLFamily_KS3       .         Medium Resistivity            : 
TLFamily_KS4       .         Deep Resistivity              : 
TLFamily_KS5       .         Extra Deep Resistivity        : 
TLFamily_LLD       .         Lateral Log Resistivity       : 
TLFamily_OKS3      .         Medium Resistivity Inverted   : 
TLFamily_RM        .         Mud Resistivity               : 
group              .         INI                           : 
~Curve Information
#_______________________________________________________________________________
#
#LOGNAME           .UNIT     LOG_ID                        : DESCRIPTION
#_______________________________________________________________________________
DEPTH              .m                                      : Measured Depth 
KS                 .ohm.m                                  : Potential Resistivity 
KS1                .ohm.m                                  : Extra Shallow Resistivity 
KS2                .ohm.m                                  : Shallow Resistivity 
KS3                .ohm.m                                  : Medium Resistivity 
KS4                .ohm.m                                  : Deep Resistivity 
KS5                .ohm.m                                  : Extra Deep Resistivity 
LLD                .ohm.m                                  : Lateral Log Resistivity 
OKS3               .ohm.m                                  : Medium Resistivity Inverted 
RM                 .ohm.m                                  : Mud Resistivity 
~Ascii
# ...
2760.9     3.4748     1.6148     4.6142     5.3463     4.3465     3.353      4.3438     5.7337     0.181     
2761       3.4349     1.6417     4.6314     5.2333     4.3081     3.3034     4.3538     5.7163     0.184     
2761.1     3.3937     1.6667     4.6011     5.109      4.2426     3.2605     4.2645     5.671      0.186     
2761.2     3.3752     1.5924     4.4352     5.0037     4.1801     3.2224     4.2263     5.6402     0.189     
2761.3     3.3463     1.5548     4.296      4.8346     4.0499     3.1994     4.1593     5.6234     0.188     
2761.4     3.3136     1.4897     4.1304     4.6506     3.9534     3.1789     4.1102     5.6162     0.187     
2761.5     3.2869     1.4358     4.0023     4.5097     3.8846     3.1552     4.1014     5.6669     0.19      
2761.6     3.2757     1.4154     3.9249     4.3906     3.832      3.1428     3.9606     5.7767     0.191     
2761.7     3.2528     1.4194     3.9141     4.3155     3.8095     3.1441     3.9002     5.8848     0.188     
2761.8     3.2584     1.3595     3.7926     4.2169     3.8208     3.1897     3.846      6.142      0.189     
2761.9     3.2758     1.359      3.7782     4.1685     3.8208     3.2736     3.7984     6.3446     0.186     
2762       3.2945     1.3426     3.7449     4.1238     3.8436     3.3714     3.7879     6.6072     0.184     
2762.1     3.321      1.3208     3.6976     4.1075     3.8921     3.5022     3.8756     6.9463     0.185     
2762.2     3.3558     1.2879     3.6364     4.098      3.9923     3.6372     3.9131     7.3786     0.183     
2762.3     3.3985     1.2545     3.5798     4.1308     4.1416     3.7556     3.9962     7.9748     0.184     
2762.4     3.5115     1.2058     3.5497     4.2571     4.3808     3.887      3.946      8.6326     0.188     
2762.5     3.6043     1.1848     3.6153     4.4169     4.5987     4.0376     3.9093     9.2195     0.188     
2762.6     3.7123     1.3215     4.0367     4.6271     4.8354     4.1725     3.9705     9.393      0.186     
2762.7     3.8525     1.4403     4.272      4.9544     5.1085     4.2755     3.9967     9.3965     0.189     
2762.8     4.032      1.6459     4.6388     5.3241     5.3299     4.3451     4.0825     9.1894     0.187     
2762.9     4.2128     2.0242     5.4293     5.6174     5.4172     4.3705     5.0898     8.7524     0.182     
2763       4.3937     2.3275     5.9911     5.8384     5.5088     4.343      5.5058     8.2596     0.18      
2763.1     4.566      2.4584     6.0968     6.0592     5.4932     4.269      13.388     7.9477     0.181     
2763.2     4.6965     2.5136     6.2164     6.0784     5.3058     4.1867     16.7662    7.7079     0.184     
2763.3     4.7987     2.4782     6.283      5.944      5.0283     4.0996     23.9624    7.5438     0.188     
2763.4     4.8736     2.3552     6.2346     5.7476     4.7278     3.9813     17.3242    7.4997     0.19      
2763.5     4.8683     2.2022     6.2051     5.5398     4.4695     3.8489     13.1575    7.5701     0.191     
2763.6     4.7631     2.0255     6.1425     5.3576     4.2326     3.7292     8.8483     7.7478     0.192     
2763.7     4.6341     1.9178     6.1922     5.2033     4.044      3.6253     7.0015     8.005      0.194     
2763.8     4.4905     1.8415     6.203      5.0776     3.8785     3.5531     6.1611     8.3328     0.193     
2763.9     4.3552     1.7938     6.1146     4.9752     3.7326     3.5261     4.9032     8.7451     0.191     
2764       4.2144     1.6812     5.7351     4.8714     3.5928     3.5469     4.5184     9.2295     0.191     
2764.1     4.0935     1.5747     5.2905     4.7407     3.4682     3.6107     4.4507     9.8595     0.188     
2764.2     3.9911     1.5165     4.921      4.591      3.3736     3.7155     4.4217     10.7214    0.186     
2764.3     3.9291     1.3988     4.4509     4.4709     3.3383     3.8666     4.4802     11.7506    0.189     
2764.4     3.8903     1.2861     4.105      4.426      3.3538     4.0481     4.1182     12.8576    0.191     
2764.5     3.8661     1.2031     3.9092     4.4449     3.4521     4.2657     3.9524     14.1191    0.19      
2764.6     3.8846     1.1629     3.7884     4.5527     3.6021     4.5326     3.7118     15.4945    0.189     
2764.7     3.9201     1.1544     3.7646     4.7362     3.756      4.831      3.6087     16.7533    0.19      
2764.8     3.9866     1.1877     3.854      5.0027     3.9392     5.1416     3.4906     17.7546    0.191     
2764.9     4.0806     1.2386     3.9267     5.3421     4.131      5.4379     3.7767     18.6071    0.191     
2765       4.224      1.3161     4.0422     5.6612     4.3117     5.7216     3.921      19.1242    0.189     
2765.1     4.3841     1.4427     4.2455     5.9155     4.4799     5.9934     4.8139     19.2042    0.19      
2765.2     4.59       1.5426     4.4353     6.1628     4.6834     6.2208     5.1966     19.1519    0.191     
2765.3     4.8224     1.6355     4.6063     6.3659     4.8462     6.4017     5.8442     19.0338    0.188     
2765.4     5.0652     1.7101     4.7815     6.4988     4.959      6.5487     7.7594     18.821     0.185     
2765.5     5.3486     1.7952     5.0355     6.5618     5.0368     6.664      8.4612     18.6352    0.184     
2765.6     5.6255     1.8985     5.3392     6.5925     5.0823     6.7517     9.8824     18.5371    0.185     
2765.7     5.8889     1.9416     5.5314     6.6158     5.1017     6.8175     10.4914    18.4698    0.186     
2765.8     6.1502     1.9938     5.8443     6.6482     5.1202     6.8522     10.5273    18.435     0.186     
2765.9     6.3902     2.0452     6.2242     6.6826     5.1571     6.8608     11.1253    18.373     0.19      
2766       6.6014     2.1201     6.6095     6.7425     5.1897     6.8608     11.375     18.4132    0.195     
2766.1     6.7696     2.1474     6.8743     6.7754     5.2058     6.8608     10.8808    18.5418    0.194     
2766.2     6.9175     2.1331     7.0487     6.8016     5.2225     6.8608     10.669     18.7144    0.192     
2766.3     7.0169     2.0512     6.9832     6.797      5.2192     6.8713     10.7292    18.8862    0.194     
2766.4     7.1029     2.0303     7.0737     6.8379     5.2635     6.9007     10.9345    19.1525    0.191     
2766.5     7.1788     2.0337     7.1677     6.9261     5.3501     6.9432     11.0114    19.4195    0.187     
2766.6     7.2742     2.0443     7.3123     7.1442     5.4954     6.9886     9.888      19.6764    0.186     
2766.7     7.3765     2.0443     7.375      7.4468     5.6925     7.0426     9.4066     19.8718    0.186     
2766.8     7.4788     2.0987     7.5878     8.2511     6.1534     7.1588     9.0159     20.1615    0.186     
2766.9     7.5678     2.1363     7.7939     8.722      6.3611     7.284      9.5397     20.1731    0.186     
2767       7.6577     2.1114     7.6646     9.2236     6.5281     7.3658     9.836      20.217     0.186     
2767.1     7.7577     2.1112     7.7262     9.6619     6.6526     7.459      10.3481    20.2031    0.186     
2767.2     7.842      2.128      7.7358     10.047     6.7432     7.5619     10.5676    20.0987    0.187     
2767.3     7.938      2.1142     7.6928     10.4787    6.8454     7.6653     10.7046    20.06      0.188     
2767.4     8.1323     2.1142     7.7192     10.8227    6.9213     7.7869     11.1049    20.0364    0.187     
2767.5     8.2346     2.1142     7.7419     11.1018    6.9955     7.9352     11.2512    20.0442    0.186     
2767.6     8.3453     2.1142     7.7732     11.3818    7.0944     8.1111     11.3779    20.1052    0.186     
2767.7     8.4773     2.1142     7.8259     11.6276    7.2081     8.3248     11.4321    20.2506    0.185     
2767.8     8.5932     2.1142     7.854      11.8458    7.3435     8.5552     11.402     20.486     0.184     
2767.9     8.7255     2.1142     7.9407     12.0006    7.4925     8.7878     11.4616    20.7714    0.187     
2768       8.8412     2.1027     7.9559     12.1628    7.7203     9.0356     11.4927    21.2273    0.188     
2768.1     8.9759     2.0316     7.7542     12.4511    8.0163     9.2853     11.5875    21.7415    0.189     
