~Version
 VERS              .         2.0                           : CWLS LOG ASCII STANDARD - VERSION 2.0
 WRAP              .         NO                            : ONE LINE PER DEPTH STEP
 DLM               .         SPACE                         : DELIMITING CHARACTER(SPACE TAB OR COMMA)
~Well Information
#_______________________________________________________________________________
#
#PARAMETER_NAME    .UNIT     VALUE                         : DESCRIPTION
#_______________________________________________________________________________
STRT               .m        2636.8                        : First reference value
STOP               .m        2825.1                        : Last reference value
STEP               .m        0.1                           : Step increment
NULL               .         -9999                         : Missing value
COMP               .                                       : Company
WELL               .         407                           : Well name
FLD                .                                       : Field
LOC                .                                       : Location
CNTY               .                                       : County
STAT               .                                       : State
CTRY               .                                       : Country
SRVC               .                                       : Service Company
DATE               .                                       : Date
API                .                                       : API number
EREF               .m        140.4                         : 
Pad                .         4                             : 
X                  .m        222100                        : 
Y                  .m        250025                        : 
group              .         Pad4                          : 
Интер-р            .         Зайцев                        : 
Куст               .         4                             : 
Статус             .         Не проверено                  : 
Тип                .         Эксплуатация                  : 
~Parameter Information Block
#_______________________________________________________________________________
#
#PARAMETER_NAME    .UNIT     VALUE                         : DESCRIPTION
#_______________________________________________________________________________
SET                .         LAS1                          : 
REAL_CREATION_DATE .         Ср апр 11 2012-13_17_16       : 
TLFamily_DEPTH     .         Measured Depth                : 
TLFamily_KS        .         Potential Resistivity         : 
TLFamily_KS1       .         Extra Shallow Resistivity     : 
TLFamily_KS2       .         Shallow Resistivity           : 
TLFamily_KS3       .         Medium Resistivity            : 
TLFamily_KS4       .         Deep Resistivity              : 
TLFamily_KS5       .         Extra Deep Resistivity        : 
TLFamily_LLD       .         Lateral Log Resistivity       : 
TLFamily_OKS3      .         Medium Resistivity Inverted   : 
TLFamily_RM        .         Mud Resistivity               : 
group              .         INI                           : 
~Curve Information
#_______________________________________________________________________________
#
#LOGNAME           .UNIT     LOG_ID                        : DESCRIPTION
#_______________________________________________________________________________
DEPTH              .m                                      : Measured Depth 
KS                 .ohm.m                                  : Potential Resistivity 
KS1                .ohm.m                                  : Extra Shallow Resistivity 
KS2                .ohm.m                                  : Shallow Resistivity 
KS3                .ohm.m                                  : Medium Resistivity 
KS4                .ohm.m                                  : Deep Resistivity 
KS5                .ohm.m                                  : Extra Deep Resistivity 
LLD                .ohm.m                                  : Lateral Log Resistivity 
OKS3               .ohm.m                                  : Medium Resistivity Inverted 
RM                 .ohm.m                                  : Mud Resistivity 
~Ascii
# ...
2782.8     14.3804    2.7257     12.0138    29.9416    43.1064    41.7722    26.9052    22.2935    0.199     
2782.9     14.3706    2.7213     11.989     29.7651    42.7266    40.8682    27.3457    21.9205    0.195     
2783       14.3709    2.7379     12.0823    29.5809    42.3752    39.9254    25.699     21.5791    0.193     
2783.1     14.3047    2.7316     11.9594    29.2837    42.2295    39.064     24.9933    21.2927    0.194     
2783.2     14.24      2.6881     11.8209    29.1222    42.414     38.2496    24.6961    21.2483    0.196     
2783.3     14.1923    2.7098     11.9601    28.984     42.9124    37.4232    23.9022    21.1837    0.194     
2783.4     14.1555    2.7765     12.0985    28.6876    43.7017    36.6061    23.6165    20.925     0.197     
2783.5     14.0905    2.8944     12.5192    28.2959    44.3153    35.8352    22.9083    20.6026    0.201     
2783.6     14.0198    2.9626     12.8942    28.0205    44.7112    35.1578    22.6048    20.1744    0.202     
2783.7     13.9357    2.8733     12.7155    27.7808    44.809     34.5708    22.0333    19.6929    0.199     
2783.8     13.801     2.8001     12.3363    27.4032    44.589     34.0242    23.2085    19.1692    0.195     
2783.9     13.6704    2.7674     12.1347    26.8633    44.1766    33.4833    23.8172    18.7142    0.191     
2784       13.5211    2.7343     11.9669    26.367     44.2458    32.912     26.4693    18.4065    0.187     
2784.1     13.4301    2.7149     11.8012    26.0883    44.3027    32.344     27.6059    18.334     0.189     
2784.2     13.3577    2.6733     11.6569    26.0459    43.8058    31.9436    25.1746    18.3992    0.195     
2784.3     13.2871    2.6733     11.6378    26.1819    43.392     31.7998    22.3991    18.5464    0.199     
2784.4     13.1811    2.706      11.7678    26.4145    43.4554    31.8825    21.9317    18.6966    0.201     
2784.5     13.0985    2.7728     11.9725    26.6092    43.8729    32.2153    22.0498    18.7987    0.202     
2784.6     12.9884    2.7948     12.0261    26.8041    44.2436    32.879     21.3807    19.0831    0.202     
2784.7     12.8743    2.7555     11.8341    27.0928    44.6074    33.8906    21.5221    19.5895    0.198     
2784.8     12.7309    2.699      11.7501    27.4781    45.8101    34.9789    21.7056    20.3224    0.195     
2784.9     12.5707    2.6998     11.8424    28.031     48.2603    36.077     23.291     21.416     0.192     
2785       12.4236    2.714      12.0497    28.9096    51.6795    37.542     21.8052    22.7913    0.191     
2785.1     12.2973    2.7053     12.2559    30.1611    44.2072    39.2719    17.6257    24.2486    0.195     
2785.2     12.1769    2.7517     12.7029    31.1184    44.84      40.9077    16.2322    25.0582    0.199     
2785.3     12.0462    2.8722     13.1935    32.4788    48.2398    42.3622    16.9764    25.7033    0.201     
2785.4     11.9113    2.6382     12.4804    34.0916    50.3701    43.537     17.2953    26.2251    0.202     
2785.5     11.7382    2.9429     13.5865    34.7056    50.6349    44.3182    19.011     26.242     0.201     
2785.6     11.5705    3.2557     15.0697    35.1275    50.6418    44.6613    28.5199    25.6109    0.198     
2785.7     11.4768    3.195      14.4894    35.5111    51.4721    44.4993    39.3329    25.1606    0.195     
2785.8     11.3442    3.2407     14.2149    34.9632    49.8057    44.0732    42.3556    24.6857    0.192     
2785.9     11.1642    3.0957     13.7306    33.4902    47.178     43.5275    30.6063    23.7709    0.188     
2786       11.0198    2.9682     13.0475    32.1954    44.1305    42.3839    18.113     22.9411    0.186     
2786.1     10.9058    2.8503     12.519     30.5305    41.7519    40.7225    14.9167    22.2884    0.186     
2786.2     10.7369    2.7307     12.0511    28.9169    50.616     39.024     13.5033    21.6754    0.188     
2786.3     10.5978    2.6204     11.6352    27.3389    47.8087    37.2923    12.9502    21.0888    0.191     
2786.4     10.4736    2.5311     11.249     25.9926    45.3818    35.6022    13.26      20.5856    0.195     
2786.5     10.3571    2.4706     10.8476    24.8137    43.2687    34.0578    13.3831    20.1479    0.198     
2786.6     10.2544    2.4741     10.6721    23.7901    41.2499    32.5781    13.7042    19.777     0.199     
2786.7     10.1877    2.4641     10.4777    22.8986    39.3774    31.163     13.8419    19.4935    0.195     
2786.8     10.1404    2.4289     10.1713    22.1354    37.6513    29.8564    13.7155    19.3814    0.195     
2786.9     10.087     2.3795     9.86       21.2982    35.8157    28.6549    12.5417    19.3934    0.196     
2787       10.0588    2.3435     9.6347     20.3259    33.8148    27.5295    11.2208    19.5338    0.182     
2787.1     10.023     2.2903     9.365      19.3681    31.8076    26.4781    10.8604    19.8302    0.168     
2787.2     9.9852     2.1761     8.9459     18.4849    29.7114    25.554     10.369     20.2078    0.168     
2787.3     9.9689     2.0628     8.579      17.636     27.7046    24.7981    10.8992    20.6912    0.176     
2787.4     9.9655     1.9751     8.3053     17.0751    26.3122    24.2183    11.2167    21.2654    0.18      
2787.5     9.9869     1.8993     8.0612     16.8816    25.5276    23.8403    14.3993    21.6301    0.174     
2787.6     10.0473    1.9702     8.262      17.0463    25.3112    23.712     17.097     21.677     0.169     
2787.7     10.1397    2.0983     8.6806     17.3746    25.5823    23.8011    22.1292    21.4759    0.179     
2787.8     10.2809    2.2575     9.1274     18.0755    26.1976    24.0216    37.1854    20.9555    0.191     
2787.9     10.4234    2.4141     9.636      18.8967    26.872     24.3623    42.8188    20.1973    0.185     
2788       10.5611    2.6004     10.187     19.693     27.4934    24.778     49.3669    19.366     0.18      
2788.1     10.7022    2.8168     10.7627    20.2478    27.7387    25.1874    52.1732    18.7419    0.18      
2788.2     10.8229    2.9598     11.0683    20.5715    27.7247    25.5899    42.0644    18.2       0.175     
2788.3     10.9217    2.9666     10.9828    20.6105    27.2639    25.8425    22.8994    17.6984    0.167     
2788.4     10.9752    2.9638     11.0371    20.4115    26.4682    25.5981    16.5426    17.2317    0.167     
2788.5     10.9868    2.8942     11.0046    19.9874    25.5617    24.8553    15.9346    16.8819    0.185     
2788.6     10.9753    2.8368     11.0262    19.6702    24.7233    23.953     15.674     16.7313    0.19      
2788.7     10.9209    2.7766     10.9708    19.2511    23.8959    23.1344    15.1725    16.6759    0.186     
2788.8     10.8327    2.6994     10.9237    18.8539    23.1247    22.3487    14.0179    16.6954    0.186     
2788.9     10.7254    2.6245     10.7406    18.475     22.3849    21.446     13.6152    16.7459    0.188     
2789       10.6018    2.587      10.682     18.216     21.6682    20.6298    14.1098    16.77      0.191     
2789.1     10.483     2.553      10.5882    17.953     21.1503    20.1045    14.3218    16.7264    0.195     
2789.2     10.3846    2.5184     10.4407    17.8075    20.8241    19.7255    14.5453    16.5805    0.195     
2789.3     10.2997    2.4722     10.2674    17.6415    20.6231    19.3007    14.6466    16.4272    0.192     
2789.4     10.2157    2.4444     10.039     17.5299    20.5111    18.88      14.6489    16.3619    0.188     
2789.5     10.1449    2.3525     9.6458     17.4559    20.4798    18.5273    14.6138    16.3133    0.182     
2789.6     10.0833    2.3473     9.5162     17.443     20.5679    18.1175    14.5987    16.2849    0.182     
2789.7     10.0452    2.3658     9.5162     17.4816    20.6071    17.6762    15.3158    16.2872    0.185     
2789.8     10.0284    2.3525     9.4088     17.7005    20.8628    17.3884    15.6782    16.2629    0.188     
2789.9     10.0198    2.3396     9.344      18.0093    21.2197    17.3185    15.7019    16.127     0.194     
2790       10.0198    2.3641     9.3966     18.2741    21.726     17.407     15.7019    16.036     0.197     
