~Version
 VERS              .         2.0                           : CWLS LOG ASCII STANDARD - VERSION 2.0
 WRAP              .         NO                            : ONE LINE PER DEPTH STEP
 DLM               .         SPACE                         : DELIMITING CHARACTER(SPACE TAB OR COMMA)
~Well Information
#_______________________________________________________________________________
#
#PARAMETER_NAME    .UNIT     VALUE                         : DESCRIPTION
#_______________________________________________________________________________
STRT               .m        2637.28                       : First reference value
STOP               .m        2825.08                       : Last reference value
STEP               .m        0.1                           : Step increment
NULL               .         -9999                         : Missing value
COMP               .                                       : Company
WELL               .         407                           : Well name
FLD                .                                       : Field
LOC                .                                       : Location
CNTY               .                                       : County
STAT               .                                       : State
CTRY               .                                       : Country
SRVC               .                                       : Service Company
DATE               .                                       : Date
API                .                                       : API number
EREF               .m        140.4                         : 
Pad                .         4                             : 
X                  .m        222100                        : 
Y                  .m        250025                        : 
group              .         Pad4                          : 
Интер-р            .         Зайцев                        : 
Куст               .         4                             : 
Статус             .         Не проверено                  : 
Тип                .         Эксплуатация                  : 
~Parameter Information Block
#_______________________________________________________________________________
#
#PARAMETER_NAME    .UNIT     VALUE                         : DESCRIPTION
#_______________________________________________________________________________
SET                .         LAS3                          : 
REAL_CREATION_DATE .         Ср апр 11 2012-13_17_16       : 
TLFamily_DEPTH     .         Measured Depth                : 
TLFamily_GR        .         Gamma Ray                     : 
TLFamily_TNPH      .         Neutron Porosity              : 
group              .         INI                           : 
~Curve Information
#_______________________________________________________________________________
#
#LOGNAME           .UNIT     LOG_ID                        : DESCRIPTION
#_______________________________________________________________________________
DEPTH              .m                                      : Measured Depth 
GR                 .gAPI                                   :  
TNPH               .v/v                                    : Neutron Porosity 
~Ascii
# ...
2685.88    136.99     0.252     
2685.98    141.64     0.255     
2686.08    146.66     0.257     
2686.18    149.32     0.258     
2686.28    152.5      0.255     
2686.38    154.74     0.255     
2686.48    157.44     0.257     
2686.58    161.6      0.262     
2686.68    162.58     0.267     
2686.78    157.7      0.269     
2686.88    153.77     0.27      
2686.98    151.82     0.27      
2687.08    147.97     0.273     
2687.18    147.74     0.272     
2687.28    144.19     0.28      
2687.38    140.26     0.284     
2687.48    137.59     0.291     
2687.58    138.84     0.295     
2687.68    138.92     0.296     
2687.78    140.83     0.297     
2687.88    140.15     0.298     
2687.98    136.01     0.298     
2688.08    133.22     0.297     
2688.18    133.81     0.296     
2688.28    134.64     0.296     
2688.38    136.3      0.302     
2688.48    137.76     0.306     
2688.58    137.52     0.308     
2688.68    137.1      0.301     
2688.78    134.16     0.294     
2688.88    130.73     0.279     
2688.98    128.24     0.272     
2689.08    130.11     0.27      
2689.18    131.48     0.265     
2689.28    132.68     0.263     
2689.38    135.63     0.266     
2689.48    138.9      0.267     
2689.58    141.83     0.265     
2689.68    139.28     0.268     
2689.78    136.75     0.268     
2689.88    134.1      0.268     
2689.98    132.03     0.267     
2690.08    131.36     0.268     
2690.18    132.64     0.264     
2690.28    135.9      0.262     
2690.38    138.55     0.259     
2690.48    140.94     0.256     
2690.58    143.42     0.252     
2690.68    145.58     0.256     
2690.78    149.37     0.259     
2690.88    156.44     0.267     
2690.98    161.63     0.273     
2691.08    175.08     0.275     
2691.18    179.53     0.285     
2691.28    190.87     0.281     
2691.38    201.16     0.289     
2691.48    210.3      0.286     
2691.58    219.96     0.279     
2691.68    221.35     0.277     
2691.78    217.97     0.274     
2691.88    209.63     0.267     
2691.98    200.45     0.262     
2692.08    201.48     0.266     
2692.18    204.21     0.264     
2692.28    209.7      0.274     
2692.38    214.86     0.276     
2692.48    219.09     0.278     
2692.58    222.71     0.276     
2692.68    225.44     0.276     
2692.78    232.32     0.27      
2692.88    244.42     0.278     
2692.98    247.89     0.28      
2693.08    243.21     0.282     
2693.18    241.23     0.288     
2693.28    239.6      0.29      
2693.38    235.6      0.284     
2693.48    230.4      0.277     
2693.58    220.55     0.27      
2693.68    219.48     0.263     
2693.78    217.64     0.262     
2693.88    213.06     0.261     
2693.98    207.95     0.265     
2694.08    216.34     0.271     
2694.18    218.29     0.283     
2694.28    224.09     0.289     
2694.38    228.14     0.301     
2694.48    233.71     0.306     
2694.58    241.58     0.306     
2694.68    244.32     0.314     
2694.78    248.95     0.32      
2694.88    254.66     0.331     
2694.98    259.98     0.339     
2695.08    264.47     0.341     
2695.18    264.89     0.335     
2695.28    266.93     0.332     
2695.38    263.54     0.328     
2695.48    257.89     0.327     
2695.58    251.6      0.325     
2695.68    248.02     0.321     
2695.78    240.94     0.316     
2695.88    232.69     0.309     
2695.98    223.91     0.303     
2696.08    222.12     0.303     
2696.18    221.15     0.293     
2696.28    216.39     0.288     
2696.38    208.72     0.278     
2696.48    200.78     0.273     
2696.58    193.82     0.273     
2696.68    194.52     0.272     
2696.78    195.36     0.273     
2696.88    193.45     0.275     
2696.98    196.35     0.279     
2697.08    202.15     0.284     
2697.18    204.47     0.293     
2697.28    212.69     0.3       
2697.38    215.12     0.308     
2697.48    222.5      0.31      
2697.58    237.21     0.308     
2697.68    243.32     0.315     
2697.78    254.31     0.319     
2697.88    263.96     0.332     
2697.98    269.73     0.339     
2698.08    282.49     0.344     
2698.18    286.03     0.348     
2698.28    293.82     0.346     
2698.38    301.47     0.347     
2698.48    312.64     0.344     
2698.58    334.21     0.338     
2698.68    342.63     0.342     
2698.78    358.16     0.337     
2698.88    368.29     0.341     
2698.98    372.71     0.342     
2699.08    367.78     0.347     
2699.18    367.88     0.343     
2699.28    368.88     0.345     
2699.38    360.9      0.339     
2699.48    354.86     0.333     
2699.58    357.11     0.325     
2699.68    358.26     0.319     
2699.78    361.43     0.316     
2699.88    365.83     0.317     
2699.98    372.27     0.319     
2700.08    381.19     0.324     
2700.18    384.72     0.328     
2700.28    391.78     0.334     
2700.38    401.76     0.336     
2700.48    411.42     0.337     
2700.58    423.21     0.338     
2700.68    426.61     0.34      
2700.78    430.53     0.347     
2700.88    434.27     0.352     
2700.98    435.67     0.356     
2701.08    428.23     0.354     
2701.18    426.44     0.35      
2701.28    430.4      0.338     
2701.38    434.14     0.339     
2701.48    447.93     0.338     
2701.58    458.49     0.336     
2701.68    456.24     0.338     
2701.78    448.31     0.34      
2701.88    444.22     0.344     
2701.98    444.76     0.344     
2702.08    437.71     0.339     
2702.18    427        0.33      
2702.28    407.85     0.33      
2702.38    392.43     0.326     
2702.48    379.92     0.327     
2702.58    373.39     0.327     
2702.68    367.03     0.324     
2702.78    366.63     0.329     
2702.88    363        0.335     
2702.98    358.27     0.346     
2703.08    348.58     0.355     
2703.18    346.94     0.367     
2703.28    342.93     0.363     
2703.38    344.32     0.372     
2703.48    348.33     0.372     
2703.58    350.78     0.366     
2703.68    351.63     0.375     
2703.78    355.4      0.374     
2703.88    360.16     0.379     
2703.98    363.61     0.38      
2704.08    368.75     0.38      
2704.18    369.86     0.38      
2704.28    370.68     0.375     
2704.38    371.17     0.368     
2704.48    372.96     0.362     
2704.58    375.02     0.363     
2704.68    375.48     0.362     
2704.78    372.37     0.371     
2704.88    372.42     0.378     
2704.98    369.34     0.389     
2705.08    359.02     0.401     
2705.18    355.35     0.409     
2705.28    350.05     0.407     
2705.38    346.07     0.409     
2705.48    342.74     0.404     
2705.58    337.89     0.393     
2705.68    332.82     0.391     
2705.78    330.82     0.386     
2705.88    327.74     0.386     
2705.98    326.81     0.386     
2706.08    324.61     0.383     
2706.18    326.27     0.379     
2706.28    326.2      0.374     
2706.38    324        0.378     
2706.48    316.55     0.385     
2706.58    306.95     0.4       
2706.68    306.41     0.406     
2706.78    302.51     0.416     
2706.88    295.68     0.407     
2706.98    284.25     0.399     
2707.08    254.53     0.396     
2707.18    250.48     0.381     
2707.28    241.39     0.377     
2707.38    238.12     0.364     
2707.48    237.49     0.357     
2707.58    241.34     0.357     
2707.68    240.05     0.358     
2707.78    237.27     0.36      
2707.88    234.89     0.355     
2707.98    235.86     0.349     
2708.08    229.13     0.35      
2708.18    227.73     0.348     
2708.28    223.63     0.354     
2708.38    219.44     0.353     
2708.48    216.42     0.352     
2708.58    213.01     0.352     
2708.68    208.79     0.354     
2708.78    202.56     0.362     
2708.88    197.77     0.362     
2708.98    192.63     0.36      
2709.08    186.05     0.35      
2709.18    185.63     0.344     
2709.28    180.25     0.332     
2709.38    169.23     0.324     
2709.48    168.67     0.317     
2709.58    167.06     0.303     
2709.68    166.08     0.294     
2709.78    169.86     0.289     
2709.88    172.19     0.286     
2709.98    171.68     0.289     
2710.08    177.79     0.295     
