~Version
 VERS              .         2.0                           : CWLS LOG ASCII STANDARD - VERSION 2.0
 WRAP              .         NO                            : ONE LINE PER DEPTH STEP
 DLM               .         SPACE                         : DELIMITING CHARACTER(SPACE TAB OR COMMA)
~Well Information
#_______________________________________________________________________________
#
#PARAMETER_NAME    .UNIT     VALUE                         : DESCRIPTION
#_______________________________________________________________________________
STRT               .m        2636.8                        : First reference value
STOP               .m        2825.1                        : Last reference value
STEP               .m        0.1                           : Step increment
NULL               .         -9999                         : Missing value
COMP               .                                       : Company
WELL               .         407                           : Well name
FLD                .                                       : Field
LOC                .                                       : Location
CNTY               .                                       : County
STAT               .                                       : State
CTRY               .                                       : Country
SRVC               .                                       : Service Company
DATE               .                                       : Date
API                .                                       : API number
EREF               .m        140.4                         : 
Pad                .         4                             : 
X                  .m        222100                        : 
Y                  .m        250025                        : 
group              .         Pad4                          : 
Интер-р            .         Зайцев                        : 
Куст               .         4                             : 
Статус             .         Не проверено                  : 
Тип                .         Эксплуатация                  : 
~Parameter Information Block
#_______________________________________________________________________________
#
#PARAMETER_NAME    .UNIT     VALUE                         : DESCRIPTION
#_______________________________________________________________________________
SET                .         LAS1                          : 
REAL_CREATION_DATE .         Ср апр 11 2012-13_17_16       : 
TLFamily_DEPTH     .         Measured Depth                : 
TLFamily_KS        .         Potential Resistivity         : 
TLFamily_KS1       .         Extra Shallow Resistivity     : 
TLFamily_KS2       .         Shallow Resistivity           : 
TLFamily_KS3       .         Medium Resistivity            : 
TLFamily_KS4       .         Deep Resistivity              : 
TLFamily_KS5       .         Extra Deep Resistivity        : 
TLFamily_LLD       .         Lateral Log Resistivity       : 
TLFamily_OKS3      .         Medium Resistivity Inverted   : 
TLFamily_RM        .         Mud Resistivity               : 
group              .         INI                           : 
~Curve Information
#_______________________________________________________________________________
#
#LOGNAME           .UNIT     LOG_ID                        : DESCRIPTION
#_______________________________________________________________________________
DEPTH              .m                                      : Measured Depth 
KS                 .ohm.m                                  : Potential Resistivity 
KS1                .ohm.m                                  : Extra Shallow Resistivity 
KS2                .ohm.m                                  : Shallow Resistivity 
KS3                .ohm.m                                  : Medium Resistivity 
KS4                .ohm.m                                  : Deep Resistivity 
KS5                .ohm.m                                  : Extra Deep Resistivity 
LLD                .ohm.m                                  : Lateral Log Resistivity 
OKS3               .ohm.m                                  : Medium Resistivity Inverted 
RM                 .ohm.m                                  : Mud Resistivity 
~Ascii
# ...
2651.4     7.6622     2.1841     8.7389     15.4573    16.0096    11.6312    10.6182    14.1724    0.18      
2651.5     7.583      2.1741     8.6241     15.305     15.7708    11.4756    10.2671    14.096     0.18      
2651.6     7.5398     2.1701     8.5467     15.211     15.642     11.3585    11.3098    14.0459    0.18      
2651.7     7.5234     2.1693     8.4804     15.1617    15.5763    11.2793    14.5363    14.0917    0.18      
2651.8     7.521      2.1254     8.2782     15.0787    15.4607    11.2357    15.7276    14.1596    0.18      
2651.9     7.4958     2.12       8.2987     14.8666    15.3094    11.2125    12.1937    14.1592    0.178     
2652       7.4634     2.1014     8.1998     14.6804    15.1704    11.2009    10.6792    14.1561    0.175     
2652.1     7.4296     2.0496     8.0894     14.5258    15.0264    11.2039    10.3727    14.2583    0.178     
2652.2     7.3895     2.0303     8.0232     14.3086    14.8705    11.2285    10.1476    14.34      0.177     
2652.3     7.349      2.0171     8.0259     14.0981    14.7963    11.269     10.1073    14.4457    0.175     
2652.4     7.3269     1.9745     7.8298     13.9479    14.7516    11.3056    10.2533    14.5919    0.175     
2652.5     7.3077     1.9605     7.7755     13.7969    14.7428    11.3464    10.3159    14.7587    0.172     
2652.6     7.285      1.9496     7.7338     13.6999    14.7163    11.4034    10.1843    14.8365    0.166     
2652.7     7.285      1.9594     7.7428     13.5955    14.7246    11.4707    9.8551     14.7611    0.164     
2652.8     7.285      1.9582     7.707      13.4862    14.7246    11.5329    9.7381     14.6088    0.164     
2652.9     7.2863     1.9325     7.5935     13.4972    14.85      11.5834    9.4171     14.4838    0.164     
2653       7.2997     1.9397     7.5977     13.5102    14.9691    11.6233    9.2795     14.3653    0.164     
2653.1     7.3195     2          7.7487     13.6074    15.1612    11.6374    9.1546     14.2325    0.164     
2653.2     7.3644     2.0726     7.911      13.7596    15.3334    11.6108    9.2989     14.0599    0.164     
2653.3     7.431      2.1047     7.9975     13.9268    15.4517    11.5631    9.3836     13.8567    0.164     
2653.4     7.4796     2.1214     8.042      13.9896    15.5199    11.505     10.0146    13.6213    0.164     
2653.5     7.5269     2.1282     8.0454     14.0062    15.5334    11.4447    10.285     13.3534    0.164     
2653.6     7.559      2.1513     8.1463     13.9493    15.4429    11.3937    10.5386    13.1088    0.164     
2653.7     7.5891     2.1699     8.2257     13.8497    15.3766    11.3344    11.7582    12.9241    0.165     
2653.8     7.6087     2.1516     8.191      13.7842    15.3475    11.2628    12.2344    12.8133    0.168     
2653.9     7.6194     2.1124     8.1424     13.7743    15.2903    11.2077    13.093     12.8275    0.169     
2654       7.6227     2.1033     8.228      13.788     15.2603    11.1813    13.461     12.9007    0.169     
2654.1     7.6321     2.1737     8.4629     13.8182    15.2692    11.1412    12.9901    12.9423    0.172     
2654.2     7.6207     2.1956     8.5957     13.9928    15.3942    11.0871    12.7883    13.0265    0.171     
2654.3     7.6101     2.1826     8.5431     14.2421    15.5597    11.0692    12.2728    13.134     0.168     
2654.4     7.5773     2.2519     8.8246     14.3643    15.5499    11.0871    12.0519    13.1532    0.167     
2654.5     7.5141     2.3223     9.1159     14.4145    15.454     11.0758    11.3995    13.0444    0.169     
2654.6     7.4574     2.2732     8.9517     14.5415    15.5052    10.9959    11.0536    12.9026    0.169     
2654.7     7.3829     2.2412     8.7797     14.7371    15.5459    10.8678    11.0252    12.9129    0.169     
2654.8     7.2958     2.2682     8.8285     14.7932    15.3564    10.7113    11.4473    12.944     0.169     
2654.9     7.2312     2.4255     9.3458     14.742     15.0926    10.5291    11.6282    12.9518    0.169     
2655       7.1578     2.3582     8.9468     14.5653    14.6947    10.343     11.7085    12.9477    0.169     
2655.1     7.0802     2.1891     8.3584     14.1701    14.1155    10.1948    11.4999    12.944     0.169     
2655.2     6.9532     1.9926     7.7931     13.5343    13.4836    10.0957    11.3957    12.9234    0.17      
2655.3     6.8483     1.8654     7.3099     13.0096    13.0881    9.992      10.9378    13.0209    0.172     
2655.4     6.7645     1.8261     7.0896     12.6361    12.824     9.8506     10.7415    13.1417    0.171     
2655.5     6.7084     1.8503     7.1427     12.4753    12.7975    9.7367     10.268     13.3432    0.169     
2655.6     6.6869     1.8724     7.1525     12.4467    12.8189    9.6801     8.3901     13.5782    0.176     
2655.7     6.71       1.9242     7.262      12.4416    12.8679    9.6857     7.6722     13.7515    0.177     
2655.8     6.7418     1.876      7.0115     12.3996    12.9002    9.7587     7.3076     13.948     0.176     
2655.9     6.7635     1.8661     6.9097     12.2967    12.8697    9.8528     7.1514     14.056     0.177     
2656       6.7813     1.8566     6.9066     12.0823    12.7703    9.934      7.1792     14.0799    0.176     
2656.1     6.8178     1.8145     6.7625     11.9829    12.7916    9.9947     8.0163     14.0316    0.172     
2656.2     6.891      1.8468     6.787      11.9605    12.8645    10.0445    8.37       13.88      0.169     
2656.3     6.985      1.914      6.9415     11.9935    12.9431    10.1026    8.8911     13.5553    0.166     
2656.4     7.0923     1.9941     7.1757     12.1565    13.1191    10.1338    9.1145     13.1029    0.162     
2656.5     7.2204     2.093      7.4322     12.3999    13.3606    10.1476    8.8871     12.7023    0.159     
2656.6     7.3271     2.1726     7.7391     12.6479    13.6537    10.1944    9.5247     12.3636    0.159     
2656.7     7.4416     2.2736     8.0542     12.928     13.9206    10.2572    9.8397     12.2024    0.159     
2656.8     7.5449     2.3484     8.4584     13.0906    14.1013    10.3158    11.8553    11.8357    0.165     
2656.9     7.6194     2.4078     8.5037     13.3033    14.3641    10.347     12.7191    11.577     0.169     
2657       7.6566     2.3489     8.5614     13.4968    14.6184    10.3319    14.1343    11.3848    0.169     
2657.1     7.6474     2.4443     9.0741     13.6293    14.7687    10.2788    16.9115    11.2247    0.166     
2657.2     7.6159     2.5245     9.4499     13.7794    14.8885    10.1903    17.8418    10.9953    0.162     
2657.3     7.572      2.574      9.672      13.8898    14.9491    10.0722    16.3457    10.8632    0.166     
2657.4     7.4637     2.5197     9.5381     13.7878    14.829     9.9563     14.2052    10.7661    0.175     
2657.5     7.3196     2.39       9.1826     13.5489    14.579     9.8379     14.4296    10.7401    0.183     
2657.6     7.1811     2.2683     8.7914     13.2431    14.2227    9.7076     14.8011    10.6855    0.183     
2657.7     7.0381     2.2057     8.5854     12.9466    13.7925    9.5801     12.8218    10.7416    0.181     
2657.8     6.883      2.2105     8.5241     12.6568    13.3762    9.4675     11.9735    10.8935    0.18      
2657.9     6.7465     2.086      8.0742     12.4141    13.0374    9.396      11.0909    11.207     0.177     
2658       6.626      1.9243     7.5479     12.1686    12.6764    9.3764     9.2256     11.6578    0.175     
2658.1     6.5019     1.8174     7.1747     11.8784    12.3504    9.3873     8.5882     12.2191    0.175     
2658.2     6.4006     1.7257     6.8932     11.7761    12.192     9.4234     8.287      12.7431    0.175     
2658.3     6.3265     1.695      6.7784     11.8033    12.1892    9.481      8.1579     13.1182    0.171     
2658.4     6.2778     1.7061     6.7388     11.8917    12.2977    9.553      7.6021     13.3355    0.171     
2658.5     6.2612     1.7147     6.7169     12.064     12.4729    9.6615     6.4925     13.4169    0.172     
2658.6     6.2617     1.7852     6.841      12.2845    12.6593    9.7917     6.119      13.377     0.173     
