~Version
 VERS              .         2.0                           : CWLS LOG ASCII STANDARD - VERSION 2.0
 WRAP              .         NO                            : ONE LINE PER DEPTH STEP
 DLM               .         SPACE                         : DELIMITING CHARACTER(SPACE TAB OR COMMA)
~Well Information
#_______________________________________________________________________________
#
#PARAMETER_NAME    .UNIT     VALUE                         : DESCRIPTION
#_______________________________________________________________________________
STRT               .m        2636.8                        : First reference value
STOP               .m        2825.1                        : Last reference value
STEP               .m        0.1                           : Step increment
NULL               .         -9999                         : Missing value
COMP               .                                       : Company
WELL               .         407                           : Well name
FLD                .                                       : Field
LOC                .                                       : Location
CNTY               .                                       : County
STAT               .                                       : State
CTRY               .                                       : Country
SRVC               .                                       : Service Company
DATE               .                                       : Date
API                .                                       : API number
EREF               .m        140.4                         : 
Pad                .         4                             : 
X                  .m        222100                        : 
Y                  .m        250025                        : 
group              .         Pad4                          : 
Интер-р            .         Зайцев                        : 
Куст               .         4                             : 
Статус             .         Не проверено                  : 
Тип                .         Эксплуатация                  : 
~Parameter Information Block
#_______________________________________________________________________________
#
#PARAMETER_NAME    .UNIT     VALUE                         : DESCRIPTION
#_______________________________________________________________________________
SET                .         LAS1                          : 
REAL_CREATION_DATE .         Ср апр 11 2012-13_17_16       : 
TLFamily_DEPTH     .         Measured Depth                : 
TLFamily_KS        .         Potential Resistivity         : 
TLFamily_KS1       .         Extra Shallow Resistivity     : 
TLFamily_KS2       .         Shallow Resistivity           : 
TLFamily_KS3       .         Medium Resistivity            : 
TLFamily_KS4       .         Deep Resistivity              : 
TLFamily_KS5       .         Extra Deep Resistivity        : 
TLFamily_LLD       .         Lateral Log Resistivity       : 
TLFamily_OKS3      .         Medium Resistivity Inverted   : 
TLFamily_RM        .         Mud Resistivity               : 
group              .         INI                           : 
~Curve Information
#_______________________________________________________________________________
#
#LOGNAME           .UNIT     LOG_ID                        : DESCRIPTION
#_______________________________________________________________________________
DEPTH              .m                                      : Measured Depth 
KS                 .ohm.m                                  : Potential Resistivity 
KS1                .ohm.m                                  : Extra Shallow Resistivity 
KS2                .ohm.m                                  : Shallow Resistivity 
KS3                .ohm.m                                  : Medium Resistivity 
KS4                .ohm.m                                  : Deep Resistivity 
KS5                .ohm.m                                  : Extra Deep Resistivity 
LLD                .ohm.m                                  : Lateral Log Resistivity 
OKS3               .ohm.m                                  : Medium Resistivity Inverted 
RM                 .ohm.m                                  : Mud Resistivity 
~Ascii
# ...
2768.2     9.0996     1.9622     7.7454     12.8155    8.3594     9.5405     11.6281    21.9916    0.191     
2768.3     9.2184     2.0706     8.225      13.3118    8.8106     9.8078     11.625     22.0244    0.191     
2768.4     9.3754     2.1846     8.6622     14.0369    9.4305     10.0511    11.812     21.9118    0.191     
2768.5     9.5481     2.3196     9.139      14.8567    10.0995    10.2424    11.8928    21.6576    0.189     
2768.6     9.7296     2.4707     9.6502     15.7142    10.838     10.3625    11.223     21.1513    0.188     
2768.7     9.8939     2.6042     10.0347    16.6138    11.6777    10.389     10.936     20.5272    0.187     
2768.8     10.0287    2.8024     10.7162    17.3886    12.4666    10.3518    12.6193    19.8373    0.188     
2768.9     10.1547    2.9885     11.414     18.0083    13.2117    10.2819    24.8411    19.1792    0.187     
2769       10.2764    3.0074     11.5286    18.4923    13.858     10.1628    29.7698    18.4454    0.186     
2769.1     10.3521    2.9775     11.4979    18.7348    14.3035    9.9982     29.7149    17.7667    0.187     
2769.2     10.3552    2.9425     11.4154    18.8234    14.6637    9.7817     29.6914    17.2969    0.19      
2769.3     10.3211    2.9201     11.5024    18.8185    14.9893    9.5006     31.0412    16.9737    0.188     
2769.4     10.2667    2.9502     11.744     18.8244    15.2792    9.1971     30.3461    16.7904    0.188     
2769.5     10.1971    2.8689     11.6307    18.8314    15.5082    8.9137     29.8003    16.8253    0.189     
2769.6     10.1027    2.8397     11.6602    18.7164    15.5587    8.6731     19.5243    17.0589    0.19      
2769.7     9.9466     2.7613     11.3534    18.3914    15.4049    8.4844     15.1204    17.4769    0.189     
2769.8     9.787      2.6187     10.9701    17.9961    15.1819    8.3185     14.4757    18.1634    0.186     
2769.9     9.6285     2.5021     10.446     17.518     14.9321    8.1887     14.0114    18.9566    0.186     
2770       9.4733     2.335      9.7229     17.2122    14.738     8.1089     13.9308    19.5384    0.187     
2770.1     9.3517     2.3046     9.6257     17.0228    14.6717    8.06       11.5134    19.8886    0.19      
2770.2     9.2561     2.3756     9.812      16.9998    14.7124    8.0481     10.4773    20.0934    0.195     
2770.3     9.1852     2.4074     9.8421     17.2018    14.9073    8.0833     9.8428     20.2303    0.2       
2770.4     9.1283     2.4434     9.7175     17.3445    14.988     8.2091     9.1755     20.2637    0.202     
2770.5     9.0719     2.4287     9.5595     17.3813    15.0065    8.4527     9.0061     20.6196    0.2       
2770.6     9.02       2.4142     9.3366     17.2835    14.9537    8.7914     11.1541    21.2594    0.197     
2770.7     8.9714     2.3647     9.1076     17.1315    14.9764    9.2067     12.0747    22.1212    0.2       
2770.8     8.9285     2.2548     8.8149     16.9438    15.0969    9.6787     13.7614    23.3526    0.199     
2770.9     8.8882     2.1891     8.6787     16.8264    15.3772    10.1756    12.934     25.1932    0.197     
2771       8.8645     2.1071     8.563      16.9334    15.906     10.7023    12.2696    27.0719    0.194     
2771.1     8.8172     2.0293     8.4751     17.2362    16.6119    11.2837    10.2655    28.7182    0.195     
2771.2     8.7791     2.0433     8.8125     17.4061    17.1898    11.8935    9.4066     30.2386    0.193     
2771.3     8.7488     2.139      9.1705     17.292     17.5838    12.5031    8.8925     31.1787    0.193     
2771.4     8.7463     2.0285     8.5359     17.1602    17.969     13.0121    8.5309     31.8634    0.198     
2771.5     8.7704     1.8448     7.9324     16.8044    18.0671    13.3806    8.4704     32.4925    0.198     
2771.6     8.7773     1.8202     7.6924     16.432     18.12      13.6609    8.8109     32.7184    0.197     
2771.7     8.868      1.8915     7.8012     16.084     18.1697    13.8559    8.9568     32.342     0.196     
2771.8     9.0447     1.9143     7.7933     15.9704    18.6307    14.0204    10.6754    29.7913    0.191     
2771.9     9.3137     1.8987     7.6301     16.0755    18.9752    14.1137    10.9219    28.4447    0.187     
2772       9.586      2.068      8.1236     16.1816    19.3665    14.0832    10.7119    27.6026    0.183     
2772.1     9.8507     2.2277     8.8152     16.5431    20.1246    14.0034    12.8508    27.047     0.185     
2772.2     10.1311    2.4026     9.4143     17.1702    20.955     13.9238    16.0492    27.1431    0.19      
2772.3     10.4263    2.4541     9.7351     17.7582    21.7471    13.9134    20.3369    27.5034    0.194     
2772.4     10.9675    2.5155     10.1839    18.1972    22.3859    13.962     31.771     27.8101    0.199     
2772.5     11.1624    2.5671     10.5638    18.4543    22.9607    13.9806    30.1381    27.8802    0.201     
2772.6     11.2648    2.6079     10.9884    18.803     23.5963    13.9477    27.5986    27.7075    0.198     
2772.7     11.2826    2.6405     11.2533    19.1648    24.0967    13.8654    24.4853    27.587     0.197     
2772.8     11.2912    2.739      11.7446    19.5111    24.5373    13.8014    21.883     27.5332    0.197     
2772.9     11.3249    2.8414     12.2774    19.8411    24.9356    13.7735    21.3395    27.4327    0.194     
2773       11.3478    2.9024     12.413     20.2949    25.0941    13.7364    20.804     27.3731    0.191     
2773.1     11.3508    2.8804     12.2674    20.4997    25.0501    13.6821    20.5745    26.9643    0.191     
2773.2     11.3367    2.8791     12.144     20.9026    25.0043    13.5941    21.7902    26.6049    0.191     
2773.3     11.323     2.6824     11.8284    21.3768    24.8407    13.4418    23.9689    26.155     0.194     
2773.4     11.3092    2.891      12.4539    21.8353    24.4564    13.2368    24.6793    25.5538    0.197     
2773.5     11.2772    2.9388     12.5362    22.247     24.3477    12.9993    20.2061    24.7584    0.197     
2773.6     11.2622    2.9118     12.4634    22.706     23.9237    12.7157    18.289     24.1377    0.197     
2773.7     11.2064    2.8364     12.2348    22.7799    23.3024    12.4645    18.8926    23.576     0.197     
2773.8     11.1708    2.742      11.9189    22.8866    22.6952    12.099     23.5604    22.9527    0.193     
2773.9     11.131     2.7182     11.7492    22.8554    22.0885    11.7552    25.45      22.3044    0.191     
2774       11.1068    2.7071     11.6721    22.7819    21.5668    11.5046    20.6731    21.8633    0.188     
2774.1     11.0207    2.6567     11.3969    22.59      21.138     11.1563    18.6259    21.5338    0.188     
2774.2     10.9555    2.6221     11.2794    22.2656    20.7347    10.8204    17.7048    21.1843    0.191     
2774.3     10.8961    2.5907     11.1242    21.9664    20.4086    10.5001    16.4493    20.7907    0.193     
2774.4     10.854     2.6238     11.1308    21.7874    20.1538    10.1952    16.0803    20.6193    0.199     
2774.5     10.8451    2.6503     11.0533    21.6722    19.9089    9.9231     16.2913    20.6107    0.2       
2774.6     10.8021    2.6331     10.947     21.644     19.7451    9.6847     16.3817    20.6515    0.197     
2774.7     10.7852    2.6338     10.9227    21.5754    19.5473    9.4872     16.5387    20.7461    0.197     
2774.8     10.7772    2.667      11.018     21.5702    19.4689    9.3121     17.612     20.9706    0.199     
2774.9     10.777     2.6684     11.0126    21.6576    19.5469    9.1361     18.0432    21.1673    0.195     
2775       10.7739    2.6453     10.964     21.614     19.5877    8.9749     16.3971    21.2996    0.191     
2775.1     10.7521    2.6806     11.0406    21.5161    19.6427    8.8105     15.6916    21.3328    0.191     
2775.2     10.7165    2.5911     10.6804    21.2956    19.7538    8.6284     15.247     21.3813    0.189     
2775.3     10.6539    2.613      10.7375    21.0558    19.885     8.4377     16.1525    21.4848    0.191     
2775.4     10.5753    2.5679     10.5043    20.6393    19.8233    8.2536     16.6222    21.6465    0.198     
