~Version
 VERS              .         2.0                           : CWLS LOG ASCII STANDARD - VERSION 2.0
 WRAP              .         NO                            : ONE LINE PER DEPTH STEP
 DLM               .         SPACE                         : DELIMITING CHARACTER(SPACE TAB OR COMMA)
~Well Information
#_______________________________________________________________________________
#
#PARAMETER_NAME    .UNIT     VALUE                         : DESCRIPTION
#_______________________________________________________________________________
STRT               .m        2636.8                        : First reference value
STOP               .m        2825.1                        : Last reference value
STEP               .m        0.1                           : Step increment
NULL               .         -9999                         : Missing value
COMP               .                                       : Company
WELL               .         407                           : Well name
FLD                .                                       : Field
LOC                .                                       : Location
CNTY               .                                       : County
STAT               .                                       : State
CTRY               .                                       : Country
SRVC               .                                       : Service Company
DATE               .                                       : Date
API                .                                       : API number
EREF               .m        140.4                         : 
Pad                .         4                             : 
X                  .m        222100                        : 
Y                  .m        250025                        : 
group              .         Pad4                          : 
Интер-р            .         Зайцев                        : 
Куст               .         4                             : 
Статус             .         Не проверено                  : 
Тип                .         Эксплуатация                  : 
~Parameter Information Block
#_______________________________________________________________________________
#
#PARAMETER_NAME    .UNIT     VALUE                         : DESCRIPTION
#_______________________________________________________________________________
SET                .         LAS1                          : 
REAL_CREATION_DATE .         Ср апр 11 2012-13_17_16       : 
TLFamily_DEPTH     .         Measured Depth                : 
TLFamily_KS        .         Potential Resistivity         : 
TLFamily_KS1       .         Extra Shallow Resistivity     : 
TLFamily_KS2       .         Shallow Resistivity           : 
TLFamily_KS3       .         Medium Resistivity            : 
TLFamily_KS4       .         Deep Resistivity              : 
TLFamily_KS5       .         Extra Deep Resistivity        : 
TLFamily_LLD       .         Lateral Log Resistivity       : 
TLFamily_OKS3      .         Medium Resistivity Inverted   : 
TLFamily_RM        .         Mud Resistivity               : 
group              .         INI                           : 
~Curve Information
#_______________________________________________________________________________
#
#LOGNAME           .UNIT     LOG_ID                        : DESCRIPTION
#_______________________________________________________________________________
DEPTH              .m                                      : Measured Depth 
KS                 .ohm.m                                  : Potential Resistivity 
KS1                .ohm.m                                  : Extra Shallow Resistivity 
KS2                .ohm.m                                  : Shallow Resistivity 
KS3                .ohm.m                                  : Medium Resistivity 
KS4                .ohm.m                                  : Deep Resistivity 
KS5                .ohm.m                                  : Extra Deep Resistivity 
LLD                .ohm.m                                  : Lateral Log Resistivity 
OKS3               .ohm.m                                  : Medium Resistivity Inverted 
RM                 .ohm.m                                  : Mud Resistivity 
~Ascii
# ...
2746.3     11.329     2.8729     10.9705    17.9026    16.8197    18.9891    59.6387    25.3647    0.19      
2746.4     11.5639    3.2109     12.3799    18.7634    17.1564    18.5681    74.151     23.8416    0.194     
2746.5     11.7245    3.269      12.3295    19.131     17.1185    18.019     94.0971    23.0678    0.193     
2746.6     11.8246    2.9365     11.2177    18.9942    16.6204    17.4112    132.3467   22.6675    0.19      
2746.7     11.8202    2.64       10.3778    18.0927    15.5208    16.7462    145.0759   22.5389    0.189     
2746.8     11.7877    2.3774     9.6993     17.0421    14.5582    16.0022    54.4682    22.4226    0.19      
2746.9     11.7968    2.1583     9.2855     16.418     14.0096    15.0974    15.6363    22.2852    0.191     
2747       11.8278    2.1084     9.3533     16.1063    13.7003    14.2154    10.6803    22.0964    0.187     
2747.1     11.8919    2.1142     9.4312     16.0806    13.7383    13.6111    8.5563     21.8338    0.182     
2747.2     11.9577    2.0885     9.3311     16.2581    13.9294    13.2466    11.5261    21.0052    0.18      
2747.3     12.0498    2.0902     9.3963     16.6045    14.2654    13.0532    12.7989    19.6681    0.181     
2747.4     12.1732    2.1095     9.3149     17.2096    14.8322    13.0388    14.0961    18.3129    0.185     
2747.5     12.3952    2.2688     9.7897     18.2001    15.714     13.1227    16.3762    16.9567    0.19      
2747.6     12.67      2.5249     10.5936    19.5326    16.7539    13.2205    79.5756    15.5197    0.191     
2747.7     12.9715    2.7504     11.3123    21.3763    18.1664    13.3863    106.3444   14.1434    0.194     
2747.8     13.2351    2.99       11.9931    23.4329    19.6547    13.6257    288.799    13.2209    0.197     
2747.9     13.5008    3.3058     13.0617    25.1647    20.9609    13.9227    381.3878   12.3594    0.197     
2748       13.856     3.5686     14.1376    26.9101    22.4585    14.2504    387.5566   11.4662    0.197     
2748.1     13.9778    3.6243     14.607     28.8152    24.1851    14.5309    243.2199   10.732     0.197     
2748.2     14.0606    3.8586     15.6148    30.4694    25.7867    14.7327    181.3613   10.0617    0.193     
2748.3     14.0231    4.1335     17.1769    32.1296    27.4511    14.9019    202.5057   9.356      0.191     
2748.4     13.914     4.3054     18.2773    34.0931    29.5241    14.9884    164.9024   8.7748     0.189     
2748.5     13.696     4.5551     19.9519    35.7398    31.2835    14.9479    144.903    8.2084     0.186     
2748.6     13.3749    4.8118     20.7084    37.0792    33.057     14.8239    98.3063    7.6808     0.186     
2748.7     12.991     4.6736     20.2255    38.0086    34.6826    14.57      78.3363    7.3464     0.186     
2748.8     12.545     4.7337     21.0029    37.7526    35.0966    14.1819    58.6242    7.1496     0.186     
2748.9     11.9604    4.5768     20.3449    36.5779    34.2494    13.7251    24.5984    6.9995     0.186     
2749       11.2845    4.1389     18.7601    35.1719    32.988     13.1557    13.6365    6.928      0.189     
2749.1     10.5619    3.6636     17.0581    33.5286    31.2947    12.4528    8.9604     6.7969     0.192     
2749.2     9.8234     3.2892     15.7484    32.0642    29.9043    11.6965    6.9563     6.7095     0.195     
2749.3     9.1752     3.2757     15.1818    31.2536    29.1969    10.8998    6.841      6.5668     0.194     
2749.4     8.5845     3.317      15.3744    30.5953    28.6239    10.0907    8.4694     6.3292     0.192     
2749.5     8.0755     3.3205     15.2513    30.1983    28.2367    9.3574     9.1885     6.1747     0.191     
2749.6     7.6112     3.146      13.6433    29.0652    27.3223    8.7194     7.9395     6.1496     0.191     
2749.7     7.1498     2.8245     11.9004    27.016     25.7818    8.1589     7.4041     6.0393     0.191     
2749.8     6.722      2.5915     10.6418    24.4389    23.5909    7.6075     6.161      5.9335     0.189     
2749.9     6.3596     2.3453     9.585      22.32      21.7921    7.0251     5.0124     5.8804     0.186     
2750       6.0318     2.1914     8.827      20.4682    20.1627    6.4237     4.7485     5.9092     0.183     
2750.1     5.7258     2.0268     8.0661     18.8084    18.9625    5.8682     4.6041     5.9994     0.18      
2750.2     5.495      1.8993     7.5034     17.5281    18.0609    5.4046     4.5422     6.1598     0.18      
2750.3     5.2983     1.8095     7.07       16.4594    17.2577    5.0106     4.3474     6.2563     0.18      
2750.4     5.1381     1.8423     6.9771     15.5796    16.6276    4.6848     4.485      6.3333     0.181     
2750.5     5.0276     1.8439     6.7266     14.8       16.1541    4.4287     4.5798     6.36       0.184     
2750.6     4.9584     1.8387     6.5662     14.0889    15.6075    4.2341     5.479      6.3458     0.188     
2750.7     4.888      1.8859     6.465      13.2695    14.9166    4.0814     5.8643     6.3324     0.19      
2750.8     4.8138     1.8862     6.1904     12.6309    14.4078    3.9452     5.8475     6.3379     0.191     
2750.9     4.7575     1.8626     6.0569     12.0174    13.9333    3.816      5.5186     6.3298     0.191     
2751       4.7215     1.9038     6.0841     11.3732    13.5083    3.7051     5.3807     6.2726     0.191     
2751.1     4.7218     2.0016     6.1853     10.8687    13.2054    3.6069     5.9162     6.2484     0.194     
2751.2     4.7304     1.9374     6.0101     10.4161    12.9377    3.5154     6.1457     6.221      0.196     
2751.3     4.7083     1.8989     5.8662     10.0181    12.5988    3.4397     6.1081     6.1947     0.196     
2751.4     4.6732     1.8742     5.8332     9.6013     12.2947    3.3748     5.4089     6.2067     0.191     
2751.5     4.6395     1.8519     5.7885     9.2293     12.0822    3.31       5.1162     6.1646     0.187     
2751.6     4.6129     1.8753     5.8628     8.8838     11.9191    3.2445     5.2465     6.1319     0.186     
2751.7     4.5974     1.8711     5.804      8.6093     11.7107    3.1976     5.3024     6.0998     0.186     
2751.8     4.5895     1.855      5.7598     8.3598     11.414     3.1664     5.6028     6.0499     0.186     
2751.9     4.5623     1.8487     5.6961     7.8615     10.88      3.1211     5.4836     6.0026     0.187     
2752       4.531      1.8347     5.6165     7.6828     10.6091    3.083      5.3773     6.0111     0.185     
2752.1     4.5068     1.841      5.6522     7.5059     10.3334    3.0812     5.2859     5.985      0.188     
2752.2     4.4835     1.8219     5.5822     7.3414     10.1032    3.095      5.2467     5.9491     0.194     
2752.3     4.4783     1.7954     5.494      7.2292     9.908      3.1085     5.2613     5.9468     0.191     
2752.4     4.4571     1.7927     5.4695     7.1198     9.6158     3.1328     5.331      5.9366     0.187     
2752.5     4.405      1.7927     5.5062     7.0795     9.3681     3.1655     5.3582     5.9192     0.189     
2752.6     4.3959     1.8105     5.5115     7.0492     9.1042     3.2003     5.4021     5.8677     0.191     
2752.7     4.3942     1.8347     5.5371     6.9966     8.8797     3.2452     5.421      5.8114     0.191     
2752.8     4.3775     1.7777     5.3982     6.9452     8.6657     3.3038     5.4514     5.7795     0.191     
2752.9     4.3601     1.7751     5.3553     6.9133     8.4139     3.3708     5.5767     5.7576     0.189     
2753       4.3437     1.8099     5.4384     6.8324     8.1949     3.4295     5.6248     5.7144     0.186     
2753.1     4.3393     1.8442     5.5234     6.8079     8.0318     3.4698     5.4572     5.6988     0.186     
2753.2     4.3329     1.8067     5.445      6.7974     7.8643     3.5075     5.3854     5.6967     0.186     
2753.3     4.3143     1.8038     5.4355     6.7551     7.6609     3.5593     5.4203     5.6796     0.186     
2753.4     4.2876     1.7927     5.4243     6.6657     7.4705     3.6071     5.4012     5.6713     0.192     
2753.5     4.2796     1.7844     5.4019     6.6312     7.3089     3.6365     5.3866     5.7047     0.193     
