~Version
 VERS              .         2.0                           : CWLS LOG ASCII STANDARD - VERSION 2.0
 WRAP              .         NO                            : ONE LINE PER DEPTH STEP
 DLM               .         SPACE                         : DELIMITING CHARACTER(SPACE TAB OR COMMA)
~Well Information
#_______________________________________________________________________________
#
#PARAMETER_NAME    .UNIT     VALUE                         : DESCRIPTION
#_______________________________________________________________________________
STRT               .m        2637.28                       : First reference value
STOP               .m        2825.08                       : Last reference value
STEP               .m        0.1                           : Step increment
NULL               .         -9999                         : Missing value
COMP               .                                       : Company
WELL               .         407                           : Well name
FLD                .                                       : Field
LOC                .                                       : Location
CNTY               .                                       : County
STAT               .                                       : State
CTRY               .                                       : Country
SRVC               .                                       : Service Company
DATE               .                                       : Date
API                .                                       : API number
EREF               .m        140.4                         : 
Pad                .         4                             : 
X                  .m        222100                        : 
Y                  .m        250025                        : 
group              .         Pad4                          : 
Интер-р            .         Зайцев                        : 
Куст               .         4                             : 
Статус             .         Не проверено                  : 
Тип                .         Эксплуатация                  : 
~Parameter Information Block
#_______________________________________________________________________________
#
#PARAMETER_NAME    .UNIT     VALUE                         : DESCRIPTION
#_______________________________________________________________________________
SET                .         LAS3                          : 
REAL_CREATION_DATE .         Ср апр 11 2012-13_17_16       : 
TLFamily_DEPTH     .         Measured Depth                : 
TLFamily_GR        .         Gamma Ray                     : 
TLFamily_TNPH      .         Neutron Porosity              : 
group              .         INI                           : 
~Curve Information
#_______________________________________________________________________________
#
#LOGNAME           .UNIT     LOG_ID                        : DESCRIPTION
#_______________________________________________________________________________
DEPTH              .m                                      : Measured Depth 
GR                 .gAPI                                   :  
TNPH               .v/v                                    : Neutron Porosity 
~Ascii
# ...
2807.38    82.17      0.249     
2807.48    83.05      0.245     
2807.58    85.43999   0.243     
2807.68    85.39      0.247     
2807.78    87.43      0.251     
2807.88    89.97      0.258     
2807.98    92.79      0.265     
2808.08    97.14      0.269     
2808.18    97.33      0.284     
2808.28    94.85      0.285     
2808.38    91.7       0.312     
2808.48    86.99001   0.328     
2808.58    76.22      0.325     
2808.68    72.07      0.353     
2808.78    65.21      0.346     
2808.88    60.09      0.361     
2808.98    55.19      0.355     
2809.08    50.56      0.359     
2809.18    52.96      0.323     
2809.28    58.48      0.336     
2809.38    67.32001   0.289     
2809.48    75.73      0.275     
2809.58    79.3       0.273     
2809.68    80.41      0.246     
2809.78    78.42      0.231     
2809.88    77.05      0.223     
2809.98    76.11      0.219     
2810.08    77.27      0.217     
2810.18    77.81      0.215     
2810.28    81.42      0.215     
2810.38    85.63      0.215     
2810.48    86.52      0.218     
2810.58    86.19      0.221     
2810.68    84.89      0.222     
2810.78    82.67      0.219     
2810.88    81.45      0.219     
2810.98    80.77      0.218     
2811.08    79.11      0.216     
2811.18    80.84      0.22      
2811.28    85.62      0.215     
2811.38    91.26      0.22      
2811.48    99.14      0.224     
2811.58    109.99     0.235     
2811.68    111.03     0.243     
2811.78    115.56     0.255     
2811.88    120.72     0.262     
2811.98    123.9      0.265     
2812.08    126.08     0.262     
2812.18    127.38     0.261     
2812.28    126.64     0.256     
2812.38    124.57     0.255     
2812.48    123.47     0.255     
2812.58    120.28     0.257     
2812.68    118.58     0.26      
2812.78    114.95     0.258     
2812.88    108.57     0.251     
2812.98    104.97     0.243     
2813.08    95.62      0.242     
2813.18    94.15      0.231     
2813.28    92.2       0.235     
2813.38    89.14      0.22      
2813.48    84.54001   0.216     
2813.58    75.96      0.218     
2813.68    72         0.211     
2813.78    71.68      0.208     
2813.88    74.52      0.22      
2813.98    80.03      0.23      
2814.08    82.97      0.235     
2814.18    84.32999   0.249     
2814.28    86.96      0.252     
2814.38    87.55      0.255     
2814.48    88.81      0.255     
2814.58    93.81      0.256     
2814.68    97.60001   0.26      
2814.78    101.96     0.259     
2814.88    105.11     0.264     
2814.98    106.39     0.264     
2815.08    107.2      0.265     
2815.18    107.15     0.27      
2815.28    108.29     0.265     
2815.38    109.63     0.263     
2815.48    109.83     0.261     
2815.58    108.94     0.267     
2815.68    109.54     0.27      
2815.78    111.55     0.274     
2815.88    113.25     0.275     
2815.98    114.46     0.272     
2816.08    113.79     0.265     
2816.18    113.89     0.255     
2816.28    114.97     0.25      
2816.38    113.74     0.244     
2816.48    111.33     0.243     
2816.58    109.45     0.244     
2816.68    109.02     0.242     
2816.78    110.55     0.242     
2816.88    114.53     0.241     
2816.98    115.3      0.242     
2817.08    111.6      0.243     
2817.18    111.08     0.243     
2817.28    111.25     0.246     
2817.38    112.77     0.253     
2817.48    111.45     0.261     
2817.58    109.06     0.27      
2817.68    107.66     0.284     
2817.78    109.83     0.295     
2817.88    108.56     0.299     
2817.98    105.55     0.296     
2818.08    103.4      0.286     
2818.18    103.94     0.282     
2818.28    106.86     0.276     
2818.38    108.1      0.276     
2818.48    108.23     0.275     
2818.58    108.1      0.272     
2818.68    107.75     0.274     
2818.78    109.46     0.273     
2818.88    111.85     0.281     
2818.98    114.75     0.285     
2819.08    113.98     0.284     
2819.18    111.07     0.28      
2819.28    105.7      0.274     
2819.38    95.49      0.265     
2819.48    91.63      0.26      
2819.58    85.10001   0.263     
2819.68    83.32      0.252     
2819.78    76.06      0.258     
2819.88    66.36      0.24      
2819.98    55.39      0.236     
2820.08    41.88      0.243     
2820.18    39.61      0.235     
2820.28    37.64      0.236     
2820.38    37.58      0.239     
2820.48    36.96      0.245     
2820.58    37.48      0.246     
2820.68    37.86      0.278     
2820.78    38.28      0.291     
2820.88    38.67      0.356     
2820.98    38.71      0.384     
2821.08    38.32      0.357     
2821.18    39.13      0.34      
2821.28    40.05      0.331     
2821.38    40.42      0.29      
2821.48    39.81      0.279     
2821.58    37.79      0.283     
2821.68    35.23      0.261     
2821.78    36.58      0.264     
2821.88    38.84      0.262     
2821.98    37.46      0.268     
2822.08    35.25      0.276     
2822.18    34.75      0.283     
2822.28    36.08      0.285     
2822.38    36.93      0.284     
2822.48    36         0.278     
2822.58    37.86      0.268     
2822.68    38.5       0.266     
2822.78    38.79      0.262     
2822.88    36.96      0.259     
2822.98    35.34      0.259     
2823.08    34.25      0.265     
2823.18    34.52      0.268     
2823.28    33.79      0.27      
2823.38    34.22      0.269     
2823.48    35.43      0.267     
2823.58    35.48      0.265     
2823.68    34.44      0.267     
2823.78    34.21      0.269     
2823.88    34.14      0.27      
2823.98    33.99      0.271     
2824.08    35.41      0.27      
2824.18    34.89      0.272     
2824.28    34.24      0.271     
2824.38    33.43      0.272     
2824.48    33.31      0.272     
2824.58    31.66      0.27      
2824.68    32.65      0.27      
2824.78    32.64      0.272     
2824.88    32.94      0.275     
2824.98    33.86      0.277     
2825.08    34.8       0.28      
