~Version
 VERS              .         2.0                           : CWLS LOG ASCII STANDARD - VERSION 2.0
 WRAP              .         NO                            : ONE LINE PER DEPTH STEP
 DLM               .         SPACE                         : DELIMITING CHARACTER(SPACE TAB OR COMMA)
~Well Information
#_______________________________________________________________________________
#
#PARAMETER_NAME    .UNIT     VALUE                         : DESCRIPTION
#_______________________________________________________________________________
STRT               .m        2637.28                       : First reference value
STOP               .m        2825.08                       : Last reference value
STEP               .m        0.1                           : Step increment
NULL               .         -9999                         : Missing value
COMP               .                                       : Company
WELL               .         407                           : Well name
FLD                .                                       : Field
LOC                .                                       : Location
CNTY               .                                       : County
STAT               .                                       : State
CTRY               .                                       : Country
SRVC               .                                       : Service Company
DATE               .                                       : Date
API                .                                       : API number
EREF               .m        140.4                         : 
Pad                .         4                             : 
X                  .m        222100                        : 
Y                  .m        250025                        : 
group              .         Pad4                          : 
Интер-р            .         Зайцев                        : 
Куст               .         4                             : 
Статус             .         Не проверено                  : 
Тип                .         Эксплуатация                  : 
~Parameter Information Block
#_______________________________________________________________________________
#
#PARAMETER_NAME    .UNIT     VALUE                         : DESCRIPTION
#_______________________________________________________________________________
SET                .         LAS3                          : 
REAL_CREATION_DATE .         Ср апр 11 2012-13_17_16       : 
TLFamily_DEPTH     .         Measured Depth                : 
TLFamily_GR        .         Gamma Ray                     : 
TLFamily_TNPH      .         Neutron Porosity              : 
group              .         INI                           : 
~Curve Information
#_______________________________________________________________________________
#
#LOGNAME           .UNIT     LOG_ID                        : DESCRIPTION
#_______________________________________________________________________________
DEPTH              .m                                      : Measured Depth 
GR                 .gAPI                                   :  
TNPH               .v/v                                    : Neutron Porosity 
~Ascii
2637.28    59.44      -9999     
2637.38    59.93      -9999     
2637.48    60.49      -9999     
2637.58    62.25      -9999     
2637.68    63.32      -9999     
2637.78    65.16      -9999     
2637.88    65.10001   -9999     
2637.98    65.57      -9999     
2638.08    66.4       -9999     
2638.18    65.02      -9999     
2638.28    63.61      -9999     
2638.38    62.99      -9999     
2638.48    62.83      -9999     
2638.58    60.61      -9999     
2638.68    58.48      -9999     
2638.78    54.54      -9999     
2638.88    54.6       -9999     
2638.98    54.8       -9999     
2639.08    57.56      -9999     
2639.18    60.54      -9999     
2639.28    67.67999   -9999     
2639.38    76.06      -9999     
2639.48    84.42001   -9999     
2639.58    90.08      -9999     
2639.68    90.59      -9999     
2639.78    91.3       -9999     
2639.88    91.59      -9999     
2639.98    90.08      0.245     
2640.08    86.92001   0.238     
2640.18    87.56      0.216     
2640.28    87.18001   0.216     
2640.38    86.25      0.198     
2640.48    84.83      0.194     
2640.58    87.38      0.201     
2640.68    88.53      0.196     
2640.78    91.28      0.201     
2640.88    93.74      0.209     
2640.98    96.52      0.217     
2641.08    98.66      0.219     
2641.18    99.7       0.228     
2641.28    100.73     0.225     
2641.38    102.44     0.229     
2641.48    105.55     0.231     
2641.58    113.71     0.239     
2641.68    115.5      0.241     
2641.78    115.08     0.244     
2641.88    112.67     0.238     
2641.98    111.72     0.234     
2642.08    110.14     0.234     
2642.18    110.26     0.238     
2642.28    110.51     0.247     
2642.38    112.82     0.251     
2642.48    113.94     0.254     
2642.58    112.56     0.255     
2642.68    113.18     0.253     
2642.78    111.6      0.255     
2642.88    111.57     0.251     
2642.98    110.41     0.248     
2643.08    109.08     0.247     
2643.18    107.96     0.237     
2643.28    108.97     0.231     
2643.38    108.3      0.222     
2643.48    105.69     0.216     
2643.58    103.02     0.213     
2643.68    103.83     0.206     
2643.78    103.54     0.203     
2643.88    102.21     0.198     
2643.98    99.84      0.196     
2644.08    95.73      0.199     
2644.18    94.83      0.194     
2644.28    94.45      0.197     
2644.38    92.37      0.191     
2644.48    90.56      0.189     
2644.58    90.23      0.189     
2644.68    88.91      0.181     
2644.78    84.97      0.181     
2644.88    82.72      0.179     
2644.98    83.16      0.183     
2645.08    85.99      0.182     
2645.18    87.53999   0.19      
2645.28    90.3       0.186     
2645.38    93.7       0.194     
2645.48    97.56      0.193     
2645.58    102.61     0.188     
2645.68    103.93     0.193     
2645.78    106.86     0.192     
2645.88    111.57     0.201     
2645.98    112.85     0.209     
2646.08    115.29     0.213     
2646.18    114.59     0.214     
2646.28    113.7      0.215     
2646.38    110.59     0.211     
2646.48    107.21     0.212     
2646.58    108.95     0.214     
2646.68    111.71     0.219     
2646.78    113.92     0.225     
2646.88    113.93     0.234     
2646.98    115.64     0.238     
2647.08    114.23     0.241     
2647.18    114.09     0.239     
2647.28    113.5      0.236     
2647.38    110.87     0.233     
2647.48    107.32     0.231     
2647.58    105.57     0.23      
2647.68    105.61     0.231     
2647.78    104.79     0.233     
2647.88    103.7      0.228     
2647.98    103.08     0.222     
2648.08    107.6      0.217     
2648.18    106.3      0.213     
2648.28    107.74     0.213     
2648.38    107.55     0.212     
2648.48    108.17     0.213     
2648.58    112.63     0.211     
2648.68    113.58     0.213     
2648.78    120.3      0.21      
2648.88    127.03     0.214     
2648.98    124.04     0.222     
2649.08    121.62     0.232     
2649.18    120.82     0.238     
2649.28    120.17     0.24      
2649.38    118.56     0.24      
2649.48    115.8      0.238     
2649.58    112.29     0.236     
2649.68    109.95     0.23      
2649.78    108.02     0.226     
2649.88    105.69     0.217     
2649.98    102.39     0.212     
2650.08    91.11      0.215     
2650.18    89.92      0.212     
2650.28    88.83      0.216     
2650.38    88.83      0.219     
2650.48    89.95      0.223     
2650.58    92.79      0.225     
2650.68    95.03999   0.238     
2650.78    97.73      0.241     
2650.88    99.46      0.249     
2650.98    98.78      0.248     
2651.08    99.28001   0.247     
2651.18    97.52      0.242     
2651.28    98.75      0.242     
2651.38    102.18     0.235     
2651.48    104.79     0.228     
2651.58    106.53     0.222     
2651.68    106.46     0.214     
2651.78    107.61     0.209     
2651.88    107.54     0.204     
2651.98    109.75     0.206     
2652.08    114.26     0.208     
2652.18    114.88     0.219     
2652.28    118.75     0.217     
2652.38    118.87     0.226     
2652.48    118.2      0.227     
2652.58    118.72     0.228     
2652.68    120.3      0.231     
2652.78    121.49     0.232     
2652.88    122.53     0.234     
2652.98    121.98     0.234     
2653.08    121.38     0.233     
2653.18    119.78     0.228     
2653.28    119.72     0.227     
2653.38    120.87     0.221     
2653.48    119.85     0.218     
2653.58    114.88     0.219     
2653.68    113.64     0.214     
2653.78    106.71     0.214     
2653.88    100.8      0.212     
2653.98    95.41      0.212     
2654.08    95.37      0.21      
2654.18    94.83      0.209     
2654.28    91.84      0.207     
2654.38    91.88      0.212     
2654.48    91.37      0.215     
2654.58    92.07      0.218     
2654.68    93.6       0.227     
2654.78    96.2       0.234     
2654.88    98.46      0.243     
2654.98    100.46     0.249     
2655.08    104.87     0.253     
2655.18    104.96     0.257     
2655.28    104.59     0.256     
2655.38    101.74     0.252     
2655.48    99.35001   0.244     
2655.58    94.98      0.239     
2655.68    93.39      0.23      
2655.78    88.6       0.229     
2655.88    83.64999   0.218     
2655.98    80.77      0.214     
2656.08    77.7       0.213     
2656.18    76.28999   0.208     
2656.28    76.87      0.211     
2656.38    75.85      0.207     
2656.48    72.51      0.204     
2656.58    73.52      0.201     
2656.68    72.78      0.195     
2656.78    73.73      0.194     
2656.88    73.3       0.194     
2656.98    70.5       0.196     
2657.08    65.99      0.197     
2657.18    65.45      0.195     
2657.28    65.16      0.192     
2657.38    64.05      0.194     
2657.48    62.82      0.195     
2657.58    62.36      0.193     
2657.68    62.07      0.2       
2657.78    62.4       0.201     
2657.88    63.89      0.209     
2657.98    65.7       0.213     
2658.08    65.84      0.215     
2658.18    64.7       0.217     
2658.28    69.91      0.215     
2658.38    75.17      0.213     
2658.48    76.09      0.211     
2658.58    79.61      0.21      
2658.68    80.91      0.207     
2658.78    84.64      0.207     
2658.88    88.5       0.203     
2658.98    93.49      0.205     
2659.08    99.11      0.213     
2659.18    100.69     0.218     
2659.28    105.1      0.22      
2659.38    108.9      0.223     
2659.48    111.45     0.224     
2659.58    117.48     0.229     
2659.68    120.4      0.234     
2659.78    123.92     0.239     
2659.88    126.77     0.244     
2659.98    127.99     0.246     
2660.08    127.76     0.248     
2660.18    128.58     0.251     
2660.28    127.07     0.251     
2660.38    124.06     0.251     
2660.48    121.31     0.249     
2660.58    123.84     0.246     
2660.68    123.47     0.247     
2660.78    122.78     0.246     
2660.88    120.07     0.246     
2660.98    117.19     0.243     
2661.08    116.13     0.238     
2661.18    113.9      0.228     
2661.28    108.53     0.22      
2661.38    103.41     0.208     
2661.48    99.53      0.197     
