~Version
 VERS              .         2.0                           : CWLS LOG ASCII STANDARD - VERSION 2.0
 WRAP              .         NO                            : ONE LINE PER DEPTH STEP
 DLM               .         SPACE                         : DELIMITING CHARACTER(SPACE TAB OR COMMA)
~Well Information
#_______________________________________________________________________________
#
#PARAMETER_NAME    .UNIT     VALUE                         : DESCRIPTION
#_______________________________________________________________________________
STRT               .m        2636.8                        : First reference value
STOP               .m        2825.1                        : Last reference value
STEP               .m        0.1                           : Step increment
NULL               .         -9999                         : Missing value
COMP               .                                       : Company
WELL               .         407                           : Well name
FLD                .                                       : Field
LOC                .                                       : Location
CNTY               .                                       : County
STAT               .                                       : State
CTRY               .                                       : Country
SRVC               .                                       : Service Company
DATE               .                                       : Date
API                .                                       : API number
EREF               .m        140.4                         : 
Pad                .         4                             : 
X                  .m        222100                        : 
Y                  .m        250025                        : 
group              .         Pad4                          : 
Интер-р            .         Зайцев                        : 
Куст               .         4                             : 
Статус             .         Не проверено                  : 
Тип                .         Эксплуатация                  : 
~Parameter Information Block
#_______________________________________________________________________________
#
#PARAMETER_NAME    .UNIT     VALUE                         : DESCRIPTION
#_______________________________________________________________________________
SET                .         LAS1                          : 
REAL_CREATION_DATE .         Ср апр 11 2012-13_17_16       : 
TLFamily_DEPTH     .         Measured Depth                : 
TLFamily_KS        .         Potential Resistivity         : 
TLFamily_KS1       .         Extra Shallow Resistivity     : 
TLFamily_KS2       .         Shallow Resistivity           : 
TLFamily_KS3       .         Medium Resistivity            : 
TLFamily_KS4       .         Deep Resistivity              : 
TLFamily_KS5       .         Extra Deep Resistivity        : 
TLFamily_LLD       .         Lateral Log Resistivity       : 
TLFamily_OKS3      .         Medium Resistivity Inverted   : 
TLFamily_RM        .         Mud Resistivity               : 
group              .         INI                           : 
~Curve Information
#_______________________________________________________________________________
#
#LOGNAME           .UNIT     LOG_ID                        : DESCRIPTION
#_______________________________________________________________________________
DEPTH              .m                                      : Measured Depth 
KS                 .ohm.m                                  : Potential Resistivity 
KS1                .ohm.m                                  : Extra Shallow Resistivity 
KS2                .ohm.m                                  : Shallow Resistivity 
KS3                .ohm.m                                  : Medium Resistivity 
KS4                .ohm.m                                  : Deep Resistivity 
KS5                .ohm.m                                  : Extra Deep Resistivity 
LLD                .ohm.m                                  : Lateral Log Resistivity 
OKS3               .ohm.m                                  : Medium Resistivity Inverted 
RM                 .ohm.m                                  : Mud Resistivity 
~Ascii
# ...
2804.7     10.353     2.2422     8.9899     15.7122    16.6827    12.3907    15.5766    19.2111    0.188     
2804.8     10.3996    2.2175     8.8339     15.7787    16.8147    12.9022    15.5936    19.2111    0.187     
2804.9     10.4217    2.2449     8.8477     15.7862    16.9037    13.5305    15.6009    19.2111    0.188     
2805       10.4565    2.1582     8.758      15.7377    17.099     14.3172    14.8139    19.1975    0.184     
2805.1     10.497     2.0952     8.4926     15.7487    17.4495    15.2875    14.4766    19.2044    0.181     
2805.2     10.5247    2.0665     8.3804     15.7226    17.7635    16.4171    14.6271    19.1964    0.18      
2805.3     10.5586    2.0677     8.4031     15.668     18.3338    17.6712    14.6916    19.2111    0.183     
2805.4     10.6217    2.0592     8.319      15.7018    19.0443    19.0366    14.6916    19.2111    0.185     
2805.5     10.6735    2.0102     8.1927     15.9579    19.9571    20.5482    14.9721    19.2111    0.186     
2805.6     10.7291    1.9884     8.4157     16.3949    21.0243    22.2102    14.3645    19.2185    0.186     
2805.7     10.8073    1.9787     8.8821     16.8899    22.0139    23.9312    14.0526    19.2249    0.184     
2805.8     10.8704    1.9744     9.1253     17.5158    23.0445    25.6562    14.7198    19.2387    0.181     
2805.9     10.8977    1.9744     9.3748     18.161     23.9075    27.24      15.0057    19.2387    0.18      
2806       10.9135    1.9744     9.6464     18.5521    24.4353    28.5346    18.0812    19.2387    0.18      
2806.1     10.9175    1.9744     9.8212     18.7703    24.6691    29.5858    27.5851    19.2387    0.18      
2806.2     10.9201    1.964      9.7852     18.8246    24.6967    30.5218    31.0934    19.2452    0.183     
2806.3     10.9314    1.9605     9.7194     18.6506    24.4347    31.3878    30.8796    19.2421    0.185     
2806.4     10.9325    1.9605     9.6664     18.4187    24.2266    32.2052    30.788     19.2255    0.185     
2806.5     10.9436    1.9605     9.634      18.3319    24.1757    33.0246    28.6308    19.2334    0.181     
2806.6     10.9575    1.9743     9.6218     18.382     24.3104    33.8975    24.2773    19.2349    0.176     
2806.7     10.9464    1.9605     9.615      18.5747    24.6003    34.8305    22.8077    19.2249    0.177     
2806.8     10.9542    1.9605     9.5881     18.9407    25.1622    35.8257    22.0883    19.2186    0.18      
2806.9     10.947     1.9605     9.5807     19.4764    25.9929    37.0317    21.78      19.2111    0.186     
2807       10.9595    1.9605     9.5678     19.964     26.8344    38.5459    21.78      19.2235    0.188     
2807.1     10.9595    1.9605     9.5772     20.4131    27.6143    40.3574    21.8673    19.2169    0.186     
2807.2     10.9608    1.9605     9.568      20.8551    28.4489    42.4149    23.2958    19.2146    0.186     
2807.3     10.9718    1.9605     9.5778     21.2043    29.3379    44.6623    23.8919    19.2109    0.186     
2807.4     10.9595    1.9605     9.5747     21.4012    30.1697    47.1003    27.0285    19.1973    0.184     
2807.5     10.9601    1.9605     9.5813     21.5134    31.1617    49.7118    28.3727    19.1973    0.182     
2807.6     10.9661    1.9605     9.5813     21.596     32.1796    52.32      28.5704    19.1973    0.183     
2807.7     10.9735    1.9605     9.5813     21.644     33.2205    51.6417    24.4517    19.2027    0.185     
2807.8     10.9735    1.9605     9.5813     21.6522    34.2624    51.2064    22.6503    19.2111    0.188     
2807.9     10.9749    1.9605     9.5813     21.6782    35.4049    54.1187    20.3826    19.2208    0.186     
2808       10.986     1.9605     9.5832     21.7362    36.6909    56.5875    19.4107    19.2311    0.182     
2808.1     10.9735    1.9605     9.5886     21.7671    38.426     58.8408    19.7063    19.2387    0.18      
2808.2     10.9745    1.9605     9.5813     21.7622    40.1506    60.864     20.7858    19.2387    0.177     
2808.3     10.9824    1.9605     9.5948     21.7534    42.0504    62.1914    21.1942    19.2387    0.176     
2808.4     10.9742    1.9605     9.5916     21.767     43.7274    62.904     25.623     19.2387    0.179     
2808.5     10.9735    1.9605     9.5876     21.7671    44.9406    63.1711    27.5211    19.2387    0.183     
2808.6     10.9723    1.9605     9.5948     21.7602    45.3468    62.5362    27.5211    0          0.189     
2808.7     10.9609    1.9605     9.5821     21.7534    45.5257    60.856     27.5211    0          0.188     
2808.8     10.9595    1.9605     9.5813     21.7534    45.2061    58.5224    27.5211    0          0.186     
2808.9     10.9595    1.9605     9.5886     21.7429    44.1148    55.4765    31.9728    0          0.184     
2809       10.9595    1.9605     9.5829     21.7465    42.4093    51.9781    61.9256    0          0.181     
2809.1     10.9595    1.9605     9.5813     21.7398    40.6889    51.8628    73.9449    0          0.18      
2809.2     10.9595    1.9605     9.5813     21.7398    38.9144    51.6063    114.9484   0          0.178     
2809.3     10.9581    1.9605     9.5813     21.7334    37.3805    47.7383    132.5213   0          0.181     
2809.4     10.946     1.9605     9.5813     21.7364    36.5189    43.7707    77.1006    0          0.185     
2809.5     10.9506    1.9605     9.5813     21.7261    35.96      39.8154    27.8818    0          0.186     
2809.6     10.9503    1.9605     9.5813     21.7228    35.5403    36.2096    16.9674    0          0.185     
2809.7     10.9601    1.9605     9.5684     21.7251    35.299     33.1729    13.6389    0          0.182     
2809.8     10.9655    1.9605     9.5813     21.7398    35.2057    30.6967    12.2124    0          0.178     
2809.9     10.9633    1.9605     9.5813     21.7398    35.0829    28.6554    10.023     0          0.176     
2810       10.9735    1.9605     9.5813     21.7398    34.7536    26.9121    7.6299     0          0.175     
2810.1     10.9735    1.9605     9.5813     21.7398    34.6042    25.2621    7.0064     0          0.18      
2810.2     10.9735    1.9605     9.5813     21.7519    34.5865    23.473     7.476      0          0.187     
2810.3     10.9735    1.9605     9.5827     21.7534    34.5966    21.7472    7.6773     0          0.191     
2810.4     10.9735    1.9605     9.5948     21.7534    34.5781    20.3459    8.2298     0          0.188     
2810.5     10.9735    1.9605     9.5948     21.7534    34.5814    19.1079    8.6953     0          0.186     
2810.6     10.9735    1.9605     9.5948     21.7561    34.5982    17.9557    8.7933     0          0.184     
2810.7     10.9734    1.9605     9.5948     21.7671    34.6048    16.8396    9.9981     0          0.182     
2810.8     10.972     1.9605     9.5939     21.7671    34.6444    15.8262    10.5145    0          0.18      
2810.9     10.9698    1.9605     9.5909     21.754     34.6318    14.945     10.4805    0          0.18      
2811       10.9721    1.9605     9.5948     21.7619    34.6386    14.1625    10.0399    0          0.182     
2811.1     10.9595    1.9605     9.5937     21.7634    34.6453    13.5303    9.8573     0          0.185     
2811.2     10.9595    1.9605     9.5909     21.7534    34.6471    13.0268    8.0321     0          0.186     
2811.3     10.9595    0          9.5948     21.7472    34.6525    12.6594    7.2218     0          0.185     
2811.4     10.9594    0          9.5813     21.7398    34.6554    12.3794    7.088      0          0.182     
2811.5     9.8632     0          9.5813     21.752     34.6586    12.0562    7.7574     0          0.176     
2811.6     0          0          9.5813     21.7398    34.642     11.6875    8.0666     0          0.171     
2811.7     0          0          9.5813     21.7398    34.6318    11.4583    10.2465    0          0.173     
2811.8     0          0          9.5813     21.7261    34.6506    11.3225    11.1807    0          0.175     
2811.9     0          0          0          21.7261    34.6334    11.113     12.0463    0          0.18      
