~Version
 VERS              .         2.0                           : CWLS LOG ASCII STANDARD - VERSION 2.0
 WRAP              .         NO                            : ONE LINE PER DEPTH STEP
 DLM               .         SPACE                         : DELIMITING CHARACTER(SPACE TAB OR COMMA)
~Well Information
#_______________________________________________________________________________
#
#PARAMETER_NAME    .UNIT     VALUE                         : DESCRIPTION
#_______________________________________________________________________________
STRT               .m        2637.28                       : First reference value
STOP               .m        2825.08                       : Last reference value
STEP               .m        0.1                           : Step increment
NULL               .         -9999                         : Missing value
COMP               .                                       : Company
WELL               .         407                           : Well name
FLD                .                                       : Field
LOC                .                                       : Location
CNTY               .                                       : County
STAT               .                                       : State
CTRY               .                                       : Country
SRVC               .                                       : Service Company
DATE               .                                       : Date
API                .                                       : API number
EREF               .m        140.4                         : 
Pad                .         4                             : 
X                  .m        222100                        : 
Y                  .m        250025                        : 
group              .         Pad4                          : 
Интер-р            .         Зайцев                        : 
Куст               .         4                             : 
Статус             .         Не проверено                  : 
Тип                .         Эксплуатация                  : 
~Parameter Information Block
#_______________________________________________________________________________
#
#PARAMETER_NAME    .UNIT     VALUE                         : DESCRIPTION
#_______________________________________________________________________________
SET                .         LAS3                          : 
REAL_CREATION_DATE .         Ср апр 11 2012-13_17_16       : 
TLFamily_DEPTH     .         Measured Depth                : 
TLFamily_GR        .         Gamma Ray                     : 
TLFamily_TNPH      .         Neutron Porosity              : 
group              .         INI                           : 
~Curve Information
#_______________________________________________________________________________
#
#LOGNAME           .UNIT     LOG_ID                        : DESCRIPTION
#_______________________________________________________________________________
DEPTH              .m                                      : Measured Depth 
GR                 .gAPI                                   :  
TNPH               .v/v                                    : Neutron Porosity 
~Ascii
# ...
2710.18    179.63     0.303     
2710.28    179.61     0.308     
2710.38    175.51     0.308     
2710.48    172.23     0.302     
2710.58    168.92     0.295     
2710.68    167.64     0.282     
2710.78    164.66     0.275     
2710.88    156.31     0.277     
2710.98    156.7      0.276     
2711.08    155.82     0.288     
2711.18    165.83     0.3       
2711.28    172.2      0.308     
2711.38    173.26     0.304     
2711.48    160.94     0.306     
2711.58    146.73     0.304     
2711.68    137.63     0.299     
2711.78    132.87     0.293     
2711.88    134.21     0.288     
2711.98    133.28     0.279     
2712.08    131.51     0.274     
2712.18    128.58     0.274     
2712.28    126.49     0.28      
2712.38    128.05     0.288     
2712.48    127.95     0.296     
2712.58    126.47     0.301     
2712.68    126.01     0.299     
2712.78    126.14     0.298     
2712.88    124.42     0.292     
2712.98    124.94     0.289     
2713.08    126.65     0.286     
2713.18    129.59     0.281     
2713.28    123.31     0.275     
2713.38    122.71     0.276     
2713.48    121.2      0.274     
2713.58    119.89     0.271     
2713.68    122.42     0.265     
2713.78    124.51     0.26      
2713.88    128.41     0.264     
2713.98    129.28     0.269     
2714.08    131.02     0.276     
2714.18    131.46     0.285     
2714.28    131.54     0.284     
2714.38    133.75     0.287     
2714.48    133.75     0.281     
2714.58    134.06     0.28      
2714.68    139.39     0.281     
2714.78    141.3      0.287     
2714.88    146.56     0.291     
2714.98    148.77     0.294     
2715.08    147.24     0.293     
2715.18    149.01     0.294     
2715.28    150.14     0.292     
2715.38    146.48     0.295     
2715.48    142.08     0.294     
2715.58    140.56     0.291     
2715.68    140.55     0.283     
2715.78    139.61     0.277     
2715.88    140.93     0.271     
2715.98    147.93     0.274     
2716.08    147.4      0.277     
2716.18    148.17     0.295     
2716.28    147.51     0.302     
2716.38    147.47     0.313     
2716.48    147.96     0.315     
2716.58    148.94     0.315     
2716.68    148.69     0.326     
2716.78    150.09     0.333     
2716.88    150.45     0.333     
2716.98    150.66     0.325     
2717.08    153.03     0.317     
2717.18    153.06     0.309     
2717.28    150.72     0.311     
2717.38    148.31     0.313     
2717.48    144.94     0.316     
2717.58    139.51     0.319     
2717.68    135.97     0.322     
2717.78    131.82     0.326     
2717.88    130.5      0.33      
2717.98    135.53     0.334     
2718.08    145.15     0.334     
2718.18    156.77     0.338     
2718.28    158.43     0.336     
2718.38    159.78     0.328     
2718.48    148.44     0.328     
2718.58    144.59     0.318     
2718.68    142.07     0.317     
2718.78    137.78     0.295     
2718.88    125.53     0.29      
2718.98    120.88     0.281     
2719.08    115.2      0.275     
2719.18    110.96     0.28      
2719.28    115.19     0.288     
2719.38    125.34     0.286     
2719.48    126.6      0.298     
2719.58    131.1      0.292     
2719.68    137.51     0.299     
2719.78    142.34     0.3       
2719.88    151.4      0.299     
2719.98    154.35     0.304     
2720.08    161.78     0.304     
2720.18    168.23     0.307     
2720.28    171.48     0.313     
2720.38    183.01     0.329     
2720.48    182.34     0.341     
2720.58    177.74     0.351     
2720.68    174        0.35      
2720.78    165.46     0.354     
2720.88    162.1      0.351     
2720.98    154.69     0.35      
2721.08    146.86     0.338     
2721.18    140.3      0.322     
2721.28    130.86     0.308     
2721.38    128.78     0.298     
2721.48    127.8      0.296     
2721.58    123.93     0.306     
2721.68    126.02     0.315     
2721.78    133.01     0.317     
2721.88    136.25     0.333     
2721.98    142.55     0.335     
2722.08    151.84     0.347     
2722.18    162.39     0.345     
2722.28    175.7      0.342     
2722.38    178.05     0.342     
2722.48    183.21     0.348     
2722.58    201.61     0.358     
2722.68    217.09     0.364     
2722.78    221.84     0.371     
2722.88    225.18     0.368     
2722.98    224.45     0.366     
2723.08    223.24     0.36      
2723.18    222.52     0.357     
2723.28    220.1      0.354     
2723.38    217.69     0.351     
2723.48    213.06     0.351     
2723.58    212.45     0.35      
2723.68    216.06     0.351     
2723.78    217.11     0.353     
2723.88    221.81     0.357     
2723.98    224.28     0.359     
2724.08    223.82     0.359     
2724.18    216.36     0.359     
2724.28    213.54     0.354     
2724.38    208.88     0.354     
2724.48    207.02     0.356     
2724.58    207.66     0.361     
2724.68    219.76     0.36      
2724.78    221.1      0.362     
2724.88    223.23     0.359     
2724.98    208.36     0.349     
2725.08    178.26     0.341     
2725.18    171.7      0.329     
2725.28    160.29     0.326     
2725.38    155.81     0.32      
2725.48    155.11     0.317     
2725.58    152.86     0.317     
2725.68    154.92     0.314     
2725.78    150.04     0.31      
2725.88    145.42     0.307     
2725.98    137.19     0.307     
2726.08    126.48     0.312     
2726.18    126.29     0.314     
2726.28    127.6      0.318     
2726.38    128.23     0.32      
2726.48    126.04     0.322     
2726.58    129.37     0.323     
2726.68    131.88     0.32      
2726.78    132.24     0.32      
2726.88    132.7      0.317     
2726.98    132.84     0.316     
2727.08    137.46     0.317     
2727.18    136.5      0.309     
2727.28    132.37     0.291     
2727.38    130.2      0.282     
2727.48    131.77     0.276     
2727.58    134.01     0.263     
2727.68    135.94     0.257     
2727.78    135.59     0.246     
2727.88    144.43     0.243     
2727.98    144.74     0.251     
2728.08    144.61     0.268     
2728.18    146.77     0.275     
2728.28    151.41     0.279     
2728.38    154.56     0.282     
2728.48    154.07     0.29      
2728.58    155.52     0.293     
2728.68    157.23     0.3       
2728.78    159.53     0.303     
2728.88    161.79     0.301     
2728.98    161.85     0.307     
2729.08    160.31     0.3       
2729.18    158.77     0.304     
2729.28    150.53     0.305     
2729.38    149.49     0.307     
2729.48    146.84     0.321     
2729.58    144.75     0.325     
2729.68    146.24     0.326     
2729.78    146.97     0.331     
2729.88    147.41     0.324     
2729.98    145.04     0.317     
2730.08    143.73     0.308     
2730.18    144.86     0.302     
2730.28    142.25     0.3       
2730.38    143.03     0.297     
2730.48    138.96     0.296     
2730.58    136.23     0.298     
2730.68    133.43     0.302     
2730.78    135.24     0.304     
2730.88    135.21     0.309     
2730.98    135.92     0.309     
2731.08    136.43     0.314     
2731.18    136.78     0.319     
2731.28    137.6      0.327     
2731.38    138.33     0.334     
2731.48    141.78     0.337     
2731.58    139.01     0.337     
2731.68    138.63     0.316     
2731.78    137.11     0.307     
2731.88    138.14     0.305     
2731.98    138.25     0.305     
2732.08    139.17     0.307     
2732.18    137.34     0.305     
2732.28    137.77     0.303     
2732.38    135.78     0.296     
2732.48    136.37     0.291     
2732.58    135.55     0.293     
2732.68    134.91     0.299     
2732.78    134.61     0.298     
2732.88    135.26     0.291     
2732.98    135.09     0.276     
2733.08    134.32     0.264     
2733.18    132.39     0.263     
2733.28    133.16     0.251     
2733.38    133.34     0.256     
2733.48    126.42     0.245     
2733.58    120.03     0.24      
2733.68    107.94     0.244     
2733.78    106.26     0.233     
2733.88    100.25     0.243     
2733.98    96.81      0.242     
2734.08    101.6      0.247     
2734.18    118.24     0.237     
2734.28    124.4      0.258     
2734.38    134.62     0.25      
