~Version
 VERS              .         2.0                           : CWLS LOG ASCII STANDARD - VERSION 2.0
 WRAP              .         NO                            : ONE LINE PER DEPTH STEP
 DLM               .         SPACE                         : DELIMITING CHARACTER(SPACE TAB OR COMMA)
~Well Information
#_______________________________________________________________________________
#
#PARAMETER_NAME    .UNIT     VALUE                         : DESCRIPTION
#_______________________________________________________________________________
STRT               .m        2637.28                       : First reference value
STOP               .m        2825.08                       : Last reference value
STEP               .m        0.1                           : Step increment
NULL               .         -9999                         : Missing value
COMP               .                                       : Company
WELL               .         407                           : Well name
FLD                .                                       : Field
LOC                .                                       : Location
CNTY               .                                       : County
STAT               .                                       : State
CTRY               .                                       : Country
SRVC               .                                       : Service Company
DATE               .                                       : Date
API                .                                       : API number
EREF               .m        140.4                         : 
Pad                .         4                             : 
X                  .m        222100                        : 
Y                  .m        250025                        : 
group              .         Pad4                          : 
Интер-р            .         Зайцев                        : 
Куст               .         4                             : 
Статус             .         Не проверено                  : 
Тип                .         Эксплуатация                  : 
~Parameter Information Block
#_______________________________________________________________________________
#
#PARAMETER_NAME    .UNIT     VALUE                         : DESCRIPTION
#_______________________________________________________________________________
SET                .         LAS3                          : 
REAL_CREATION_DATE .         Ср апр 11 2012-13_17_16       : 
TLFamily_DEPTH     .         Measured Depth                : 
TLFamily_GR        .         Gamma Ray                     : 
TLFamily_TNPH      .         Neutron Porosity              : 
group              .         INI                           : 
~Curve Information
#_______________________________________________________________________________
#
#LOGNAME           .UNIT     LOG_ID                        : DESCRIPTION
#_______________________________________________________________________________
DEPTH              .m                                      : Measured Depth 
GR                 .gAPI                                   :  
TNPH               .v/v                                    : Neutron Porosity 
~Ascii
# ...
2734.48    143.39     0.278     
2734.58    146.8      0.291     
2734.68    147.56     0.303     
2734.78    150.23     0.312     
2734.88    152.87     0.323     
2734.98    148.01     0.319     
2735.08    149.92     0.318     
2735.18    153.03     0.317     
2735.28    152.49     0.312     
2735.38    153.06     0.316     
2735.48    153.06     0.314     
2735.58    151.92     0.31      
2735.68    149.14     0.31      
2735.78    142.57     0.305     
2735.88    139.14     0.296     
2735.98    134.35     0.296     
2736.08    130.96     0.291     
2736.18    126.19     0.288     
2736.28    122.89     0.281     
2736.38    124.31     0.276     
2736.48    129.99     0.266     
2736.58    137.6      0.275     
2736.68    146.79     0.286     
2736.78    152.2      0.298     
2736.88    152.74     0.322     
2736.98    152.9      0.327     
2737.08    152.9      0.324     
2737.18    151.44     0.312     
2737.28    149.88     0.312     
2737.38    144.89     0.306     
2737.48    142.52     0.303     
2737.58    141.53     0.303     
2737.68    141.44     0.304     
2737.78    139.7      0.295     
2737.88    136.74     0.29      
2737.98    136.78     0.294     
2738.08    137.46     0.294     
2738.18    136.93     0.297     
2738.28    135.85     0.298     
2738.38    135.35     0.299     
2738.48    133.49     0.298     
2738.58    130.36     0.296     
2738.68    130.36     0.289     
2738.78    127.54     0.277     
2738.88    132.34     0.277     
2738.98    132.41     0.274     
2739.08    132.34     0.275     
2739.18    134.77     0.278     
2739.28    136.84     0.283     
2739.38    136.27     0.287     
2739.48    136.5      0.288     
2739.58    136.45     0.291     
2739.68    136.15     0.293     
2739.78    137.43     0.295     
2739.88    139.92     0.291     
2739.98    142.79     0.287     
2740.08    145.9      0.282     
2740.18    147.12     0.283     
2740.28    147.12     0.289     
2740.38    145.4      0.298     
2740.48    145.21     0.298     
2740.58    145.6      0.307     
2740.68    144.92     0.312     
2740.78    143.9      0.309     
2740.88    145.23     0.3       
2740.98    145.12     0.29      
2741.08    145.93     0.279     
2741.18    146.37     0.273     
2741.28    147.93     0.266     
2741.38    149.06     0.262     
2741.48    151.84     0.258     
2741.58    151.63     0.255     
2741.68    149.38     0.252     
2741.78    145.46     0.257     
2741.88    145.46     0.265     
2741.98    142.97     0.277     
2742.08    142.42     0.277     
2742.18    143.5      0.288     
2742.28    139.05     0.297     
2742.38    135.51     0.299     
2742.48    136.47     0.299     
2742.58    135.72     0.3       
2742.68    135.34     0.296     
2742.78    137.21     0.298     
2742.88    138.42     0.283     
2742.98    139.05     0.27      
2743.08    140.75     0.264     
2743.18    140.99     0.238     
2743.28    143.29     0.234     
2743.38    145.95     0.205     
2743.48    147.54     0.192     
2743.58    147.54     0.195     
2743.68    148.56     0.171     
2743.78    151.7      0.171     
2743.88    153.33     0.17      
2743.98    140.98     0.151     
2744.08    121.38     0.143     
2744.18    93.05      0.143     
2744.28    84.34      0.131     
2744.38    75.3       0.127     
2744.48    69.89999   0.118     
2744.58    66.3       0.113     
2744.68    61.4       0.114     
2744.78    60.82      0.114     
2744.88    58.19      0.119     
2744.98    55.54      0.13      
2745.08    55.23      0.143     
2745.18    55.23      0.149     
2745.28    58.95      0.169     
2745.38    60.04      0.169     
2745.48    61.86      0.17      
2745.58    64.77      0.181     
2745.68    67.5       0.182     
2745.78    72.06001   0.179     
2745.88    71.37      0.173     
2745.98    68.07      0.169     
2746.08    58.8       0.144     
2746.18    49.32      0.13      
2746.28    40.46      0.132     
2746.38    41.73      0.115     
2746.48    41.81      0.115     
2746.58    41.95      0.114     
2746.68    41.68      0.117     
2746.78    41.68      0.117     
2746.88    41.19      0.125     
2746.98    42.68      0.125     
2747.08    40.86      0.123     
2747.18    39.14      0.123     
2747.28    37.31      0.116     
2747.38    36.63      0.112     
2747.48    36.28      0.104     
2747.58    34.16      0.103     
2747.68    33.49      0.094     
2747.78    33.13      0.089     
2747.88    32.1       0.088     
2747.98    30.24      0.083     
2748.08    29.51      0.083     
2748.18    31.23      0.096     
2748.28    31.92      0.101     
2748.38    31.92      0.121     
2748.48    33.1       0.123     
2748.58    34.39      0.123     
2748.68    37.35      0.142     
2748.78    40.53      0.152     
2748.88    45.65      0.151     
2748.98    48.62      0.169     
2749.08    55.25      0.166     
2749.18    60.38      0.177     
2749.28    61.53      0.179     
2749.38    59.65      0.179     
2749.48    58.48      0.177     
2749.58    56.82      0.175     
2749.68    56.87      0.175     
2749.78    54.1       0.176     
2749.88    49.55      0.181     
2749.98    49.55      0.181     
2750.08    48.67      0.186     
2750.18    44.47      0.186     
2750.28    42.79      0.181     
2750.38    41.21      0.178     
2750.48    40.29      0.176     
2750.58    39.35      0.171     
2750.68    39.53      0.172     
2750.78    41.45      0.168     
2750.88    43.59      0.167     
2750.98    46.78      0.166     
2751.08    47.41      0.163     
2751.18    48.65      0.162     
2751.28    48.71      0.163     
2751.38    48.51      0.163     
2751.48    47.47      0.158     
2751.58    48.05      0.158     
2751.68    48.05      0.158     
2751.78    49.73      0.161     
2751.88    50.05      0.161     
2751.98    49.52      0.165     
2752.08    49.35      0.168     
2752.18    48.9       0.17      
2752.28    49.92      0.17      
2752.38    50.24      0.168     
2752.48    49.76      0.166     
2752.58    48.04      0.162     
2752.68    46.5       0.163     
2752.78    44.3       0.165     
2752.88    42.92      0.168     
2752.98    43.35      0.171     
2753.08    42.71      0.172     
2753.18    44.22      0.171     
2753.28    45.75      0.171     
2753.38    46.54      0.174     
2753.48    46.13      0.177     
2753.58    44.21      0.179     
2753.68    44.33      0.181     
2753.78    45.35      0.18      
2753.88    46.4       0.178     
2753.98    45.83      0.175     
2754.08    44.44      0.174     
2754.18    44.24      0.173     
2754.28    43.64      0.179     
2754.38    45.06      0.183     
2754.48    46.97      0.187     
2754.58    47.26      0.187     
2754.68    47.51      0.189     
2754.78    47.99      0.189     
2754.88    47.24      0.192     
2754.98    46.56      0.195     
2755.08    45.5       0.195     
2755.18    45.68      0.196     
2755.28    45.75      0.198     
2755.38    46.15      0.2       
2755.48    46.89      0.203     
2755.58    45.49      0.202     
2755.68    45.64      0.197     
2755.78    46.36      0.187     
2755.88    46.19      0.182     
2755.98    46.88      0.178     
2756.08    47.51      0.175     
2756.18    46.95      0.175     
2756.28    47.02      0.175     
2756.38    47.17      0.172     
2756.48    48.41      0.17      
2756.58    50.59      0.17      
2756.68    50.7       0.163     
2756.78    52.02      0.161     
2756.88    51.26      0.154     
2756.98    48.98      0.151     
2757.08    46.88      0.148     
2757.18    45.68      0.146     
2757.28    45.45      0.145     
2757.38    46.03      0.148     
2757.48    47.06      0.15      
2757.58    47.38      0.149     
2757.68    46.17      0.153     
2757.78    44.91      0.154     
2757.88    44.15      0.16      
2757.98    49.3       0.164     
2758.08    50         0.164     
2758.18    50.7       0.175     
2758.28    52.29      0.181     
2758.38    54.48      0.186     
2758.48    59.07      0.186     
2758.58    59.85      0.186     
2758.68    61.44      0.189     
