~Version
 VERS              .         2.0                           : CWLS LOG ASCII STANDARD - VERSION 2.0
 WRAP              .         NO                            : ONE LINE PER DEPTH STEP
 DLM               .         SPACE                         : DELIMITING CHARACTER(SPACE TAB OR COMMA)
~Well Information
#_______________________________________________________________________________
#
#PARAMETER_NAME    .UNIT     VALUE                         : DESCRIPTION
#_______________________________________________________________________________
STRT               .m        2636.8                        : First reference value
STOP               .m        2825.1                        : Last reference value
STEP               .m        0.1                           : Step increment
NULL               .         -9999                         : Missing value
COMP               .                                       : Company
WELL               .         407                           : Well name
FLD                .                                       : Field
LOC                .                                       : Location
CNTY               .                                       : County
STAT               .                                       : State
CTRY               .                                       : Country
SRVC               .                                       : Service Company
DATE               .                                       : Date
API                .                                       : API number
EREF               .m        140.4                         : 
Pad                .         4                             : 
X                  .m        222100                        : 
Y                  .m        250025                        : 
group              .         Pad4                          : 
Интер-р            .         Зайцев                        : 
Куст               .         4                             : 
Статус             .         Не проверено                  : 
Тип                .         Эксплуатация                  : 
~Parameter Information Block
#_______________________________________________________________________________
#
#PARAMETER_NAME    .UNIT     VALUE                         : DESCRIPTION
#_______________________________________________________________________________
SET                .         LAS1                          : 
REAL_CREATION_DATE .         Ср апр 11 2012-13_17_16       : 
TLFamily_DEPTH     .         Measured Depth                : 
TLFamily_KS        .         Potential Resistivity         : 
TLFamily_KS1       .         Extra Shallow Resistivity     : 
TLFamily_KS2       .         Shallow Resistivity           : 
TLFamily_KS3       .         Medium Resistivity            : 
TLFamily_KS4       .         Deep Resistivity              : 
TLFamily_KS5       .         Extra Deep Resistivity        : 
TLFamily_LLD       .         Lateral Log Resistivity       : 
TLFamily_OKS3      .         Medium Resistivity Inverted   : 
TLFamily_RM        .         Mud Resistivity               : 
group              .         INI                           : 
~Curve Information
#_______________________________________________________________________________
#
#LOGNAME           .UNIT     LOG_ID                        : DESCRIPTION
#_______________________________________________________________________________
DEPTH              .m                                      : Measured Depth 
KS                 .ohm.m                                  : Potential Resistivity 
KS1                .ohm.m                                  : Extra Shallow Resistivity 
KS2                .ohm.m                                  : Shallow Resistivity 
KS3                .ohm.m                                  : Medium Resistivity 
KS4                .ohm.m                                  : Deep Resistivity 
KS5                .ohm.m                                  : Extra Deep Resistivity 
LLD                .ohm.m                                  : Lateral Log Resistivity 
OKS3               .ohm.m                                  : Medium Resistivity Inverted 
RM                 .ohm.m                                  : Mud Resistivity 
~Ascii
# ...
2673.3     7.5171     1.8428     7.7712     13.2137    12.8733    9.7156     9.11       14.3438    0.161     
2673.4     7.4648     1.7398     7.4045     13.0777    12.8449    9.5912     9.1013     14.537     0.16      
2673.5     7.4533     1.6614     6.9594     13.1088    12.9178    9.5099     8.4231     14.8454    0.162     
2673.6     7.456      1.7871     7.1918     13.2327    13.0224    9.4861     8.134      14.8985    0.164     
2673.7     7.4863     1.885      7.5148     13.4973    13.2311    9.5147     7.6855     14.8296    0.161     
2673.8     7.5427     1.9424     7.6344     13.9836    13.6341    9.5464     7.4933     14.7805    0.16      
2673.9     7.5686     1.9687     7.6375     14.3753    13.8771    9.573      7.3853     14.7089    0.161     
2674       7.6082     2.0094     7.7038     14.6602    14.0308    9.6484     7.655      14.5222    0.162     
2674.1     7.6705     2.0474     7.819      14.8618    14.1643    9.7241     7.7904     14.2982    0.164     
2674.2     7.7307     2.0905     7.8795     14.9934    14.3174    9.7349     9.547      14.1023    0.164     
2674.3     7.7881     2.1002     7.8946     14.9829    14.4747    9.7341     10.2998    13.986     0.166     
2674.4     7.8402     2.0911     7.9137     14.8882    14.6204    9.7531     11.8633    13.8697    0.169     
2674.5     7.8911     2.1195     8.0284     14.7025    14.6739    9.7852     12.8632    13.722     0.169     
2674.6     7.933      2.0896     8.0047     14.573     14.8038    9.8259     13.0045    13.5793    0.163     
2674.7     7.9657     2.0902     8.0551     14.5058    15.0384    9.8734     12.8452    13.4372    0.159     
2674.8     7.9976     2.1363     8.2542     14.4269    15.2594    9.9312     12.777     13.2701    0.162     
2674.9     8.0276     2.1633     8.3866     14.4828    15.5899    10.0006    12.7081    13.1054    0.162     
2675       8.0427     2.1807     8.4779     14.6352    16.0531    10.0706    11.7282    12.9706    0.162     
2675.1     8.0481     2.2394     8.7504     14.8035    16.4154    10.1416    11.3209    12.8019    0.16      
2675.2     8.0653     2.3154     8.9486     14.9973    16.8046    10.2158    11.6369    12.619     0.161     
2675.3     8.08       2.3537     9.1058     15.2468    17.1731    10.2811    11.7723    12.4477    0.16      
2675.4     8.07       2.3947     9.2503     15.3854    17.3628    10.3326    12.1607    12.2638    0.161     
2675.5     8.061      2.4368     9.4137     15.4721    17.4732    10.3863    12.6523    12.1015    0.161     
2675.6     8.0215     2.4616     9.4086     15.5921    17.5948    10.4257    12.7917    12.0712    0.162     
2675.7     7.9719     2.4347     9.299      15.6549    17.7275    10.4488    13.2354    12.0349    0.168     
2675.8     7.9128     2.4113     9.3332     15.5465    17.6913    10.4659    13.4255    12.0526    0.172     
2675.9     7.846      2.3666     9.1887     15.4663    17.6464    10.4698    14.1455    12.1057    0.171     
2676       7.7646     2.2893     8.9515     15.3697    17.6586    10.4698    13.6046    12.1704    0.169     
2676.1     7.6742     2.2276     8.836      15.2602    17.6898    10.4698    13.2405    12.1628    0.169     
2676.2     7.5783     2.189      8.6949     15.1893    17.5772    10.4737    11.9323    12.061     0.166     
2676.3     7.4925     2.2274     8.7739     15.1486    17.4447    10.4961    11.3716    11.9502    0.164     
2676.4     7.4217     2.2395     8.8007     15.1303    17.2907    10.5572    9.6781     11.8543    0.164     
2676.5     7.3703     2.2168     8.6575     15.0778    17.0901    10.6188    8.9523     11.7241    0.167     
2676.6     7.3163     2.2234     8.6134     14.9589    16.8496    10.6679    8.9888     11.5984    0.166     
2676.7     7.2752     2.226      8.5049     14.8893    16.6431    10.7197    9.0044     11.4916    0.164     
2676.8     7.2492     2.2297     8.4884     14.8276    16.41      10.7576    9.4746     11.3734    0.165     
2676.9     7.2183     2.24       8.4785     14.7468    16.1788    10.796     10.2436    11.2509    0.168     
2677       7.1978     2.2299     8.4544     14.6725    15.9677    10.8368    10.4868    11.1367    0.167     
2677.1     7.1613     2.2396     8.4389     14.554     15.7478    10.8587    9.8872     11.0356    0.168     
2677.2     7.12       2.226      8.4125     14.42      15.5025    10.8756    9.6302     10.947     0.172     
2677.3     7.0775     2.221      8.3687     14.268     15.2854    10.893     9.6959     10.9032    0.174     
2677.4     7.0304     2.1975     8.3122     14.144     15.095     10.8968    9.8441     10.8691    0.174     
2677.5     6.9964     2.1841     8.2527     14.0029    14.9436    10.8833    9.8956     10.8359    0.174     
2677.6     6.9624     2.1841     8.2613     13.8554    14.8626    10.8548    9.5191     10.8163    0.174     
2677.7     6.9217     2.1981     8.2594     13.7271    14.7711    10.8294    9.3577     10.7845    0.172     
2677.8     6.8746     2.1981     8.2702     13.6079    14.6706    10.8024    9.2084     10.7603    0.174     
2677.9     6.8377     2.1981     8.2444     13.463     14.6118    10.7688    8.935      10.7539    0.179     
2678       6.8031     2.1882     8.1975     13.3357    14.5289    10.7347    8.8453     10.7539    0.171     
2678.1     6.756      2.1841     8.16       13.2429    14.4427    10.699     9.0555     10.769     0.164     
2678.2     6.7135     2.1841     8.1175     13.1641    14.3571    10.6522    9.1455     10.8061    0.165     
2678.3     6.6611     2.1793     8.1103     13.1129    14.2697    10.6001    9.1466     10.8436    0.172     
2678.4     6.6104     2.1701     8.0616     13.0593    14.1909    10.5603    8.8874     10.8915    0.175     
2678.5     6.572      2.1611     8.0172     13.0097    14.0514    10.5414    8.7761     10.9446    0.17      
2678.6     6.5225     2.1452     7.9741     12.907     13.8943    10.5224    8.5599     10.982     0.162     
2678.7     6.4735     2.1153     7.8603     12.7695    13.7667    10.476     8.4672     11.0374    0.159     
2678.8     6.4257     2.0863     7.751      12.661     13.635     10.4269    8.4562     11.0812    0.163     
2678.9     6.3788     2.0917     7.7149     12.5453    13.4993    10.3993    8.3804     11.1286    0.169     
2679       6.3433     2.1002     7.7191     12.4306    13.3639    10.3687    8.3499     11.1609    0.174     
2679.1     6.3124     2.1002     7.6711     12.3263    13.2095    10.3257    8.1131     11.1806    0.175     
2679.2     6.2835     2.0713     7.5776     12.2185    13.062     10.2988    8.0116     11.2005    0.175     
2679.3     6.2494     2.0583     7.4926     12.0773    12.8967    10.2724    7.9318     11.2284    0.177     
2679.4     6.2199     2.0526     7.4571     11.9342    12.7129    10.2329    8.0847     11.2646    0.176     
2679.5     6.1884     2.0365     7.4014     11.7891    12.5358    10.1851    8.1648     11.3146    0.175     
2679.6     6.1714     2.0205     7.3259     11.6544    12.3375    10.1241    8.0399     11.3931    0.172     
2679.7     6.1491     2.004      7.2779     11.5005    12.1381    10.0617    7.9864     11.4612    0.17      
2679.8     6.1255     2.0011     7.2306     11.357     11.9369    10.0096    7.8629     11.5229    0.172     
2679.9     6.1094     1.9884     7.1897     11.2341    11.7502    9.9709     7.7261     11.5563    0.17      
2680       6.0943     1.9884     7.1795     11.131     11.59      9.93       7.6901     11.5552    0.165     
2680.1     6.0929     1.9884     7.1569     11.0228    11.4407    9.8902     7.5845     11.5666    0.164     
2680.2     6.0921     1.9884     7.1485     10.9271    11.2993    9.8662     7.5392     11.5666    0.171     
2680.3     6.0841     1.9851     7.1046     10.8337    11.1937    9.8497     7.5549     11.5666    0.178     
2680.4     6.0803     1.9799     7.0458     10.7506    11.09      9.8179     7.7112     11.5872    0.18      
2680.5     6.0949     1.9959     7.0625     10.6834    10.9819    9.7567     7.7753     11.5941    0.18      
