~Version
 VERS              .         2.0                           : CWLS LOG ASCII STANDARD - VERSION 2.0
 WRAP              .         NO                            : ONE LINE PER DEPTH STEP
 DLM               .         SPACE                         : DELIMITING CHARACTER(SPACE TAB OR COMMA)
~Well Information
#_______________________________________________________________________________
#
#PARAMETER_NAME    .UNIT     VALUE                         : DESCRIPTION
#_______________________________________________________________________________
STRT               .m        2636.8                        : First reference value
STOP               .m        2825.1                        : Last reference value
STEP               .m        0.1                           : Step increment
NULL               .         -9999                         : Missing value
COMP               .                                       : Company
WELL               .         407                           : Well name
FLD                .                                       : Field
LOC                .                                       : Location
CNTY               .                                       : County
STAT               .                                       : State
CTRY               .                                       : Country
SRVC               .                                       : Service Company
DATE               .                                       : Date
API                .                                       : API number
EREF               .m        140.4                         : 
Pad                .         4                             : 
X                  .m        222100                        : 
Y                  .m        250025                        : 
group              .         Pad4                          : 
Интер-р            .         Зайцев                        : 
Куст               .         4                             : 
Статус             .         Не проверено                  : 
Тип                .         Эксплуатация                  : 
~Parameter Information Block
#_______________________________________________________________________________
#
#PARAMETER_NAME    .UNIT     VALUE                         : DESCRIPTION
#_______________________________________________________________________________
SET                .         LAS1                          : 
REAL_CREATION_DATE .         Ср апр 11 2012-13_17_16       : 
TLFamily_DEPTH     .         Measured Depth                : 
TLFamily_KS        .         Potential Resistivity         : 
TLFamily_KS1       .         Extra Shallow Resistivity     : 
TLFamily_KS2       .         Shallow Resistivity           : 
TLFamily_KS3       .         Medium Resistivity            : 
TLFamily_KS4       .         Deep Resistivity              : 
TLFamily_KS5       .         Extra Deep Resistivity        : 
TLFamily_LLD       .         Lateral Log Resistivity       : 
TLFamily_OKS3      .         Medium Resistivity Inverted   : 
TLFamily_RM        .         Mud Resistivity               : 
group              .         INI                           : 
~Curve Information
#_______________________________________________________________________________
#
#LOGNAME           .UNIT     LOG_ID                        : DESCRIPTION
#_______________________________________________________________________________
DEPTH              .m                                      : Measured Depth 
KS                 .ohm.m                                  : Potential Resistivity 
KS1                .ohm.m                                  : Extra Shallow Resistivity 
KS2                .ohm.m                                  : Shallow Resistivity 
KS3                .ohm.m                                  : Medium Resistivity 
KS4                .ohm.m                                  : Deep Resistivity 
KS5                .ohm.m                                  : Extra Deep Resistivity 
LLD                .ohm.m                                  : Lateral Log Resistivity 
OKS3               .ohm.m                                  : Medium Resistivity Inverted 
RM                 .ohm.m                                  : Mud Resistivity 
~Ascii
# ...
2797.4     7.6602     3.0234     12.477     25.4635    40.2379    41.9512    11.9378    18.8386    0.18      
2797.5     7.3963     2.7595     11.649     24.042     37.4761    40.4822    12.5776    18.1058    0.18      
2797.6     7.0774     2.5063     10.6476    22.0656    33.6197    38.2086    13.3322    17.0919    0.183     
2797.7     6.7414     2.2816     9.7145     20.2823    30.123     35.1171    12.4191    15.93      0.188     
2797.8     6.4806     2.1278     9.0136     18.6753    27.0945    31.5216    11.9094    15.1643    0.194     
2797.9     6.3062     2.0266     8.4753     17.2345    24.4715    28.0816    10.2142    14.7611    0.193     
2798       6.1928     1.9238     7.9253     15.9253    22.134     25.1321    7.7197     14.5261    0.19      
2798.1     6.0935     1.8675     7.5077     14.6673    20.1483    22.6304    6.8875     14.3348    0.186     
2798.2     6.0019     1.7895     6.9718     13.5412    18.3977    20.4568    6.6178     14.1979    0.179     
2798.3     5.95       1.688      6.5405     12.5537    16.907     18.5844    6.7836     14.086     0.179     
2798.4     5.9039     1.6557     6.3307     11.7886    15.6927    17.0333    6.6702     13.9988    0.18      
2798.5     5.8991     1.674      6.1649     11.2492    14.7836    15.7561    6.5724     13.977     0.184     
2798.6     5.9249     1.6922     6.0804     10.8786    14.1329    14.7161    6.7876     14.1223    0.191     
2798.7     5.9567     1.7227     5.9666     10.5956    13.5599    13.9336    7.7413     14.4104    0.192     
2798.8     6.0314     1.7117     5.9285     10.3776    13.0457    13.4193    8.1105     14.7325    0.188     
2798.9     6.1186     1.7389     5.9752     10.2109    12.6543    13.0557    8.6008     15.1297    0.186     
2799       6.2297     1.7726     6.032      10.1412    12.4318    12.7532    8.811      15.6202    0.186     
2799.1     6.3263     1.7896     6.1341     10.1534    12.3314    12.5255    8.8339     16.1579    0.186     
2799.2     6.4155     1.807      6.3007     10.2696    12.3564    12.352     9.4093     16.7187    0.189     
2799.3     6.5149     1.8496     6.4944     10.6319    12.5579    12.2288    10.0596    17.3236    0.19      
2799.4     6.6173     1.9353     6.8543     11.1381    12.8494    12.1424    10.2344    17.8056    0.189     
2799.5     6.7234     2.0625     7.3261     11.6654    13.1237    12.0911    10.4825    18.0408    0.19      
2799.6     6.8452     2.1733     7.7584     12.2       13.3486    12.0953    12.6295    17.9844    0.188     
2799.7     6.9525     2.2644     8.0306     12.5478    13.4012    12.1112    13.5041    17.7294    0.185     
2799.8     7.0389     2.3326     8.1936     12.6851    13.2969    12.0754    17.0614    17.2179    0.181     
2799.9     7.11       2.3798     8.3589     12.7011    13.0975    11.9443    18.586     16.635     0.178     
2800       7.1693     2.3905     8.3282     12.6577    12.8079    11.6973    18.239     16.0032    0.179     
2800.1     7.2382     2.4205     8.4278     12.5004    12.3422    11.3389    16.4812    15.413     0.187     
2800.2     7.2885     2.4469     8.4988     12.2158    11.8066    10.9       15.7916    14.8909    0.192     
2800.3     7.3447     2.4106     8.374      11.9394    11.1913    10.4223    15.7916    14.5319    0.193     
2800.4     7.3683     2.339      8.1788     11.5549    10.5283    9.9636     15.3886    14.3682    0.192     
2800.5     7.3646     2.2404     7.9873     11.1147    9.8843     9.5367     15.2159    14.4586    0.188     
2800.6     7.346      2.1087     7.6905     10.6334    9.3577     9.1364     14.8876    14.8277    0.185     
2800.7     7.3185     1.9446     7.2634     10.2237    8.9543     8.7603     11.5457    15.4925    0.183     
2800.8     7.2977     1.8136     6.9558     9.9151     8.6572     8.4107     10.1738    16.1942    0.184     
2800.9     7.285      1.7556     6.8994     9.7235     8.5216     8.1252     8.5403     16.7768    0.188     
2801       7.2868     1.751      6.9563     9.7246     8.5357     7.8922     7.8403     17.2417    0.191     
2801.1     7.3064     1.7706     7.0039     9.9074     8.6232     7.7209     7.6557     17.5753    0.19      
2801.2     7.341      1.8181     7.0742     10.1182    8.7128     7.62       8.9674     17.7543    0.187     
2801.3     7.3915     1.8781     7.1317     10.3286    8.8524     7.5491     9.5634     17.8593    0.183     
2801.4     7.472      1.9447     7.1129     10.5669    9.0699     7.5052     12.1416    17.9807    0.181     
2801.5     7.5962     1.9701     7.0762     10.845     9.2892     7.4893     14.4607    18.1135    0.177     
2801.6     7.7417     2.0221     7.0864     11.1175    9.548      7.4901     14.9811    18.1703    0.176     
2801.7     7.9136     2.0731     7.2021     11.4143    9.7849     7.5001     14.9555    18.1974    0.179     
2801.8     8.0724     2.0983     7.3303     11.6948    9.9953     7.5272     14.9445    18.1921    0.186     
2801.9     8.2209     2.1002     7.4388     11.9844    10.2333    7.5827     15.1682    18.2108    0.194     
2802       8.357      2.1002     7.5021     12.219     10.4487    7.6631     15.1242    18.1723    0.197     
2802.1     8.4873     2.1169     7.6995     12.4246    10.6665    7.7545     15.0642    18.1727    0.195     
2802.2     8.6036     2.1597     7.8644     12.615     10.8868    7.8504     15.6934    18.2643    0.19      
2802.3     8.7204     2.1701     8.0143     12.8427    11.1876    7.9464     15.9631    18.5444    0.186     
2802.4     8.8488     2.1818     8.1148     13.0067    11.486     8.0332     16.4936    18.7615    0.181     
2802.5     8.9766     2.1881     8.2649     13.1403    11.8161    8.1062     15.7342    18.9815    0.184     
2802.6     9.095      2.2214     8.4804     13.2612    12.116     8.1574     15.3113    19.1424    0.19      
2802.7     9.2167     2.2385     8.5663     13.3859    12.3811    8.2084     16.0421    19.1827    0.191     
2802.8     9.323      2.2679     8.7487     13.5008    12.5823    8.2692     16.3552    19.2417    0.191     
2802.9     9.4259     2.2717     8.8344     13.5286    12.7086    8.3183     16.7718    19.2655    0.192     
2803       9.5142     2.2819     8.8871     13.5951    12.7981    8.3619     16.8956    19.28      0.193     
2803.1     9.5822     2.2456     8.7004     13.6582    12.9032    8.4223     16.8721    19.2676    0.192     
2803.2     9.65       2.226      8.6232     13.758     13.0012    8.5144     16.0426    19.2662    0.191     
2803.3     9.7305     2.212      8.6445     13.8027    13.1644    8.6424     15.687     19.2662    0.187     
2803.4     9.8216     2.212      8.6594     13.9682    13.4145    8.7926     15.3745    19.2662    0.182     
2803.5     9.9093     2.212      8.6206     14.1514    13.7537    8.9609     16.0083    19.2559    0.183     
2803.6     10.0033    2.2249     8.6931     14.3403    14.0862    9.1591     16.3374    19.2387    0.185     
2803.7     10.0637    2.254      8.7886     14.519     14.458     9.3846     16.5088    19.2387    0.189     
2803.8     10.1326    2.2624     8.8719     14.7663    14.8694    9.6242     16.5823    19.2387    0.191     
2803.9     10.1768    2.3013     9.0442     15.033     15.2889    9.8665     16.5295    19.2387    0.191     
2804       10.2258    2.3328     9.1933     15.2858    15.7048    10.1131    16.7675    19.2387    0.191     
2804.1     10.2648    2.3611     9.3313     15.5189    16.0674    10.3732    16.8791    19.2316    0.188     
2804.2     10.2867    2.3099     9.1922     15.6605    16.3018    10.6383    16.2691    19.2249    0.183     
2804.3     10.3015    2.328      9.2376     15.7178    16.4493    10.9127    16.0076    19.2249    0.183     
2804.4     10.3123    2.3126     9.2355     15.7269    16.5398    11.2247    16.0076    19.2249    0.181     
2804.5     10.3167    2.2549     9.0726     15.7559    16.593     11.5731    15.3233    19.2179    0.186     
2804.6     10.3303    2.2429     9.0059     15.7155    16.5711    11.9551    15.4126    19.2111    0.191     
