~Version
 VERS              .         2.0                           : CWLS LOG ASCII STANDARD - VERSION 2.0
 WRAP              .         NO                            : ONE LINE PER DEPTH STEP
 DLM               .         SPACE                         : DELIMITING CHARACTER(SPACE TAB OR COMMA)
~Well Information
#_______________________________________________________________________________
#
#PARAMETER_NAME    .UNIT     VALUE                         : DESCRIPTION
#_______________________________________________________________________________
STRT               .m        2636.8                        : First reference value
STOP               .m        2825.1                        : Last reference value
STEP               .m        0.1                           : Step increment
NULL               .         -9999                         : Missing value
COMP               .                                       : Company
WELL               .         407                           : Well name
FLD                .                                       : Field
LOC                .                                       : Location
CNTY               .                                       : County
STAT               .                                       : State
CTRY               .                                       : Country
SRVC               .                                       : Service Company
DATE               .                                       : Date
API                .                                       : API number
EREF               .m        140.4                         : 
Pad                .         4                             : 
X                  .m        222100                        : 
Y                  .m        250025                        : 
group              .         Pad4                          : 
Интер-р            .         Зайцев                        : 
Куст               .         4                             : 
Статус             .         Не проверено                  : 
Тип                .         Эксплуатация                  : 
~Parameter Information Block
#_______________________________________________________________________________
#
#PARAMETER_NAME    .UNIT     VALUE                         : DESCRIPTION
#_______________________________________________________________________________
SET                .         LAS1                          : 
REAL_CREATION_DATE .         Ср апр 11 2012-13_17_16       : 
TLFamily_DEPTH     .         Measured Depth                : 
TLFamily_KS        .         Potential Resistivity         : 
TLFamily_KS1       .         Extra Shallow Resistivity     : 
TLFamily_KS2       .         Shallow Resistivity           : 
TLFamily_KS3       .         Medium Resistivity            : 
TLFamily_KS4       .         Deep Resistivity              : 
TLFamily_KS5       .         Extra Deep Resistivity        : 
TLFamily_LLD       .         Lateral Log Resistivity       : 
TLFamily_OKS3      .         Medium Resistivity Inverted   : 
TLFamily_RM        .         Mud Resistivity               : 
group              .         INI                           : 
~Curve Information
#_______________________________________________________________________________
#
#LOGNAME           .UNIT     LOG_ID                        : DESCRIPTION
#_______________________________________________________________________________
DEPTH              .m                                      : Measured Depth 
KS                 .ohm.m                                  : Potential Resistivity 
KS1                .ohm.m                                  : Extra Shallow Resistivity 
KS2                .ohm.m                                  : Shallow Resistivity 
KS3                .ohm.m                                  : Medium Resistivity 
KS4                .ohm.m                                  : Deep Resistivity 
KS5                .ohm.m                                  : Extra Deep Resistivity 
LLD                .ohm.m                                  : Lateral Log Resistivity 
OKS3               .ohm.m                                  : Medium Resistivity Inverted 
RM                 .ohm.m                                  : Mud Resistivity 
~Ascii
# ...
2695.2     7.0182     2.2962     8.4284     12.5535    11.2866    6.7247     9.4779     14.2061    0.18      
2695.3     7.0124     2.245      8.2699     12.4425    11.2301    6.6292     9.8534     14.273     0.178     
2695.4     6.9795     2.1915     8.0976     12.2732    11.1195    6.5285     9.9991     14.4023    0.176     
2695.5     6.9539     2.1703     7.9988     12.0719    11.0066    6.432      9.8716     14.5798    0.175     
2695.6     6.9375     2.1422     7.9203     11.897     10.9013    6.3348     9.817      14.7835    0.175     
2695.7     6.9212     2.1322     7.8921     11.7387    10.8019    6.242      10.0217    15.0358    0.175     
2695.8     6.906      2.0904     7.7814     11.5744    10.7161    6.1749     9.1901     15.343     0.177     
2695.9     6.8996     2.0389     7.5987     11.4246    10.6063    6.1299     8.7961     15.6369    0.179     
2696       6.8775     2.0014     7.4439     11.2916    10.4959    6.1009     8.383      15.9485    0.18      
2696.1     6.8719     1.9676     7.3557     11.2077    10.423     6.0894     8.206      16.2867    0.184     
2696.2     6.8873     1.9525     7.276      11.1522    10.3865    6.1006     8.2675     16.6308    0.189     
2696.3     6.897      1.9687     7.2874     11.1609    10.3865    6.1279     8.2373     16.9705    0.191     
2696.4     6.9356     1.9644     7.2338     11.2024    10.4286    6.1746     8.2131     17.2509    0.189     
2696.5     6.9855     1.9605     7.2145     11.297     10.5092    6.2331     7.9899     17.4911    0.186     
2696.6     7.0352     1.9897     7.2769     11.3805    10.6103    6.297      7.8942     17.6873    0.189     
2696.7     7.0934     2.023      7.3714     11.512     10.7524    6.3745     8.0934     17.9203    0.188     
2696.8     7.1597     2.051      7.434      11.6621    10.8725    6.4652     8.8693     18.1471    0.186     
2696.9     7.2424     2.0783     7.5053     11.7771    10.9992    6.5679     9.1652     18.3845    0.184     
2697       7.3377     2.1126     7.5827     11.8848    11.1113    6.6805     9.4265     18.6542    0.181     
2697.1     7.4179     2.1025     7.586      11.9899    11.2219    6.803      9.5384     18.9866    0.18      
2697.2     7.498      2.1142     7.68       12.0787    11.3427    6.9195     10.0271    19.3272    0.18      
2697.3     7.5838     2.1142     7.725      12.1856    11.5234    7.0206     10.6755    19.6467    0.18      
2697.4     7.6664     2.1235     7.8318     12.3488    11.7768    7.1081     10.8637    19.95      0.18      
2697.5     7.7431     2.1509     7.968      12.5412    12.0287    7.1874     10.8102    20.2351    0.18      
2697.6     7.8325     2.198      8.2061     12.6928    12.2417    7.2606     10.7872    20.3781    0.177     
2697.7     7.9059     2.2427     8.3983     12.8323    12.4027    7.3237     10.6801    20.368     0.178     
2697.8     7.9917     2.2481     8.4027     12.9562    12.5197    7.3742     10.795     20.2954    0.18      
2697.9     8.063      2.2492     8.401      13.0519    12.5896    7.4045     10.8639    20.2491    0.18      
2698       8.1307     2.2784     8.5148     13.1333    12.6216    7.4171     11.7882    20.2591    0.18      
2698.1     8.2067     2.3529     8.7313     13.2126    12.6696    7.4121     12.1843    20.3783    0.18      
2698.2     8.2921     2.3588     8.8526     13.2898    12.701     7.3956     12.6349    20.5523    0.184     
2698.3     8.3644     2.3264     8.8128     13.3925    12.743     7.3858     13.202     20.7464    0.187     
2698.4     8.4289     2.3021     8.7639     13.462     12.7274    7.3779     13.3622    20.964     0.19      
2698.5     8.4734     2.3248     8.8605     13.5273    12.711     7.3779     13.2784    21.1107    0.191     
2698.6     8.505      2.3378     8.9891     13.6082    12.7029    7.3869     13.2425    21.2323    0.191     
2698.7     8.5295     2.3378     8.9898     13.6903    12.7029    7.4019     13.0034    21.4362    0.188     
2698.8     8.5546     2.3339     8.9841     13.7446    12.6438    7.4426     12.0605    21.7302    0.186     
2698.9     8.5764     2.294      8.8158     13.7036    12.5791    7.513      11.7004    22.1076    0.186     
2699       8.6083     2.2251     8.6669     13.683     12.5147    7.6066     12.2563    22.6124    0.186     
2699.1     8.6428     2.212      8.6089     13.651     12.4783    7.7084     12.4946    23.2345    0.186     
2699.2     8.68       2.1981     8.5963     13.7009    12.507     7.813      12.5887    23.8156    0.186     
2699.3     8.7359     2.1981     8.6024     13.7889    12.5808    7.9293     11.9585    24.2604    0.185     
2699.4     8.7912     2.2117     8.7158     13.911     12.6459    8.0682     11.6711    24.577     0.182     
2699.5     8.855      2.217      8.6944     14.0632    12.7364    8.2168     10.8423    24.7513    0.178     
2699.6     8.9148     2.212      8.6813     14.2482    12.8432    8.361      10.4871    24.9936    0.175     
2699.7     8.9896     2.24       8.7437     14.4435    12.964     8.5079     10.7045    25.2394    0.175     
2699.8     9.0753     2.2472     8.7432     14.643     13.1097    8.6528     11.7607    25.4594    0.176     
2699.9     9.1887     2.2818     8.8395     14.8062    13.1878    8.7983     12.1734    25.5659    0.179     
2700       9.3357     2.2959     8.907      14.8898    13.2635    8.9559     13.2467    25.5747    0.18      
2700.1     9.473      2.2442     8.7711     14.9849    13.3653    9.1138     13.7068    25.6073    0.183     
2700.2     9.6038     2.2171     8.6714     15.0562    13.462     9.2576     13.5341    25.4944    0.186     
2700.3     9.7259     2.2742     8.8726     15.1406    13.5786    9.3798     13.5472    25.3666    0.189     
2700.4     9.8581     2.3309     9.1205     15.3572    13.8209    9.4803     13.5845    25.2824    0.191     
2700.5     10.0093    2.361      9.2639     15.6359    14.1585    9.5817     14.9491    25.2442    0.191     
2700.6     10.1701    2.3887     9.3769     15.9306    14.5095    9.6931     15.534     25.158     0.191     
2700.7     10.3212    2.4225     9.5556     16.1968    14.85      9.8079     15.5193    25.0262    0.191     
2700.8     10.4571    2.488      9.812      16.4919    15.2316    9.9201     16.416     24.8629    0.191     
2700.9     10.5866    2.5195     9.9676     16.7808    15.6135    10.0261    16.803     24.6508    0.188     
2701       10.7058    2.55       10.1416    17.0592    15.9744    10.1283    17.683     24.4535    0.186     
2701.1     10.8173    2.5878     10.2998    17.3242    16.3032    10.227     18.0602    24.2558    0.186     
2701.2     10.903     2.6088     10.4697    17.6098    16.6641    10.312     18.1786    24.1017    0.186     
2701.3     10.9804    2.6496     10.6486    17.925     17.0362    10.3763    19.2417    24.007     0.186     
2701.4     11.0574    2.6719     10.7955    18.2615    17.4063    10.4213    19.6756    23.9663    0.184     
2701.5     11.0961    2.7042     10.997     18.6419    17.7627    10.4617    20.2146    23.9631    0.181     
2701.6     11.1441    2.7043     11.0485    19.0015    18.1322    10.4992    20.4455    24.043     0.18      
2701.7     11.1769    2.7147     11.1285    19.2891    18.4648    10.5222    20.282     24.0313    0.18      
2701.8     11.1839    2.72       11.1783    19.4958    18.717     10.5388    19.3965    24.0733    0.18      
2701.9     11.1839    2.6936     11.1483    19.6881    18.9696    10.5439    19.047     24.0733    0.18      
2702       11.1822    2.6916     11.1958    19.849     19.1489    10.5402    18.7544    24.1047    0.18      
2702.1     11.1657    2.6744     11.1654    19.9927    19.2895    10.5441    18.629     24.1552    0.18      
2702.2     11.1539    2.6582     11.139     20.1455    19.376     10.5469    18.0829    24.2659    0.184     
2702.3     11.1369    2.642      11.0548    20.256     19.4531    10.5576    17.4015    24.4457    0.189     
2702.4     11.1382    2.6208     10.9851    20.3114    19.5284    10.5749    17.2097    24.6348    0.191     
