~Version
 VERS              .         2.0                           : CWLS LOG ASCII STANDARD - VERSION 2.0
 WRAP              .         NO                            : ONE LINE PER DEPTH STEP
 DLM               .         SPACE                         : DELIMITING CHARACTER(SPACE TAB OR COMMA)
~Well Information
#_______________________________________________________________________________
#
#PARAMETER_NAME    .UNIT     VALUE                         : DESCRIPTION
#_______________________________________________________________________________
STRT               .m        2636.8                        : First reference value
STOP               .m        2825.1                        : Last reference value
STEP               .m        0.1                           : Step increment
NULL               .         -9999                         : Missing value
COMP               .                                       : Company
WELL               .         407                           : Well name
FLD                .                                       : Field
LOC                .                                       : Location
CNTY               .                                       : County
STAT               .                                       : State
CTRY               .                                       : Country
SRVC               .                                       : Service Company
DATE               .                                       : Date
API                .                                       : API number
EREF               .m        140.4                         : 
Pad                .         4                             : 
X                  .m        222100                        : 
Y                  .m        250025                        : 
group              .         Pad4                          : 
Интер-р            .         Зайцев                        : 
Куст               .         4                             : 
Статус             .         Не проверено                  : 
Тип                .         Эксплуатация                  : 
~Parameter Information Block
#_______________________________________________________________________________
#
#PARAMETER_NAME    .UNIT     VALUE                         : DESCRIPTION
#_______________________________________________________________________________
SET                .         LAS1                          : 
REAL_CREATION_DATE .         Ср апр 11 2012-13_17_16       : 
TLFamily_DEPTH     .         Measured Depth                : 
TLFamily_KS        .         Potential Resistivity         : 
TLFamily_KS1       .         Extra Shallow Resistivity     : 
TLFamily_KS2       .         Shallow Resistivity           : 
TLFamily_KS3       .         Medium Resistivity            : 
TLFamily_KS4       .         Deep Resistivity              : 
TLFamily_KS5       .         Extra Deep Resistivity        : 
TLFamily_LLD       .         Lateral Log Resistivity       : 
TLFamily_OKS3      .         Medium Resistivity Inverted   : 
TLFamily_RM        .         Mud Resistivity               : 
group              .         INI                           : 
~Curve Information
#_______________________________________________________________________________
#
#LOGNAME           .UNIT     LOG_ID                        : DESCRIPTION
#_______________________________________________________________________________
DEPTH              .m                                      : Measured Depth 
KS                 .ohm.m                                  : Potential Resistivity 
KS1                .ohm.m                                  : Extra Shallow Resistivity 
KS2                .ohm.m                                  : Shallow Resistivity 
KS3                .ohm.m                                  : Medium Resistivity 
KS4                .ohm.m                                  : Deep Resistivity 
KS5                .ohm.m                                  : Extra Deep Resistivity 
LLD                .ohm.m                                  : Lateral Log Resistivity 
OKS3               .ohm.m                                  : Medium Resistivity Inverted 
RM                 .ohm.m                                  : Mud Resistivity 
~Ascii
# ...
2687.9     6.3698     2.1165     7.6543     10.9826    9.9754     6.4467     8.9259     11.4723    0.177     
2688       6.3388     2.1114     7.6806     10.9163    9.8537     6.3597     8.5906     11.4895    0.175     
2688.1     6.328      2.0776     7.5528     10.9085    9.7649     6.2791     8.4923     11.5066    0.175     
2688.2     6.2951     2.061      7.469      10.8321    9.6198     6.2072     8.4501     11.5087    0.175     
2688.3     6.2614     2.0583     7.4034     10.7165    9.4647     6.1496     7.8802     11.4745    0.175     
2688.4     6.2368     2.0564     7.3578     10.6285    9.3198     6.0841     7.5494     11.5058    0.175     
2688.5     6.2215     2.0443     7.2761     10.5564    9.1822     6.0118     7.5123     11.5852    0.175     
2688.6     6.2189     2.0368     7.1983     10.4617    9.0554     5.9603     8.029      11.6808    0.175     
2688.7     6.2155     2.02       7.1325     10.394     8.9665     5.9187     8.2504     11.8045    0.175     
2688.8     6.1991     2.0027     7.0902     10.3262    8.8588     5.8803     8.0194     11.9585    0.175     
2688.9     6.19       1.996      7.0452     10.26      8.7663     5.8568     7.8639     12.0925    0.178     
2689       6.1803     1.9744     7.0121     10.207     8.6861     5.8449     7.8397     12.2409    0.18      
2689.1     6.1767     1.9556     6.9476     10.1891    8.6439     5.848      7.6431     12.4359    0.18      
2689.2     6.1734     1.9465     6.8961     10.1996    8.6285     5.8637     7.5589     12.6835    0.18      
2689.3     6.1711     1.9746     6.946      10.1794    8.619      5.8888     7.4923     12.8629    0.184     
2689.4     6.1881     1.9861     6.9372     10.1611    8.6436     5.9205     7.5657     13.0128    0.186     
2689.5     6.2046     1.9744     6.8961     10.1611    8.6929     5.9606     7.6094     13.1591    0.186     
2689.6     6.2193     1.9744     6.8899     10.1357    8.7148     6.0225     7.6923     13.2709    0.186     
2689.7     6.223      1.9648     6.8735     10.0995    8.7484     6.1084     7.7278     13.3781    0.184     
2689.8     6.2392     1.9479     6.8345     10.0488    8.7817     6.2189     7.7294     13.5199    0.184     
2689.9     6.2557     1.9446     6.828      10.0157    8.8444     6.367      7.8029     13.7225    0.182     
2690       6.2738     1.9221     6.7815     10.0105    8.9259     6.5556     7.8341     13.9531    0.181     
2690.1     6.3027     1.9046     6.7477     10.0375    9.0514     6.7459     8.0409     14.2275    0.184     
2690.2     6.3277     1.9046     6.7674     10.1503    9.2416     6.9306     8.1295     14.5358    0.186     
2690.3     6.3732     1.9046     6.8252     10.3166    9.5175     7.1145     8.0719     14.8542    0.183     
2690.4     6.4081     1.9509     7.0123     10.5021    9.8085     7.2828     7.8945     15.106     0.181     
2690.5     6.4529     2.0152     7.2519     10.6628    10.0705    7.452      7.8291     15.2216    0.18      
2690.6     6.5014     2.0421     7.3283     10.8152    10.3047    7.6223     7.8043     15.2983    0.177     
2690.7     6.5447     2.0081     7.2213     10.8497    10.4182    7.7866     7.7937     15.3375    0.175     
2690.8     6.5659     2.0024     7.2034     10.7803    10.4386    7.9349     7.822      15.3536    0.173     
2690.9     6.6067     1.9856     7.1184     10.7175    10.4759    8.0616     8.2592     15.3354    0.17      
2691       6.6747     1.9553     7.0354     10.7319    10.5758    8.1816     8.4414     15.3846    0.17      
2691.1     6.7508     1.9818     7.0974     10.7222    10.6592    8.3004     8.9749     15.4095    0.173     
2691.2     6.841      2.0087     7.1962     10.7381    10.7947    8.4291     9.2035     15.4095    0.175     
2691.3     6.9631     2.004      7.2476     10.8747    11.0001    8.557      9.2753     15.4142    0.175     
2691.4     7.0801     1.9903     7.2089     11.0959    11.2284    8.6748     9.0348     15.2351    0.178     
2691.5     7.1769     2.0888     7.607      11.3515    11.4699    8.7858     8.9185     14.9176    0.181     
2691.6     7.2721     2.2606     8.1997     11.6791    11.7933    8.8807     8.9856     14.6019    0.185     
2691.7     7.3824     2.3547     8.508      12.1165    12.0718    8.9459     9.0144     14.2867    0.19      
2691.8     7.4836     2.4124     8.7076     12.4155    12.1395    8.9996     9.3641     13.8737    0.189     
2691.9     7.5433     2.4917     8.9233     12.557     12.1066    9.0513     10.2392    13.5728    0.187     
2692       7.5916     2.4924     8.9314     12.6397    12.0637    9.0701     10.5499    13.3656    0.186     
2692.1     7.6202     2.4372     8.86       12.7031    11.9763    9.0486     12.6593    13.2062    0.186     
2692.2     7.6356     2.4391     8.9553     12.7374    11.8869    8.9805     13.5634    13.0936    0.184     
2692.3     7.6343     2.4386     9.0686     12.8002    11.8305    8.8734     16.8646    12.9951    0.181     
2692.4     7.6181     2.4357     9.1526     12.9374    11.7988    8.7425     14.9386    12.9536    0.18      
2692.5     7.5671     2.4496     9.2446     13.0458    11.6967    8.6083     13.5068    12.9102    0.18      
2692.6     7.5108     2.4461     9.3154     13.0739    11.507     8.4888     11.5567    12.8296    0.18      
2692.7     7.4374     2.3981     9.1285     13.0589    11.2819    8.3683     10.7209    12.7835    0.177     
2692.8     7.3682     2.2856     8.7314     12.9863    11.0331    8.2317     10.11      12.8195    0.177     
2692.9     7.2782     2.2154     8.5033     12.8816    10.8058    8.1026     9.8323     12.8518    0.177     
2693       7.2128     2.1841     8.3743     12.8002    10.6564    7.9823     9.8255     12.8897    0.179     
2693.1     7.163      2.1893     8.3534     12.8251    10.5862    7.8601     9.8618     12.9634    0.18      
2693.2     7.1179     2.1981     8.3432     12.874     10.5509    7.765      9.8774     13.0649    0.18      
2693.3     7.0956     2.1776     8.2586     12.9954    10.5734    7.7116     9.4271     13.1521    0.18      
2693.4     7.067      2.1454     8.1458     13.0771    10.5602    7.6752     8.4574     13.2087    0.18      
2693.5     7.0416     2.1985     8.2482     13.1338    10.5464    7.6447     8.1245     13.3084    0.181     
2693.6     7.01       2.2034     8.1828     13.2117    10.5707    7.6177     8.1104     13.4199    0.184     
2693.7     6.9919     2.1645     8.0616     13.2955    10.6101    7.5906     8.1043     13.5132    0.186     
2693.8     6.9887     2.182      8.1078     13.3194    10.5868    7.5707     8.4659     13.6083    0.186     
2693.9     6.9764     2.1861     8.0487     13.3029    10.6025    7.5427     8.7378     13.7322    0.188     
2694       6.9756     2.1713     8.0041     13.2782    10.6347    7.4979     8.7879     13.8111    0.191     
2694.1     6.9685     2.1841     8.0431     13.2139    10.6533    7.4525     9.1216     13.8662    0.188     
2694.2     6.9746     2.1909     8.0459     13.1485    10.6833    7.416      9.2647     13.9101    0.186     
2694.3     6.9768     2.2069     8.0781     13.0707    10.7112    7.376      9.147      13.9738    0.186     
2694.4     6.9816     2.212      8.0856     12.9804    10.7424    7.3289     9.0966     14.0159    0.186     
2694.5     6.9913     2.1981     8.0585     12.9211    10.8074    7.2813     9.1393     14.0873    0.186     
2694.6     6.9998     2.2006     8.0734     12.8613    10.8849    7.2333     9.1577     14.1287    0.186     
2694.7     7.0059     2.2176     8.1387     12.8058    10.9714    7.1788     9.343      14.1605    0.186     
2694.8     7.0202     2.2433     8.2312     12.7615    11.1102    7.1008     9.5765     14.1922    0.186     
2694.9     7.0325     2.254      8.2419     12.7666    11.2361    7.0088     9.6425     14.2249    0.183     
2695       7.0317     2.244      8.2669     12.7522    11.3133    6.9133     9.4694     14.181     0.181     
2695.1     7.0233     2.2902     8.4347     12.6641    11.3044    6.817      9.3951     14.1698    0.18      
