~Version
 VERS              .         2.0                           : CWLS LOG ASCII STANDARD - VERSION 2.0
 WRAP              .         NO                            : ONE LINE PER DEPTH STEP
 DLM               .         SPACE                         : DELIMITING CHARACTER(SPACE TAB OR COMMA)
~Well Information
#_______________________________________________________________________________
#
#PARAMETER_NAME    .UNIT     VALUE                         : DESCRIPTION
#_______________________________________________________________________________
STRT               .m        2637.28                       : First reference value
STOP               .m        2825.08                       : Last reference value
STEP               .m        0.1                           : Step increment
NULL               .         -9999                         : Missing value
COMP               .                                       : Company
WELL               .         407                           : Well name
FLD                .                                       : Field
LOC                .                                       : Location
CNTY               .                                       : County
STAT               .                                       : State
CTRY               .                                       : Country
SRVC               .                                       : Service Company
DATE               .                                       : Date
API                .                                       : API number
EREF               .m        140.4                         : 
Pad                .         4                             : 
X                  .m        222100                        : 
Y                  .m        250025                        : 
group              .         Pad4                          : 
Интер-р            .         Зайцев                        : 
Куст               .         4                             : 
Статус             .         Не проверено                  : 
Тип                .         Эксплуатация                  : 
~Parameter Information Block
#_______________________________________________________________________________
#
#PARAMETER_NAME    .UNIT     VALUE                         : DESCRIPTION
#_______________________________________________________________________________
SET                .         LAS3                          : 
REAL_CREATION_DATE .         Ср апр 11 2012-13_17_16       : 
TLFamily_DEPTH     .         Measured Depth                : 
TLFamily_GR        .         Gamma Ray                     : 
TLFamily_TNPH      .         Neutron Porosity              : 
group              .         INI                           : 
~Curve Information
#_______________________________________________________________________________
#
#LOGNAME           .UNIT     LOG_ID                        : DESCRIPTION
#_______________________________________________________________________________
DEPTH              .m                                      : Measured Depth 
GR                 .gAPI                                   :  
TNPH               .v/v                                    : Neutron Porosity 
~Ascii
# ...
2758.78    60.67001   0.192     
2758.88    58.34      0.198     
2758.98    56.87      0.202     
2759.08    56.43      0.208     
2759.18    54.37      0.211     
2759.28    55.6       0.215     
2759.38    56.01      0.217     
2759.48    58.85      0.215     
2759.58    59.06      0.213     
2759.68    61         0.214     
2759.78    62.01      0.213     
2759.88    63.58      0.215     
2759.98    65.52      0.216     
2760.08    65.03999   0.215     
2760.18    64.2       0.212     
2760.28    63.57      0.209     
2760.38    62.58      0.207     
2760.48    61.33      0.204     
2760.58    61.06      0.201     
2760.68    59.35      0.2       
2760.78    59.2       0.2       
2760.88    58.87      0.203     
2760.98    57.88      0.207     
2761.08    57.9       0.21      
2761.18    56.02      0.212     
2761.28    54.63      0.213     
2761.38    53.77      0.212     
2761.48    52.12      0.21      
2761.58    53.15      0.209     
2761.68    53.8       0.209     
2761.78    54.08      0.215     
2761.88    52.91      0.218     
2761.98    51.03      0.218     
2762.08    49.96      0.218     
2762.18    49.68      0.216     
2762.28    48.07      0.216     
2762.38    49.1       0.216     
2762.48    48         0.218     
2762.58    46.68      0.216     
2762.68    46.5       0.218     
2762.78    47.02      0.212     
2762.88    47.96      0.209     
2762.98    48.65      0.209     
2763.08    48.87      0.197     
2763.18    48.12      0.19      
2763.28    47.31      0.18      
2763.38    45.75      0.175     
2763.48    45.63      0.176     
2763.58    46.57      0.173     
2763.68    45.61      0.172     
2763.78    45.47      0.176     
2763.88    47.93      0.18      
2763.98    51.88      0.181     
2764.08    51.12      0.192     
2764.18    51.12      0.195     
2764.28    50.39      0.199     
2764.38    48.79      0.199     
2764.48    49.76      0.201     
2764.58    54.11      0.2       
2764.68    53.6       0.198     
2764.78    55.78      0.197     
2764.88    56.91      0.197     
2764.98    58.4       0.197     
2765.08    58         0.198     
2765.18    58.23      0.2       
2765.28    59.47      0.204     
2765.38    62.75      0.21      
2765.48    67.12      0.217     
2765.58    73.76      0.224     
2765.68    77.05      0.233     
2765.78    82.72      0.234     
2765.88    87.24      0.243     
2765.98    90.24001   0.241     
2766.08    97.60001   0.23      
2766.18    99.84      0.23      
2766.28    102.71     0.223     
2766.38    102.77     0.221     
2766.48    102.77     0.219     
2766.58    101.56     0.22      
2766.68    97.33      0.22      
2766.78    96.02      0.218     
2766.88    94.11      0.221     
2766.98    94.18999   0.219     
2767.08    93.86      0.216     
2767.18    92.39999   0.212     
2767.28    92.51      0.207     
2767.38    90.91      0.211     
2767.48    90.3       0.211     
2767.58    92.39      0.214     
2767.68    97.5       0.214     
2767.78    99.02      0.214     
2767.88    100.95     0.211     
2767.98    102.29     0.214     
2768.08    104.05     0.215     
2768.18    104.08     0.22      
2768.28    102.97     0.227     
2768.38    101.85     0.227     
2768.48    98.00999   0.225     
2768.58    97.36      0.22      
2768.68    98.00999   0.208     
2768.78    98.18      0.203     
2768.88    98.18      0.184     
2768.98    95.85      0.17      
2769.08    92.05      0.17      
2769.18    79.5       0.168     
2769.28    71.95      0.149     
2769.38    63.38      0.149     
2769.48    57.31      0.135     
2769.58    53.36      0.132     
2769.68    52.88      0.132     
2769.78    55.01      0.142     
2769.88    59.82      0.139     
2769.98    66.18      0.164     
2770.08    73.81      0.181     
2770.18    89.22      0.183     
2770.28    94.06      0.21      
2770.38    103.84     0.213     
2770.48    105.25     0.222     
2770.58    103.16     0.222     
2770.68    99.14      0.229     
2770.78    95.47      0.226     
2770.88    90.36      0.232     
2770.98    87.06001   0.23      
2771.08    85.71999   0.232     
2771.18    85.71999   0.23      
2771.28    86.22      0.237     
2771.38    86.19      0.237     
2771.48    87.53999   0.239     
2771.58    88.24001   0.243     
2771.68    81.58      0.242     
2771.78    76.35001   0.243     
2771.88    76.68      0.24      
2771.98    78.94      0.241     
2772.08    83.14999   0.247     
2772.18    87.65      0.254     
2772.28    94.91      0.254     
2772.38    98.56      0.295     
2772.48    109.31     0.299     
2772.58    121.63     0.35      
2772.68    131.59     0.367     
2772.78    135.72     0.353     
2772.88    133.52     0.376     
2772.98    130.5      0.362     
2773.08    125.41     0.351     
2773.18    121.62     0.337     
2773.28    122.25     0.348     
2773.38    122.19     0.326     
2773.48    122.41     0.34      
2773.58    122.69     0.315     
2773.68    123.91     0.313     
2773.78    125.69     0.31      
2773.88    125.59     0.314     
2773.98    127.87     0.31      
2774.08    130.52     0.319     
2774.18    133.87     0.324     
2774.28    138.6      0.338     
2774.38    138.03     0.325     
2774.48    135.36     0.317     
2774.58    132.84     0.294     
2774.68    128.36     0.271     
2774.78    119.91     0.262     
2774.88    118.7      0.235     
2774.98    115.82     0.239     
2775.08    110.38     0.224     
2775.18    106.6      0.222     
2775.28    107.44     0.219     
2775.38    106.7      0.216     
2775.48    105.03     0.215     
2775.58    105.39     0.216     
2775.68    102.39     0.216     
2775.78    97.93999   0.219     
2775.88    95.14      0.215     
2775.98    89.64      0.22      
2776.08    85.42      0.222     
2776.18    75.9       0.229     
2776.28    74.18999   0.223     
2776.38    71.70999   0.223     
2776.48    68.62      0.223     
2776.58    66.73      0.225     
2776.68    70.26      0.219     
2776.78    73.26      0.23      
2776.88    79.69      0.227     
2776.98    84.7       0.235     
2777.08    91.75999   0.238     
2777.18    97.87      0.242     
2777.28    100.6      0.249     
2777.38    99.32999   0.254     
2777.48    95.56      0.254     
2777.58    94.81      0.251     
2777.68    101.58     0.248     
2777.78    107.06     0.252     
2777.88    111        0.254     
2777.98    112.48     0.265     
2778.08    112.23     0.273     
2778.18    112.23     0.279     
2778.28    110.39     0.282     
2778.38    110.05     0.281     
2778.48    111.47     0.272     
2778.58    111.58     0.263     
2778.68    112.49     0.256     
2778.78    112.44     0.262     
2778.88    111.59     0.267     
2778.98    109.92     0.269     
2779.08    110.36     0.266     
2779.18    108.39     0.256     
2779.28    109.39     0.25      
2779.38    111.44     0.246     
2779.48    114.99     0.248     
2779.58    114.5      0.256     
2779.68    117.75     0.266     
2779.78    115.58     0.276     
2779.88    112.79     0.287     
2779.98    107.64     0.298     
2780.08    105.32     0.315     
2780.18    104.33     0.347     
2780.28    102.15     0.371     
2780.38    90.07      0.38      
2780.48    83.25      0.439     
2780.58    75.9       0.43      
2780.68    67.1       0.508     
2780.78    57.33      0.532     
2780.88    38.41      0.516     
2780.98    33.12      0.556     
2781.08    27.84      0.558     
2781.18    24.22      0.542     
2781.28    22.17      0.527     
2781.38    20.37      0.532     
2781.48    20.48      0.508     
2781.58    22.71      0.493     
2781.68    26.55      0.455     
2781.78    31.49      0.427     
2781.88    41.93      0.414     
2781.98    47.21      0.387     
2782.08    67.44      0.391     
2782.18    80.45999   0.355     
2782.28    96.18      0.341     
2782.38    99.89      0.3       
2782.48    105.63     0.304     
2782.58    108.87     0.287     
2782.68    108.42     0.282     
2782.78    106.98     0.273     
2782.88    105.04     0.278     
2782.98    103.93     0.278     
