~Version
 VERS              .         2.0                           : CWLS LOG ASCII STANDARD - VERSION 2.0
 WRAP              .         NO                            : ONE LINE PER DEPTH STEP
 DLM               .         SPACE                         : DELIMITING CHARACTER(SPACE TAB OR COMMA)
~Well Information
#_______________________________________________________________________________
#
#PARAMETER_NAME    .UNIT     VALUE                         : DESCRIPTION
#_______________________________________________________________________________
STRT               .m        2637.28                       : First reference value
STOP               .m        2825.08                       : Last reference value
STEP               .m        0.1                           : Step increment
NULL               .         -9999                         : Missing value
COMP               .                                       : Company
WELL               .         407                           : Well name
FLD                .                                       : Field
LOC                .                                       : Location
CNTY               .                                       : County
STAT               .                                       : State
CTRY               .                                       : Country
SRVC               .                                       : Service Company
DATE               .                                       : Date
API                .                                       : API number
EREF               .m        140.4                         : 
Pad                .         4                             : 
X                  .m        222100                        : 
Y                  .m        250025                        : 
group              .         Pad4                          : 
Интер-р            .         Зайцев                        : 
Куст               .         4                             : 
Статус             .         Не проверено                  : 
Тип                .         Эксплуатация                  : 
~Parameter Information Block
#_______________________________________________________________________________
#
#PARAMETER_NAME    .UNIT     VALUE                         : DESCRIPTION
#_______________________________________________________________________________
SET                .         LAS3                          : 
REAL_CREATION_DATE .         Ср апр 11 2012-13_17_16       : 
TLFamily_DEPTH     .         Measured Depth                : 
TLFamily_GR        .         Gamma Ray                     : 
TLFamily_TNPH      .         Neutron Porosity              : 
group              .         INI                           : 
~Curve Information
#_______________________________________________________________________________
#
#LOGNAME           .UNIT     LOG_ID                        : DESCRIPTION
#_______________________________________________________________________________
DEPTH              .m                                      : Measured Depth 
GR                 .gAPI                                   :  
TNPH               .v/v                                    : Neutron Porosity 
~Ascii
# ...
2661.58    90.68      0.189     
2661.68    86.23      0.179     
2661.78    81.31      0.176     
2661.88    78.56      0.176     
2661.98    76.8       0.181     
2662.08    74.17      0.188     
2662.18    75.75      0.197     
2662.28    76.21001   0.202     
2662.38    80.24001   0.211     
2662.48    84.58      0.215     
2662.58    86.3       0.215     
2662.68    83.77      0.223     
2662.78    81.21001   0.231     
2662.88    79.32999   0.237     
2662.98    76.88      0.244     
2663.08    73.91      0.251     
2663.18    73.21999   0.255     
2663.28    75.09      0.257     
2663.38    76.58      0.261     
2663.48    75.82      0.262     
2663.58    77.67      0.257     
2663.68    78.32      0.259     
2663.78    80.39      0.251     
2663.88    80.27      0.244     
2663.98    77.62      0.234     
2664.08    74.67      0.229     
2664.18    72.66      0.222     
2664.28    69.88      0.226     
2664.38    66.56      0.221     
2664.48    64.77      0.216     
2664.58    63.74      0.212     
2664.68    63.04      0.199     
2664.78    60.96      0.2       
2664.88    59.82      0.19      
2664.98    55.36      0.189     
2665.08    48.7       0.189     
2665.18    50.2       0.184     
2665.28    51.13      0.183     
2665.38    53.11      0.182     
2665.48    53.9       0.182     
2665.58    56.67      0.185     
2665.68    57.84      0.185     
2665.78    60.07      0.188     
2665.88    63.18      0.19      
2665.98    68.82      0.191     
2666.08    76.46      0.187     
2666.18    79.36      0.19      
2666.28    83.21999   0.186     
2666.38    87.04001   0.191     
2666.48    87.08      0.192     
2666.58    88.63      0.19      
2666.68    88.31001   0.202     
2666.78    86.88      0.208     
2666.88    85.60001   0.223     
2666.98    85.2       0.231     
2667.08    83.89      0.229     
2667.18    83.98      0.23      
2667.28    80.74001   0.224     
2667.38    78.07      0.222     
2667.48    77.03      0.219     
2667.58    76.64      0.217     
2667.68    78.04      0.214     
2667.78    76.51      0.212     
2667.88    74.8       0.211     
2667.98    74.95      0.213     
2668.08    77.51      0.214     
2668.18    79.62      0.219     
2668.28    83         0.216     
2668.38    87.11      0.22      
2668.48    86.95      0.22      
2668.58    84.78      0.219     
2668.68    85.94      0.228     
2668.78    87.91      0.228     
2668.88    93.89      0.228     
2668.98    98.25      0.221     
2669.08    102.79     0.217     
2669.18    101.96     0.21      
2669.28    103.13     0.216     
2669.38    104.55     0.214     
2669.48    107.66     0.219     
2669.58    110.88     0.227     
2669.68    112.78     0.226     
2669.78    110.03     0.227     
2669.88    107.1      0.221     
2669.98    103.66     0.215     
2670.08    97.98      0.213     
2670.18    96.37      0.206     
2670.28    90.39      0.208     
2670.38    85.78      0.206     
2670.48    82.59      0.205     
2670.58    79.98      0.2       
2670.68    80.57999   0.194     
2670.78    80         0.185     
2670.88    79.11      0.181     
2670.98    79.82001   0.178     
2671.08    80.81001   0.18      
2671.18    80.10001   0.18      
2671.28    77         0.181     
2671.38    74.53      0.176     
2671.48    73.4       0.173     
2671.58    73.19      0.175     
2671.68    73.55      0.171     
2671.78    72.25999   0.177     
2671.88    70.55      0.174     
2671.98    74.29      0.173     
2672.08    76.37      0.172     
2672.18    76.78001   0.173     
2672.28    76.51      0.174     
2672.38    76.36      0.176     
2672.48    74.44      0.175     
2672.58    67.32001   0.175     
2672.68    62.99      0.173     
2672.78    59.01      0.177     
2672.88    56.94      0.177     
2672.98    57.12      0.18      
2673.08    60.03      0.179     
2673.18    62.59      0.186     
2673.28    68.34      0.185     
2673.38    73.11      0.191     
2673.48    76.61      0.192     
2673.58    79.96001   0.19      
2673.68    81.2       0.189     
2673.78    84.24      0.184     
2673.88    88.78      0.19      
2673.98    90.78      0.194     
2674.08    90.95      0.193     
2674.18    90.01      0.199     
2674.28    89.77      0.197     
2674.38    93.19      0.198     
2674.48    95.45      0.197     
2674.58    99.08      0.199     
2674.68    101.02     0.199     
2674.78    105.04     0.203     
2674.88    106.36     0.203     
2674.98    108.35     0.208     
2675.08    112.9      0.214     
2675.18    113.59     0.225     
2675.28    115.07     0.231     
2675.38    115.72     0.239     
2675.48    111.43     0.24      
2675.58    103.22     0.242     
2675.68    98.88      0.236     
2675.78    95.31999   0.235     
2675.88    92.08      0.224     
2675.98    89.65      0.223     
2676.08    91.54      0.227     
2676.18    94.46      0.234     
2676.28    99.83      0.237     
2676.38    106.02     0.249     
2676.48    112.16     0.254     
2676.58    119.61     0.254     
2676.68    122.09     0.262     
2676.78    126.35     0.265     
2676.88    130.81     0.268     
2676.98    134.15     0.268     
2677.08    134.1      0.269     
2677.18    131.9      0.266     
2677.28    128.54     0.269     
2677.38    124.12     0.265     
2677.48    123.26     0.263     
2677.58    121.4      0.259     
2677.68    121.36     0.259     
2677.78    121.57     0.259     
2677.88    122.47     0.265     
2677.98    124.74     0.268     
2678.08    125.54     0.263     
2678.18    126.86     0.26      
2678.28    125.99     0.255     
2678.38    127.07     0.253     
2678.48    127.12     0.253     
2678.58    132.38     0.256     
2678.68    132.04     0.258     
2678.78    132.62     0.262     
2678.88    132.64     0.267     
2678.98    134.55     0.27      
2679.08    135.45     0.269     
2679.18    137.48     0.277     
2679.28    138.04     0.278     
2679.38    138.87     0.286     
2679.48    137.75     0.285     
2679.58    141.44     0.281     
2679.68    142.53     0.285     
2679.78    145.33     0.287     
2679.88    145.78     0.294     
2679.98    144.97     0.294     
2680.08    140.09     0.284     
2680.18    139.43     0.277     
2680.28    139.31     0.267     
2680.38    136.36     0.263     
2680.48    135.89     0.26      
2680.58    137.83     0.256     
2680.68    137.2      0.254     
2680.78    135.45     0.25      
2680.88    136.52     0.251     
2680.98    138.94     0.255     
2681.08    142.94     0.263     
2681.18    141.78     0.269     
2681.28    140.54     0.27      
2681.38    135.36     0.264     
2681.48    134.21     0.254     
2681.58    132.87     0.244     
2681.68    133.78     0.238     
2681.78    131.83     0.233     
2681.88    128.54     0.233     
2681.98    127        0.236     
2682.08    125.93     0.242     
2682.18    127.05     0.246     
2682.28    130.08     0.25      
2682.38    132.71     0.254     
2682.48    134.06     0.258     
2682.58    134.93     0.259     
2682.68    134.89     0.262     
2682.78    133.72     0.265     
2682.88    133.03     0.267     
2682.98    131.17     0.27      
2683.08    128.14     0.275     
2683.18    127.47     0.271     
2683.28    126.66     0.272     
2683.38    125.32     0.267     
2683.48    124.06     0.262     
2683.58    120.42     0.255     
2683.68    118.95     0.247     
2683.78    117.1      0.241     
2683.88    114.77     0.233     
2683.98    112.07     0.228     
2684.08    106.22     0.232     
2684.18    105.19     0.224     
2684.28    102.13     0.226     
2684.38    100.09     0.22      
2684.48    98.99001   0.218     
2684.58    100.03     0.217     
2684.68    101.76     0.22      
2684.78    107.34     0.215     
2684.88    113.19     0.223     
2684.98    119.81     0.225     
2685.08    123.26     0.225     
2685.18    122.74     0.235     
2685.28    124.09     0.241     
2685.38    126.19     0.247     
2685.48    129.53     0.249     
2685.58    132.78     0.247     
2685.68    133.48     0.247     
2685.78    132.84     0.248     
