~Version
 VERS              .         2.0                           : CWLS LOG ASCII STANDARD - VERSION 2.0
 WRAP              .         NO                            : ONE LINE PER DEPTH STEP
 DLM               .         SPACE                         : DELIMITING CHARACTER(SPACE TAB OR COMMA)
~Well Information
#_______________________________________________________________________________
#
#PARAMETER_NAME    .UNIT     VALUE                         : DESCRIPTION
#_______________________________________________________________________________
STRT               .m        2636.8                        : First reference value
STOP               .m        2825.1                        : Last reference value
STEP               .m        0.1                           : Step increment
NULL               .         -9999                         : Missing value
COMP               .                                       : Company
WELL               .         407                           : Well name
FLD                .                                       : Field
LOC                .                                       : Location
CNTY               .                                       : County
STAT               .                                       : State
CTRY               .                                       : Country
SRVC               .                                       : Service Company
DATE               .                                       : Date
API                .                                       : API number
EREF               .m        140.4                         : 
Pad                .         4                             : 
X                  .m        222100                        : 
Y                  .m        250025                        : 
group              .         Pad4                          : 
Интер-р            .         Зайцев                        : 
Куст               .         4                             : 
Статус             .         Не проверено                  : 
Тип                .         Эксплуатация                  : 
~Parameter Information Block
#_______________________________________________________________________________
#
#PARAMETER_NAME    .UNIT     VALUE                         : DESCRIPTION
#_______________________________________________________________________________
SET                .         LAS1                          : 
REAL_CREATION_DATE .         Ср апр 11 2012-13_17_16       : 
TLFamily_DEPTH     .         Measured Depth                : 
TLFamily_KS        .         Potential Resistivity         : 
TLFamily_KS1       .         Extra Shallow Resistivity     : 
TLFamily_KS2       .         Shallow Resistivity           : 
TLFamily_KS3       .         Medium Resistivity            : 
TLFamily_KS4       .         Deep Resistivity              : 
TLFamily_KS5       .         Extra Deep Resistivity        : 
TLFamily_LLD       .         Lateral Log Resistivity       : 
TLFamily_OKS3      .         Medium Resistivity Inverted   : 
TLFamily_RM        .         Mud Resistivity               : 
group              .         INI                           : 
~Curve Information
#_______________________________________________________________________________
#
#LOGNAME           .UNIT     LOG_ID                        : DESCRIPTION
#_______________________________________________________________________________
DEPTH              .m                                      : Measured Depth 
KS                 .ohm.m                                  : Potential Resistivity 
KS1                .ohm.m                                  : Extra Shallow Resistivity 
KS2                .ohm.m                                  : Shallow Resistivity 
KS3                .ohm.m                                  : Medium Resistivity 
KS4                .ohm.m                                  : Deep Resistivity 
KS5                .ohm.m                                  : Extra Deep Resistivity 
LLD                .ohm.m                                  : Lateral Log Resistivity 
OKS3               .ohm.m                                  : Medium Resistivity Inverted 
RM                 .ohm.m                                  : Mud Resistivity 
~Ascii
# ...
2731.7     5.8538     2.0011     6.7823     9.606      12.0582    11.0144    6.487      12.2902    0.192     
2731.8     5.8852     1.9673     6.5791     9.651      11.8167    10.8848    6.6855     12.5424    0.191     
2731.9     5.9054     1.9289     6.4951     9.656      11.5561    10.7673    6.7706     12.7202    0.191     
2732       5.8993     2.0059     6.7054     9.5814     11.2568    10.6539    7.6313     12.8699    0.188     
2732.1     5.9146     2.0443     6.8345     9.5315     11.0361    10.5427    7.2729     13.0146    0.186     
2732.2     5.9376     1.9448     6.6149     9.5315     10.8432    10.4391    6.9613     13.0662    0.186     
2732.3     5.9617     1.8955     6.422      9.4615     10.5572    10.3576    7.4669     13.0343    0.186     
2732.4     5.9681     1.9323     6.478      9.3259     10.2008    10.3003    7.6836     12.999     0.189     
2732.5     5.9832     1.9869     6.6122     9.2074     9.8512     10.2299    7.8248     12.9774    0.191     
2732.6     6.0065     2.0076     6.6802     9.0944     9.5164     10.1582    7.3282     12.9444    0.193     
2732.7     6.0492     1.9334     6.4676     8.9049     9.1777     10.1051    7.0894     12.9527    0.198     
2732.8     6.0804     1.8902     6.3139     8.677      8.8616     10.0689    8.0623     13.05      0.201     
2732.9     6.1045     1.8766     6.2556     8.4931     8.6217     10.0751    8.4792     13.263     0.202     
2733       6.1362     1.8909     6.3199     8.4214     8.4838     10.1626    8.2999     13.5585    0.201     
2733.1     6.1975     1.9245     6.4535     8.3899     8.3965     10.3423    7.5017     13.9364    0.198     
2733.2     6.2492     1.8821     6.43       8.3632     8.3588     10.6125    7.1925     14.4769    0.198     
2733.3     6.2919     1.7895     6.1813     8.3615     8.3749     10.9795    7.209      15.1651    0.201     
2733.4     6.3149     1.7148     5.9786     8.3682     8.4654     11.4204    7.2161     15.9293    0.198     
2733.5     6.3359     1.6809     6.012      8.3929     8.6482     11.902     7.3188     16.6629    0.193     
2733.6     6.3967     1.703      6.1692     8.5378     8.9396     12.4034    6.8645     17.3751    0.191     
2733.7     6.4661     1.7432     6.3118     8.7502     9.3057     12.9563    6.651      17.9462    0.191     
2733.8     6.5589     1.7642     6.282      9.071      9.8032     13.6118    6.7496     18.4293    0.191     
2733.9     6.6673     1.6809     6.1075     9.4844     10.3542    14.3369    6.7919     18.7206    0.191     
2734       6.7793     1.7312     6.3428     9.9697     10.9475    15.003     7.6028     18.6528    0.191     
2734.1     6.9078     1.9133     6.846      10.5487    11.6461    15.5344    8.837      18.2185    0.191     
2734.2     7.111      2.1161     7.3944     11.3798    12.4028    15.9184    9.2169     17.4798    0.193     
2734.3     7.3603     2.3683     8.013      12.1103    12.9349    16.1663    10.8692    16.3861    0.196     
2734.4     7.5836     2.6201     8.7968     12.6071    13.1818    16.315     11.5773    15.1681    0.197     
2734.5     7.7655     2.7069     9.0983     12.8804    13.1507    16.3386    16.2178    14.1329    0.197     
2734.6     7.8968     2.6479     8.8918     12.9336    12.8536    16.1992    43.4933    13.2855    0.197     
2734.7     7.9767     2.5478     8.6866     12.6951    12.3598    15.9101    54.3304    12.6332    0.195     
2734.8     8.0566     2.5071     8.7642     12.479     11.9323    15.4862    29.6077    12.2396    0.192     
2734.9     8.1305     2.469      8.8829     12.3277    11.6355    14.9855    19.0123    11.909     0.191     
2735       8.1826     2.4905     9.188      12.2962    11.4697    14.5602    13.5298    11.6071    0.188     
2735.1     8.1786     2.4392     9.1965     12.2414    11.3356    14.2507    10.839     11.3991    0.186     
2735.2     8.1198     2.3777     9.2187     12.2308    11.2266    14.053     10.6927    11.3097    0.186     
2735.3     8.0233     2.3107     9.1274     12.1771    11.1318    13.9753    10.0481    11.2394    0.186     
2735.4     7.9467     2.2702     9.0354     12.1737    11.0803    13.969     9.7719     11.1526    0.186     
2735.5     7.8793     2.2819     8.9772     12.2165    11.072     14.0152    9.4878     11.0772    0.189     
2735.6     7.8126     2.2743     8.8872     12.3324    11.1296    14.1278    9.1169     11.0346    0.191     
2735.7     7.7541     2.2559     8.7897     12.5672    11.312     14.3293    9.0101     11.043     0.193     
2735.8     7.7202     2.2241     8.6599     12.9415    11.5779    14.6287    9.2082     11.0569    0.196     
2735.9     7.6797     2.2297     8.6767     13.408     11.9244    15.0421    9.2931     11.052     0.199     
2736       7.65       2.2924     8.845      13.8999    12.3086    15.5512    9.3463     11.0514    0.201     
2736.1     7.635      2.3364     8.9562     14.4508    12.7208    16.0711    9.3389     11.1038    0.198     
2736.2     7.6279     2.3497     9.0108     15.1122    13.3107    16.5264    9.3259     11.2       0.197     
2736.3     7.6102     2.3426     9.0416     15.9525    13.9804    16.8702    10.1866    11.2142    0.197     
2736.4     7.5912     2.4463     9.3615     16.852     14.6069    17.0629    10.5555    11.0767    0.193     
2736.5     7.5612     2.6775     10.1909    17.6451    15.1577    17.079     10.8498    10.795     0.191     
2736.6     7.5385     2.8174     10.6777    18.4017    15.6297    16.9431    10.621     10.4722    0.191     
2736.7     7.5007     2.8334     10.7027    18.7403    15.6394    16.6778    10.4688    9.9631     0.189     
2736.8     7.4149     2.8776     10.8128    18.5       15.3063    16.2356    15.6717    9.4345     0.187     
2736.9     7.2836     2.7858     10.4586    18.0159    14.8314    15.5596    17.9015    8.9788     0.189     
2737       7.1377     2.6921     10.1049    17.4734    14.3219    14.6939    18.4167    8.592      0.191     
2737.1     6.9689     2.6371     9.9845     16.7941    13.7483    13.7764    12.9497    8.3089     0.191     
2737.2     6.8406     2.5744     9.8517     16.1363    13.2769    12.8998    10.512     8.1472     0.191     
2737.3     6.6879     2.5017     9.625      15.5887    12.84      12.0631    8.2668     8.0335     0.194     
2737.4     6.4966     2.4024     9.2367     15.0118    12.3961    11.2752    7.3046     7.9762     0.196     
2737.5     6.2947     2.3033     8.8992     14.4222    11.9437    10.5556    7.2041     7.944      0.193     
2737.6     6.1119     2.2353     8.6274     13.8188    11.4794    9.881      6.824      7.944      0.191     
2737.7     5.9484     2.188      8.3853     13.2574    11.0936    9.2469     6.6796     7.944      0.191     
2737.8     5.8104     2.1529     8.0669     12.7999    10.8193    8.6579     6.0754     7.9522     0.191     
2737.9     5.6914     2.0805     7.7351     12.3944    10.6009    8.1234     5.8164     7.9794     0.191     
2738       5.5742     2.0401     7.4967     11.9841    10.3757    7.6604     5.7988     8.0422     0.191     
2738.1     5.4615     2.0164     7.3264     11.6094    10.1682    7.2583     5.9109     8.0994     0.186     
2738.2     5.3645     1.9811     7.1236     11.3764    10.0841    6.8974     5.9621     8.1621     0.182     
2738.3     5.292      1.9378     6.8815     11.1979    10.0492    6.5681     5.8917     8.1782     0.18      
2738.4     5.2233     1.9879     6.9138     11.0011    9.9891     6.2704     5.8615     8.1506     0.18      
2738.5     5.1743     2.0141     6.9263     10.8328    9.8908     6.003      5.8134     8.1406     0.181     
2738.6     5.1412     2.0024     6.7612     10.6895    9.7509     5.7635     5.8914     8.1082     0.185     
2738.7     5.1051     1.994      6.6725     10.4681    9.4553     5.5374     5.9337     8.0955     0.19      
2738.8     5.0441     1.9409     6.4772     10.1813    9.0833     5.3188     6.5138     8.1091     0.191     
2738.9     5.0054     1.9289     6.3607     9.8412     8.7291     5.1055     6.7624     8.2288     0.191     
