~Version
 VERS              .         2.0                           : CWLS LOG ASCII STANDARD - VERSION 2.0
 WRAP              .         NO                            : ONE LINE PER DEPTH STEP
 DLM               .         SPACE                         : DELIMITING CHARACTER(SPACE TAB OR COMMA)
~Well Information
#_______________________________________________________________________________
#
#PARAMETER_NAME    .UNIT     VALUE                         : DESCRIPTION
#_______________________________________________________________________________
STRT               .m        2637.28                       : First reference value
STOP               .m        2825.08                       : Last reference value
STEP               .m        0.1                           : Step increment
NULL               .         -9999                         : Missing value
COMP               .                                       : Company
WELL               .         407                           : Well name
FLD                .                                       : Field
LOC                .                                       : Location
CNTY               .                                       : County
STAT               .                                       : State
CTRY               .                                       : Country
SRVC               .                                       : Service Company
DATE               .                                       : Date
API                .                                       : API number
EREF               .m        140.4                         : 
Pad                .         4                             : 
X                  .m        222100                        : 
Y                  .m        250025                        : 
group              .         Pad4                          : 
Интер-р            .         Зайцев                        : 
Куст               .         4                             : 
Статус             .         Не проверено                  : 
Тип                .         Эксплуатация                  : 
~Parameter Information Block
#_______________________________________________________________________________
#
#PARAMETER_NAME    .UNIT     VALUE                         : DESCRIPTION
#_______________________________________________________________________________
SET                .         LAS3                          : 
REAL_CREATION_DATE .         Ср апр 11 2012-13_17_16       : 
TLFamily_DEPTH     .         Measured Depth                : 
TLFamily_GR        .         Gamma Ray                     : 
TLFamily_TNPH      .         Neutron Porosity              : 
group              .         INI                           : 
~Curve Information
#_______________________________________________________________________________
#
#LOGNAME           .UNIT     LOG_ID                        : DESCRIPTION
#_______________________________________________________________________________
DEPTH              .m                                      : Measured Depth 
GR                 .gAPI                                   :  
TNPH               .v/v                                    : Neutron Porosity 
~Ascii
# ...
2783.08    104.9      0.279     
2783.18    102.38     0.269     
2783.28    99.95      0.273     
2783.38    98.63      0.245     
2783.48    97.86      0.257     
2783.58    98.37      0.236     
2783.68    98.48      0.232     
2783.78    97.75      0.228     
2783.88    94.86      0.225     
2783.98    93.67      0.224     
2784.08    94.97      0.233     
2784.18    98.66      0.241     
2784.28    103.32     0.245     
2784.38    104        0.259     
2784.48    104.37     0.263     
2784.58    104.14     0.265     
2784.68    102.91     0.262     
2784.78    100.7      0.258     
2784.88    98.16      0.251     
2784.98    96.85001   0.245     
2785.08    94.89999   0.243     
2785.18    93.41      0.243     
2785.28    92.45      0.246     
2785.38    90.77      0.244     
2785.48    89.06999   0.244     
2785.58    83.78999   0.245     
2785.68    82.49      0.252     
2785.78    80.85      0.255     
2785.88    72.3       0.281     
2785.98    73.44      0.279     
2786.08    77.83      0.311     
2786.18    85.2       0.313     
2786.28    92.72      0.303     
2786.38    98.2       0.289     
2786.48    98.59      0.292     
2786.58    99.5       0.26      
2786.68    107.45     0.25      
2786.78    113.18     0.256     
2786.88    120.34     0.234     
2786.98    116.11     0.232     
2787.08    114.02     0.22      
2787.18    111.51     0.217     
2787.28    110.48     0.219     
2787.38    109.15     0.226     
2787.48    108.55     0.232     
2787.58    108.92     0.233     
2787.68    106.81     0.232     
2787.78    105.61     0.226     
2787.88    101.5      0.221     
2787.98    97.16      0.201     
2788.08    91.6       0.185     
2788.18    83.72      0.178     
2788.28    81.5       0.159     
2788.38    76.75      0.157     
2788.48    73.02      0.15      
2788.58    72.74001   0.151     
2788.68    75.45999   0.151     
2788.78    76.61      0.159     
2788.88    80.59      0.16      
2788.98    87.04001   0.176     
2789.08    95.22      0.191     
2789.18    104.76     0.21      
2789.28    109.6      0.232     
2789.38    112.24     0.238     
2789.48    114.88     0.242     
2789.58    116.72     0.242     
2789.68    112.24     0.234     
2789.78    110.18     0.226     
2789.88    103.88     0.219     
2789.98    100.02     0.224     
2790.08    98.21999   0.225     
2790.18    98.99001   0.231     
2790.28    99.03      0.238     
2790.38    100.43     0.247     
2790.48    100.39     0.257     
2790.58    96.63      0.259     
2790.68    89.5       0.261     
2790.78    88.18      0.267     
2790.88    82.95999   0.274     
2790.98    77.63      0.289     
2791.08    73.14999   0.304     
2791.18    66.09      0.312     
2791.28    65.13      0.308     
2791.38    64.88      0.31      
2791.48    68.16      0.305     
2791.58    74.46999   0.295     
2791.68    86.28999   0.283     
2791.78    91.63      0.269     
2791.88    99.84      0.262     
2791.98    107.46     0.248     
2792.08    113.44     0.232     
2792.18    116.68     0.233     
2792.28    113.65     0.219     
2792.38    111.73     0.211     
2792.48    109.8      0.207     
2792.58    107.9      0.204     
2792.68    103.93     0.196     
2792.78    102.2      0.194     
2792.88    98.00999   0.189     
2792.98    90.35      0.184     
2793.08    85.01      0.186     
2793.18    87.39      0.186     
2793.28    87.35      0.189     
2793.38    93.18      0.188     
2793.48    99.15      0.201     
2793.58    107.93     0.21      
2793.68    114.55     0.211     
2793.78    116.79     0.221     
2793.88    118.08     0.22      
2793.98    118.52     0.223     
2794.08    115.62     0.223     
2794.18    109.23     0.228     
2794.28    105.54     0.217     
2794.38    101.92     0.217     
2794.48    97.65      0.208     
2794.58    94.96001   0.202     
2794.68    94.7       0.198     
2794.78    95.45999   0.191     
2794.88    96.89999   0.189     
2794.98    97.01      0.185     
2795.08    94.35001   0.182     
2795.18    85.54      0.181     
2795.28    83.24001   0.174     
2795.38    80.08      0.175     
2795.48    71.99001   0.167     
2795.58    69.11      0.163     
2795.68    67.57      0.162     
2795.78    67.14      0.159     
2795.88    66.44      0.162     
2795.98    67.36      0.158     
2796.08    68.28      0.156     
2796.18    66.38      0.157     
2796.28    66.16      0.157     
2796.38    68.02      0.154     
2796.48    71.75      0.167     
2796.58    76.3       0.174     
2796.68    82.67999   0.177     
2796.78    86.70999   0.196     
2796.88    91.63      0.202     
2796.98    99.55      0.221     
2797.08    103.2      0.234     
2797.18    103.8      0.265     
2797.28    101.6      0.274     
2797.38    96.86      0.291     
2797.48    90.81001   0.296     
2797.58    80.7       0.289     
2797.68    80.7       0.29      
2797.78    80.9       0.284     
2797.88    82.58      0.272     
2797.98    81.18      0.261     
2798.08    74.14      0.263     
2798.18    72.61      0.23      
2798.28    69.88      0.223     
2798.38    67.76      0.206     
2798.48    66.32      0.201     
2798.58    66.89999   0.199     
2798.68    67.95      0.198     
2798.78    69.18999   0.196     
2798.88    70.88      0.196     
2798.98    70.94      0.195     
2799.08    71.73      0.195     
2799.18    72.83      0.201     
2799.28    77.46001   0.208     
2799.38    74.83      0.213     
2799.48    73.07      0.215     
2799.58    76.05      0.209     
2799.68    76.92001   0.208     
2799.78    79.31      0.199     
2799.88    82.95999   0.205     
2799.98    87.62      0.213     
2800.08    95.82      0.221     
2800.18    97.04001   0.227     
2800.28    98.52      0.224     
2800.38    102.09     0.213     
2800.48    104.88     0.203     
2800.58    103.46     0.202     
2800.68    100.55     0.19      
2800.78    98.73      0.19      
2800.88    96.6       0.182     
2800.98    93.07      0.181     
2801.08    88.85001   0.183     
2801.18    87.81      0.184     
2801.28    86.51      0.185     
2801.38    86.49001   0.19      
2801.48    88.25      0.191     
2801.58    90.57999   0.189     
2801.68    90.55      0.194     
2801.78    87.28      0.194     
2801.88    90.06      0.197     
2801.98    91.55      0.198     
2802.08    89.46999   0.2       
2802.18    89         0.204     
2802.28    90.07      0.207     
2802.38    90.95      0.212     
2802.48    91.38      0.217     
2802.58    91.66      0.225     
2802.68    92.15      0.234     
2802.78    94.31      0.24      
2802.88    97.74001   0.251     
2802.98    105.43     0.256     
2803.08    114.69     0.248     
2803.18    118.24     0.261     
2803.28    122.19     0.261     
2803.38    122.47     0.263     
2803.48    119.09     0.258     
2803.58    120.19     0.251     
2803.68    119.99     0.236     
2803.78    119.89     0.23      
2803.88    114.75     0.232     
2803.98    110.63     0.239     
2804.08    111.03     0.246     
2804.18    109.71     0.252     
2804.28    106.48     0.255     
2804.38    107.05     0.259     
2804.48    107.49     0.262     
2804.58    105.01     0.263     
2804.68    104.89     0.267     
2804.78    102.15     0.269     
2804.88    100.49     0.266     
2804.98    100.39     0.253     
2805.08    99.29      0.246     
2805.18    98.34      0.232     
2805.28    96.41      0.236     
2805.38    94.37      0.229     
2805.48    95.91      0.228     
2805.58    94.57      0.23      
2805.68    92.74001   0.237     
2805.78    91.27      0.243     
2805.88    91.25      0.263     
2805.98    92.1       0.274     
2806.08    90.89      0.269     
2806.18    91.45      0.29      
2806.28    93.05      0.293     
2806.38    94.97      0.304     
2806.48    95.02      0.304     
2806.58    93.10001   0.31      
2806.68    92.85      0.292     
2806.78    91.28999   0.285     
2806.88    89.51      0.276     
2806.98    87.67999   0.272     
2807.08    85.15      0.267     
2807.18    84.41      0.262     
2807.28    82.44      0.25      
