~Version
 VERS              .         2.0                           : CWLS LOG ASCII STANDARD - VERSION 2.0
 WRAP              .         NO                            : ONE LINE PER DEPTH STEP
 DLM               .         SPACE                         : DELIMITING CHARACTER(SPACE TAB OR COMMA)
~Well Information
#_______________________________________________________________________________
#
#PARAMETER_NAME    .UNIT     VALUE                         : DESCRIPTION
#_______________________________________________________________________________
STRT               .m        2506                          : First reference value
STOP               .m        2692                          : Last reference value
STEP               .m        0.2                           : Step increment
NULL               .         -9999                         : Missing value
COMP               .                                       : Company
WELL               .         500                           : Well name
FLD                .                                       : Field
LOC                .                                       : Location
CNTY               .                                       : County
STAT               .                                       : State
CTRY               .                                       : Country
SRVC               .                                       : Service Company
DATE               .                                       : Date
API                .                                       : API number
EREF               .m        139.4                         : 
X                  .m        230550                        : 
Y                  .m        242075                        : 
group              .         Pad5                          : 
Интер-р            .         Старостина                    : 
Куст               .         5                             : 
Статус             .         Не проверено                  : 
Тип                .         Разобраться                   : 
~Parameter Information Block
#_______________________________________________________________________________
#
#PARAMETER_NAME    .UNIT     VALUE                         : DESCRIPTION
#_______________________________________________________________________________
SET                .         LAS1                          : 
REAL_CREATION_DATE .         Ср апр 11 2012-13_17_17       : 
TLFamily_DEPTH     .         Measured Depth                : 
TLFamily_KS        .         Potential Resistivity         : 
TLFamily_KS1       .         Extra Shallow Resistivity     : 
TLFamily_KS2       .         Shallow Resistivity           : 
TLFamily_KS3       .         Medium Resistivity            : 
TLFamily_KS4       .         Deep Resistivity              : 
TLFamily_KS5       .         Extra Deep Resistivity        : 
TLFamily_LLD       .         Lateral Log Resistivity       : 
TLFamily_OKS3      .         Medium Resistivity Inverted   : 
TLFamily_RM        .         Mud Resistivity               : 
group              .         INI                           : 
~Curve Information
#_______________________________________________________________________________
#
#LOGNAME           .UNIT     LOG_ID                        : DESCRIPTION
#_______________________________________________________________________________
DEPTH              .m                                      : Measured Depth 
KS                 .ohm.m                                  : Potential Resistivity 
KS1                .ohm.m                                  : Extra Shallow Resistivity 
KS2                .ohm.m                                  : Shallow Resistivity 
KS3                .ohm.m                                  : Medium Resistivity 
KS4                .ohm.m                                  : Deep Resistivity 
KS5                .ohm.m                                  : Extra Deep Resistivity 
LLD                .ohm.m                                  : Lateral Log Resistivity 
OKS3               .ohm.m                                  : Medium Resistivity Inverted 
RM                 .ohm.m                                  : Mud Resistivity 
~Ascii
2506.0     5.6078     1.8835     5.4388     5.3766     0          0.3507     -9999      13.8187    0.151     
2506.2     5.7994     1.9879     5.6968     6.0414     0          0.3391     -9999      15.0058    0.151     
2506.4     6.0186     2.1031     5.8952     6.724      0          0.3378     -9999      15.8068    0.152     
2506.6     6.1733     2.2059     6.0594     7.1861     0          0.3378     -9999      16.5018    0.154     
2506.8     6.2869     2.2936     6.336      7.514      0          0.3378     -9999      17.0799    0.157     
2507       6.4253     2.3032     6.4841     7.5483     0          0.3378     -9999      17.8114    0.152     
2507.2     6.6375     2.2085     6.4493     7.402      0          0.3378     -9999      18.1616    0.154     
2507.4     6.9233     2.0847     6.2753     7.3786     0.6914     0.3378     -9999      17.5015    0.151     
2507.6     7.228      2.1509     6.5044     7.5431     2.7625     0.3378     -9999      16.3474    0.154     
2507.8     7.6781     2.2488     6.7082     7.7385     4.3583     0.3261     -9999      15.8089    0.154     
2508       8.2909     2.0247     6.1476     7.7842     5.5608     0.3248     -9999      16.6596    0.154     
2508.2     9.0527     1.7529     5.7234     7.9511     6.756      0.3248     -9999      16.9247    0.151     
2508.4     9.9886     1.9671     6.4385     8.7936     8.1238     0.3248     -9999      16.2038    0.154     
2508.6     10.7457    2.418      7.6336     10.2323    9.5641     0.3248     -9999      14.7472    0.151     
2508.8     11.0188    3.0164     9.3283     12.1766    11.1969    0.3248     -9999      13.027     0.151     
2509       10.8038    3.5884     11.3482    14.2532    12.5339    0.3248     -9999      11.4418    0.154     
2509.2     10.1209    4.0958     13.6721    16.4841    13.7708    0.3248     -9999      10.2945    0.154     
2509.4     8.9763     4.6406     16.5671    19.1584    15.3015    0.3248     -9999      9.3792     0.154     
2509.6     7.6977     4.7855     17.7937    20.9172    15.6864    0.3248     -9999      8.6953     0.154     
2509.8     6.6077     4.2342     16.6266    20.9886    14.8494    0.3248     -9999      8.0922     0.157     
2510       6.0104     3.4621     14.5105    18.9541    12.9433    0.3378     -9999      7.94       0.151     
2510.2     5.6737     2.6138     10.8672    15.8731    10.5779    0.3496     -9999      8.5643     0.151     
2510.4     5.4949     2.0874     8.1893     13.3855    8.5834     0.3507     -9999      9.884      0.151     
2510.6     5.5511     1.8897     6.9055     12.2763    7.6192     0.3507     -9999      11.4332    0.151     
2510.8     5.6886     1.8449     6.1961     11.8307    7.3534     0.3507     -9999      12.7418    0.154     
2511       5.8373     1.9706     6.1097     11.6605    7.4346     0.3507     -9999      13.1354    0.154     
2511.2     6.0709     2.0896     6.061      11.5786    7.7259     0.3507     -9999      12.9844    0.155     
2511.4     6.3063     2.2024     6.1059     11.1786    7.9223     0.3507     -9999      12.8092    0.157     
2511.6     6.4801     2.2148     6.1427     10.4922    8.1083     0.5379     -9999      12.8896    0.154     
2511.8     6.7047     2.2622     6.3442     9.8021     8.3271     1.5599     -9999      13.1163    0.157     
2512       6.9608     2.212      6.458      9.2966     8.5799     2.334      -9999      13.2876    0.154     
2512.2     7.319      2.1585     6.5181     8.7515     8.8256     2.8986     -9999      13.0451    0.151     
2512.4     7.7691     2.2386     6.7337     8.5017     9.5024     3.3839     -9999      13.1718    0.156     
2512.6     8.1176     2.1814     6.7636     8.7952     10.5282    3.8197     -9999      12.9785    0.154     
2512.8     8.3982     2.4209     7.6868     9.5015     11.6988    4.256      -9999      11.8339    0.157     
2513       8.3869     2.9186     9.1211     10.7916    13.2066    4.6515     -9999      10.2883    0.157     
2513.2     8.088      3.5471     10.9088    12.3105    14.1845    4.8402     -9999      9.4567     0.157     
2513.4     7.6687     3.4912     10.9619    13.0179    14.1837    4.9023     -9999      9.0278     0.157     
2513.6     7.2483     3.2041     10.6763    12.7675    13.2017    4.8945     -9999      9.0208     0.157     
2513.8     6.9203     2.964      10.5009    12.5555    12.2473    4.7605     -9999      9.1328     0.154     
2514       6.6764     2.7892     10.0744    12.4467    11.5158    4.6447     -9999      9.2364     0.154     
2514.2     6.4796     2.6842     9.5301     12.4833    10.8471    4.5793     -9999      9.3664     0.154     
2514.4     6.3688     2.6155     8.9737     12.5002    10.2054    4.527      5.3652     9.4937     0.154     
2514.6     6.3037     2.5241     8.4334     12.3326    9.7174     4.5377     5.59       9.5648     0.154     
2514.8     6.2478     2.4687     7.988      12.2642    9.4958     4.5837     5.5824     9.6289     0.156     
2515       6.2007     2.4917     7.9071     12.2781    9.4245     4.6066     5.2908     9.7218     0.157     
2515.2     6.1931     2.4696     7.7174     11.9382    9.3695     4.6923     5.5979     9.6489     0.154     
2515.4     6.1742     2.3772     7.3235     11.4707    9.4158     4.7991     5.5396     9.6729     0.151     
2515.6     6.1318     2.4899     7.7197     11.0282    9.51       4.9218     5.4858     9.6749     0.154     
2515.8     6.1041     2.4573     7.6109     10.769     9.5825     5.0495     5.4273     9.6851     0.154     
2516       6.1037     2.4492     7.5527     10.3493    9.5041     5.247      5.178      9.6207     0.155     
2516.2     6.1279     2.4006     7.3544     9.9673     9.4681     5.4109     5.5859     9.5987     0.154     
2516.4     6.1364     2.3789     7.3358     9.7187     9.4769     5.6069     6.083      9.5399     0.157     
2516.6     6.1472     2.4266     7.4296     9.6813     9.5646     5.889      5.72       9.3885     0.154     
2516.8     6.1472     2.4716     7.5183     9.6671     9.6698     6.247      5.5362     9.2057     0.157     
2517       6.1242     2.4437     7.421      9.6332     9.7425     6.5712     5.6024     9.1426     0.156     
2517.2     6.0677     2.4781     7.5533     9.6087     9.7212     6.8602     5.5664     9.1337     0.157     
2517.4     6.0307     2.4724     7.6006     9.6363     9.5869     7.0757     5.3962     9.1698     0.157     
2517.6     6.0157     2.4446     7.554      9.5906     9.3524     7.2899     5.6886     9.2051     0.157     
2517.8     5.986      2.4501     7.5381     9.5728     9.1462     7.4399     5.6948     9.1918     0.157     
2518       5.9651     2.464      7.5483     9.5947     8.968      7.5259     5.5347     9.119      0.157     
2518.2     5.9382     2.4739     7.5065     9.562      8.7642     7.5534     5.4289     9.0381     0.161     
2518.4     5.9057     2.4627     7.4478     9.4981     8.5601     7.4867     5.4144     9.0127     0.161     
2518.6     5.8628     2.4602     7.4188     9.448      8.4159     7.3206     5.3074     9.0005     0.161     
2518.8     5.8202     2.4616     7.4353     9.4041     8.3024     7.1369     5.1689     9.0242     0.164     
2519       5.7789     2.4269     7.3526     9.3243     8.1992     7.0247     5.3711     9.0544     0.164     
2519.2     5.7206     2.4465     7.3859     9.2413     8.1072     6.9133     5.0923     9.1192     0.163     
2519.4     5.7155     2.4399     7.372      9.1298     8.0155     6.8229     5.0529     9.2737     0.164     
2519.6     5.7155     2.3177     7.0318     8.956      7.8711     6.769      5.4326     9.4312     0.164     
2519.8     5.7324     2.3139     7.0222     8.8314     7.7931     6.7016     5.5642     9.4748     0.161     
2520       5.7636     2.3641     7.0982     8.8567     7.7902     6.6185     5.4794     9.4181     0.164     
2520.2     5.7942     2.3885     7.0938     8.848      7.7312     6.559      5.3388     9.3422     0.164     
2520.4     5.7965     2.3953     7.0508     8.7933     7.6587     6.512      5.2496     9.3021     0.164     
