~Version
 VERS              .         2.0                           : CWLS LOG ASCII STANDARD - VERSION 2.0
 WRAP              .         NO                            : ONE LINE PER DEPTH STEP
 DLM               .         SPACE                         : DELIMITING CHARACTER(SPACE TAB OR COMMA)
~Well Information
#_______________________________________________________________________________
#
#PARAMETER_NAME    .UNIT     VALUE                         : DESCRIPTION
#_______________________________________________________________________________
STRT               .m        2506                          : First reference value
STOP               .m        2692                          : Last reference value
STEP               .m        0.2                           : Step increment
NULL               .         -9999                         : Missing value
COMP               .                                       : Company
WELL               .         500                           : Well name
FLD                .                                       : Field
LOC                .                                       : Location
CNTY               .                                       : County
STAT               .                                       : State
CTRY               .                                       : Country
SRVC               .                                       : Service Company
DATE               .                                       : Date
API                .                                       : API number
EREF               .m        139.4                         : 
X                  .m        230550                        : 
Y                  .m        242075                        : 
group              .         Pad5                          : 
Интер-р            .         Старостина                    : 
Куст               .         5                             : 
Статус             .         Не проверено                  : 
Тип                .         Разобраться                   : 
~Parameter Information Block
#_______________________________________________________________________________
#
#PARAMETER_NAME    .UNIT     VALUE                         : DESCRIPTION
#_______________________________________________________________________________
SET                .         LAS1                          : 
REAL_CREATION_DATE .         Ср апр 11 2012-13_17_17       : 
TLFamily_DEPTH     .         Measured Depth                : 
TLFamily_KS        .         Potential Resistivity         : 
TLFamily_KS1       .         Extra Shallow Resistivity     : 
TLFamily_KS2       .         Shallow Resistivity           : 
TLFamily_KS3       .         Medium Resistivity            : 
TLFamily_KS4       .         Deep Resistivity              : 
TLFamily_KS5       .         Extra Deep Resistivity        : 
TLFamily_LLD       .         Lateral Log Resistivity       : 
TLFamily_OKS3      .         Medium Resistivity Inverted   : 
TLFamily_RM        .         Mud Resistivity               : 
group              .         INI                           : 
~Curve Information
#_______________________________________________________________________________
#
#LOGNAME           .UNIT     LOG_ID                        : DESCRIPTION
#_______________________________________________________________________________
DEPTH              .m                                      : Measured Depth 
KS                 .ohm.m                                  : Potential Resistivity 
KS1                .ohm.m                                  : Extra Shallow Resistivity 
KS2                .ohm.m                                  : Shallow Resistivity 
KS3                .ohm.m                                  : Medium Resistivity 
KS4                .ohm.m                                  : Deep Resistivity 
KS5                .ohm.m                                  : Extra Deep Resistivity 
LLD                .ohm.m                                  : Lateral Log Resistivity 
OKS3               .ohm.m                                  : Medium Resistivity Inverted 
RM                 .ohm.m                                  : Mud Resistivity 
~Ascii
# ...
2608.2     5.0152     2.2163     6.2549     6.8445     5.3156     4.77       4.4932     8.3722     0.157     
2608.4     4.9674     2.2994     6.2485     6.9341     5.3185     4.7856     5.0913     9.1375     0.154     
2608.6     4.8837     2.3911     6.348      7.1434     5.3596     4.797      4.6229     9.973      0.151     
2608.8     4.7664     2.3835     6.7076     7.3879     5.4167     4.7929     4.3374     11.1046    0.154     
2609       4.565      2.3633     6.7108     7.4945     5.4019     4.7792     4.3345     12.5437    0.154     
2609.2     4.247      2.4257     6.9578     7.4576     5.3418     4.7711     4.7812     13.886     0.154     
2609.4     3.7934     2.6652     7.6555     7.4991     5.3877     4.7711     3.3845     15.1903    0.155     
2609.6     3.9255     2.5618     6.7639     7.8816     5.6205     4.6919     1.0154     23.3309    0.146     
2609.8     4.2466     1.0556     2.8938     7.6385     5.378      4.6541     1.1518     31.1817    0.147     
2610       5.0355     0.8092     2.6237     3.1624     4.2595     4.6566     3.4237     36.7078    0.15      
2610.2     6.5594     0.9513     2.7676     3.2698     3.0619     4.7131     7.2105     36.4861    0.148     
2610.4     8.0791     1.1559     2.8222     3.5504     3.0258     4.8672     9.8115     35.9676    0.147     
2610.6     9.5716     1.317      3.0188     3.9464     3.3778     5.3679     17.1578    35.4769    0.147     
2610.8     11.0696    1.4766     3.5558     4.4792     3.8645     5.9117     27.6094    33.6897    0.144     
2611       12.4642    1.8435     4.9747     5.0975     4.3966     6.3709     87.1339    30.272     0.147     
2611.2     13.5677    2.2415     6.5871     5.9155     4.9187     6.7837     142.56     26.869     0.147     
2611.4     14.2846    2.7        8.4212     6.9747     5.4209     7.0948     215.7447   23.8595    0.148     
2611.6     14.5937    3.1449     10.5354    8.3533     6.0328     7.2459     368.7384   21.1085    0.151     
2611.8     14.5216    3.6014     12.8299    9.8932     6.7504     7.3886     259.0576   18.5781    0.151     
2612       13.9906    3.9869     14.8913    12.5381    8.8953     7.4988     96.6142    16.4261    0.151     
2612.2     13.08      4.4412     17.2488    17.5106    9.8882     7.6265     53.1972    14.6121    0.151     
2612.4     12.2006    4.6642     18.9874    21.5695    10.5431    7.6381     11.0872    13.206     0.151     
2612.6     11.4099    4.1353     17.3118    23.4323    10.4556    7.4673     9.2235     12.0283    0.152     
2612.8     10.794     3.6331     15.5795    23.8459    9.8743     7.112      8.5465     11.077     0.151     
2613       10.2694    3.2844     14.1403    24.3638    9.5363     6.6778     8.6634     10.3014    0.151     
2613.2     9.8534     3.1641     13.282     24.637     9.4479     6.1126     8.8152     9.5342     0.154     
2613.4     9.457      2.9585     12.0381    24.5608    9.5682     5.5798     7.4721     8.7863     0.154     
2613.6     9.0624     2.9607     11.6731    24.2815    9.8584     5.2097     8.5669     8.0986     0.154     
2613.8     8.7298     2.9016     11.1332    23.905     10.1968    4.9754     7.2847     7.5668     0.154     
2614       8.4725     2.8545     10.5685    22.6042    11.0663    4.7914     6.5922     7.0646     0.154     
2614.2     8.1896     2.6846     9.839      21.3719    13.3481    4.7224     6.5482     6.5564     0.156     
2614.4     7.9052     2.7554     9.9326     20.3955    15.5112    4.744      7.4976     6.1752     0.157     
2614.6     7.7368     2.7938     9.725      19.5152    16.9384    4.7502     5.6373     6.111      0.16      
2614.8     7.5254     2.6857     9.1549     18.6366    17.9656    4.8756     5.65       6.3513     0.16      
2615       7.2209     2.6457     8.9672     17.6278    19.5948    5.1691     5.4901     7.071      0.16      
2615.2     6.9385     2.5853     8.8059     17.4093    21.9713    5.6761     4.8807     8.3195     0.157     
2615.4     6.6177     2.5549     8.9238     18.2746    25.6951    6.5299     5.4831     10.1383    0.157     
2615.6     6.2871     2.7091     9.8302     20.3902    31.1332    7.9345     5.8338     15.0712    0.155     
2615.8     6.1311     2.8379     10.4306    21.5078    35.1307    9.6571     4.7517     15.3508    0.161     
2616       5.9531     2.6908     9.619      21.3154    36.6279    11.5734    9.3709     14.0957    0.152     
2616.2     5.6479     3.0065     10.1407    20.4054    36.1619    13.2189    7.7105     12.2759    0.151     
2616.4     5.3806     3.1498     10.0405    18.91      33.4116    12.8692    3.2748     11.0103    0.156     
2616.6     5.1861     2.8033     8.7274     15.7735    27.3903    11.1886    3.0539     10.8834    0.153     
2616.8     5.1105     2.2173     7.0437     11.9448    20.3803    9.0149     3.0484     11.8872    0.154     
2617       5.1298     1.8934     6.0318     8.9185     14.994     6.952      3.1588     14.0143    0.157     
2617.2     5.1812     1.7822     5.3918     7.1298     11.5061    5.4537     3.3396     16.9774    0.155     
2617.4     5.291      1.7277     4.9736     6.1722     9.3098     4.5807     3.6984     19.8528    0.154     
2617.6     5.4859     1.7567     4.7821     5.7801     7.968      4.0561     4.2425     21.7718    0.151     
2617.8     5.7442     1.7366     4.7907     5.784      7.0962     3.7702     5.6889     22.5194    0.151     
2618       6.4031     1.8645     4.9259     6.1466     6.68       3.6088     6.1757     22.9329    0.153     
2618.2     7.3513     1.9116     5.2193     6.4525     6.224      3.521      5.2818     23.9388    0.147     
2618.4     8.1313     1.6315     4.9251     6.4701     5.6379     3.6744     4.8856     24.7368    0.148     
2618.6     9.0781     1.6149     4.5555     6.361      5.2316     4.0094     6.9066     22.9532    0.151     
2618.8     10.2458    1.8639     5.1761     6.6606     5.3524     4.3871     10.0478    19.925     0.148     
2619       11.4218    2.1011     6.3838     7.3251     5.8501     4.8955     29.8146    16.7293    0.149     
2619.2     12.2238    2.3305     7.1061     8.0171     6.4325     5.5122     23.4973    14.1572    0.149     
2619.4     12.6241    2.9223     9.1413     8.773      7.1161     6.2126     136.3835   12.081     0.149     
2619.6     12.6388    3.2803     10.4915    9.2646     7.5513     6.5577     79.3571    11.1644    0.151     
2619.8     12.6218    3.455      11.1971    9.6166     7.8755     6.5922     47.3395    10.6223    0.151     
2620       12.4557    3.7132     12.6109    10.7754    8.9247     7.239      28.5468    9.5934     0.157     
2620.2     11.8951    3.955      14.2626    12.8185    10.8313    7.8723     39.7423    8.3816     0.154     
2620.4     11.0137    4.564      17.1317    19.3989    12.9114    8.6009     30.112     7.3793     0.164     
2620.6     9.876      4.716      18.2904    22.4843    15.4561    9.16       17.9116    6.5623     0.154     
2620.8     8.4924     4.9075     19.2813    25.1439    17.8649    9.5601     14.778     5.8626     0.161     
2621       7.1532     4.9484     19.697     27.3929    19.3975    9.726      5.505      5.3585     0.158     
2621.2     6.2201     4.2465     17.3126    27.0189    19.9399    9.3943     3.0912     5.0587     0.159     
2621.4     5.5462     3.1615     13.107     23.8805    18.6447    8.608      3.1558     5.1506     0.159     
2621.6     5.1191     2.6236     10.868     20.4879    15.5974    7.5946     3.4501     5.557      0.155     
2621.8     4.8184     2.3289     9.2478     18.5452    12.6043    6.3884     3.8695     6.1538     0.151     
2622       4.5955     2.4447     8.8917     17.314     11.0861    5.2701     3.945      6.5424     0.151     
2622.2     4.5181     2.3458     7.6296     15.6937    10.6546    4.4442     3.2043     6.5532     0.15      
2622.4     4.4812     2.1734     6.3625     13.0509    9.1212     3.8617     3.4823     6.3654     0.147     
2622.6     4.4913     2.0197     5.5629     10.575     7.9282     3.4275     3.0299     6.4238     0.146     
