~Version
 VERS              .         2.0                           : CWLS LOG ASCII STANDARD - VERSION 2.0
 WRAP              .         NO                            : ONE LINE PER DEPTH STEP
 DLM               .         SPACE                         : DELIMITING CHARACTER(SPACE TAB OR COMMA)
~Well Information
#_______________________________________________________________________________
#
#PARAMETER_NAME    .UNIT     VALUE                         : DESCRIPTION
#_______________________________________________________________________________
STRT               .m        2506                          : First reference value
STOP               .m        2692                          : Last reference value
STEP               .m        0.2                           : Step increment
NULL               .         -9999                         : Missing value
COMP               .                                       : Company
WELL               .         500                           : Well name
FLD                .                                       : Field
LOC                .                                       : Location
CNTY               .                                       : County
STAT               .                                       : State
CTRY               .                                       : Country
SRVC               .                                       : Service Company
DATE               .                                       : Date
API                .                                       : API number
EREF               .m        139.4                         : 
X                  .m        230550                        : 
Y                  .m        242075                        : 
group              .         Pad5                          : 
Интер-р            .         Старостина                    : 
Куст               .         5                             : 
Статус             .         Не проверено                  : 
Тип                .         Разобраться                   : 
~Parameter Information Block
#_______________________________________________________________________________
#
#PARAMETER_NAME    .UNIT     VALUE                         : DESCRIPTION
#_______________________________________________________________________________
SET                .         LAS3                          : 
REAL_CREATION_DATE .         Ср апр 11 2012-13_17_17       : 
TLFamily_DEPTH     .         Measured Depth                : 
TLFamily_GR        .         Gamma Ray                     : 
TLFamily_TNPH      .         Neutron Porosity              : 
group              .         INI                           : 
~Curve Information
#_______________________________________________________________________________
#
#LOGNAME           .UNIT     LOG_ID                        : DESCRIPTION
#_______________________________________________________________________________
DEPTH              .m                                      : Measured Depth 
GR                 .gAPI                                   :  
TNPH               .v/v                                    : Neutron Porosity 
~Ascii
# ...
2651.8     94.27      0.257     
2652       92.65      0.243     
2652.2     96.6       0.232     
2652.4     95.91      0.229     
2652.6     96.51      0.235     
2652.8     101.34     0.253     
2653       103.5      0.251     
2653.2     101.87     0.242     
2653.4     101.87     0.238     
2653.6     100.78     0.248     
2653.8     99.65      0.245     
2654       97.36      0.235     
2654.2     101.21     0.245     
2654.4     109.8      0.265     
2654.6     109.51     0.275     
2654.8     100.37     0.28      
2655       91.34      0.27      
2655.2     87.24      0.263     
2655.4     81.81      0.246     
2655.6     75.9       0.225     
2655.8     71.16      0.219     
2656       65.96      0.229     
2656.2     61.67      0.24      
2656.4     61.92001   0.253     
2656.6     63.62      0.268     
2656.8     64.96001   0.267     
2657       68.49      0.258     
2657.2     68.4       0.245     
2657.4     62.22      0.229     
2657.6     60.81001   0.23      
2657.8     63.07999   0.23      
2658       65.97      0.22      
2658.2     66.34      0.212     
2658.4     62.39      0.218     
2658.6     59.44      0.22      
2658.8     58.36      0.214     
2659       57.39      0.214     
2659.2     56.64      0.221     
2659.4     56         0.226     
2659.6     56.94      0.227     
2659.8     60.59      0.23      
2660       61.51      0.239     
2660.2     58.82      0.24      
2660.4     55.08      0.234     
2660.6     51.24      0.226     
2660.8     51.46      0.222     
2661       55.97      0.224     
2661.2     59.43      0.227     
2661.4     64.08      0.23      
2661.6     70.8       0.229     
2661.8     77.86      0.25      
2662       86.00999   0.278     
2662.2     94.77      0.301     
2662.4     106.06     0.312     
2662.6     101.31     0.317     
2662.8     81.06      0.299     
2663       66.41      0.248     
2663.2     59.71      0.227     
2663.4     58.48      0.225     
2663.6     57.75      0.224     
2663.8     58.88      0.21      
2664       62.42      0.199     
2664.2     65.75      0.197     
2664.4     68.42      0.198     
2664.6     69.81      0.197     
2664.8     71.74      0.199     
2665       75.50999   0.213     
2665.2     81.49001   0.229     
2665.4     88.57001   0.244     
2665.6     96.89999   0.247     
2665.8     104.08     0.247     
2666       105.9      0.242     
2666.2     106.04     0.235     
2666.4     107.14     0.242     
2666.6     109.82     0.256     
2666.8     114.41     0.266     
2667       121.39     0.271     
2667.2     127.12     0.279     
2667.4     126.29     0.303     
2667.6     114.89     0.315     
2667.8     100.42     0.305     
2668       90.17999   0.292     
2668.2     83.94      0.274     
2668.4     79.52      0.252     
2668.6     79.81      0.254     
2668.8     83.50999   0.272     
2669       85.25      0.285     
2669.2     81.82      0.275     
2669.4     77.05      0.26      
2669.6     79.29      0.253     
2669.8     84.22      0.247     
2670       84.61      0.246     
2670.2     83.48      0.24      
2670.4     83.62      0.235     
2670.6     85.57      0.234     
2670.8     85.4       0.239     
2671       84.36      0.252     
2671.2     83.95      0.273     
2671.4     80.96      0.302     
2671.6     71.09      0.336     
2671.8     55.13      0.376     
2672       34.12      0.424     
2672.2     23.62      0.45      
2672.4     30.69      0.433     
2672.6     49.06      0.372     
2672.8     67.08      0.315     
2673       71.89999   0.272     
2673.2     71.75999   0.24      
2673.4     73.73      0.228     
2673.6     74.84      0.223     
2673.8     78.58      0.226     
2674       85.74001   0.22      
2674.2     93.10001   0.221     
2674.4     95.31      0.233     
2674.6     96.25      0.242     
2674.8     96.49001   0.254     
2675       98.23      0.266     
2675.2     101.06     0.271     
2675.4     102.99     0.273     
2675.6     109.75     0.269     
2675.8     114.24     0.279     
2676       108.47     0.284     
2676.2     103.73     0.277     
2676.4     95.06      0.276     
2676.6     76.98      0.28      
2676.8     66.56999   0.268     
2677       66.96      0.236     
2677.2     71.78001   0.223     
2677.4     78.2       0.23      
2677.6     89.63      0.254     
2677.8     101.77     0.295     
2678       106.47     0.297     
2678.2     109.13     0.274     
2678.4     109.04     0.269     
2678.6     107.99     0.276     
2678.8     107.82     0.292     
2679       108.13     0.292     
2679.2     108.83     0.285     
2679.4     112.12     0.275     
2679.6     113.15     0.266     
2679.8     106.83     0.274     
2680       100.19     0.284     
2680.2     98.33      0.28      
2680.4     100.54     0.268     
2680.6     104.09     0.288     
2680.8     105.07     0.307     
2681       101.15     0.303     
2681.2     93.26      0.291     
2681.4     89.72      0.279     
2681.6     91.6       0.261     
2681.8     92.27      0.258     
2682       92         0.265     
2682.2     89.64      0.274     
2682.4     90.42      0.284     
2682.6     92.83      0.288     
2682.8     89.22      0.302     
2683       82.84      0.305     
2683.2     79.72      0.294     
2683.4     82.58      0.291     
2683.6     79.85      0.312     
2683.8     74.7       0.336     
2684       75.92      0.319     
2684.2     87.74001   0.27      
2684.4     95.43      0.24      
2684.6     95.63      0.225     
2684.8     93.14999   0.23      
2685       91.59      0.233     
2685.2     89.78      0.237     
2685.4     88.09      0.249     
2685.6     88.36      0.258     
2685.8     86.8       0.259     
2686       89.57      0.239     
2686.2     92.46001   0.228     
2686.4     93.24001   0.225     
2686.6     91.73      0.227     
2686.8     87.60001   0.227     
2687       84.73      0.238     
2687.2     84.85      0.243     
2687.4     86.47      0.25      
2687.6     85.92      0.241     
2687.8     82.18001   0.244     
2688       81.17      0.249     
2688.2     80.96      0.251     
2688.4     79.64      0.26      
2688.6     77.52      0.251     
2688.8     74.34      0.229     
2689       74.48      0.228     
2689.2     76.87      0.229     
2689.4     73.62      0.221     
2689.6     70.23      0.214     
2689.8     70.63      0.21      
2690       70.50999   0.216     
2690.2     69.16      0.234     
2690.4     68.55      0.237     
2690.6     69.83      0.246     
2690.8     72.18001   0.267     
2691       73.83      0.293     
2691.2     72.18001   0.306     
2691.4     67.66      0.295     
2691.6     69.06999   0.288     
2691.8     73.02      0.289     
2692       73.5       0.302     
