~Version
 VERS              .         2.0                           : CWLS LOG ASCII STANDARD - VERSION 2.0
 WRAP              .         NO                            : ONE LINE PER DEPTH STEP
 DLM               .         SPACE                         : DELIMITING CHARACTER(SPACE TAB OR COMMA)
~Well Information
#_______________________________________________________________________________
#
#PARAMETER_NAME    .UNIT     VALUE                         : DESCRIPTION
#_______________________________________________________________________________
STRT               .m        2506                          : First reference value
STOP               .m        2692                          : Last reference value
STEP               .m        0.2                           : Step increment
NULL               .         -9999                         : Missing value
COMP               .                                       : Company
WELL               .         500                           : Well name
FLD                .                                       : Field
LOC                .                                       : Location
CNTY               .                                       : County
STAT               .                                       : State
CTRY               .                                       : Country
SRVC               .                                       : Service Company
DATE               .                                       : Date
API                .                                       : API number
EREF               .m        139.4                         : 
X                  .m        230550                        : 
Y                  .m        242075                        : 
group              .         Pad5                          : 
Интер-р            .         Старостина                    : 
Куст               .         5                             : 
Статус             .         Не проверено                  : 
Тип                .         Разобраться                   : 
~Parameter Information Block
#_______________________________________________________________________________
#
#PARAMETER_NAME    .UNIT     VALUE                         : DESCRIPTION
#_______________________________________________________________________________
SET                .         LAS1                          : 
REAL_CREATION_DATE .         Ср апр 11 2012-13_17_17       : 
TLFamily_DEPTH     .         Measured Depth                : 
TLFamily_KS        .         Potential Resistivity         : 
TLFamily_KS1       .         Extra Shallow Resistivity     : 
TLFamily_KS2       .         Shallow Resistivity           : 
TLFamily_KS3       .         Medium Resistivity            : 
TLFamily_KS4       .         Deep Resistivity              : 
TLFamily_KS5       .         Extra Deep Resistivity        : 
TLFamily_LLD       .         Lateral Log Resistivity       : 
TLFamily_OKS3      .         Medium Resistivity Inverted   : 
TLFamily_RM        .         Mud Resistivity               : 
group              .         INI                           : 
~Curve Information
#_______________________________________________________________________________
#
#LOGNAME           .UNIT     LOG_ID                        : DESCRIPTION
#_______________________________________________________________________________
DEPTH              .m                                      : Measured Depth 
KS                 .ohm.m                                  : Potential Resistivity 
KS1                .ohm.m                                  : Extra Shallow Resistivity 
KS2                .ohm.m                                  : Shallow Resistivity 
KS3                .ohm.m                                  : Medium Resistivity 
KS4                .ohm.m                                  : Deep Resistivity 
KS5                .ohm.m                                  : Extra Deep Resistivity 
LLD                .ohm.m                                  : Lateral Log Resistivity 
OKS3               .ohm.m                                  : Medium Resistivity Inverted 
RM                 .ohm.m                                  : Mud Resistivity 
~Ascii
# ...
2549.8     5.7432     2.4167     7.2775     8.8138     7.8083     4.3915     5.1747     9.531      0.161     
2550       5.7872     2.3304     7.0276     8.7575     7.5501     4.4225     5.7966     9.6379     0.157     
2550.2     5.783      2.2901     6.8728     8.6721     7.2938     4.4654     5.064      9.6588     0.157     
2550.4     5.8035     2.4049     7.1337     8.6909     7.1293     4.4838     5.0528     9.6299     0.154     
2550.6     5.8365     2.3738     6.9725     8.6377     6.94       4.5598     5.0981     9.5355     0.154     
2550.8     5.8369     2.3542     6.8898     8.4338     6.7171     4.688      5.1364     9.5763     0.154     
2551       5.8432     2.3304     6.8655     8.3078     6.6115     4.8171     5.3039     9.7297     0.154     
2551.2     5.8581     2.3082     6.8557     8.2241     6.5597     5.0057     5.2283     9.9434     0.153     
2551.4     5.8691     2.3294     6.9256     8.2093     6.5616     5.2092     4.9886     10.1624    0.153     
2551.6     5.8852     2.3368     6.9196     8.2281     6.6092     5.4001     5.1223     10.4156    0.152     
2551.8     5.9266     2.3127     6.8492     8.2144     6.6705     5.5946     5.3005     10.6863    0.151     
2552       5.9698     2.2761     6.7661     8.2409     6.7907     5.8107     5.395      11.0211    0.151     
2552.2     6.0505     2.2776     6.8031     8.3177     6.9962     6.0586     5.5925     11.3786    0.152     
2552.4     6.1729     2.2735     6.8221     8.4348     7.2223     6.4448     5.9545     11.5726    0.15      
2552.6     6.2483     2.2399     6.77       8.759      7.6509     6.8313     5.7459     11.9314    0.149     
2552.8     6.3319     2.4299     7.32       9.1078     8.1049     7.1746     5.7417     12.1495    0.151     
2553       6.4639     2.3975     7.2528     9.2867     8.4056     7.4921     6.2312     12.236     0.154     
2553.2     6.6513     2.3578     7.1669     9.2025     8.4032     7.7862     7.3674     12.219     0.151     
2553.4     6.8115     2.3684     7.2418     9.2192     8.4913     7.9173     8.2015     12.1221    0.151     
2553.6     6.9536     2.4394     7.4778     9.4006     8.6934     8.0307     7.639      11.964     0.154     
2553.8     7.0294     2.5367     7.8025     9.7589     8.9585     8.1122     7.2718     11.5929    0.154     
2554       7.0074     2.7126     8.3557     10.1559    9.2061     8.0647     6.2586     11.1485    0.154     
2554.2     6.9648     2.8011     8.6916     10.4208    9.2675     7.9628     6.4453     10.7148    0.154     
2554.4     6.8526     2.7571     8.6791     10.5568    9.155      7.7574     5.4489     10.4001    0.154     
2554.6     6.726      2.8071     8.9517     10.6228    8.9406     7.4581     5.0138     10.1562    0.154     
2554.8     6.6219     2.7217     8.766      10.6455    8.6524     7.1279     5.1215     10.0515    0.154     
2555       6.5379     2.6398     8.5435     10.5214    8.3027     6.8894     5.8786     10.241     0.154     
2555.2     6.4666     2.5274     8.2432     10.5171    8.1097     6.6874     5.6026     10.5226    0.154     
2555.4     6.4414     2.5323     8.2175     10.5946    8.0361     6.5641     6.2107     10.6154    0.157     
2555.6     6.4739     2.5248     8.0937     10.7094    7.9899     6.5242     5.4622     10.6616    0.154     
2555.8     6.4491     2.5178     7.9533     10.8673    8.0205     6.5051     5.3757     10.7694    0.154     
2556       6.4344     2.6186     8.1502     10.9959    8.0832     6.4677     5.7444     10.9135    0.154     
2556.2     6.4319     2.5547     7.9319     11.0433    8.1235     6.4067     5.5447     11         0.157     
2556.4     6.4327     2.5782     8.0129     10.8388    8.0742     6.3237     5.7061     11.1589    0.155     
2556.6     6.4493     2.5366     7.8911     10.6292    8.0626     6.1796     5.5665     11.2919    0.157     
2556.8     6.4513     2.5474     7.9026     10.4151    8.0464     6.0261     5.6766     11.4369    0.157     
2557       6.4709     2.5387     7.8789     10.1749    8.0654     5.8566     6.0383     11.556     0.154     
2557.2     6.4653     2.5325     7.8232     9.9742     8.0982     5.7011     5.9757     11.6334    0.157     
2557.4     6.442      2.5646     7.9229     9.91       8.1391     5.5247     5.0363     11.6764    0.155     
2557.6     6.4031     2.5986     8.0099     9.9513     8.1826     5.3194     5.055      11.6708    0.157     
2557.8     6.3832     2.5945     7.97       9.8078     8.0575     5.147      5.2053     11.7815    0.154     
2558       6.3678     2.4804     7.6443     9.5577     7.8339     4.9649     5.0082     12.0472    0.154     
2558.2     6.3859     2.444      7.552      9.3108     7.5993     4.8162     5.1283     12.4314    0.156     
2558.4     6.4797     2.3603     7.3117     9.0974     7.4252     4.7328     6.0188     13.0579    0.154     
2558.6     6.6137     2.2817     7.078      8.9435     7.2861     4.7378     7.1264     13.8466    0.157     
2558.8     6.7847     2.2761     7.0393     8.9671     7.3283     4.8269     7.0425     14.7225    0.154     
2559       6.965      2.3415     7.1669     9.2312     7.5605     4.9837     6.794      15.4062    0.155     
2559.2     7.1362     2.4603     7.4812     9.6092     7.8886     5.19       6.6841     16.0196    0.154     
2559.4     7.2922     2.5193     7.6425     9.9271     8.2001     5.4212     7.4307     16.6182    0.157     
2559.6     7.4605     2.5247     7.7478     10.1296    8.5009     5.6714     7.946      17.3017    0.154     
2559.8     7.6071     2.5304     7.8904     10.3548    8.8636     5.9696     8.2102     17.9474    0.155     
2560       7.7181     2.6113     8.2937     10.7673    9.427      6.2271     7.0183     18.5532    0.157     
2560.2     7.8357     2.7277     8.8135     11.182     10.0017    6.3653     6.8346     18.7448    0.157     
2560.4     8.0157     2.705      8.7537     11.2595    10.0968    6.4393     7.2745     18.777     0.155     
2560.6     8.2021     2.607      8.4731     10.996     9.7776     6.4021     8.731      18.7164    0.157     
2560.8     8.4185     2.5895     8.4656     10.8164    9.5256     6.2565     9.1896     18.8753    0.154     
2561       8.6333     2.5523     8.4308     10.9289    9.4432     6.143      8.4737     18.8218    0.155     
2561.2     8.8615     2.6433     8.6896     11.1817    9.446      6.1267     9.6209     18.6787    0.154     
2561.4     9.0755     2.6546     8.7916     11.5582    9.5413     6.1938     10.0421    18.5738    0.156     
2561.6     9.1993     2.7426     9.1026     12.0248    9.74       6.2631     9.1619     18.4287    0.157     
2561.8     9.3104     2.8578     9.5657     12.639     9.9891     6.3434     8.8669     18.1244    0.157     
2562       9.4034     2.9038     9.8069     13.1364    10.1109    6.4362     9.1381     17.8332    0.157     
2562.2     9.4499     2.8929     9.9036     13.5489    10.172     6.5012     9.011      17.6821    0.157     
2562.4     9.4766     2.923      10.0737    13.9778    10.2928    6.5454     9.487      17.5421    0.157     
2562.6     9.5143     2.9145     10.1791    14.3971    10.5006    6.5878     9.383      17.4238    0.155     
2562.8     9.5521     2.914      10.2674    14.7516    10.7578    6.6192     9.473      17.2505    0.154     
2563       9.5721     2.9396     10.3439    15.1348    11.132     6.6498     9.4195     17.0146    0.156     
2563.2     9.5732     2.9639     10.4187    15.5544    11.5643    6.6805     9.1675     16.8307    0.154     
2563.4     9.5674     2.9929     10.5214    15.9503    12.0151    6.6896     8.917      16.7744    0.156     
2563.6     9.5506     2.9987     10.5555    16.1866    12.4464    6.7038     9.3163     16.7305    0.156     
2563.8     9.5327     2.988      10.5522    16.3692    12.8683    6.7544     9.6508     16.7034    0.157     
2564       9.5059     2.965      10.5144    16.5388    13.3547    6.7888     9.583      16.7635    0.155     
2564.2     9.4895     2.9821     10.5691    16.6254    13.6449    6.8476     9.6088     16.7837    0.157     
