~Version
 VERS              .         2.0                           : CWLS LOG ASCII STANDARD - VERSION 2.0
 WRAP              .         NO                            : ONE LINE PER DEPTH STEP
 DLM               .         SPACE                         : DELIMITING CHARACTER(SPACE TAB OR COMMA)
~Well Information
#_______________________________________________________________________________
#
#PARAMETER_NAME    .UNIT     VALUE                         : DESCRIPTION
#_______________________________________________________________________________
STRT               .m        2506                          : First reference value
STOP               .m        2692                          : Last reference value
STEP               .m        0.2                           : Step increment
NULL               .         -9999                         : Missing value
COMP               .                                       : Company
WELL               .         500                           : Well name
FLD                .                                       : Field
LOC                .                                       : Location
CNTY               .                                       : County
STAT               .                                       : State
CTRY               .                                       : Country
SRVC               .                                       : Service Company
DATE               .                                       : Date
API                .                                       : API number
EREF               .m        139.4                         : 
X                  .m        230550                        : 
Y                  .m        242075                        : 
group              .         Pad5                          : 
Интер-р            .         Старостина                    : 
Куст               .         5                             : 
Статус             .         Не проверено                  : 
Тип                .         Разобраться                   : 
~Parameter Information Block
#_______________________________________________________________________________
#
#PARAMETER_NAME    .UNIT     VALUE                         : DESCRIPTION
#_______________________________________________________________________________
SET                .         LAS1                          : 
REAL_CREATION_DATE .         Ср апр 11 2012-13_17_17       : 
TLFamily_DEPTH     .         Measured Depth                : 
TLFamily_KS        .         Potential Resistivity         : 
TLFamily_KS1       .         Extra Shallow Resistivity     : 
TLFamily_KS2       .         Shallow Resistivity           : 
TLFamily_KS3       .         Medium Resistivity            : 
TLFamily_KS4       .         Deep Resistivity              : 
TLFamily_KS5       .         Extra Deep Resistivity        : 
TLFamily_LLD       .         Lateral Log Resistivity       : 
TLFamily_OKS3      .         Medium Resistivity Inverted   : 
TLFamily_RM        .         Mud Resistivity               : 
group              .         INI                           : 
~Curve Information
#_______________________________________________________________________________
#
#LOGNAME           .UNIT     LOG_ID                        : DESCRIPTION
#_______________________________________________________________________________
DEPTH              .m                                      : Measured Depth 
KS                 .ohm.m                                  : Potential Resistivity 
KS1                .ohm.m                                  : Extra Shallow Resistivity 
KS2                .ohm.m                                  : Shallow Resistivity 
KS3                .ohm.m                                  : Medium Resistivity 
KS4                .ohm.m                                  : Deep Resistivity 
KS5                .ohm.m                                  : Extra Deep Resistivity 
LLD                .ohm.m                                  : Lateral Log Resistivity 
OKS3               .ohm.m                                  : Medium Resistivity Inverted 
RM                 .ohm.m                                  : Mud Resistivity 
~Ascii
# ...
2666.6     7.4975     2.4017     7.3958     7.5688     4.9268     3.5696     9.6561     10.0163    0.158     
2666.8     7.5283     2.5218     7.9191     8.0775     5.6016     3.5013     9.6772     9.788      0.162     
2667       7.5095     2.637      8.2989     8.7041     6.4459     3.5022     8.0662     9.5365     0.15      
2667.2     7.4374     2.6158     8.2712     9.2785     7.3606     3.5447     6.7208     9.4263     0.153     
2667.4     7.3004     2.5735     8.363      10.0601    8.2382     3.5486     7.3514     9.5379     0.158     
2667.6     7.2166     2.6396     8.7957     10.9574    8.8659     3.4963     7.1224     9.6054     0.161     
2667.8     7.1993     2.5526     8.4692     11.3882    8.9136     3.4141     7.098      9.3053     0.161     
2668       7.2129     2.4984     8.0913     11.1393    8.3607     3.2996     6.706      8.8759     0.151     
2668.2     7.1418     2.4418     7.7342     10.9371    8.0233     3.1599     7.1284     8.727      0.152     
2668.4     6.9937     2.5464     7.921      10.8291    7.9721     3.1286     5.6587     9.0074     0.157     
2668.6     6.8896     2.5184     7.8538     10.6389    8.035      3.2582     5.0867     9.7626     0.157     
2668.8     6.7793     2.3282     7.4019     10.4425    8.3218     3.478      5.3874     11.0259    0.16      
2669       6.6652     2.3345     7.5777     10.6684    9.0408     3.6937     6.3544     12.4838    0.154     
2669.2     6.5194     2.5009     8.1817     11.286     9.9435     3.8935     7.3618     13.4955    0.151     
2669.4     6.426      2.6203     8.3187     11.34      10.2721    4.135      5.1805     13.7963    0.156     
2669.6     6.3967     2.5245     7.5683     10.554     9.7532     4.4333     4.1821     14.0499    0.157     
2669.8     6.4096     2.2207     6.6427     9.483      9.0653     4.8116     4.57       14.6619    0.16      
2670       6.4966     2.0891     6.2617     8.6505     8.6643     5.4581     5.0181     15.6587    0.15      
2670.2     6.6883     1.9937     5.9101     8.0119     8.4933     6.4655     5.0133     16.5333    0.151     
2670.4     6.9726     1.924      5.6095     7.4691     8.5508     7.8703     5.4579     17.458     0.161     
2670.6     7.2865     1.8553     5.3709     7.2642     8.9951     9.8137     6.6689     18.0314    0.157     
2670.8     7.6185     1.8878     5.4231     7.3732     9.7657     12.2996    7.5998     18.1786    0.164     
2671       8.0002     1.9901     5.78       7.8642     10.9236    15.5894    8.2692     18.173     0.152     
2671.2     8.4096     2.0925     6.2533     8.6348     12.5712    20.1505    9.6133     18.2552    0.151     
2671.4     8.8705     2.1746     6.6932     9.7095     14.7354    25.8108    11.4792    18.6372    0.16      
2671.6     9.3344     2.274      7.2706     11.0518    17.1674    32.0482    16.4046    18.9263    0.159     
2671.8     9.8072     2.4155     7.9678     12.468     19.6726    37.7553    18.2971    18.9761    0.161     
2672       10.2203    2.569      8.6319     13.8949    21.9412    42.4856    23.3959    18.8472    0.154     
2672.2     10.2589    2.9191     10.0382    15.8674    24.0894    46.9991    93.4593    18.2596    0.151     
2672.4     10.0104    3.3939     11.8951    17.9851    25.6575    47.816     416.7341   16.9767    0.161     
2672.6     9.2208     3.9523     14.1022    20.5288    27.1287    46.897     57.906     15.3568    0.166     
2672.8     8.1482     4.5482     16.566     22.4153    27.1419    43.4665    20.1436    14.2724    0.161     
2673       7.1859     4.3597     16.3346    22.6506    24.9172    38.4379    6.1445     14.0737    0.161     
2673.2     6.406      3.6711     14.3781    20.6182    20.8755    32.4284    4.1935     14.066     0.151     
2673.4     5.8547     2.9098     11.9257    17.985     17.088     25.6751    4.4849     14.066     0.151     
2673.6     5.4947     2.4705     10.2301    15.979     14.3078    19.8071    4.7245     14.0687    0.153     
2673.8     5.2776     2.3318     9.1116     14.7946    12.3823    15.2732    4.5771     14.066     0.157     
2674       5.1497     2.2223     7.8607     13.7769    10.7849    12.2812    4.1779     -9999      0.161     
2674.2     5.0973     2.0927     6.7788     12.5466    9.2854     10.0672    4.1715     -9999      0.157     
2674.4     5.1383     1.9389     6.0373     11.4611    8.149      8.2925     5.2336     -9999      0.154     
2674.6     5.2177     1.9386     5.8513     10.675     7.5699     6.9857     5.594      -9999      0.161     
2674.8     5.3825     1.9831     5.8003     10.0724    7.3087     6.0351     5.6525     -9999      0.161     
2675       5.5801     1.9951     5.6581     9.4402     7.1773     5.3438     5.7133     -9999      0.159     
2675.2     5.7396     2.031      5.688      8.8438     7.1944     4.8102     6.5674     -9999      0.157     
2675.4     5.7947     2.1099     5.8238     8.5016     7.4874     4.3539     7.8376     -9999      0.157     
2675.6     5.7965     2.1852     6.2791     8.3532     7.9212     4.0172     7.4279     -9999      0.157     
2675.8     5.7965     2.1933     6.6283     8.377      8.4453     3.7781     7.4642     -9999      0.157     
2676       5.7965     2.1933     6.8669     8.3813     8.9298     3.5763     7.4318     -9999      0.157     
2676.2     5.7996     2.1933     6.9181     8.372      9.2992     3.3861     7.4197     -9999      -9999     
2676.4     -9999      2.1933     6.9258     8.3822     9.5903     3.1882     7.7608     -9999      -9999     
2676.6     -9999      -9999      6.9258     8.4095     9.6412     2.9812     7.6506     -9999      -9999     
2676.8     -9999      -9999      6.9237     8.3518     9.3596     2.7834     7.1462     -9999      -9999     
2677       -9999      -9999      6.9258     8.1355     8.915      2.6154     6.8096     -9999      -9999     
2677.2     -9999      -9999      -9999      8.1068     8.5958     2.5083     7.2256     -9999      -9999     
2677.4     -9999      -9999      -9999      8.156      8.4601     2.4767     8.9007     -9999      -9999     
2677.6     -9999      -9999      -9999      8.158      8.5049     2.4964     9.9038     -9999      -9999     
2677.8     -9999      -9999      -9999      8.1621     8.5359     2.5854     8.728      -9999      -9999     
2678       -9999      -9999      -9999      8.158      8.595      2.661      8.0375     -9999      -9999     
2678.2     -9999      -9999      -9999      8.158      8.5693     2.74       8.1842     -9999      -9999     
2678.4     -9999      -9999      -9999      -9999      8.5698     2.8324     8.0615     -9999      -9999     
2678.6     -9999      -9999      -9999      -9999      8.3885     2.9833     7.9628     -9999      -9999     
2678.8     -9999      -9999      -9999      -9999      8.5419     3.1338     8.004      -9999      -9999     
2679       -9999      -9999      -9999      -9999      8.7178     3.354      8.1487     -9999      -9999     
2679.2     -9999      -9999      -9999      -9999      8.8801     3.6388     8.0668     -9999      -9999     
2679.4     -9999      -9999      -9999      -9999      8.9393     4.0134     8.0902     -9999      -9999     
2679.6     -9999      -9999      -9999      -9999      8.9393     4.4667     8.4666     -9999      -9999     
2679.8     -9999      -9999      -9999      -9999      8.9403     4.9796     8.2335     -9999      -9999     
2680       -9999      -9999      -9999      -9999      8.9393     5.5244     7.7213     -9999      -9999     
2680.2     -9999      -9999      -9999      -9999      8.9393     6.1358     8.4501     -9999      -9999     
2680.4     -9999      -9999      -9999      -9999      -9999      6.6907     8.4296     -9999      -9999     
2680.6     -9999      -9999      -9999      -9999      -9999      7.3403     7.6621     -9999      -9999     
2680.8     -9999      -9999      -9999      -9999      -9999      8.0681     6.8016     -9999      -9999     
2681       -9999      -9999      -9999      -9999      -9999      8.8135     5.9556     -9999      -9999     
