~Version
 VERS              .         2.0                           : CWLS LOG ASCII STANDARD - VERSION 2.0
 WRAP              .         NO                            : ONE LINE PER DEPTH STEP
 DLM               .         SPACE                         : DELIMITING CHARACTER(SPACE TAB OR COMMA)
~Well Information
#_______________________________________________________________________________
#
#PARAMETER_NAME    .UNIT     VALUE                         : DESCRIPTION
#_______________________________________________________________________________
STRT               .m        2506                          : First reference value
STOP               .m        2692                          : Last reference value
STEP               .m        0.2                           : Step increment
NULL               .         -9999                         : Missing value
COMP               .                                       : Company
WELL               .         500                           : Well name
FLD                .                                       : Field
LOC                .                                       : Location
CNTY               .                                       : County
STAT               .                                       : State
CTRY               .                                       : Country
SRVC               .                                       : Service Company
DATE               .                                       : Date
API                .                                       : API number
EREF               .m        139.4                         : 
X                  .m        230550                        : 
Y                  .m        242075                        : 
group              .         Pad5                          : 
Интер-р            .         Старостина                    : 
Куст               .         5                             : 
Статус             .         Не проверено                  : 
Тип                .         Разобраться                   : 
~Parameter Information Block
#_______________________________________________________________________________
#
#PARAMETER_NAME    .UNIT     VALUE                         : DESCRIPTION
#_______________________________________________________________________________
SET                .         LAS1                          : 
REAL_CREATION_DATE .         Ср апр 11 2012-13_17_17       : 
TLFamily_DEPTH     .         Measured Depth                : 
TLFamily_KS        .         Potential Resistivity         : 
TLFamily_KS1       .         Extra Shallow Resistivity     : 
TLFamily_KS2       .         Shallow Resistivity           : 
TLFamily_KS3       .         Medium Resistivity            : 
TLFamily_KS4       .         Deep Resistivity              : 
TLFamily_KS5       .         Extra Deep Resistivity        : 
TLFamily_LLD       .         Lateral Log Resistivity       : 
TLFamily_OKS3      .         Medium Resistivity Inverted   : 
TLFamily_RM        .         Mud Resistivity               : 
group              .         INI                           : 
~Curve Information
#_______________________________________________________________________________
#
#LOGNAME           .UNIT     LOG_ID                        : DESCRIPTION
#_______________________________________________________________________________
DEPTH              .m                                      : Measured Depth 
KS                 .ohm.m                                  : Potential Resistivity 
KS1                .ohm.m                                  : Extra Shallow Resistivity 
KS2                .ohm.m                                  : Shallow Resistivity 
KS3                .ohm.m                                  : Medium Resistivity 
KS4                .ohm.m                                  : Deep Resistivity 
KS5                .ohm.m                                  : Extra Deep Resistivity 
LLD                .ohm.m                                  : Lateral Log Resistivity 
OKS3               .ohm.m                                  : Medium Resistivity Inverted 
RM                 .ohm.m                                  : Mud Resistivity 
~Ascii
# ...
2535.2     5.7329     2.3473     6.9915     8.8986     7.2331     5.2356     5.4634     9.5188     0.153     
2535.4     5.7499     2.3193     6.9056     8.8208     7.2289     5.2475     5.6083     9.57       0.151     
2535.6     5.756      2.3521     6.9877     8.7997     7.261      5.2387     5.2656     9.562      0.154     
2535.8     5.756      2.4103     7.14       8.8201     7.3199     5.2308     5.2286     9.4855     0.154     
2536       5.756      2.3962     7.136      8.7751     7.3085     5.2248     5.1196     9.3968     0.154     
2536.2     5.7617     2.3928     7.103      8.6608     7.24       5.2024     5.0915     9.3611     0.154     
2536.4     5.778      2.3559     7.0307     8.5499     7.1602     5.141      5.3093     9.3243     0.155     
2536.6     5.7996     2.3373     6.9978     8.4909     7.1146     5.1202     5.7115     9.2938     0.154     
2536.8     5.8695     2.3136     6.94       8.4139     7.0631     5.0981     5.9635     9.2142     0.157     
2537       5.9246     2.3156     6.9469     8.4219     7.0648     5.0952     5.9699     9.0919     0.157     
2537.2     5.9405     2.3927     7.0623     8.5666     7.1539     5.0952     5.3731     8.9086     0.157     
2537.4     5.9625     2.4516     7.2696     8.7213     7.2194     5.1105     5.6664     8.7676     0.157     
2537.6     5.9545     2.4197     7.2032     8.7562     7.2022     5.1218     5.6376     8.7031     0.157     
2537.8     5.9167     2.4165     7.2494     8.7852     7.1585     5.1341     5.4919     8.6797     0.157     
2538       5.8846     2.445      7.3675     8.8769     7.1691     5.1211     5.3839     8.6434     0.157     
2538.2     5.8443     2.4489     7.4083     8.9486     7.181      5.1328     5.3478     8.6646     0.157     
2538.4     5.7909     2.438      7.4043     8.9833     7.1941     5.1247     5.1        8.6997     0.157     
2538.6     5.7133     2.4492     7.4018     9.0116     7.207      5.1093     4.8721     8.7782     0.157     
2538.8     5.6486     2.4358     7.3766     9.0274     7.207      5.0938     4.7332     8.8857     0.157     
2539       5.5842     2.4241     7.3417     8.9986     7.1716     5.0501     4.6234     9.0113     0.157     
2539.2     5.5324     2.3751     7.1874     8.8617     7.0966     4.9991     4.603      9.2068     0.157     
2539.4     5.5317     2.3044     6.9348     8.6541     6.9607     4.9481     5.0534     9.5318     0.157     
2539.6     5.5547     2.2469     6.7352     8.4547     6.8279     4.9028     5.2177     9.9022     0.159     
2539.8     5.6042     2.2208     6.6228     8.2827     6.7749     4.872      5.2706     10.3299    0.161     
2540       5.6697     2.2328     6.5744     8.1835     6.7608     4.8372     5.177      10.8244    0.161     
2540.2     5.7588     2.2365     6.5172     8.0323     6.6628     4.8359     5.1729     11.2478    0.156     
2540.4     5.8207     2.2248     6.4186     7.9401     6.6391     4.8443     5.6466     11.922     0.151     
2540.6     5.8633     2.2831     6.6085     7.8969     6.6352     4.8771     6.0637     12.6087    0.162     
2540.8     5.9239     2.2395     6.5802     7.8725     6.6703     4.9191     5.5395     12.8504    0.164     
2541       5.9781     2.2952     6.7777     7.879      6.6921     5.0063     5.1374     12.8718    0.164     
2541.2     6.0429     2.3504     6.889      7.9006     6.7066     5.0858     4.9264     12.9517    0.164     
2541.4     6.1033     2.3128     6.7391     7.805      6.6644     5.2391     4.6163     13.3826    0.164     
2541.6     6.1982     2.2449     6.6207     7.7007     6.6674     5.474      4.9659     14.1741    0.164     
2541.8     6.4168     2.1559     6.4949     7.5998     6.7489     5.8695     5.3151     15.3348    0.164     
2542       6.7668     1.9987     6.1735     7.5333     6.963      6.449      9.2224     16.8085    0.164     
2542.2     7.2157     1.8789     5.9149     7.6764     7.4604     7.1306     10.6839    18.0341    0.164     
2542.4     7.7222     2.0023     6.2611     8.1803     8.1749     7.9738     32.5874    18.2388    0.167     
2542.6     8.2688     2.1697     6.7513     9.0666     9.172      8.8506     15.8723    17.6963    0.159     
2542.8     8.5105     2.5435     7.8825     10.2964    10.2696    9.4409     9.7037     16.295     0.166     
2543       8.5725     3.094      9.3878     11.5796    11.0528    9.7179     7.8075     14.4785    0.167     
2543.2     8.4738     3.191      9.8901     12.3369    11.1284    9.7149     6.0291     12.7968    0.164     
2543.4     8.2802     3.1608     10.2965    12.2773    10.618     9.351      6.651      11.8619    0.164     
2543.6     8.0964     2.9337     10.0944    12.0715    10.1483    8.7255     6.3898     11.5452    0.164     
2543.8     7.9556     2.8258     10.0753    11.8986    9.7525     8.1472     6.7565     11.3164    0.164     
2544       7.9373     2.7459     9.8696     11.9092    9.4919     7.724      9.0005     11.0823    0.164     
2544.2     7.9214     2.6348     9.4087     12.2164    9.401      7.433      7.8938     10.6523    0.162     
2544.4     7.9048     2.7528     9.5806     12.7752    9.4497     7.2733     10.4062    10.2174    0.161     
2544.6     7.8192     2.7651     9.4304     13.8069    9.6836     7.1548     7.1139     9.7815     0.164     
2544.8     7.5621     2.9644     10.006     14.999     10.1235    7.0302     6.6152     9.2985     0.162     
2545       7.2775     3.1412     10.582     15.9646    10.4965    6.8389     5.6005     8.7533     0.161     
2545.2     6.909      3.0947     10.4115    16.0479    10.562     6.5385     4.5799     8.2452     0.163     
2545.4     6.5735     3.0354     10.3311    15.3375    10.2348    6.1424     4.8198     8.0663     0.164     
2545.6     6.3017     2.7827     9.5629     14.3317    9.7691     5.7333     4.8405     8.1087     0.164     
2545.8     6.0848     2.6203     9.0135     13.2939    9.3314     5.3969     4.8376     8.2365     0.164     
2546       5.9484     2.5062     8.5291     12.6327    9.1622     5.073      4.6564     8.3347     0.163     
2546.2     5.8418     2.4664     8.1181     12.121     9.1656     4.8429     4.5913     8.4553     0.164     
2546.4     5.767      2.424      7.7475     11.7288    9.3318     4.6882     4.889      8.6929     0.164     
2546.6     5.7104     2.3879     7.4579     11.3827    9.6206     4.5834     4.927      8.9568     0.164     
2546.8     5.7021     2.3433     7.2482     10.9949    9.8641     4.5152     4.9588     9.1402     0.164     
2547       5.7254     2.3332     7.141      10.6414    10.055     4.4696     5.1457     9.2622     0.164     
2547.2     5.7571     2.3314     7.0445     10.289     10.1552    4.4385     5.1078     9.3115     0.164     
2547.4     5.7893     2.357      7.0065     9.8962     10.0867    4.4194     5.3801     9.372      0.166     
2547.6     5.8215     2.3596     6.9894     9.5892     9.985      4.4081     5.4351     9.4025     0.164     
2547.8     5.8481     2.3818     7.0652     9.3276     9.8665     4.4081     5.4059     9.387      0.167     
2548       5.8709     2.4016     7.137      9.1766     9.7607     4.4048     5.41       9.3567     0.167     
2548.2     5.8774     2.4234     7.1984     9.0426     9.6038     4.3878     5.2631     9.2095     0.167     
2548.4     5.8774     2.4357     7.2406     8.8923     9.3827     4.3451     5.1924     9.077      0.164     
2548.6     5.8669     2.424      7.2139     8.7396     9.1267     4.3132     5.1434     9.0058     0.164     
2548.8     5.8397     2.4154     7.2231     8.6329     8.8347     4.2727     5.1957     9.0077     0.164     
2549       5.8291     2.3945     7.1967     8.6149     8.5978     4.2565     5.1854     9.0755     0.161     
2549.2     5.797      2.4005     7.2267     8.6486     8.4124     4.2729     5.0189     9.1756     0.161     
2549.4     5.7767     2.3975     7.2439     8.7062     8.2156     4.3149     5.056      9.2913     0.161     
2549.6     5.7467     2.3704     7.1658     8.7799     8.0284     4.3594     4.7264     9.4306     0.161     
