~Version
 VERS              .         2.0                           : CWLS LOG ASCII STANDARD - VERSION 2.0
 WRAP              .         NO                            : ONE LINE PER DEPTH STEP
 DLM               .         SPACE                         : DELIMITING CHARACTER(SPACE TAB OR COMMA)
~Well Information
#_______________________________________________________________________________
#
#PARAMETER_NAME    .UNIT     VALUE                         : DESCRIPTION
#_______________________________________________________________________________
STRT               .m        2506                          : First reference value
STOP               .m        2692                          : Last reference value
STEP               .m        0.2                           : Step increment
NULL               .         -9999                         : Missing value
COMP               .                                       : Company
WELL               .         500                           : Well name
FLD                .                                       : Field
LOC                .                                       : Location
CNTY               .                                       : County
STAT               .                                       : State
CTRY               .                                       : Country
SRVC               .                                       : Service Company
DATE               .                                       : Date
API                .                                       : API number
EREF               .m        139.4                         : 
X                  .m        230550                        : 
Y                  .m        242075                        : 
group              .         Pad5                          : 
Интер-р            .         Старостина                    : 
Куст               .         5                             : 
Статус             .         Не проверено                  : 
Тип                .         Разобраться                   : 
~Parameter Information Block
#_______________________________________________________________________________
#
#PARAMETER_NAME    .UNIT     VALUE                         : DESCRIPTION
#_______________________________________________________________________________
SET                .         LAS3                          : 
REAL_CREATION_DATE .         Ср апр 11 2012-13_17_17       : 
TLFamily_DEPTH     .         Measured Depth                : 
TLFamily_GR        .         Gamma Ray                     : 
TLFamily_TNPH      .         Neutron Porosity              : 
group              .         INI                           : 
~Curve Information
#_______________________________________________________________________________
#
#LOGNAME           .UNIT     LOG_ID                        : DESCRIPTION
#_______________________________________________________________________________
DEPTH              .m                                      : Measured Depth 
GR                 .gAPI                                   :  
TNPH               .v/v                                    : Neutron Porosity 
~Ascii
# ...
2603.2     135.92     0.27      
2603.4     133.17     0.275     
2603.6     131.62     0.298     
2603.8     129.95     0.304     
2604       129.27     0.309     
2604.2     130.95     0.317     
2604.4     128.85     0.336     
2604.6     132.39     0.335     
2604.8     136.87     0.317     
2605       137.07     0.321     
2605.2     135.76     0.333     
2605.4     134.78     0.342     
2605.6     132.6      0.345     
2605.8     138.52     0.346     
2606       146.23     0.365     
2606.2     149.16     0.377     
2606.4     149.95     0.362     
2606.6     150.45     0.337     
2606.8     149.23     0.332     
2607       148.58     0.334     
2607.2     147.94     0.325     
2607.4     151.08     0.315     
2607.6     152        0.311     
2607.8     149.67     0.333     
2608       149.5      0.352     
2608.2     154.59     0.351     
2608.4     159.08     0.361     
2608.6     155.64     0.351     
2608.8     154.46     0.336     
2609       159.18     0.329     
2609.2     165.07     0.308     
2609.4     171.81     0.274     
2609.6     173.15     0.236     
2609.8     146.4      0.196     
2610       103.12     0.163     
2610.2     74.28001   0.141     
2610.4     62.59      0.12      
2610.6     50.98      0.099     
2610.8     39.15      0.081     
2611       32.02      0.069     
2611.2     28.03      0.063     
2611.4     25.79      0.056     
2611.6     25.85      0.058     
2611.8     28.57      0.066     
2612       31.31      0.076     
2612.2     34.12      0.099     
2612.4     37.14      0.131     
2612.6     40.01      0.151     
2612.8     40.46      0.161     
2613       40.32      0.174     
2613.2     40.49      0.196     
2613.4     40.41      0.209     
2613.6     41.53      0.2       
2613.8     42.39      0.188     
2614       42.21      0.188     
2614.2     41.36      0.189     
2614.4     44.33      0.195     
2614.6     45.92      0.19      
2614.8     47.86      0.192     
2615       50.28      0.21      
2615.2     51.12      0.22      
2615.4     50.47      0.221     
2615.6     51.72      0.235     
2615.8     56.25      0.266     
2616       63.41      0.293     
2616.2     62.21      0.255     
2616.4     47.39      0.206     
2616.6     38.05      0.177     
2616.8     37.54      0.175     
2617       41.78      0.184     
2617.2     47.65      0.186     
2617.4     55.26      0.185     
2617.6     61.57      0.193     
2617.8     62.3       0.195     
2618       51.1       0.172     
2618.2     38.14      0.145     
2618.4     30.03      0.12      
2618.6     26.4       0.099     
2618.8     27.06      0.087     
2619       27.04      0.081     
2619.2     27.63      0.079     
2619.4     27.87      0.076     
2619.6     29.67      0.072     
2619.8     31.19      0.076     
2620       30.91      0.081     
2620.2     31.23      0.086     
2620.4     32.26      0.092     
2620.6     34.09      0.103     
2620.8     34.81      0.121     
2621       36.38      0.145     
2621.2     38.4       0.174     
2621.4     39.31      0.192     
2621.6     42.24      0.191     
2621.8     48.1       0.2       
2622       52.47      0.219     
2622.2     52.12      0.22      
2622.4     51.65      0.213     
2622.6     51.88      0.213     
2622.8     51.91      0.221     
2623       55.96      0.224     
2623.2     61.79      0.221     
2623.4     65.13      0.212     
2623.6     65.61      0.201     
2623.8     65.17      0.198     
2624       63.48      0.197     
2624.2     59.34      0.191     
2624.4     54.9       0.178     
2624.6     49.66      0.168     
2624.8     46.46      0.156     
2625       45.09      0.137     
2625.2     45.98      0.125     
2625.4     49.06      0.127     
2625.6     49.82      0.129     
2625.8     47.95      0.13      
2626       48.78      0.136     
2626.2     50.67      0.147     
2626.4     51.69      0.162     
2626.6     51.9       0.167     
2626.8     54.78      0.16      
2627       62.29      0.15      
2627.2     78.43001   0.156     
2627.4     95.25      0.186     
2627.6     104.65     0.24      
2627.8     109.8      0.296     
2628       110.44     0.337     
2628.2     107.61     0.379     
2628.4     104.29     0.357     
2628.6     101.43     0.292     
2628.8     91.78001   0.248     
2629       80.5       0.217     
2629.2     74.23      0.205     
2629.4     72.48      0.201     
2629.6     69.12      0.199     
2629.8     67.86      0.205     
2630       70.07      0.205     
2630.2     72.46001   0.203     
2630.4     73.78      0.211     
2630.6     70.56      0.216     
2630.8     69.66      0.213     
2631       66.31      0.204     
2631.2     57.92      0.196     
2631.4     55.19      0.197     
2631.6     57.11      0.2       
2631.8     56.94      0.202     
2632       57.33      0.195     
2632.2     57.48      0.184     
2632.4     54.95      0.173     
2632.6     54.03      0.161     
2632.8     51.41      0.149     
2633       45.6       0.14      
2633.2     42.74      0.14      
2633.4     44.11      0.145     
2633.6     45.48      0.145     
2633.8     47.01      0.14      
2634       47.83      0.129     
2634.2     48.6       0.124     
2634.4     48.51      0.128     
2634.6     49.58      0.133     
2634.8     50.94      0.136     
2635       52.16      0.145     
2635.2     56.3       0.157     
2635.4     59.49      0.163     
2635.6     62.7       0.17      
2635.8     64.77      0.174     
2636       64.05      0.177     
2636.2     62.26      0.179     
2636.4     62.56      0.178     
2636.6     62.24      0.174     
2636.8     64.56001   0.176     
2637       67.49      0.176     
2637.2     67.66      0.178     
2637.4     65.41      0.177     
2637.6     64.7       0.182     
2637.8     65.78      0.185     
2638       66.75999   0.179     
2638.2     67.81      0.181     
2638.4     71.13      0.189     
2638.6     78.59      0.204     
2638.8     90.45999   0.223     
2639       104.38     0.243     
2639.2     107.08     0.26      
2639.4     95.50999   0.265     
2639.6     86.89999   0.255     
2639.8     84.25      0.242     
2640       82.12      0.233     
2640.2     75         0.229     
2640.4     68.45      0.222     
2640.6     67.45      0.221     
2640.8     65.28      0.226     
2641       62.48      0.232     
2641.2     61.42      0.23      
2641.4     64.71      0.223     
2641.6     73.6       0.226     
2641.8     84.48      0.245     
2642       97.52      0.286     
2642.2     107.54     0.297     
2642.4     115.07     0.278     
2642.6     121.27     0.277     
2642.8     124.3      0.273     
2643       123.86     0.274     
2643.2     123.55     0.283     
2643.4     123.08     0.274     
2643.6     121.86     0.264     
2643.8     117.14     0.265     
2644       110.63     0.257     
2644.2     101.83     0.249     
2644.4     92.73      0.252     
2644.6     87.95999   0.249     
2644.8     91.44      0.244     
2645       94.61      0.246     
2645.2     95.06      0.252     
2645.4     91.14999   0.257     
2645.6     81.46      0.278     
2645.8     63.83      0.31      
2646       37.86      0.344     
2646.2     16.47      0.414     
2646.4     8.080001   0.493     
2646.6     9.54       0.533     
2646.8     15.4       0.512     
2647       26.42      0.516     
2647.2     37.48      0.534     
2647.4     42.52      0.526     
2647.6     49.41      0.48      
2647.8     65.75      0.447     
2648       84.53      0.429     
2648.2     97.33      0.41      
2648.4     99.53      0.375     
2648.6     99.31      0.341     
2648.8     94.31      0.335     
2649       89.68001   0.332     
2649.2     90.49      0.319     
2649.4     94.88      0.282     
2649.6     101.99     0.244     
2649.8     110.16     0.235     
2650       114.02     0.233     
2650.2     116.36     0.228     
2650.4     115.23     0.241     
2650.6     106.3      0.249     
2650.8     96.27      0.251     
2651       96         0.24      
2651.2     98.17001   0.235     
2651.4     100.62     0.244     
2651.6     100.33     0.258     
