~Version
 VERS              .         2.0                           : CWLS LOG ASCII STANDARD - VERSION 2.0
 WRAP              .         NO                            : ONE LINE PER DEPTH STEP
 DLM               .         SPACE                         : DELIMITING CHARACTER(SPACE TAB OR COMMA)
~Well Information
#_______________________________________________________________________________
#
#PARAMETER_NAME    .UNIT     VALUE                         : DESCRIPTION
#_______________________________________________________________________________
STRT               .m        2506                          : First reference value
STOP               .m        2692                          : Last reference value
STEP               .m        0.2                           : Step increment
NULL               .         -9999                         : Missing value
COMP               .                                       : Company
WELL               .         500                           : Well name
FLD                .                                       : Field
LOC                .                                       : Location
CNTY               .                                       : County
STAT               .                                       : State
CTRY               .                                       : Country
SRVC               .                                       : Service Company
DATE               .                                       : Date
API                .                                       : API number
EREF               .m        139.4                         : 
X                  .m        230550                        : 
Y                  .m        242075                        : 
group              .         Pad5                          : 
Интер-р            .         Старостина                    : 
Куст               .         5                             : 
Статус             .         Не проверено                  : 
Тип                .         Разобраться                   : 
~Parameter Information Block
#_______________________________________________________________________________
#
#PARAMETER_NAME    .UNIT     VALUE                         : DESCRIPTION
#_______________________________________________________________________________
SET                .         LAS3                          : 
REAL_CREATION_DATE .         Ср апр 11 2012-13_17_17       : 
TLFamily_DEPTH     .         Measured Depth                : 
TLFamily_GR        .         Gamma Ray                     : 
TLFamily_TNPH      .         Neutron Porosity              : 
group              .         INI                           : 
~Curve Information
#_______________________________________________________________________________
#
#LOGNAME           .UNIT     LOG_ID                        : DESCRIPTION
#_______________________________________________________________________________
DEPTH              .m                                      : Measured Depth 
GR                 .gAPI                                   :  
TNPH               .v/v                                    : Neutron Porosity 
~Ascii
# ...
2554.6     206.25     0.31      
2554.8     206.72     0.317     
2555       216.45     0.329     
2555.2     226.9      0.319     
2555.4     238.23     0.318     
2555.6     252.32     0.335     
2555.8     260.43     0.338     
2556       266.06     0.336     
2556.2     268.57     0.337     
2556.4     265.71     0.337     
2556.6     255.22     0.344     
2556.8     243.68     0.342     
2557       233.77     0.32      
2557.2     223.51     0.285     
2557.4     205.94     0.273     
2557.6     194.54     0.278     
2557.8     192.03     0.282     
2558       191.43     0.282     
2558.2     197.96     0.288     
2558.4     211.93     0.297     
2558.6     230.4      0.299     
2558.8     254.21     0.313     
2559       278.24     0.33      
2559.2     293.76     0.343     
2559.4     307.86     0.356     
2559.6     337.98     0.368     
2559.8     377.31     0.354     
2560       403.74     0.336     
2560.2     395.14     0.327     
2560.4     362.12     0.335     
2560.6     329.58     0.351     
2560.8     306.58     0.362     
2561       305.77     0.375     
2561.2     328.27     0.392     
2561.4     352.4      0.392     
2561.6     352.93     0.368     
2561.8     341.48     0.354     
2562       332.79     0.344     
2562.2     329.98     0.332     
2562.4     337.06     0.334     
2562.6     343.67     0.346     
2562.8     342.58     0.359     
2563       341.54     0.372     
2563.2     343.38     0.371     
2563.4     344.23     0.368     
2563.6     336.66     0.361     
2563.8     321.87     0.341     
2564       303.82     0.343     
2564.2     285.73     0.366     
2564.4     283.36     0.39      
2564.6     293.99     0.409     
2564.8     299.49     0.408     
2565       301.57     0.393     
2565.2     315.42     0.385     
2565.4     339.68     0.382     
2565.6     350.58     0.385     
2565.8     338.75     0.394     
2566       333.09     0.422     
2566.2     333.11     0.43      
2566.4     325.6      0.417     
2566.6     312.86     0.409     
2566.8     308.09     0.399     
2567       303.13     0.397     
2567.2     293.45     0.388     
2567.4     286.39     0.391     
2567.6     281.74     0.395     
2567.8     279.03     0.389     
2568       274.72     0.393     
2568.2     262.47     0.389     
2568.4     239.32     0.385     
2568.6     211.45     0.382     
2568.8     195.91     0.354     
2569       197.69     0.33      
2569.2     206.59     0.348     
2569.4     213.53     0.409     
2569.6     213.38     0.407     
2569.8     210.59     0.39      
2570       207.92     0.391     
2570.2     208.86     0.396     
2570.4     206.65     0.38      
2570.6     193.11     0.348     
2570.8     176.05     0.332     
2571       163.89     0.33      
2571.2     156.77     0.329     
2571.4     150.69     0.326     
2571.6     146.78     0.322     
2571.8     147.6      0.325     
2572       153.7      0.314     
2572.2     161.41     0.303     
2572.4     167.93     0.293     
2572.6     167.71     0.292     
2572.8     165.58     0.289     
2573       165.69     0.269     
2573.2     169.54     0.273     
2573.4     178.4      0.302     
2573.6     176.21     0.316     
2573.8     156.16     0.321     
2574       144.24     0.313     
2574.2     143.47     0.3       
2574.4     141.58     0.29      
2574.6     138.05     0.289     
2574.8     134.57     0.298     
2575       131.29     0.309     
2575.2     131.96     0.295     
2575.4     133.8      0.289     
2575.6     128.35     0.286     
2575.8     127.73     0.28      
2576       135.53     0.283     
2576.2     144.64     0.292     
2576.4     144.1      0.305     
2576.6     142.28     0.317     
2576.8     144.16     0.307     
2577       143.92     0.301     
2577.2     143.04     0.287     
2577.4     140.7      0.283     
2577.6     140.21     0.288     
2577.8     144.82     0.291     
2578       147.52     0.31      
2578.2     147.52     0.318     
2578.4     148.12     0.314     
2578.6     150.65     0.316     
2578.8     154.48     0.325     
2579       150.47     0.329     
2579.2     137.89     0.324     
2579.4     132.84     0.32      
2579.6     132.9      0.318     
2579.8     137.5      0.315     
2580       137.17     0.29      
2580.2     130.82     0.265     
2580.4     123.75     0.27      
2580.6     118.72     0.29      
2580.8     118.26     0.33      
2581       123.8      0.367     
2581.2     131.87     0.367     
2581.4     142.46     0.366     
2581.6     146.35     0.347     
2581.8     144.67     0.32      
2582       136.2      0.3       
2582.2     124.27     0.284     
2582.4     121.25     0.289     
2582.6     128.92     0.315     
2582.8     140.26     0.341     
2583       149.21     0.363     
2583.2     153.69     0.383     
2583.4     151.18     0.367     
2583.6     149.62     0.358     
2583.8     155.32     0.359     
2584       157.42     0.342     
2584.2     155.52     0.331     
2584.4     150.82     0.362     
2584.6     153.07     0.382     
2584.8     157.57     0.372     
2585       153.04     0.376     
2585.2     145.68     0.379     
2585.4     148.24     0.362     
2585.6     161.39     0.355     
2585.8     175.81     0.371     
2586       188.35     0.385     
2586.2     188.29     0.375     
2586.4     170.75     0.34      
2586.6     151.3      0.315     
2586.8     140.24     0.295     
2587       136.61     0.3       
2587.2     138.81     0.308     
2587.4     142.11     0.313     
2587.6     142.83     0.325     
2587.8     138.84     0.326     
2588       134.09     0.314     
2588.2     130.34     0.304     
2588.4     129.18     0.293     
2588.6     132.77     0.274     
2588.8     131.08     0.252     
2589       126.34     0.241     
2589.2     138.14     0.251     
2589.4     157.97     0.262     
2589.6     163.76     0.284     
2589.8     156.07     0.306     
2590       145.49     0.328     
2590.2     138.57     0.322     
2590.4     136.28     0.307     
2590.6     135.89     0.307     
2590.8     135.51     0.312     
2591       133.57     0.311     
2591.2     131.64     0.306     
2591.4     134.3      0.305     
2591.6     138.33     0.309     
2591.8     139.49     0.3       
2592       139.72     0.286     
2592.2     141.34     0.291     
2592.4     143.11     0.298     
2592.6     141.91     0.294     
2592.8     141.93     0.291     
2593       140.4      0.295     
2593.2     132.9      0.295     
2593.4     126.72     0.29      
2593.6     123.4      0.293     
2593.8     120.6      0.304     
2594       106.41     0.281     
2594.2     90.22      0.254     
2594.4     101.66     0.247     
2594.6     133.62     0.259     
2594.8     145.06     0.292     
2595       143.39     0.316     
2595.2     137.12     0.336     
2595.4     133.87     0.337     
2595.6     134.92     0.316     
2595.8     137.76     0.29      
2596       138.66     0.283     
2596.2     138.64     0.299     
2596.4     136.56     0.311     
2596.6     132.16     0.31      
2596.8     130.8      0.302     
2597       134.87     0.292     
2597.2     141.29     0.291     
2597.4     144.58     0.294     
2597.6     143.64     0.311     
2597.8     140.8      0.326     
2598       137.51     0.332     
2598.2     138.74     0.342     
2598.4     141.84     0.331     
2598.6     146.16     0.314     
2598.8     148.67     0.309     
2599       149.08     0.311     
2599.2     149.64     0.305     
2599.4     153.05     0.299     
2599.6     155.15     0.29      
2599.8     153.95     0.287     
2600       155.06     0.301     
2600.2     154.22     0.319     
2600.4     153.74     0.331     
2600.6     153.59     0.339     
2600.8     153.07     0.338     
2601       150.34     0.34      
2601.2     145.26     0.329     
2601.4     139.76     0.308     
2601.6     139.18     0.3       
2601.8     139.4      0.302     
2602       138.15     0.292     
2602.2     137.69     0.274     
2602.4     137.59     0.255     
2602.6     136.58     0.263     
2602.8     136.47     0.275     
2603       137.23     0.273     
