~Version
 VERS              .         2.0                           : CWLS LOG ASCII STANDARD - VERSION 2.0
 WRAP              .         NO                            : ONE LINE PER DEPTH STEP
 DLM               .         SPACE                         : DELIMITING CHARACTER(SPACE TAB OR COMMA)
~Well Information
#_______________________________________________________________________________
#
#PARAMETER_NAME    .UNIT     VALUE                         : DESCRIPTION
#_______________________________________________________________________________
STRT               .m        2506                          : First reference value
STOP               .m        2692                          : Last reference value
STEP               .m        0.2                           : Step increment
NULL               .         -9999                         : Missing value
COMP               .                                       : Company
WELL               .         500                           : Well name
FLD                .                                       : Field
LOC                .                                       : Location
CNTY               .                                       : County
STAT               .                                       : State
CTRY               .                                       : Country
SRVC               .                                       : Service Company
DATE               .                                       : Date
API                .                                       : API number
EREF               .m        139.4                         : 
X                  .m        230550                        : 
Y                  .m        242075                        : 
group              .         Pad5                          : 
Интер-р            .         Старостина                    : 
Куст               .         5                             : 
Статус             .         Не проверено                  : 
Тип                .         Разобраться                   : 
~Parameter Information Block
#_______________________________________________________________________________
#
#PARAMETER_NAME    .UNIT     VALUE                         : DESCRIPTION
#_______________________________________________________________________________
SET                .         LAS3                          : 
REAL_CREATION_DATE .         Ср апр 11 2012-13_17_17       : 
TLFamily_DEPTH     .         Measured Depth                : 
TLFamily_GR        .         Gamma Ray                     : 
TLFamily_TNPH      .         Neutron Porosity              : 
group              .         INI                           : 
~Curve Information
#_______________________________________________________________________________
#
#LOGNAME           .UNIT     LOG_ID                        : DESCRIPTION
#_______________________________________________________________________________
DEPTH              .m                                      : Measured Depth 
GR                 .gAPI                                   :  
TNPH               .v/v                                    : Neutron Porosity 
~Ascii
2506.0     92.64      0.249     
2506.2     99.16      0.236     
2506.4     104.7      0.226     
2506.6     106.27     0.225     
2506.8     100.88     0.224     
2507       92.76      0.223     
2507.2     87.31      0.216     
2507.4     85.13      0.206     
2507.6     80.84      0.195     
2507.8     73.50999   0.178     
2508       65.28      0.153     
2508.2     58.67      0.129     
2508.4     54.77      0.117     
2508.6     53.74      0.115     
2508.8     50.86      0.122     
2509       48.33      0.136     
2509.2     49.82      0.154     
2509.4     53.41      0.177     
2509.6     57.79      0.208     
2509.8     63.51      0.232     
2510       70.41      0.244     
2510.2     77.72      0.249     
2510.4     83.53      0.254     
2510.6     92.09      0.248     
2510.8     93.66      0.232     
2511       103.65     0.233     
2511.2     113.69     0.236     
2511.4     117.55     0.24      
2511.6     114.07     0.234     
2511.8     106.48     0.223     
2512       96.42999   0.211     
2512.2     91.05      0.197     
2512.4     84.08      0.187     
2512.6     75.47      0.19      
2512.8     72.39      0.154     
2513       74.39999   0.16      
2513.2     89.46999   0.184     
2513.4     105.73     0.214     
2513.6     115.67     0.24      
2513.8     119.23     0.248     
2514       123.55     0.237     
2514.2     126.46     0.236     
2514.4     127.79     0.239     
2514.6     125.35     0.24      
2514.8     125.95     0.247     
2515       125.3      0.257     
2515.2     120.3      0.261     
2515.4     117.62     0.27      
2515.6     114.71     0.272     
2515.8     110.86     0.267     
2516       111.05     0.26      
2516.2     117.13     0.257     
2516.4     123.32     0.254     
2516.6     122.98     0.242     
2516.8     121.73     0.238     
2517       123.62     0.249     
2517.2     120.9      0.265     
2517.4     118.5      0.282     
2517.6     117.37     0.28      
2517.8     112.18     0.271     
2518       109.93     0.267     
2518.2     114.76     0.264     
2518.4     118.89     0.268     
2518.6     119.8      0.269     
2518.8     117.86     0.259     
2519       118.19     0.251     
2519.2     118.36     0.247     
2519.4     117.51     0.242     
2519.6     115.68     0.236     
2519.8     117.34     0.225     
2520       120.37     0.218     
2520.2     121.41     0.232     
2520.4     120.73     0.252     
2520.6     120.49     0.268     
2520.8     120.53     0.277     
2521       120.74     0.287     
2521.2     119.17     0.286     
2521.4     116.11     0.28      
2521.6     113.97     0.275     
2521.8     113.11     0.273     
2522       113.45     0.264     
2522.2     113.73     0.253     
2522.4     112.43     0.254     
2522.6     111.47     0.25      
2522.8     112.24     0.251     
2523       111.61     0.256     
2523.2     109.11     0.254     
2523.4     108.5      0.251     
2523.6     106.82     0.256     
2523.8     105.49     0.26      
2524       104.53     0.262     
2524.2     104.32     0.267     
2524.4     106.09     0.269     
2524.6     105.74     0.276     
2524.8     104.56     0.279     
2525       104.57     0.276     
2525.2     107.11     0.267     
2525.4     109.17     0.259     
2525.6     107.49     0.25      
2525.8     107.96     0.247     
2526       109.46     0.248     
2526.2     106.91     0.257     
2526.4     105.49     0.276     
2526.6     106.68     0.28      
2526.8     107.68     0.272     
2527       108.87     0.264     
2527.2     110.39     0.273     
2527.4     110.31     0.296     
2527.6     106.77     0.311     
2527.8     106.32     0.316     
2528       111.04     0.298     
2528.2     112.87     0.284     
2528.4     111.99     0.277     
2528.6     111.38     0.275     
2528.8     107.83     0.269     
2529       101.05     0.257     
2529.2     97.84      0.254     
2529.4     97.45      0.232     
2529.6     98.69      0.225     
2529.8     105.5      0.236     
2530       110.27     0.243     
2530.2     110.99     0.257     
2530.4     114.36     0.275     
2530.6     118.27     0.277     
2530.8     118.49     0.279     
2531       117.25     0.291     
2531.2     111.64     0.3       
2531.4     110.9      0.287     
2531.6     111.84     0.282     
2531.8     111.37     0.285     
2532       113.59     0.284     
2532.2     113.67     0.281     
2532.4     111.23     0.259     
2532.6     110.34     0.257     
2532.8     111.79     0.258     
2533       113.05     0.271     
2533.2     113.96     0.283     
2533.4     113.31     0.295     
2533.6     114.29     0.301     
2533.8     114.9      0.299     
2534       113.87     0.297     
2534.2     115.83     0.294     
2534.4     120.22     0.293     
2534.6     124        0.299     
2534.8     122.91     0.305     
2535       118.95     0.313     
2535.2     113.59     0.309     
2535.4     109.07     0.286     
2535.6     108.32     0.273     
2535.8     105.79     0.282     
2536       106.8      0.278     
2536.2     110.58     0.266     
2536.4     108.25     0.266     
2536.6     103.67     0.259     
2536.8     98.39      0.257     
2537       95.7       0.261     
2537.2     97.22      0.259     
2537.4     99.86      0.259     
2537.6     98.62      0.257     
2537.8     98.19      0.26      
2538       102.91     0.275     
2538.2     104.85     0.293     
2538.4     103.99     0.302     
2538.6     107.83     0.296     
2538.8     116.32     0.287     
2539       119.94     0.283     
2539.2     120.48     0.287     
2539.4     122.44     0.28      
2539.6     123.15     0.274     
2539.8     121.27     0.287     
2540       117.73     0.295     
2540.2     114.35     0.297     
2540.4     109.74     0.299     
2540.6     107.46     0.296     
2540.8     108.77     0.286     
2541       107.18     0.277     
2541.2     109.2      0.272     
2541.4     111.3      0.266     
2541.6     108.69     0.251     
2541.8     99.85      0.227     
2542       87.08      0.207     
2542.2     76.53      0.195     
2542.4     72.53999   0.179     
2542.6     74.22      0.175     
2542.8     84.78      0.185     
2543       97.09      0.204     
2543.2     101.57     0.227     
2543.4     98.34      0.231     
2543.6     94.73      0.223     
2543.8     91.06      0.212     
2544       89.17      0.204     
2544.2     88.6       0.207     
2544.4     87.67999   0.21      
2544.6     89.2       0.21      
2544.8     95.68      0.223     
2545       105.4      0.255     
2545.2     116.04     0.262     
2545.4     120.43     0.266     
2545.6     120.62     0.291     
2545.8     126.25     0.299     
2546       136.57     0.302     
2546.2     145.08     0.302     
2546.4     148.44     0.306     
2546.6     152.39     0.31      
2546.8     155.15     0.307     
2547       154        0.295     
2547.2     156.8      0.279     
2547.4     159.24     0.274     
2547.6     154.98     0.283     
2547.8     148.84     0.293     
2548       143.67     0.284     
2548.2     138.27     0.282     
2548.4     132.96     0.296     
2548.6     131.89     0.297     
2548.8     131.59     0.297     
2549       130.75     0.302     
2549.2     131.79     0.292     
2549.4     132.4      0.282     
2549.6     128.75     0.286     
2549.8     120.17     0.276     
2550       118.65     0.262     
2550.2     122.35     0.263     
2550.4     123.39     0.276     
2550.6     123.11     0.279     
2550.8     122.72     0.264     
2551       124.34     0.247     
2551.2     128.44     0.253     
2551.4     132.98     0.266     
2551.6     138.71     0.261     
2551.8     149.58     0.268     
2552       168.45     0.298     
2552.2     187.96     0.33      
2552.4     202.36     0.345     
2552.6     199.67     0.355     
2552.8     194.31     0.355     
2553       197.4      0.324     
2553.2     206.42     0.289     
2553.4     215.97     0.288     
2553.6     225.94     0.301     
2553.8     232.26     0.303     
2554       225.85     0.3       
2554.2     215.45     0.309     
2554.4     209        0.313     
