~Version
 VERS              .         2.0                           : CWLS LOG ASCII STANDARD - VERSION 2.0
 WRAP              .         NO                            : ONE LINE PER DEPTH STEP
 DLM               .         SPACE                         : DELIMITING CHARACTER(SPACE TAB OR COMMA)
~Well Information
#_______________________________________________________________________________
#
#PARAMETER_NAME    .UNIT     VALUE                         : DESCRIPTION
#_______________________________________________________________________________
STRT               .m        2506                          : First reference value
STOP               .m        2692                          : Last reference value
STEP               .m        0.2                           : Step increment
NULL               .         -9999                         : Missing value
COMP               .                                       : Company
WELL               .         500                           : Well name
FLD                .                                       : Field
LOC                .                                       : Location
CNTY               .                                       : County
STAT               .                                       : State
CTRY               .                                       : Country
SRVC               .                                       : Service Company
DATE               .                                       : Date
API                .                                       : API number
EREF               .m        139.4                         : 
X                  .m        230550                        : 
Y                  .m        242075                        : 
group              .         Pad5                          : 
Интер-р            .         Старостина                    : 
Куст               .         5                             : 
Статус             .         Не проверено                  : 
Тип                .         Разобраться                   : 
~Parameter Information Block
#_______________________________________________________________________________
#
#PARAMETER_NAME    .UNIT     VALUE                         : DESCRIPTION
#_______________________________________________________________________________
SET                .         LAS1                          : 
REAL_CREATION_DATE .         Ср апр 11 2012-13_17_17       : 
TLFamily_DEPTH     .         Measured Depth                : 
TLFamily_KS        .         Potential Resistivity         : 
TLFamily_KS1       .         Extra Shallow Resistivity     : 
TLFamily_KS2       .         Shallow Resistivity           : 
TLFamily_KS3       .         Medium Resistivity            : 
TLFamily_KS4       .         Deep Resistivity              : 
TLFamily_KS5       .         Extra Deep Resistivity        : 
TLFamily_LLD       .         Lateral Log Resistivity       : 
TLFamily_OKS3      .         Medium Resistivity Inverted   : 
TLFamily_RM        .         Mud Resistivity               : 
group              .         INI                           : 
~Curve Information
#_______________________________________________________________________________
#
#LOGNAME           .UNIT     LOG_ID                        : DESCRIPTION
#_______________________________________________________________________________
DEPTH              .m                                      : Measured Depth 
KS                 .ohm.m                                  : Potential Resistivity 
KS1                .ohm.m                                  : Extra Shallow Resistivity 
KS2                .ohm.m                                  : Shallow Resistivity 
KS3                .ohm.m                                  : Medium Resistivity 
KS4                .ohm.m                                  : Deep Resistivity 
KS5                .ohm.m                                  : Extra Deep Resistivity 
LLD                .ohm.m                                  : Lateral Log Resistivity 
OKS3               .ohm.m                                  : Medium Resistivity Inverted 
RM                 .ohm.m                                  : Mud Resistivity 
~Ascii
# ...
2622.8     4.5114     1.8758     4.9327     8.5518     6.9603     2.9828     3.1152     6.9018     0.144     
2623       4.4768     1.8263     4.7127     7.0884     6.4718     2.5275     3.6267     7.6713     0.144     
2623.2     4.4643     1.8426     4.6976     6.1105     6.3239     2.1929     3.6278     8.5387     0.146     
2623.4     4.4848     1.8094     4.527      5.248      6.0026     1.9501     3.1839     9.6446     0.147     
2623.6     4.5147     1.7311     4.243      4.5503     5.5641     1.8022     3.2518     11.281     0.147     
2623.8     4.5861     1.6427     3.9875     4.1372     5.1711     1.7639     3.2204     13.5947    0.15      
2624       4.7115     1.5938     3.8275     3.9581     4.9573     1.7879     3.3509     16.431     0.151     
2624.2     4.9319     1.5437     3.7321     3.996      5.0337     1.9194     3.5256     20.0941    0.151     
2624.4     5.3626     1.4775     3.5739     4.1731     5.5084     2.224      3.4583     25.2593    0.151     
2624.6     6.0764     1.2913     3.3197     4.5395     6.561      2.7628     4.4085     31.7476    0.147     
2624.8     7.1458     1.1526     3.3158     5.139      8.1287     3.5807     5.3969     35.934     0.154     
2625       8.5124     1.2635     3.6524     5.6758     9.247      4.4901     18.8607    35.3646    0.162     
2625.2     10.067     1.5718     4.173      6.0269     9.5859     5.3328     33.2647    31.6481    0.157     
2625.4     11.2084    1.9645     4.9759     6.4289     9.7511     6.0047     50.0421    27.6452    0.16      
2625.6     11.981     2.413      6.3789     7.0663     10.105     6.4574     82.0979    23.8837    0.161     
2625.8     12.3895    2.8598     8.2893     7.9261     10.5751    6.5926     79.3037    20.4896    0.161     
2626       12.4658    3.253      10.5063    8.95       11.0511    6.7574     45.4332    17.4635    0.164     
2626.2     12.2581    3.5854     12.3608    10.1668    11.396     6.9987     24.3257    15.1358    0.16      
2626.4     12.0612    3.517      12.7238    10.9827    11.3481    7.2665     8.9139     14.1873    0.156     
2626.6     11.8799    3.1603     12.2719    11.752     11.0364    8.4484     9.1663     13.7877    0.151     
2626.8     11.7385    2.8868     11.6918    13.1012    11.0069    9.2669     10.4129    13.2092    0.151     
2627       11.5095    3.0518     12.16      15.8118    11.4223    10.2441    22.8198    11.9666    0.153     
2627.2     11.223     3.4258     13.4283    19.7841    12.2621    11.6896    26.0274    10.7063    0.157     
2627.4     10.7597    3.6038     13.8206    23.3121    13.4121    13.7838    13.865     9.9803     0.154     
2627.6     10.1731    3.7698     14.3727    26.0235    14.8363    16.2839    9.2244     10.005     0.151     
2627.8     9.6681     3.687      14.3502    27.43      16.2498    19.2665    7.1431     10.6564    0.15      
2628       9.1678     3.3625     13.4686    27.6284    17.6151    22.5323    7.5988     11.3581    0.151     
2628.2     8.7005     3.3628     13.6783    27.5993    19.1356    25.3652    9.5452     11.6447    0.154     
2628.4     8.1766     3.5069     13.9052    27.9207    20.8147    27.0036    9.3161     11.4608    0.155     
2628.6     7.5957     3.5724     13.8373    27.3002    21.8503    27.5587    8.2748     10.6392    0.159     
2628.8     6.9347     3.5316     13.2874    26.2806    22.822     26.5456    8.6192     9.4815     0.161     
2629       6.2947     3.6065     13.4367    24.8681    23.7505    23.968     6.4572     8.3913     0.157     
2629.2     5.789      3.2796     12.0997    22.3401    23.6711    20.5884    3.9198     7.6307     0.161     
2629.4     5.4132     2.7461     10.0606    18.7491    21.31      17.24      3.3559     7.1424     0.157     
2629.6     5.1797     2.4218     8.7464     15.5501    18.413     13.8409    3.403      7.0021     0.157     
2629.8     5.0832     2.2177     7.7375     13.3123    16.1944    10.9343    3.4937     7.0357     0.156     
2630       5.0329     2.1473     7.0519     11.6937    14.3098    8.8159     3.8344     7.1071     0.157     
2630.2     5.0188     2.1614     6.6164     10.7419    12.7948    7.2563     4.2133     7.1452     0.157     
2630.4     5.0109     2.1798     6.3139     10.0788    11.4977    6.1426     4.3285     7.2591     0.159     
2630.6     4.9716     2.2107     6.2179     9.5964     10.3993    5.2805     4.7093     7.4519     0.158     
2630.8     4.9146     2.2774     6.295      9.1877     9.5059     4.557      4.5129     7.8293     0.157     
2631       4.8459     2.2714     6.2314     8.679      8.6968     3.9646     4.29       8.4484     0.154     
2631.2     4.7878     2.2288     6.1376     8.0755     7.9984     3.468      3.938      9.4359     0.151     
2631.4     4.7317     2.1427     5.9667     7.5245     7.4233     3.0362     3.8956     10.7203    0.147     
2631.6     4.7631     2.119      5.8758     7.0437     6.9055     2.7166     3.6176     12.421     0.147     
2631.8     4.8571     1.9521     5.4747     6.7839     6.5884     2.5022     3.6676     14.5704    0.148     
2632       4.9792     1.9799     5.5697     6.7677     6.6002     2.3443     4.2926     16.8129    0.149     
2632.2     5.1657     2.0421     5.6744     6.9644     6.9068     2.2395     4.6716     18.3328    0.149     
2632.4     5.4512     2.0916     5.7158     6.9433     7.0088     2.193      4.6023     19.4014    0.149     
2632.6     5.8257     2.0392     5.5004     6.7107     6.955      2.1509     4.3219     20.4525    0.151     
2632.8     6.3328     1.8966     5.2165     6.2839     6.7763     2.1267     4.3421     21.4961    0.154     
2633       7.0546     1.7127     4.818      5.8473     6.5339     2.1803     5.0005     21.4084    0.154     
2633.2     7.9049     1.7071     4.923      5.6665     6.4814     2.3273     7.5186     19.8855    0.158     
2633.4     8.8188     1.8652     5.368      5.8676     6.649      2.5745     15.8612    17.5034    0.161     
2633.6     9.6498     2.1218     6.0399     6.3244     6.857      2.8502     16.7883    15.0277    0.161     
2633.8     10.2559    2.3525     6.849      7.0176     7.1025     3.1226     18.1739    12.8961    0.157     
2634       10.6828    2.5841     7.9096     7.9334     7.3887     3.3974     19.9662    11.216     0.155     
2634.2     10.8506    2.8447     9.2594     9.2791     7.8303     3.6719     25.588     9.8431     0.16      
2634.4     10.7059    3.2391     11.0878    11.2098    8.4688     3.9461     38.7729    8.5802     0.163     
2634.6     10.2709    3.6338     12.8074    13.4582    9.1743     4.182      27.7592    7.5293     0.164     
2634.8     9.5335     3.9314     14.2176    15.6627    9.7991     4.3596     20.3317    6.7579     0.164     
2635       8.5996     4.1116     15.3135    17.9694    10.2546    4.4674     12.5722    6.2215     0.157     
2635.2     7.5809     4.0679     15.6909    20.0331    10.5187    4.4798     8.8361     5.8724     0.151     
2635.4     6.7465     3.8755     15.2379    21.0933    10.3059    4.4193     4.5865     5.7123     0.149     
2635.6     6.0852     3.3345     13.204     20.7754    9.7305     4.2632     3.9632     5.736      0.147     
2635.8     5.5725     2.9861     11.6048    19.3587    9.0322     4.0254     3.9124     5.8571     0.151     
2636       5.239      2.6397     9.8352     17.6888    8.4657     3.773      3.6127     5.9713     0.151     
2636.2     5.0254     2.3863     8.3852     15.6765    8.0397     3.5995     3.4453     6.0989     0.151     
2636.4     4.8932     2.2316     7.3831     13.9069    7.802      3.5279     3.5826     6.2953     0.151     
2636.6     4.8329     2.1236     6.6441     12.4453    7.6965     3.5593     3.6303     6.5096     0.154     
2636.8     4.8049     2.073      6.1819     11.1809    7.6621     3.6913     3.7667     6.6179     0.154     
2637       4.7983     2.0994     5.9766     10.1308    7.8155     3.8687     4.1467     6.6713     0.155     
2637.2     4.789      2.1195     5.827      9.2245     8.0308     4.0623     4.1367     6.7        0.157     
