~Version
 VERS              .         2.0                           : CWLS LOG ASCII STANDARD - VERSION 2.0
 WRAP              .         NO                            : ONE LINE PER DEPTH STEP
 DLM               .         SPACE                         : DELIMITING CHARACTER(SPACE TAB OR COMMA)
~Well Information
#_______________________________________________________________________________
#
#PARAMETER_NAME    .UNIT     VALUE                         : DESCRIPTION
#_______________________________________________________________________________
STRT               .m        2506                          : First reference value
STOP               .m        2692                          : Last reference value
STEP               .m        0.2                           : Step increment
NULL               .         -9999                         : Missing value
COMP               .                                       : Company
WELL               .         500                           : Well name
FLD                .                                       : Field
LOC                .                                       : Location
CNTY               .                                       : County
STAT               .                                       : State
CTRY               .                                       : Country
SRVC               .                                       : Service Company
DATE               .                                       : Date
API                .                                       : API number
EREF               .m        139.4                         : 
X                  .m        230550                        : 
Y                  .m        242075                        : 
group              .         Pad5                          : 
Интер-р            .         Старостина                    : 
Куст               .         5                             : 
Статус             .         Не проверено                  : 
Тип                .         Разобраться                   : 
~Parameter Information Block
#_______________________________________________________________________________
#
#PARAMETER_NAME    .UNIT     VALUE                         : DESCRIPTION
#_______________________________________________________________________________
SET                .         LAS1                          : 
REAL_CREATION_DATE .         Ср апр 11 2012-13_17_17       : 
TLFamily_DEPTH     .         Measured Depth                : 
TLFamily_KS        .         Potential Resistivity         : 
TLFamily_KS1       .         Extra Shallow Resistivity     : 
TLFamily_KS2       .         Shallow Resistivity           : 
TLFamily_KS3       .         Medium Resistivity            : 
TLFamily_KS4       .         Deep Resistivity              : 
TLFamily_KS5       .         Extra Deep Resistivity        : 
TLFamily_LLD       .         Lateral Log Resistivity       : 
TLFamily_OKS3      .         Medium Resistivity Inverted   : 
TLFamily_RM        .         Mud Resistivity               : 
group              .         INI                           : 
~Curve Information
#_______________________________________________________________________________
#
#LOGNAME           .UNIT     LOG_ID                        : DESCRIPTION
#_______________________________________________________________________________
DEPTH              .m                                      : Measured Depth 
KS                 .ohm.m                                  : Potential Resistivity 
KS1                .ohm.m                                  : Extra Shallow Resistivity 
KS2                .ohm.m                                  : Shallow Resistivity 
KS3                .ohm.m                                  : Medium Resistivity 
KS4                .ohm.m                                  : Deep Resistivity 
KS5                .ohm.m                                  : Extra Deep Resistivity 
LLD                .ohm.m                                  : Lateral Log Resistivity 
OKS3               .ohm.m                                  : Medium Resistivity Inverted 
RM                 .ohm.m                                  : Mud Resistivity 
~Ascii
# ...
2520.6     5.7965     2.4014     7.0785     8.7016     7.5814     6.4542     5.2283     9.2582     0.167     
2520.8     5.7965     2.3827     7.0906     8.6349     7.5034     6.4093     5.2599     9.2409     0.167     
2521       5.7965     2.3784     7.1126     8.5774     7.4317     6.3921     5.3058     9.2491     0.167     
2521.2     5.7965     2.3684     7.1168     8.5506     7.3774     6.4044     5.3693     9.2821     0.167     
2521.4     5.8167     2.378      7.1255     8.5453     7.3459     6.4161     5.2857     9.3112     0.167     
2521.6     5.8302     2.3809     7.1359     8.5476     7.3283     6.4174     5.5297     9.3464     0.167     
2521.8     5.8369     2.3745     7.0895     8.5839     7.3164     6.4154     5.5275     9.3799     0.164     
2522       5.8437     2.4073     7.1835     8.6883     7.3433     6.38       5.4318     9.3949     0.165     
2522.2     5.8572     2.4044     7.2039     8.7764     7.3633     6.3426     5.3846     9.4199     0.164     
2522.4     5.8742     2.3828     7.162      8.7755     7.3442     6.315      5.8029     9.4377     0.164     
2522.6     5.846      2.3941     7.2028     8.8652     7.3912     6.2676     5.6576     9.418      0.164     
2522.8     5.8167     2.4956     7.4819     8.9527     7.4206     6.1985     5.2204     9.3149     0.164     
2523       5.8029     2.4554     7.3574     8.9689     7.3825     6.1393     5.0844     9.2535     0.164     
2523.2     5.7722     2.4256     7.2726     8.8397     7.2543     6.0715     5.0796     9.2935     0.164     
2523.4     5.7664     2.3834     7.1949     8.7512     7.1673     5.9506     5.2539     9.3827     0.164     
2523.6     5.7802     2.3547     7.1452     8.6846     7.1086     5.8672     5.3749     9.436      0.164     
2523.8     5.8041     2.3468     7.1054     8.6521     7.0896     5.8043     5.4105     9.4458     0.164     
2524       5.8241     2.3647     7.0864     8.6626     7.093      5.7703     5.5586     9.4229     0.164     
2524.2     5.8372     2.3892     7.1242     8.7016     7.1444     5.7327     5.537      9.3666     0.164     
2524.4     5.8572     2.3953     7.1511     8.7353     7.1608     5.7033     5.6166     9.2512     0.161     
2524.6     5.844      2.3912     7.1473     8.7505     7.1479     5.6798     5.4906     9.1176     0.161     
2524.8     5.8175     2.4315     7.2701     8.7987     7.1639     5.654      5.3539     9.0374     0.161     
2525       5.782      2.431      7.3019     8.8639     7.194      5.6231     5.1362     9.0196     0.161     
2525.2     5.756      2.4098     7.2735     8.8033     7.1639     5.591      4.9989     9.0099     0.161     
2525.4     5.7612     2.3502     7.1326     8.7045     7.1148     5.5626     5.3087     9.0537     0.161     
2525.6     5.7746     2.3103     7.0555     8.6509     7.0859     5.5247     5.6591     9.1541     0.161     
2525.8     5.7914     2.3301     7.0795     8.7115     7.1312     5.5102     5.6102     9.2152     0.162     
2526       5.81       2.37       7.1401     8.82       7.2037     5.497      5.6149     9.2189     0.164     
2526.2     5.7888     2.4157     7.1966     8.9155     7.276      5.4851     5.5035     9.2152     0.164     
2526.4     5.7585     2.4357     7.2426     8.9805     7.3136     5.4726     5.2743     9.2339     0.164     
2526.6     5.7221     2.4327     7.2702     8.9831     7.319      5.4458     5.259      9.2997     0.164     
2526.8     5.6788     2.4222     7.2603     8.936      7.2868     5.4046     5.1932     9.4053     0.164     
2527       5.6433     2.4035     7.2246     8.8656     7.2617     5.3644     5.106      9.527      0.164     
2527.2     5.6144     2.3899     7.2068     8.795      7.2161     5.3011     5.1191     9.6653     0.164     
2527.4     5.6087     2.3583     7.1267     8.665      7.118      5.2218     5.0029     9.6968     0.164     
2527.6     5.6387     2.2927     6.8779     8.4857     6.9605     5.174      4.929      9.6418     0.166     
2527.8     5.6481     2.2456     6.7455     8.3526     6.8776     5.132      4.9304     9.557      0.164     
2528       5.6635     2.2537     6.7772     8.2898     6.836      5.1083     4.956      9.5924     0.167     
2528.2     5.7009     2.2205     6.6753     8.3124     6.8816     5.1081     5.289      9.7251     0.167     
2528.4     5.7506     2.2315     6.7874     8.3263     6.9232     5.1406     5.4955     9.8334     0.167     
2528.6     5.8358     2.2563     6.8051     8.3532     6.9555     5.1678     5.6872     9.8363     0.167     
2528.8     5.9486     2.2431     6.7186     8.3477     6.9726     5.185      5.901      9.7793     0.167     
2529       6.0422     2.2798     6.7716     8.3984     6.9966     5.2106     6.1237     9.7047     0.164     
2529.2     6.1231     2.3179     6.8528     8.5363     7.0649     5.2392     6.4161     9.6161     0.164     
2529.4     6.1554     2.3694     7.0468     8.8018     7.2411     5.2789     6.1688     9.4981     0.167     
2529.6     6.1104     2.5008     7.4497     9.0894     7.4211     5.3013     5.7392     9.3234     0.167     
2529.8     6.0386     2.5634     7.6929     9.2114     7.5066     5.3273     5.5397     9.1451     0.167     
2530       5.9446     2.563      7.7592     9.2793     7.5094     5.3206     5.0429     9.0634     0.167     
2530.2     5.8423     2.5391     7.7747     9.2457     7.4517     5.2737     4.9435     9.1749     0.167     
2530.4     5.7592     2.4581     7.598      9.1877     7.3674     5.2388     4.9923     9.3599     0.167     
2530.6     5.729      2.3967     7.426      9.0622     7.2614     5.2054     5.0468     9.4732     0.164     
2530.8     5.7236     2.3184     7.1821     9.0157     7.1838     5.179      5.0685     9.6112     0.161     
2531       5.7453     2.3285     7.1467     8.9684     7.1743     5.1612     5.2435     9.716      0.164     
2531.2     5.787      2.287      6.9543     8.9372     7.1419     5.1782     5.5859     9.7798     0.161     
2531.4     5.8323     2.2897     6.8647     8.8981     7.1639     5.1977     5.7124     9.7302     0.161     
2531.6     5.8639     2.3341     6.9445     8.922      7.2344     5.2169     5.4534     9.6095     0.161     
2531.8     5.8688     2.3916     7.0598     8.9872     7.2747     5.2429     5.1866     9.4837     0.161     
2532       5.8639     2.4219     7.1404     8.9749     7.315      5.2625     4.8038     9.465      0.158     
2532.2     5.8863     2.3801     7.097      8.8379     7.2798     5.2839     5.4214     9.5679     0.157     
2532.4     5.932      2.2837     6.9175     8.6564     7.2546     5.308      5.9102     9.6304     0.157     
2532.6     5.995      2.3074     7.0043     8.5945     7.2969     5.3345     6.0113     9.5938     0.154     
2532.8     6.0573     2.3611     7.1211     8.7248     7.43       5.3717     6.0521     9.473      0.154     
2533       6.0762     2.4147     7.2099     8.8735     7.5658     5.4166     6.1098     9.3151     0.154     
2533.2     6.0587     2.4671     7.3402     9.0229     7.6802     5.436      5.8144     9.1852     0.154     
2533.4     6.0152     2.5094     7.4914     9.1773     7.7748     5.4452     5.477      9.0922     0.154     
2533.6     5.9298     2.5279     7.6322     9.3071     7.8162     5.4335     5.0932     9.0242     0.154     
2533.8     5.8468     2.5241     7.692      9.3723     7.8059     5.4206     5.057      8.9972     0.154     
2534       5.7594     2.4807     7.6274     9.3285     7.7408     5.3833     4.985      9.0347     0.154     
2534.2     5.7049     2.4319     7.5035     9.2266     7.6305     5.3435     4.9733     9.1257     0.154     
2534.4     5.6751     2.3926     7.369      9.1014     7.5023     5.304      5.0967     9.2392     0.154     
2534.6     5.6855     2.3402     7.1623     8.9989     7.3705     5.2762     5.3135     9.3547     0.154     
2534.8     5.6886     2.3145     7.0216     8.9379     7.2755     5.2509     5.2751     9.4361     0.154     
2535       5.7007     2.3463     7.0349     8.9278     7.2487     5.2255     5.0747     9.4748     0.154     
