~Version
 VERS              .         2.0                           : CWLS LOG ASCII STANDARD - VERSION 2.0
 WRAP              .         NO                            : ONE LINE PER DEPTH STEP
 DLM               .         SPACE                         : DELIMITING CHARACTER(SPACE TAB OR COMMA)
~Well Information
#_______________________________________________________________________________
#
#PARAMETER_NAME    .UNIT     VALUE                         : DESCRIPTION
#_______________________________________________________________________________
STRT               .m        2506                          : First reference value
STOP               .m        2692                          : Last reference value
STEP               .m        0.2                           : Step increment
NULL               .         -9999                         : Missing value
COMP               .                                       : Company
WELL               .         500                           : Well name
FLD                .                                       : Field
LOC                .                                       : Location
CNTY               .                                       : County
STAT               .                                       : State
CTRY               .                                       : Country
SRVC               .                                       : Service Company
DATE               .                                       : Date
API                .                                       : API number
EREF               .m        139.4                         : 
X                  .m        230550                        : 
Y                  .m        242075                        : 
group              .         Pad5                          : 
Интер-р            .         Старостина                    : 
Куст               .         5                             : 
Статус             .         Не проверено                  : 
Тип                .         Разобраться                   : 
~Parameter Information Block
#_______________________________________________________________________________
#
#PARAMETER_NAME    .UNIT     VALUE                         : DESCRIPTION
#_______________________________________________________________________________
SET                .         LAS1                          : 
REAL_CREATION_DATE .         Ср апр 11 2012-13_17_17       : 
TLFamily_DEPTH     .         Measured Depth                : 
TLFamily_KS        .         Potential Resistivity         : 
TLFamily_KS1       .         Extra Shallow Resistivity     : 
TLFamily_KS2       .         Shallow Resistivity           : 
TLFamily_KS3       .         Medium Resistivity            : 
TLFamily_KS4       .         Deep Resistivity              : 
TLFamily_KS5       .         Extra Deep Resistivity        : 
TLFamily_LLD       .         Lateral Log Resistivity       : 
TLFamily_OKS3      .         Medium Resistivity Inverted   : 
TLFamily_RM        .         Mud Resistivity               : 
group              .         INI                           : 
~Curve Information
#_______________________________________________________________________________
#
#LOGNAME           .UNIT     LOG_ID                        : DESCRIPTION
#_______________________________________________________________________________
DEPTH              .m                                      : Measured Depth 
KS                 .ohm.m                                  : Potential Resistivity 
KS1                .ohm.m                                  : Extra Shallow Resistivity 
KS2                .ohm.m                                  : Shallow Resistivity 
KS3                .ohm.m                                  : Medium Resistivity 
KS4                .ohm.m                                  : Deep Resistivity 
KS5                .ohm.m                                  : Extra Deep Resistivity 
LLD                .ohm.m                                  : Lateral Log Resistivity 
OKS3               .ohm.m                                  : Medium Resistivity Inverted 
RM                 .ohm.m                                  : Mud Resistivity 
~Ascii
# ...
2564.4     9.4647     3.0053     10.648     16.7221    13.9574    6.883      8.3492     16.7907    0.157     
2564.6     9.3905     3.0268     10.7253    16.9612    14.6142    6.9654     7.9353     16.7975    0.157     
2564.8     9.3162     3.0839     10.8898    17.0545    15.0902    7.0545     7.5732     16.7553    0.157     
2565       9.2315     2.9863     10.5571    16.9962    15.3724    7.1717     7.4606     16.8943    0.151     
2565.2     9.1154     3.027      10.7218    16.9498    15.6878    7.2886     7.4178     17.4791    0.157     
2565.4     9.0095     2.996      10.6615    17.013     16.1384    7.3977     9.5471     18.3093    0.157     
2565.6     9.0354     2.8719     10.3263    16.6458    16.2094    7.6463     8.3368     18.9667    0.154     
2565.8     9.0939     2.7572     9.9227     16.3951    16.4414    7.9017     8.6387     19.8333    0.157     
2566       9.1369     2.8021     10.0978    16.5292    17.0059    8.0536     9.3657     20.418     0.157     
2566.2     9.2738     2.8432     10.1299    16.5881    17.2913    8.159      9.6691     20.4909    0.157     
2566.4     9.448      2.7818     9.8        16.2759    16.9915    8.1866     9.5629     20.1827    0.157     
2566.6     9.5926     2.8192     9.8044     15.9333    16.6023    8.0635     9.4719     19.888     0.157     
2566.8     9.7111     2.8319     9.7974     15.8222    16.4626    7.8992     9.606      19.7144    0.155     
2567       9.7985     2.9071     10.0501    15.7609    16.3926    7.8269     10.2873    19.662     0.157     
2567.2     9.8839     2.9052     10.1497    15.6941    16.3226    7.8049     10.1605    19.7506    0.157     
2567.4     9.9508     2.9113     10.2549    15.6253    16.2768    7.8714     9.6294     19.8227    0.157     
2567.6     10.003     2.9585     10.4972    15.8166    16.3562    7.9539     10.068     19.8154    0.157     
2567.8     10.0561    2.9989     10.6543    16.0943    16.4471    8.0827     10.4161    19.7538    0.157     
2568       10.1029    3.0099     10.7249    16.3118    16.4449    8.238      10.1891    19.7293    0.156     
2568.2     10.1409    2.9896     10.7155    16.5818    16.4347    8.4089     10.372     19.6989    0.157     
2568.4     10.1667    3.0145     10.8386    16.9683    16.4753    8.5675     10.1771    19.6775    0.157     
2568.6     10.1887    3.0288     10.9171    17.2834    16.5513    8.7381     10.039     19.7044    0.157     
2568.8     10.2108    3.0494     11.0056    17.5137    16.5455    8.8905     10.2963    19.6509    0.157     
2569       10.2241    3.0384     10.97      17.5868    16.4595    9.0102     10.7093    19.4217    0.157     
2569.2     10.2519    3.0152     10.8875    17.5103    16.2523    9.0555     10.3674    19.1737    0.157     
2569.4     10.2489    3.0003     10.8158    17.4755    16.0685    9.0619     10.1586    18.9536    0.157     
2569.6     10.2134    3.0507     10.969     17.6125    16.1784    9.0787     9.547      18.8578    0.157     
2569.8     10.1469    3.0804     11.1255    17.8648    16.4643    9.1324     8.8765     18.92      0.155     
2570       10.0681    3.0718     11.1256    18.0428    16.7838    9.2075     7.1007     19.0933    0.157     
2570.2     10.0015    3.0857     11.1813    18.0702    17.0718    9.2876     9.3735     19.386     0.157     
2570.4     9.9724     3.0351     11.0177    17.9828    17.3363    9.4012     12.0112    20.129     0.155     
2570.6     10.026     2.888      10.5507    17.5964    17.3423    9.569      11.2071    21.5433    0.154     
2570.8     10.0577    2.7618     10.1854    17.4413    17.6175    9.7787     11.3288    22.6793    0.154     
2571       10.1815    2.8583     10.5526    17.8326    18.2962    10.0979    12.0998    23.2143    0.154     
2571.2     10.2865    2.9584     10.7755    18.4485    19.1408    10.4       10.9727    23.6096    0.154     
2571.4     10.3331    3.0258     10.9646    18.8211    19.7725    10.6017    9.502      23.708     0.154     
2571.6     10.3676    3.0683     11.0154    18.9142    19.9928    10.6346    9.537      23.211     0.154     
2571.8     10.4209    3.0722     11.0765    18.5981    19.6748    10.4894    9.572      22.4673    0.154     
2572       10.4558    3.0083     10.9184    18.0214    19.0745    10.1839    9.9941     22.167     0.156     
2572.2     10.5062    2.9378     10.6707    17.4278    18.4749    9.8364     10.1634    22.318     0.155     
2572.4     10.5811    2.8777     10.4713    16.9823    18.0661    9.5741     11.4231    22.7699    0.157     
2572.6     10.697     2.8491     10.3942    16.6616    17.826     9.4702     12.4661    23.3252    0.154     
2572.8     10.8643    2.7995     10.2208    16.4813    17.7184    9.5285     12.9672    23.9454    0.157     
2573       11.065     2.7754     10.121     16.6208    17.8067    9.7316     15.3135    24.6337    0.157     
2573.2     11.2857    2.814      10.2336    17.051     18.2131    10.0768    16.8387    25.3526    0.157     
2573.4     11.4916    2.8504     10.4155    17.6966    18.8828    10.5917    15.9596    25.9334    0.157     
2573.6     11.6335    2.9454     10.8374    18.7236    19.9215    11.2382    13.8608    26.2506    0.157     
2573.8     11.7262    3.1205     11.5507    20.0392    21.2777    11.8339    12.5267    26.2957    0.154     
2574       11.7701    3.2371     12.1436    21.0241    22.3234    12.2963    12.2294    25.9742    0.157     
2574.2     11.8078    3.2553     12.2393    21.2285    22.4524    12.5676    12.2502    25.338     0.157     
2574.4     11.8298    3.1886     12.0888    20.9587    22.0664    12.6101    11.4039    24.8013    0.157     
2574.6     11.8392    3.1733     12.107     20.6927    21.6574    12.4242    10.9734    24.4672    0.157     
2574.8     11.8787    3.1409     12.029     20.5122    21.3637    12.1199    11.5564    24.3291    0.157     
2575       11.9527    3.0854     11.835     20.2135    21.1312    11.8195    13.6295    24.3333    0.157     
2575.2     12.0624    2.9851     11.4529    19.8736    20.8653    11.556     14.2198    24.4866    0.157     
2575.4     12.1727    2.959      11.2672    19.74      20.7513    11.3247    14.8844    24.5144    0.157     
2575.6     12.3086    3.0069     11.3952    19.9645    21.0194    11.1721    15.4997    24.4286    0.157     
2575.8     12.4252    3.0397     11.468     20.3471    21.4068    11.0877    14.9165    24.1948    0.157     
2576       12.5212    3.0862     11.6431    20.6122    21.5848    11.1248    14.673     23.9552    0.157     
2576.2     12.5541    3.0701     11.5469    20.9622    21.8347    11.2008    12.874     23.3632    0.151     
2576.4     12.5195    3.2444     12.1777    21.4359    22.2704    11.2988    12.3055    23.1051    0.157     
2576.6     12.4484    3.2627     12.3905    21.9765    22.9386    11.3657    13.7193    23.1777    0.157     
2576.8     12.4597    3.173      12.2443    21.8588    23.0188    11.5404    13.9797    23.3588    0.157     
2577       12.4635    3.0709     11.9206    21.6778    23.1018    11.6845    13.8639    23.5081    0.157     
2577.2     12.4795    3.1042     12.0621    21.7442    23.5082    11.8187    14.6932    23.5415    0.157     
2577.4     12.5101    3.1206     12.0659    22.0332    24.2087    11.9778    13.7649    23.4265    0.157     
2577.6     12.5423    3.135      12.0786    22.297     24.8776    12.2154    13.6876    23.1691    0.157     
2577.8     12.5609    3.1495     12.0936    22.5104    25.5468    12.4659    13.497     22.6584    0.156     
2578       12.5642    3.1722     12.1734    22.7624    26.311     12.7423    11.9211    22.2887    0.156     
2578.2     12.5364    3.1934     12.3028    23.0038    27.0924    13.0534    12.2475    21.964     0.157     
2578.4     12.52      3.2091     12.3071    23.0175    27.6386    13.4469    17.5474    21.6327    0.157     
2578.6     12.5442    3.1469     12.1036    22.8117    28.0213    13.9247    18.3555    21.2698    0.157     
2578.8     12.5775    3.0862     12.0237    22.9365    28.6372    14.4363    17.8936    20.897     0.157     
