~Version
 VERS              .         2.0                           : CWLS LOG ASCII STANDARD - VERSION 2.0
 WRAP              .         NO                            : ONE LINE PER DEPTH STEP
 DLM               .         SPACE                         : DELIMITING CHARACTER(SPACE TAB OR COMMA)
~Well Information
#_______________________________________________________________________________
#
#PARAMETER_NAME    .UNIT     VALUE                         : DESCRIPTION
#_______________________________________________________________________________
STRT               .m        2506                          : First reference value
STOP               .m        2692                          : Last reference value
STEP               .m        0.2                           : Step increment
NULL               .         -9999                         : Missing value
COMP               .                                       : Company
WELL               .         500                           : Well name
FLD                .                                       : Field
LOC                .                                       : Location
CNTY               .                                       : County
STAT               .                                       : State
CTRY               .                                       : Country
SRVC               .                                       : Service Company
DATE               .                                       : Date
API                .                                       : API number
EREF               .m        139.4                         : 
X                  .m        230550                        : 
Y                  .m        242075                        : 
group              .         Pad5                          : 
Интер-р            .         Старостина                    : 
Куст               .         5                             : 
Статус             .         Не проверено                  : 
Тип                .         Разобраться                   : 
~Parameter Information Block
#_______________________________________________________________________________
#
#PARAMETER_NAME    .UNIT     VALUE                         : DESCRIPTION
#_______________________________________________________________________________
SET                .         LAS1                          : 
REAL_CREATION_DATE .         Ср апр 11 2012-13_17_17       : 
TLFamily_DEPTH     .         Measured Depth                : 
TLFamily_KS        .         Potential Resistivity         : 
TLFamily_KS1       .         Extra Shallow Resistivity     : 
TLFamily_KS2       .         Shallow Resistivity           : 
TLFamily_KS3       .         Medium Resistivity            : 
TLFamily_KS4       .         Deep Resistivity              : 
TLFamily_KS5       .         Extra Deep Resistivity        : 
TLFamily_LLD       .         Lateral Log Resistivity       : 
TLFamily_OKS3      .         Medium Resistivity Inverted   : 
TLFamily_RM        .         Mud Resistivity               : 
group              .         INI                           : 
~Curve Information
#_______________________________________________________________________________
#
#LOGNAME           .UNIT     LOG_ID                        : DESCRIPTION
#_______________________________________________________________________________
DEPTH              .m                                      : Measured Depth 
KS                 .ohm.m                                  : Potential Resistivity 
KS1                .ohm.m                                  : Extra Shallow Resistivity 
KS2                .ohm.m                                  : Shallow Resistivity 
KS3                .ohm.m                                  : Medium Resistivity 
KS4                .ohm.m                                  : Deep Resistivity 
KS5                .ohm.m                                  : Extra Deep Resistivity 
LLD                .ohm.m                                  : Lateral Log Resistivity 
OKS3               .ohm.m                                  : Medium Resistivity Inverted 
RM                 .ohm.m                                  : Mud Resistivity 
~Ascii
# ...
2593.6     7.3455     2.4318     7.0953     8.8434     11.2359    12.5766    6.8546     11.5979    0.154     
2593.8     7.4576     2.3985     7.2024     8.8719     11.0884    13.3467    6.5067     11.278     0.154     
2594       7.5808     2.3767     7.4105     9.0731     11.3239    14.5504    8.9418     11.2671    0.157     
2594.2     7.7113     2.4133     7.7398     9.5176     11.9162    16.5541    35.2345    11.3604    0.154     
2594.4     7.9062     2.4359     7.9532     10.2168    13.1062    19.4326    13.0931    11.8902    0.154     
2594.6     8.0674     2.3776     8.1371     11.3944    15.043     22.7448    6.6829     12.5391    0.154     
2594.8     8.0644     2.6352     9.2765     13.1882    17.0237    25.7037    6.7672     12.1949    0.157     
2595       7.941      3.1643     10.8365    15.2854    18.1892    27.2697    4.5903     10.8931    0.157     
2595.2     7.6273     3.5794     11.8651    16.6389    17.822     27.1884    4.412      9.544      0.155     
2595.4     7.0742     3.5436     11.6515    16.9772    16.4879    25.5714    3.6464     7.9788     0.157     
2595.6     6.5198     3.432      11.6721    16.2756    14.7622    23.066     3.6564     6.8612     0.155     
2595.8     6.045      3.1022     11.0257    15.1667    13.1021    19.8366    3.5977     6.8164     0.154     
2596       5.6726     2.8774     10.4212    13.8736    11.4022    17.0134    3.5725     6.9212     0.154     
2596.2     5.3951     2.6053     9.2925     12.7541    9.9504     13.7684    4.361      7.1332     0.154     
2596.4     5.2102     2.4416     8.3877     11.7477    8.6945     10.9513    4.0633     7.2582     0.154     
2596.6     5.1373     2.2891     7.5671     10.9021    7.727      8.9268     4.0841     7.2017     0.154     
2596.8     5.0753     2.1692     6.9256     10.3927    7.1971     7.3367     4.0638     7.1279     0.157     
2597       5.0207     2.2779     6.915      10.3211    6.9945     6.4033     3.6588     7.1267     0.157     
2597.2     4.9956     2.2977     6.673      10.1513    6.9023     5.749      3.7803     7.2426     0.161     
2597.4     4.9062     2.2911     6.4843     9.575      6.678      5.2376     3.748      7.3842     0.161     
2597.6     4.853      2.2494     6.372      8.9049     6.3906     4.7774     4.2144     7.6417     0.161     
2597.8     4.8137     2.1781     6.2042     8.2855     6.0775     4.3329     4.4216     7.8817     0.161     
2598       4.9528     2.1358     6.119      7.716      5.8427     3.9324     4.4424     8.0337     0.161     
2598.2     5.0658     2.0849     5.8586     7.2679     5.7237     3.6328     4.7162     8.1133     0.164     
2598.4     5.1698     2.1059     5.8152     6.9999     5.7371     3.3672     5.1338     8.1636     0.164     
2598.6     5.2522     2.1694     5.8374     6.9055     5.8808     3.1808     5.1243     8.1796     0.167     
2598.8     5.3247     2.2257     6.1402     6.8804     6.1176     3.042      5.232      8.1487     0.167     
2599       5.3444     2.2828     6.3482     6.955      6.5094     2.9467     4.9738     8.0612     0.164     
2599.2     5.3253     2.3431     6.5852     7.0932     6.8872     2.8799     4.7976     7.9758     0.164     
2599.4     5.2776     2.3725     6.7569     7.1674     7.1011     2.8249     4.2271     7.9283     0.164     
2599.6     5.25       2.3603     6.8024     7.2496     7.1875     2.7713     4.7072     7.9589     0.161     
2599.8     5.2281     2.2634     6.6388     7.3094     7.1692     2.7215     4.6928     8.073      0.161     
2600       5.1965     2.2741     6.7149     7.2961     7.0075     2.6979     4.5784     8.1241     0.161     
2600.2     5.203      2.2685     6.6801     7.4348     6.8113     2.6806     4.4767     8.0993     0.161     
2600.4     5.2138     2.2857     6.6821     7.4909     6.6758     2.6711     4.326      8.0881     0.161     
2600.6     5.2508     2.2399     6.4899     7.4872     6.5899     2.6833     4.7273     8.1345     0.161     
2600.8     5.2957     2.1974     6.3475     7.4752     6.4658     2.7091     5.1951     8.1857     0.164     
2601       5.3343     2.1983     6.3951     7.5903     6.3638     2.7747     5.2544     8.1311     0.164     
2601.2     5.3589     2.2987     6.6437     7.7465     6.296      2.8835     4.8824     7.8867     0.166     
2601.4     5.4194     2.3328     6.6985     7.7531     6.3228     3.001      4.4739     7.5092     0.166     
2601.6     5.389      2.2862     6.524      7.6925     6.3482     3.1357     4.437      7.327      0.156     
2601.8     5.3087     2.3686     6.8228     7.6724     6.2354     3.2724     4.6145     7.3211     0.165     
2602       5.2008     2.3373     6.8684     7.7944     6.1288     3.3801     4.3809     7.3406     0.167     
2602.2     5.157      2.3334     6.9984     7.8116     6.106      3.4739     4.2224     7.2872     0.161     
2602.4     5.142      2.2669     6.8083     7.7864     6.0614     3.5796     4.703      7.2465     0.157     
2602.6     5.0797     2.2553     6.6964     7.7612     6.0569     3.7605     4.1685     7.226      0.157     
2602.8     5.0324     2.305      6.7278     7.8155     6.0939     3.9506     4.0413     7.1485     0.157     
2603       5.0007     2.3068     6.6554     7.8231     6.0574     4.1684     4.1441     7.0726     0.157     
2603.2     4.9494     2.2521     6.4827     7.7413     5.9413     4.4367     3.9689     7.0848     0.157     
2603.4     4.9242     2.2225     6.3767     7.6562     5.8558     4.7459     4.1428     7.0838     0.157     
2603.6     4.9197     2.1752     6.2507     7.5291     5.8023     4.9874     4.5598     7.143      0.157     
2603.8     4.9197     2.1466     6.187      7.3778     5.7749     5.1573     4.6288     7.2247     0.157     
2604       4.9197     2.1761     6.2319     7.3029     5.7956     5.2571     4.3477     7.2051     0.157     
2604.2     4.916      2.2227     6.291      7.3104     5.8346     5.3239     4.2755     7.1556     0.157     
2604.4     4.8764     2.2461     6.2819     7.2956     5.845      5.3285     3.9187     7.095      0.157     
2604.6     4.8363     2.2539     6.2889     7.2159     5.8295     5.3181     3.7595     7.079      0.157     
2604.8     4.8083     2.2153     6.2195     7.1121     5.7903     5.2682     3.882      7.1629     0.157     
2605       4.7983     2.1561     6.1245     7.0155     5.7963     5.2153     4.2502     7.3753     0.154     
2605.2     4.8239     2.1354     6.102      6.9352     5.842      5.1866     4.9913     7.4998     0.154     
2605.4     4.8521     2.1065     6.042      6.9573     5.9487     5.16       3.9097     7.4435     0.151     
2605.6     4.8593     2.2606     6.2841     7.0158     6.0024     5.1622     3.706      7.5478     0.151     
2605.8     4.8723     2.2572     6.1751     6.9895     5.943      5.161      3.7811     7.8205     0.151     
2606       4.8741     2.1753     5.9896     6.8486     5.8        5.1439     4.0837     8.0072     0.154     
2606.2     4.9304     2.0943     5.9403     6.7909     5.7881     5.1515     4.9874     7.8721     0.154     
2606.4     4.9854     2.0878     6.0131     6.8752     5.904      5.1724     4.7406     7.5485     0.155     
2606.6     5.0396     2.2288     6.3343     7.0187     5.993      5.1855     4.3065     7.2616     0.158     
2606.8     5.0681     2.302      6.387      7.0763     5.9534     5.1651     4.2476     7.0738     0.161     
2607       5.0434     2.3047     6.3428     7.0125     5.8229     5.0997     4.2043     6.8648     0.161     
2607.2     5.0006     2.2852     6.3754     6.9324     5.6749     4.9933     4.0596     6.5005     0.161     
2607.4     4.9725     2.2526     6.4056     6.901      5.5309     4.896      4.1808     5.9899     0.161     
2607.6     4.9556     2.2105     6.3752     6.8699     5.4114     4.8394     4.2269     6.2815     0.164     
2607.8     4.9583     2.1933     6.3458     6.8565     5.3413     4.7864     4.2663     6.8889     0.161     
2608       5.0192     2.1933     6.2995     6.8366     5.3229     4.7702     4.3563     7.5774     0.161     
