~Version
 VERS              .         2.0                           : CWLS LOG ASCII STANDARD - VERSION 2.0
 WRAP              .         NO                            : ONE LINE PER DEPTH STEP
 DLM               .         SPACE                         : DELIMITING CHARACTER(SPACE TAB OR COMMA)
~Well Information
#_______________________________________________________________________________
#
#PARAMETER_NAME    .UNIT     VALUE                         : DESCRIPTION
#_______________________________________________________________________________
STRT               .m        2506                          : First reference value
STOP               .m        2692                          : Last reference value
STEP               .m        0.2                           : Step increment
NULL               .         -9999                         : Missing value
COMP               .                                       : Company
WELL               .         500                           : Well name
FLD                .                                       : Field
LOC                .                                       : Location
CNTY               .                                       : County
STAT               .                                       : State
CTRY               .                                       : Country
SRVC               .                                       : Service Company
DATE               .                                       : Date
API                .                                       : API number
EREF               .m        139.4                         : 
X                  .m        230550                        : 
Y                  .m        242075                        : 
group              .         Pad5                          : 
Интер-р            .         Старостина                    : 
Куст               .         5                             : 
Статус             .         Не проверено                  : 
Тип                .         Разобраться                   : 
~Parameter Information Block
#_______________________________________________________________________________
#
#PARAMETER_NAME    .UNIT     VALUE                         : DESCRIPTION
#_______________________________________________________________________________
SET                .         LAS1                          : 
REAL_CREATION_DATE .         Ср апр 11 2012-13_17_17       : 
TLFamily_DEPTH     .         Measured Depth                : 
TLFamily_KS        .         Potential Resistivity         : 
TLFamily_KS1       .         Extra Shallow Resistivity     : 
TLFamily_KS2       .         Shallow Resistivity           : 
TLFamily_KS3       .         Medium Resistivity            : 
TLFamily_KS4       .         Deep Resistivity              : 
TLFamily_KS5       .         Extra Deep Resistivity        : 
TLFamily_LLD       .         Lateral Log Resistivity       : 
TLFamily_OKS3      .         Medium Resistivity Inverted   : 
TLFamily_RM        .         Mud Resistivity               : 
group              .         INI                           : 
~Curve Information
#_______________________________________________________________________________
#
#LOGNAME           .UNIT     LOG_ID                        : DESCRIPTION
#_______________________________________________________________________________
DEPTH              .m                                      : Measured Depth 
KS                 .ohm.m                                  : Potential Resistivity 
KS1                .ohm.m                                  : Extra Shallow Resistivity 
KS2                .ohm.m                                  : Shallow Resistivity 
KS3                .ohm.m                                  : Medium Resistivity 
KS4                .ohm.m                                  : Deep Resistivity 
KS5                .ohm.m                                  : Extra Deep Resistivity 
LLD                .ohm.m                                  : Lateral Log Resistivity 
OKS3               .ohm.m                                  : Medium Resistivity Inverted 
RM                 .ohm.m                                  : Mud Resistivity 
~Ascii
# ...
2637.4     4.7519     2.1394     5.7676     8.4292     8.2429     4.2529     4.1207     6.7037     0.157     
2637.6     4.7154     2.1358     5.7118     7.7821     8.365      4.5014     3.9506     6.8073     0.154     
2637.8     4.6803     2.099      5.6327     7.2262     8.3644     4.8236     3.9268     7.0292     0.156     
2638       4.6659     2.0499     5.5627     6.835      8.3724     5.2495     3.9422     7.2778     0.157     
2638.2     4.6635     2.0354     5.5542     6.6342     8.4639     5.8743     4.1812     7.4752     0.161     
2638.4     4.6829     2.0361     5.5261     6.611      8.758      6.9287     3.7886     7.8345     0.161     
2638.6     4.7251     1.9875     5.4447     6.8624     9.5103     8.7138     3.7037     8.7922     0.157     
2638.8     4.7925     1.9834     5.6136     7.7107     11.3207    10.3736    3.692      10.5915    0.157     
2639       5.0057     1.9682     6.0377     8.4711     12.8999    11.6147    4.3201     11.3958    0.151     
2639.2     5.376      1.9436     5.9066     8.6927     13.114     12.3684    7.0826     10.6878    0.147     
2639.4     5.685      2.1638     6.1289     8.4481     12.0448    12.4089    8.4061     9.3611     0.144     
2639.6     5.7595     2.4671     6.5543     8.3178     11.1205    11.3328    5.6455     8.6378     0.146     
2639.8     5.6637     2.5064     6.7066     8.1018     10.0813    10.1912    5.2622     8.0556     0.149     
2640       5.4776     2.5945     7.3036     7.8546     9.069      9.2136     7.765      7.5253     0.147     
2640.2     5.178      2.6611     7.9304     7.912      8.3722     8.2374     5.4329     7.2605     0.147     
2640.4     4.8059     2.8443     8.5261     7.9043     7.5583     7.3103     3.7866     7.2292     0.153     
2640.6     4.5868     2.612      7.9        7.5189     6.435      6.5        3.3723     7.2984     0.157     
2640.8     4.4397     2.1759     6.6186     6.7333     5.208      5.8124     3.2948     7.7275     0.153     
2641       4.31       2.0537     6.1941     6.3115     4.4628     5.1082     3.2373     8.7351     0.154     
2641.2     4.2255     2.0523     5.879      6.3494     4.0126     4.6104     3.4938     9.7971     0.154     
2641.4     4.317      1.8528     5.0334     6.1487     3.4751     4.463      2.8087     10.9457    0.157     
2641.6     4.5164     1.635      4.2359     5.4641     3          4.6349     2.7846     12.9663    0.15      
2641.8     4.8293     1.4506     3.7879     5.0736     2.912      4.923      2.6977     16.5451    0.153     
2642       5.2503     1.3407     3.6815     5.2522     3.1877     5.2847     3.4487     19.9325    0.151     
2642.2     5.9667     1.4445     4.0472     5.6285     3.5968     5.6807     6.8318     21.491     0.154     
2642.4     6.8419     1.6091     4.2593     5.82       3.905      6.0053     10.5473    21.1467    0.151     
2642.6     7.5373     1.9187     4.6791     5.9468     4.1932     6.1123     11.7704    20.4766    0.149     
2642.8     8.0653     2.197      5.2584     6.1508     4.5858     6.1067     11.3143    20.0499    0.151     
2643       8.4756     2.36       6.0342     6.3435     5.0941     6.1063     10.7118    19.9052    0.156     
2643.2     8.7825     2.4968     7.0418     6.5554     5.7986     6.1063     10.8738    19.9527    0.157     
2643.4     9.0083     2.6013     7.8497     6.9368     6.585      6.1184     10.5413    20.0995    0.161     
2643.6     9.1719     2.6682     8.4303     7.3658     7.1173     6.1714     10.3792    20.3921    0.161     
2643.8     9.2884     2.7037     8.842      7.8329     7.4386     6.2267     10.0176    21.0317    0.161     
2644       9.3873     2.7051     9.061      8.432      7.6329     6.3237     9.6008     22.0114    0.161     
2644.2     9.4645     2.6911     9.171      9.4616     7.7444     6.461      9.4038     23.1573    0.164     
2644.4     9.5481     2.6915     9.2882     10.7621    7.8295     6.6969     8.8192     24.5248    0.159     
2644.6     9.6833     2.6694     9.2116     11.7307    7.8911     7.0052     8.6461     26.104     0.152     
2644.8     9.8829     2.5928     8.9356     12.2186    7.8979     7.4308     8.9819     27.7017    0.151     
2645       10.1664    2.5226     8.6733     12.3654    7.9087     8.0322     8.1615     29.6494    0.151     
2645.2     10.4724    2.4388     8.358      12.5409    8.2118     8.8186     8.801      31.9624    0.16      
2645.4     10.8689    2.4366     8.4151     12.928     8.9325     9.7237     10.8589    33.7605    0.161     
2645.6     11.3622    2.4743     8.5037     13.3694    9.8541     10.9613    10.7301    35.1139    0.164     
2645.8     11.9278    2.4481     8.4827     13.7259    10.962     12.5404    10.4608    36.3367    0.164     
2646       12.6449    2.3273     8.334      14.1203    12.5188    14.077     10.3429    37.9376    0.161     
2646.2     13.4207    2.2156     8.3233     14.8363    14.6384    15.4604    15.267     38.2119    0.161     
2646.4     14.2098    2.47       9.2785     16.0804    17.102     16.646     60.1512    35.7812    0.166     
2646.6     14.9419    2.8194     10.4967    17.5442    19.1905    17.4934    33.1307    32.2843    0.164     
2646.8     15.4616    2.993      11.072     18.7856    20.8409    17.9132    29.4412    28.6649    0.158     
2647       15.7311    3.1925     12.028     20.0064    22.3271    17.8669    53.6236    24.6548    0.151     
2647.2     15.9256    3.4339     13.1587    21.0254    23.3027    18.0448    64.9561    20.1365    0.151     
2647.4     15.7894    3.366      13.4174    22.4583    24.4132    18.4898    17.2015    17.8327    0.147     
2647.6     15.302     3.6904     15.1598    24.5313    26.0355    19.2254    45.5869    16.4552    0.161     
2647.8     14.6666    3.9288     16.4062    27.2522    28.0234    19.4552    57.9083    15.239     0.162     
2648       14.0751    4.1223     17.7423    29.8221    29.5306    19.6107    37.7194    13.3265    0.164     
2648.2     13.4468    3.9996     17.1805    31.255     29.9756    19.3225    15.011     12.0601    0.157     
2648.4     12.5979    3.9039     16.811     32.6652    30.2609    18.5727    12.9885    11.7088    0.153     
2648.6     11.7533    3.9989     17.3805    34.3867    30.908     17.6148    9.53       12.0415    0.151     
2648.8     10.9411    3.7384     16.5208    35.4565    31.5748    17.045     9.3812     12.7164    0.154     
2649       10.0168    3.7851     16.7385    37.0514    33.2846    16.4994    12.7794    13.0428    0.161     
2649.2     9.1027     4.0965     17.7971    39.2397    35.8065    15.4767    18.7608    12.7386    0.164     
2649.4     8.3349     4.0165     17.0334    38.9623    36.5703    14.2348    6.8604     11.7881    0.16      
2649.6     7.7509     3.6009     14.9       34.6175    33.8664    12.7557    5.0321     10.6921    0.164     
2649.8     7.3258     2.9394     12.0676    29.1215    30.1493    10.9737    4.7209     9.9512     0.156     
2650       6.9873     2.7031     10.8504    24.9333    27.2593    9.2323     5.1563     9.6248     0.152     
2650.2     6.7346     2.5925     10.1078    22.3148    25.9527    7.9302     5.3892     9.5455     0.15      
2650.4     6.5652     2.482      9.2193     19.8574    24.8287    7.1757     5.4032     9.422      0.151     
2650.6     6.4453     2.4424     8.5553     17.5379    23.6486    6.7501     5.3059     9.3808     0.157     
2650.8     6.3936     2.3447     7.9273     15.5492    22.0421    6.3836     4.8549     9.4604     0.157     
2651       6.3504     2.2798     7.4042     13.9844    20.4185    5.9793     5.8293     9.5361     0.157     
2651.2     6.4038     2.2642     7.2929     12.8473    18.9159    5.6201     5.4034     9.7049     0.157     
2651.4     6.4084     2.1631     6.8729     12.0292    17.5374    5.3314     6.542      9.8316     0.158     
2651.6     6.398      2.2928     7.1401     11.5498    16.5359    5.0899     7.0873     9.8949     0.157     
2651.8     6.3947     2.3835     7.3246     11.2845    15.8422    4.8844     6.9675     9.7463     0.161     
