~Version
 VERS              .         2.0                           : CWLS LOG ASCII STANDARD - VERSION 2.0
 WRAP              .         NO                            : ONE LINE PER DEPTH STEP
 DLM               .         SPACE                         : DELIMITING CHARACTER(SPACE TAB OR COMMA)
~Well Information
#_______________________________________________________________________________
#
#PARAMETER_NAME    .UNIT     VALUE                         : DESCRIPTION
#_______________________________________________________________________________
STRT               .m        2506                          : First reference value
STOP               .m        2692                          : Last reference value
STEP               .m        0.2                           : Step increment
NULL               .         -9999                         : Missing value
COMP               .                                       : Company
WELL               .         500                           : Well name
FLD                .                                       : Field
LOC                .                                       : Location
CNTY               .                                       : County
STAT               .                                       : State
CTRY               .                                       : Country
SRVC               .                                       : Service Company
DATE               .                                       : Date
API                .                                       : API number
EREF               .m        139.4                         : 
X                  .m        230550                        : 
Y                  .m        242075                        : 
group              .         Pad5                          : 
Интер-р            .         Старостина                    : 
Куст               .         5                             : 
Статус             .         Не проверено                  : 
Тип                .         Разобраться                   : 
~Parameter Information Block
#_______________________________________________________________________________
#
#PARAMETER_NAME    .UNIT     VALUE                         : DESCRIPTION
#_______________________________________________________________________________
SET                .         LAS1                          : 
REAL_CREATION_DATE .         Ср апр 11 2012-13_17_17       : 
TLFamily_DEPTH     .         Measured Depth                : 
TLFamily_KS        .         Potential Resistivity         : 
TLFamily_KS1       .         Extra Shallow Resistivity     : 
TLFamily_KS2       .         Shallow Resistivity           : 
TLFamily_KS3       .         Medium Resistivity            : 
TLFamily_KS4       .         Deep Resistivity              : 
TLFamily_KS5       .         Extra Deep Resistivity        : 
TLFamily_LLD       .         Lateral Log Resistivity       : 
TLFamily_OKS3      .         Medium Resistivity Inverted   : 
TLFamily_RM        .         Mud Resistivity               : 
group              .         INI                           : 
~Curve Information
#_______________________________________________________________________________
#
#LOGNAME           .UNIT     LOG_ID                        : DESCRIPTION
#_______________________________________________________________________________
DEPTH              .m                                      : Measured Depth 
KS                 .ohm.m                                  : Potential Resistivity 
KS1                .ohm.m                                  : Extra Shallow Resistivity 
KS2                .ohm.m                                  : Shallow Resistivity 
KS3                .ohm.m                                  : Medium Resistivity 
KS4                .ohm.m                                  : Deep Resistivity 
KS5                .ohm.m                                  : Extra Deep Resistivity 
LLD                .ohm.m                                  : Lateral Log Resistivity 
OKS3               .ohm.m                                  : Medium Resistivity Inverted 
RM                 .ohm.m                                  : Mud Resistivity 
~Ascii
# ...
2579       12.5933    3.1371     12.2438    23.5096    29.6651    15.0389    15.7       20.2401    0.161     
2579.2     12.5746    3.2758     12.7089    24.3701    30.8613    15.6637    12.3632    19.4304    0.161     
2579.4     12.4798    3.4152     13.146     24.8649    31.4842    16.3799    12.0516    18.4608    0.161     
2579.6     12.3358    3.4579     13.2699    25.0362    31.7493    17.004     15.2267    17.9508    0.154     
2579.8     12.136     3.4411     13.284     24.9234    31.6527    17.5425    17.0492    17.7902    0.161     
2580       11.8804    3.4061     13.3037    24.9967    31.8423    18.0178    15.6575    17.8668    0.163     
2580.2     11.6347    3.357      13.296     25.0509    32.1975    18.5292    11.4547    17.4474    0.164     
2580.4     11.344     3.4862     13.7404    25.5205    32.8185    18.7424    7.1876     16.5788    0.164     
2580.6     10.9823    3.6314     14.189     26.1926    32.7892    18.7193    6.5239     15.781     0.164     
2580.8     10.6133    3.6883     14.1604    26.0581    31.5974    18.4447    6.8946     15.4873    0.167     
2581       10.2911    3.4518     13.1151    24.9106    29.2594    17.9577    8.2335     15.9052    0.167     
2581.2     10.059     3.1654     12.1267    23.0977    27.0443    17.4392    9.9758     16.9661    0.167     
2581.4     9.9661     2.8662     11.2046    21.5501    25.6338    17.0903    11.9785    18.2044    0.167     
2581.6     10.0111    2.7637     10.7818    20.5382    25.1377    17.0615    11.8065    19.0556    0.167     
2581.8     10.1064    2.7935     10.542     20.1535    25.0773    17.3252    10.9899    19.4421    0.167     
2582       10.1472    2.9214     10.5723    20.0278    25.1841    17.7251    10.3347    19.4744    0.165     
2582.2     10.1181    3.0582     10.7719    20.0814    25.212     18.0391    7.4805     19.4032    0.164     
2582.4     10.0329    3.1289     10.9569    20.1016    25.1334    18.133     7.3497     19.3518    0.165     
2582.6     9.9575     3.1571     11.0783    19.632     24.4703    18.0923    8.8253     19.7131    0.164     
2582.8     9.9469     2.9594     10.4833    18.6227    23.2504    17.9536    8.7443     20.701     0.161     
2583       9.9716     2.7834     10.0298    17.298     21.9527    17.76      11.1888    22.1918    0.161     
2583.2     10.1011    2.6981     9.8706     16.3674    21.3313    17.7574    12.0613    23.5618    0.162     
2583.4     10.3204    2.6316     9.6365     15.9523    21.0856    17.961     10.7165    24.7005    0.161     
2583.6     10.5439    2.7167     9.766      16.0549    21.0947    18.2629    10.7678    25.2691    0.164     
2583.8     10.8117    2.8023     9.8947     16.4339    21.2175    18.5375    11.7104    25.4961    0.164     
2584       11.0554    2.8233     9.857      16.5712    20.9966    18.8646    12.1506    25.859     0.164     
2584.2     11.2868    2.7969     9.8336     16.6141    20.7607    19.1695    13.4372    26.3412    0.164     
2584.4     11.5334    2.8206     10.0346    16.702     20.7443    19.4734    12.9448    26.5392    0.164     
2584.6     11.8034    2.8265     10.2542    16.9232    20.9105    19.8453    16.1455    26.1669    0.164     
2584.8     12.1098    2.8955     10.5165    17.0814    20.9974    20.3051    19.2353    25.6346    0.164     
2585       12.3849    2.899      10.5719    17.2377    21.0362    20.8359    16.4294    25.1743    0.167     
2585.2     12.5886    2.9308     10.7528    17.7612    21.3262    21.2638    14.0591    24.6867    0.167     
2585.4     12.7392    3.1144     11.4904    18.6885    21.9861    21.6859    15.8063    23.5901    0.167     
2585.6     12.8931    3.1884     11.9133    19.5658    22.5327    22.103     16.2901    22.4183    0.167     
2585.8     12.9713    3.1888     12.0268    20.2345    22.9369    22.472     16.202     21.5586    0.166     
2586       12.9891    3.2305     12.3393    20.9785    23.6543    22.7973    22.2521    20.6436    0.164     
2586.2     12.9816    3.2971     12.7641    21.8117    24.4625    23.2855    22.3519    19.7448    0.161     
2586.4     12.8591    3.3557     13.094     22.9264    25.4616    23.5395    11.2732    18.6734    0.163     
2586.6     12.5928    3.5576     13.7887    24.5195    26.6118    23.9086    10.1909    17.5433    0.161     
2586.8     12.2346    3.7908     14.6932    26.2688    27.6972    23.9725    8.8871     16.3839    0.161     
2587       11.8049    3.8195     15.0301    27.1123    27.9397    23.6325    8.0019     15.4035    0.161     
2587.2     11.4172    3.757      14.8082    26.8233    27.3373    22.7903    9.4839     14.5061    0.157     
2587.4     11.0922    3.5276     13.9647    26.0066    26.3602    21.6964    11.6193    13.6905    0.154     
2587.6     10.8169    3.2851     13.115     25.0362    25.3734    20.5221    10.6681    12.9659    0.154     
2587.8     10.6148    3.1887     12.7881    24.5305    25.2766    19.4231    10.3491    12.3224    0.154     
2588       10.2778    3.2844     12.8916    24.524     25.6417    18.4667    8.9877     11.4824    0.153     
2588.2     10.0038    3.2447     12.6017    24.5262    25.8964    17.8608    8.6272     10.6227    0.149     
2588.4     9.6047     3.3984     12.5086    24.5006    26.1552    17.2834    7.7757     9.8459     0.154     
2588.6     9.2527     3.3274     12.7009    24.5017    26.5851    16.6082    7.7013     9.2379     0.154     
2588.8     9.006      3.2531     12.3915    23.8073    26.2229    15.8658    8.1487     8.7426     0.154     
2589       8.7734     3.1043     11.8803    22.7365    25.4847    15.1945    14.1343    8.2975     0.152     
2589.2     8.5425     3.1018     11.5801    21.8467    25.0624    14.5382    5.7432     8.0522     0.151     
2589.4     8.1004     3.1944     12.5164    21.7489    25.7158    13.846     3.8784     7.7022     0.156     
2589.6     7.6039     3.5437     12.5358    22.0084    26.3254    12.8955    4.2194     7.197      0.157     
2589.8     7.2031     3.3592     11.2427    21.1501    25.381     12.0714    4.7865     6.8357     0.157     
2590       6.7827     3.0165     10.3145    18.1773    22.6299    11.2301    5.3938     7.1417     0.154     
2590.2     6.4312     2.6266     9.3086     16.1818    20.1377    10.1848    4.4853     7.771      0.151     
2590.4     6.1746     2.5226     9.0474     15.0503    18.7544    9.4618     3.7425     8.1936     0.154     
2590.6     5.9919     2.5641     8.9357     14.0362    17.9758    8.8574     4.0706     8.288      0.154     
2590.8     5.8945     2.4975     8.2221     12.7874    16.537     8.3883     4.7607     8.3287     0.154     
2591       5.8117     2.3382     7.2517     11.5702    14.77      7.9355     4.4605     8.7555     0.154     
2591.2     5.7532     2.1769     6.6342     10.8489    13.5356    7.4597     4.8116     9.4107     0.154     
2591.4     5.757      2.19       6.6604     10.2375    12.6733    7.1489     4.6913     9.9394     0.156     
2591.6     5.8364     2.1619     6.448      9.7069     12.0615    7.0064     4.5263     10.3738    0.154     
2591.8     5.9056     2.1773     6.2838     9.1218     11.331     7.005      4.5869     10.7649    0.154     
2592       5.9544     2.1868     6.2135     8.7939     10.8902    7.0402     4.9612     10.9661    0.154     
2592.2     6.0757     2.1442     5.9823     8.1191     10.2675    7.2688     5.8516     11.6037    0.154     
2592.4     6.2002     2.1077     5.9196     7.6582     10.1626    7.7208     8.6905     12.7552    0.154     
2592.6     6.3689     2.0506     5.937      7.6817     10.9044    8.5041     7.0096     14.1641    0.154     
2592.8     6.5499     2.0787     6.2106     8.1728     11.9405    9.501      6.6938     15.2185    0.154     
2593       6.7402     2.2647     6.8178     8.8884     12.4188    10.4786    6.2485     14.8852    0.157     
2593.2     6.9858     2.4354     7.2892     9.1944     12.3108    11.3674    6.3735     13.6715    0.154     
2593.4     7.2035     2.4496     7.1298     9.0074     11.7196    12.0941    7.0169     12.2979    0.154     
