~Version
 VERS              .         2.0                           : CWLS LOG ASCII STANDARD - VERSION 2.0
 WRAP              .         NO                            : ONE LINE PER DEPTH STEP
 DLM               .         SPACE                         : DELIMITING CHARACTER(SPACE TAB OR COMMA)
~Well Information
#_______________________________________________________________________________
#
#PARAMETER_NAME    .UNIT     VALUE                         : DESCRIPTION
#_______________________________________________________________________________
STRT               .m        2506                          : First reference value
STOP               .m        2692                          : Last reference value
STEP               .m        0.2                           : Step increment
NULL               .         -9999                         : Missing value
COMP               .                                       : Company
WELL               .         500                           : Well name
FLD                .                                       : Field
LOC                .                                       : Location
CNTY               .                                       : County
STAT               .                                       : State
CTRY               .                                       : Country
SRVC               .                                       : Service Company
DATE               .                                       : Date
API                .                                       : API number
EREF               .m        139.4                         : 
X                  .m        230550                        : 
Y                  .m        242075                        : 
group              .         Pad5                          : 
Интер-р            .         Старостина                    : 
Куст               .         5                             : 
Статус             .         Не проверено                  : 
Тип                .         Разобраться                   : 
~Parameter Information Block
#_______________________________________________________________________________
#
#PARAMETER_NAME    .UNIT     VALUE                         : DESCRIPTION
#_______________________________________________________________________________
SET                .         LAS1                          : 
REAL_CREATION_DATE .         Ср апр 11 2012-13_17_17       : 
TLFamily_DEPTH     .         Measured Depth                : 
TLFamily_KS        .         Potential Resistivity         : 
TLFamily_KS1       .         Extra Shallow Resistivity     : 
TLFamily_KS2       .         Shallow Resistivity           : 
TLFamily_KS3       .         Medium Resistivity            : 
TLFamily_KS4       .         Deep Resistivity              : 
TLFamily_KS5       .         Extra Deep Resistivity        : 
TLFamily_LLD       .         Lateral Log Resistivity       : 
TLFamily_OKS3      .         Medium Resistivity Inverted   : 
TLFamily_RM        .         Mud Resistivity               : 
group              .         INI                           : 
~Curve Information
#_______________________________________________________________________________
#
#LOGNAME           .UNIT     LOG_ID                        : DESCRIPTION
#_______________________________________________________________________________
DEPTH              .m                                      : Measured Depth 
KS                 .ohm.m                                  : Potential Resistivity 
KS1                .ohm.m                                  : Extra Shallow Resistivity 
KS2                .ohm.m                                  : Shallow Resistivity 
KS3                .ohm.m                                  : Medium Resistivity 
KS4                .ohm.m                                  : Deep Resistivity 
KS5                .ohm.m                                  : Extra Deep Resistivity 
LLD                .ohm.m                                  : Lateral Log Resistivity 
OKS3               .ohm.m                                  : Medium Resistivity Inverted 
RM                 .ohm.m                                  : Mud Resistivity 
~Ascii
# ...
2652       6.3963     2.3894     7.2589     10.7988    14.9284    4.7794     6.2364     9.6307     0.155     
2652.2     6.3527     2.3451     7.1325     10.3276    13.9414    4.659      6.1861     9.5453     0.148     
2652.4     6.2475     2.4043     7.375      10.1412    13.1778    4.5233     5.7904     9.5326     0.151     
2652.6     6.2402     2.4215     7.4633     9.967      12.4717    4.4311     4.9231     9.6331     0.154     
2652.8     6.2481     2.2114     6.9431     9.6509     11.8069    4.4039     5.6571     9.4833     0.154     
2653       6.3784     2.1881     6.8904     9.4216     11.3586    4.4007     6.5784     9.1898     0.158     
2653.2     6.4837     2.2454     6.8791     9.4968     11.3427    4.4403     7.061      8.6965     0.157     
2653.4     6.557      2.3096     6.9536     9.5986     11.5249    4.5891     7.332      8.1943     0.157     
2653.6     6.5788     2.3862     7.1147     9.7888     11.7935    4.8295     7.3043     7.7534     0.161     
2653.8     6.5788     2.4304     7.3954     10.0426    12.0807    5.1864     7.3141     7.3393     0.155     
2654       6.5607     2.4472     7.5791     10.2952    12.358     5.6689     7.3448     6.9826     0.148     
2654.2     6.4754     2.4912     7.8518     10.6225    12.7863    6.3124     7.5614     6.7519     0.157     
2654.4     6.3206     2.5804     8.2552     11.1694    13.5581    7.1846     7.9433     6.3994     0.16      
2654.6     6.0395     2.7059     8.6974     12.0168    14.694     8.1085     7.5729     6.0831     0.157     
2654.8     5.7229     2.9147     9.4125     12.7034    15.3531    8.9223     6.9978     5.8624     0.16      
2655       5.5205     2.739      8.9857     12.6452    14.6848    9.4973     4.5191     5.3416     0.149     
2655.2     5.2909     2.5474     8.3479     11.8968    13.2036    9.7127     6.516      4.5848     0.145     
2655.4     5.0739     2.5694     8.2528     11.5141    12.3941    9.4526     5.4495     4.0051     0.152     
2655.6     4.8115     2.6033     8.1244     11.0503    11.5142    9.0826     4.1414     3.7686     0.153     
2655.8     4.4906     2.4769     7.5299     10.5433    10.7667    8.7042     4.4191     3.7169     0.155     
2656       4.2285     2.4443     7.4181     9.9259     9.9843     8.3193     4.2973     3.6731     0.154     
2656.2     4.0558     2.2625     6.8464     9.2618     9.2653     8.3089     3.4196     3.7608     0.147     
2656.4     3.834      2.0888     6.3271     8.8967     9.0235     8.2538     3.4941     4.1209     0.144     
2656.6     3.6867     2.2227     6.6716     8.8542     9.0039     8.0554     3.6199     4.2761     0.148     
2656.8     3.7396     2.0255     5.9134     8.3642     8.3385     8.0187     3.1636     4.2111     0.16      
2657       3.6979     1.8789     5.174      7.4896     7.4226     7.9338     3.2594     4.2209     0.157     
2657.2     3.5328     2.0282     5.3203     7.2357     7.1904     7.3036     4.3617     4.2308     0.152     
2657.4     3.4664     2.2081     5.5234     6.8935     6.609      6.7801     2.934      3.936      0.157     
2657.6     3.4573     1.9236     4.5818     5.8476     5.4563     6.4083     2.572      3.5335     0.151     
2657.8     3.4309     1.6751     3.9602     4.5618     4.4004     5.9411     2.6227     3.3528     0.148     
2658       3.38       1.5345     3.7394     3.9996     4.0262     5.4119     2.9229     3.4598     0.157     
2658.2     3.2822     1.6593     4.1464     3.9371     3.9863     5.0792     4.1231     3.4496     0.155     
2658.4     3.2671     1.8339     4.3528     3.8217     3.828      4.8344     3.0172     3.2635     0.16      
2658.6     3.2351     1.6928     3.811      3.4728     3.3919     4.6094     2.8454     3.0908     0.161     
2658.8     3.1751     1.5827     3.4792     3.1982     3.0351     4.2651     2.8711     3.1268     0.156     
2659       3.144      1.5006     3.3862     3.0933     2.8959     3.9696     3.0534     3.2688     0.149     
2659.2     3.152      1.4887     3.4205     3.0387     2.8541     3.8665     3.1711     3.4381     0.145     
2659.4     3.1663     1.4721     3.3359     3.0554     2.8327     3.9373     3.1518     3.6773     0.146     
2659.6     3.1712     1.4691     3.2691     3.1482     2.9002     4.1587     3.267      4.0803     0.15      
2659.8     3.1314     1.4805     3.3442     3.352      3.1743     4.2808     3.3413     4.6452     0.154     
2660       3.0732     1.6345     3.747      3.529      3.3933     4.3637     3.9729     4.8507     0.154     
2660.2     3.101      1.6423     3.5939     3.4806     3.2872     4.4243     3.4029     4.7523     0.157     
2660.4     3.1258     1.5442     3.2708     3.1445     2.9163     4.4464     3.0914     4.5748     0.152     
2660.6     3.1413     1.4777     3.0811     2.8653     2.7239     4.4504     2.9706     4.6011     0.145     
2660.8     3.1884     1.395      2.9435     2.6608     2.7585     4.7846     2.9274     4.7842     0.144     
2661       3.2613     1.3402     2.9202     2.5992     3.0525     5.668      2.9228     5.2378     0.15      
2661.2     3.389      1.2794     2.9014     2.7498     3.6512     6.9913     3.0964     6.0558     0.154     
2661.4     3.5682     1.3328     3.0953     3.0526     4.506      8.7517     4.2714     6.9316     0.154     
2661.6     3.8829     1.4183     3.2293     3.422      5.4968     11.0777    4.7018     7.8019     0.158     
2661.8     4.2377     1.4817     3.3706     3.8534     6.622      13.7787    5.1585     8.8535     0.149     
2662       4.5313     1.7143     3.8479     4.4914     8.0249     16.5537    6.4421     9.9941     0.147     
2662.2     4.798      1.896      4.2991     5.2369     9.3925     19.9309    7.3608     10.8145    0.147     
2662.4     5.0097     2.0686     4.8864     6.0512     10.9687    24.5246    7.5457     11.683     0.152     
2662.6     4.9966     2.238      5.7059     7.1876     13.4102    28.2443    7.8006     13.1795    0.153     
2662.8     4.7845     2.5325     6.9873     8.2305     15.3578    29.9107    10.0767    14.2419    0.154     
2663       4.5948     2.6989     7.7827     8.4175     14.8395    29.712     7.8385     13.5231    0.145     
2663.2     4.4622     2.5627     7.596      7.6251     12.0712    27.4974    4.4338     11.4223    0.146     
2663.4     4.2775     2.3251     6.9752     6.6884     9.3138     22.7084    3.9906     9.7234     0.154     
2663.6     4.2        2.1283     6.4256     5.9044     7.0337     17.4758    3.0874     8.8597     0.147     
2663.8     4.1785     1.8441     5.4442     5.2769     5.2796     13.2548    3.0278     8.774      0.155     
2664       4.2243     1.7052     4.9686     4.7896     4.0323     10.06      3.609      9.1093     0.155     
2664.2     4.3765     1.656      4.6344     4.6307     3.285      7.7302     4.1283     9.539      0.148     
2664.4     4.5841     1.6922     4.4276     4.6343     2.7915     6.3381     4.5598     10.056     0.156     
2664.6     4.8124     1.7516     4.3353     4.6629     2.4214     5.4612     4.706      10.6876    0.157     
2664.8     5.0493     1.7534     4.2752     4.7469     2.2033     4.9202     4.8973     11.385     0.157     
2665       5.3649     1.7774     4.4218     5.0174     2.1071     4.6706     4.9984     12.1396    0.154     
2665.2     5.7133     1.7653     4.6145     5.5203     2.1656     4.5728     5.742      12.9362    0.15      
2665.4     6.0789     1.8587     5.0944     6.1021     2.4311     4.5027     9.287      13.2509    0.16      
2665.6     6.4639     2.1063     5.81       6.6651     2.8007     4.428      9.6667     12.8286    0.158     
2665.8     6.809      2.2505     6.1361     6.9523     3.1823     4.3249     8.8908     11.9418    0.155     
2666       7.081      2.3619     6.4521     6.9499     3.5054     4.147      8.5721     11.1489    0.147     
2666.2     7.2647     2.3741     6.7058     7.0399     3.8996     3.9095     8.162      10.5453    0.155     
2666.4     7.4026     2.4016     7.0904     7.238      4.3877     3.7092     7.8566     10.2123    0.16      
