~Version
 VERS              .         2.0                           : CWLS LOG ASCII STANDARD - VERSION 2.0
 WRAP              .         NO                            : ONE LINE PER DEPTH STEP
 DLM               .         SPACE                         : DELIMITING CHARACTER(SPACE TAB OR COMMA)
~Well Information
#_______________________________________________________________________________
#
#PARAMETER_NAME    .UNIT     VALUE                         : DESCRIPTION
#_______________________________________________________________________________
STRT               .m        2505                          : First reference value
STOP               .m        2679                          : Last reference value
STEP               .m        0.2                           : Step increment
NULL               .         -9999                         : Missing value
COMP               .                                       : Company
WELL               .         501                           : Well name
FLD                .                                       : Field
LOC                .                                       : Location
CNTY               .                                       : County
STAT               .                                       : State
CTRY               .                                       : Country
SRVC               .                                       : Service Company
DATE               .                                       : Date
API                .                                       : API number
EREF               .m        139.4                         : 
X                  .m        230550                        : 
Y                  .m        242075                        : 
group              .         Pad5                          : 
Интер-р            .         Ярышев                        : 
Куст               .         5                             : 
Статус             .         Проверено                     : 
Тип                .         Нагнетательные                : 
~Parameter Information Block
#_______________________________________________________________________________
#
#PARAMETER_NAME    .UNIT     VALUE                         : DESCRIPTION
#_______________________________________________________________________________
SET                .         LAS1                          : 
REAL_CREATION_DATE .         Ср апр 11 2012-13_17_17       : 
TLFamily_DEPTH     .         Measured Depth                : 
TLFamily_KS        .         Potential Resistivity         : 
TLFamily_KS1       .         Extra Shallow Resistivity     : 
TLFamily_KS2       .         Shallow Resistivity           : 
TLFamily_KS3       .         Medium Resistivity            : 
TLFamily_KS4       .         Deep Resistivity              : 
TLFamily_KS5       .         Extra Deep Resistivity        : 
TLFamily_LLD       .         Lateral Log Resistivity       : 
TLFamily_OKS3      .         Medium Resistivity Inverted   : 
TLFamily_RM        .         Mud Resistivity               : 
TLFamily_SP        .         Spontaneous Potential         : 
group              .         INI                           : 
~Curve Information
#_______________________________________________________________________________
#
#LOGNAME           .UNIT     LOG_ID                        : DESCRIPTION
#_______________________________________________________________________________
DEPTH              .m                                      : Measured Depth 
KS                 .ohm.m                                  : Potential Resistivity 
KS1                .ohm.m                                  : Extra Shallow Resistivity 
KS2                .ohm.m                                  : Shallow Resistivity 
KS3                .ohm.m                                  : Medium Resistivity 
KS4                .ohm.m                                  : Deep Resistivity 
KS5                .ohm.m                                  : Extra Deep Resistivity 
LLD                .ohm.m                                  : Lateral Log Resistivity 
OKS3               .ohm.m                                  : Medium Resistivity Inverted 
RM                 .ohm.m                                  : Mud Resistivity 
SP                 .mV                                     : Spontaneous Potential 
~Ascii
# ...
2518.4     9.3728     4.4501     14.6599    15.7971    11.8961    9.7446     5.9167     10.0129    0.301      145.6157  
2518.6     8.7594     4.1312     14.3254    15.5453    11.5915    9.184      5.5151     10.201     0.303      135.2068  
2518.8     8.2899     3.7716     13.358     15.5484    11.4822    8.8636     5.9746     10.5448    0.305      126.3081  
2519       7.9678     3.6461     12.6464    15.4036    11.3663    8.4498     5.2035     10.7556    0.301      119.8452  
2519.2     7.7348     3.3679     11.0166    15.1675    11.0749    7.9026     5.2876     11.1869    0.301      115.5206  
2519.4     7.656      3.2492     10.1115    15.0826    10.9193    7.5956     5.4714     11.5891    0.301      113.7917  
2519.6     7.6389     3.1678     9.5212     14.922     10.8497    7.3687     5.5563     11.9361    0.301      112.7968  
2519.8     7.6526     3.1474     9.249      14.3932    10.8564    7.1417     5.6738     12.1048    0.301      110.9969  
2520       7.6423     3.1406     9.0949     13.8046    10.9789    7.0149     6.4349     12.0107    0.305      107.9532  
2520.2     7.6457     3.2322     9.1441     13.0366    11.012     6.8881     5.763      11.9037    0.305      103.9763  
2520.4     7.6389     3.2221     9.0392     12.3253    10.8299    6.7814     5.587      11.8972    0.301      100.875   
2520.6     7.6286     3.2221     8.99       11.5132    10.6577    6.7079     5.4381     12.1145    0.301      99.0093   
2520.8     7.656      3.1203     8.7998     10.8962    10.5583    6.6879     5.5909     12.4777    0.301      97.1055   
2521       7.7143     3.1033     8.7768     10.5752    10.5318    6.7947     5.8241     12.828     0.301      94.5484   
2521.2     7.8342     3.0999     8.7604     10.3549    10.7471    7.035      5.4357     13.3404    0.301      92.2773   
2521.4     7.985      3.0219     8.5407     10.2541    11.1014    7.4354     5.6807     14.1253    0.301      92.1811   
2521.6     8.2077     2.9846     8.5014     10.4273    11.8895    7.996      6.1881     14.9328    0.301      93.9347   
2521.8     8.3996     3.0185     8.8522     11.0599    12.9194    8.4098     9.7531     15.2993    0.301      95.4434   
2522       8.5332     3.4256     9.8492     11.8091    13.4293    8.7035     8.9151     14.8323    0.301      96.7757   
2522.2     8.6463     3.6529     10.2394    12.1458    13.1081    8.8236     7.0428     14.028     0.301      98.2104   
2522.4     8.5606     3.6834     10.2033    12.0546    12.3697    8.6234     6.6766     13.4377    0.298      98.9316   
2522.6     8.4784     3.5817     10.1804    11.6108    11.4325    8.3431     6.236      13.3437    0.301      98.9691   
2522.8     8.4064     3.4765     10.1738    11.2803    10.7371    8.1695     6.17       13.321     0.301      97.7315   
2523       8.3996     3.3713     10.1312    11.0536    10.3828    8.243      6.1761     13.295     0.301      94.9902   
2523.2     8.3756     3.3238     9.9967     11.1134    10.3265    8.4632     6.2797     13.3534    0.301      92.8164   
2523.4     8.3722     3.3578     10.105     11.3432    10.5517    9.0505     6.2633     13.655     0.305      92.036    
2523.6     8.3722     3.2763     9.8885     11.9161    11.0683    9.4576     6.0286     14.268     0.301      91.4568   
2523.8     8.379      3.4765     10.5969    12.5204    11.4524    9.8514     7.7314     14.1934    0.305      91.035    
2524       8.5846     3.4358     10.2656    12.8383    11.3564    10.3319    5.7519     13.9177    0.301      91.1245   
2524.2     8.7217     3.1881     9.4884     12.9233    11.1809    10.5188    6.7081     13.9372    0.298      91.8086   
2524.4     8.7765     3.4765     10.3804    13.1122    11.2868    10.5722    8.5251     13.6939    0.305      93.0391   
2524.6     8.9616     3.4256     10.2132    13.3199    11.4027    10.7857    6.7941     13.4377    0.301      94.2469   
2524.8     8.9376     3.5138     10.5181    13.3136    11.3994    10.8592    9.5771     12.815     0.303      95.1291   
2525       8.8348     3.7852     11.3904    13.877     11.7041    10.6523    8.8721     12.241     0.305      94.9501   
2525.2     8.5983     3.965      11.902     14.2547    11.7869    10.2785    7.814      11.4399    0.305      92.3086   
2525.4     8.3379     4.1041     12.3283    14.132     11.4259    9.758      5.9592     10.6907    0.301      87.2407   
2525.6     8.0501     3.8225     11.5019    13.4993    10.6179    9.1573     5.3715     10.1718    0.301      82.7701   
2525.8     7.7725     3.5749     11.0494    12.8572    9.8762     8.5099     5.2871     9.9286     0.301      81.8812   
2526       7.5532     3.4222     10.7477    12.5519    9.5517     7.8759     5.343      9.9643     0.305      83.749    
2526.2     7.4264     3.3069     10.387     12.4102    9.4589     7.4888     5.3548     10.1362    0.305      86.3745   
2526.4     7.2585     3.2967     10.0328    12.4039    9.4126     7.1284     5.7066     10.4086    0.305      88.947    
2526.6     7.1557     3.351      10.0459    12.5267    9.2868     6.8748     5.3572     10.4864    0.305      90.7865   
2526.8     7.0906     3.2933     9.5934     12.3221    8.9357     6.5144     5.3234     10.4378    0.305      91.571    
2527       7.0392     3.2695     9.3179     12.0074    8.5715     6.1607     5.1203     10.3307    0.305      92.1821   
2527.2     7.0255     3.1644     8.931      11.6139    8.2536     5.847      5.1826     10.308     0.305      92.1672   
2527.4     6.9947     3.1305     8.8063     11.2582    8.035      5.4999     5.4517     10.2886    0.305      89.7701   
2527.6     6.9672     3.1406     8.8129     10.89      7.9456     5.273      5.4468     10.2464    0.303      86.0072   
2527.8     6.9501     3.1576     8.7735     10.4902    7.9125     5.0862     5.279      10.227     0.305      84.0077   
2528       6.933      3.1474     8.7047     10.0999    7.9688     4.8726     5.4071     10.1945    0.305      84.2912   
2528.2     6.9056     3.1135     8.5899     9.8449     8.0086     4.7391     5.2729     10.1751    0.305      84.5026   
2528.4     6.9158     3.1101     8.5505     9.612      8.0019     4.6323     5.2748     10.1264    0.305      83.0586   
2528.6     6.9056     3.0965     8.5079     9.5019     8.088      4.5389     5.3265     10.1426    0.305      81.8004   
2528.8     6.9124     3.0728     8.4522     9.4546     8.1708     4.4788     5.3568     10.201     0.312      82.4666   
2529       6.9193     3.0694     8.4292     9.4389     8.2768     4.4588     5.4615     10.2821    0.314      84.2742   
2529.2     6.933      3.0728     8.4653     9.4956     8.4721     4.4721     5.4352     10.3113    0.314      85.5545   
2529.4     6.9398     3.1203     8.5669     9.5522     8.5483     4.4988     5.6401     10.2918    0.314      84.8848   
2529.6     6.9844     3.1135     8.5505     9.5743     8.5251     4.5456     5.3933     10.2724    0.314      82.9239   
2529.8     7.0015     3.0931     8.4784     9.5396     8.396      4.5923     5.7448     10.2659    0.314      81.6373   
2530       7.0015     3.1339     8.6227     9.5522     8.3397     4.6857     5.8013     10.2464    0.319      81.0499   
2530.2     6.9981     3.161      8.6817     9.6309     8.3331     4.8125     5.4958     10.2691    0.319      80.375    
2530.4     6.9604     3.1881     8.7768     9.6813     8.3463     4.9527     5.4689     10.3859    0.323      80.249    
2530.6     6.933      3.1915     8.8555     9.697      8.3761     5.0862     5.2338     10.4929    0.323      81.7109   
2530.8     6.9604     3.1135     8.708      9.6183     8.3695     5.1929     5.1836     10.6356    0.328      83.9774   
2531       6.9433     3.0389     8.6096     9.6907     8.4523     5.233      5.9806     10.8042    0.323      84.912    
2531.2     6.9056     3.2492     9.0916     9.804      8.492      5.2463     5.9397     10.7134    0.328      84.1682   
2531.4     6.9193     3.2153     8.885      9.8324     8.3596     5.2664     5.1786     10.4929    0.328      83.8148   
2531.6     6.8953     3.1712     8.6817     9.5994     8.0483     5.2597     5.2183     10.3794    0.323      84.8066   
