~Version
 VERS              .         2.0                           : CWLS LOG ASCII STANDARD - VERSION 2.0
 WRAP              .         NO                            : ONE LINE PER DEPTH STEP
 DLM               .         SPACE                         : DELIMITING CHARACTER(SPACE TAB OR COMMA)
~Well Information
#_______________________________________________________________________________
#
#PARAMETER_NAME    .UNIT     VALUE                         : DESCRIPTION
#_______________________________________________________________________________
STRT               .m        2505                          : First reference value
STOP               .m        2679                          : Last reference value
STEP               .m        0.2                           : Step increment
NULL               .         -9999                         : Missing value
COMP               .                                       : Company
WELL               .         501                           : Well name
FLD                .                                       : Field
LOC                .                                       : Location
CNTY               .                                       : County
STAT               .                                       : State
CTRY               .                                       : Country
SRVC               .                                       : Service Company
DATE               .                                       : Date
API                .                                       : API number
EREF               .m        139.4                         : 
X                  .m        230550                        : 
Y                  .m        242075                        : 
group              .         Pad5                          : 
Интер-р            .         Ярышев                        : 
Куст               .         5                             : 
Статус             .         Проверено                     : 
Тип                .         Нагнетательные                : 
~Parameter Information Block
#_______________________________________________________________________________
#
#PARAMETER_NAME    .UNIT     VALUE                         : DESCRIPTION
#_______________________________________________________________________________
SET                .         LAS4                          : 
REAL_CREATION_DATE .         Ср апр 11 2012-13_17_18       : 
TLFamily_DEPTH     .         Measured Depth                : 
TLFamily_RT        .         Resistivity 20                : 
TLFamily_SP        .         Spontaneous Potential         : 
group              .         INI                           : 
~Curve Information
#_______________________________________________________________________________
#
#LOGNAME           .UNIT     LOG_ID                        : DESCRIPTION
#_______________________________________________________________________________
DEPTH              .m                                      : Measured Depth 
RT                 .ohm.m                                  : Extra Deep Resistivity 
SP                 .mV                                     : Spontaneous Potential 
~Ascii
2505.0     8.0901     105.9704  
2505.2     8.0901     74.9806   
2505.4     8.0901     54.3509   
2505.6     8.0901     44.0972   
2505.8     8.0901     36.9278   
2506       8.0901     28.9528   
2506.2     8.0901     23.9472   
2506.4     8.0994     20.1889   
2506.6     8.2036     18.9139   
2506.8     7.6879     18.6139   
2507       7.4054     16.3889   
2507.2     7.3014     16.2083   
2507.4     7.4551     17.1389   
2507.6     8.4734     18.9833   
2507.8     10.4124    21.7944   
2508       11.3231    27.2278   
2508.2     12.4593    34.2917   
2508.4     14.0756    37.4361   
2508.6     16.141     44.1806   
2508.8     16.6667    52.2861   
2509       16.7008    54.9889   
2509.2     16.8753    59.1361   
2509.4     16.3347    61.9611   
2509.6     14.8839    60.8083   
2509.8     11.797     59.0278   
2510       10.6422    56.0167   
2510.2     9.0864     53.8583   
2510.4     8.4829     52.1111   
2510.6     8.4191     52.2417   
2510.8     6.7929     47.8972   
2511       6.5456     41.6889   
2511.2     6.3967     40.8139   
2511.4     6.3034     39.7083   
2511.6     6.1782     44.55     
2511.8     6.135      46.8472   
2512       5.9729     45.2722   
2512.2     5.9211     44.4      
2512.4     6.1473     44.5278   
2512.6     5.9848     50.2889   
2512.8     5.5614     57.7083   
2513       5.4948     68.275    
2513.2     5.7823     75.2444   
2513.4     6.1796     77.6944   
2513.6     6.4817     83.6833   
2513.8     6.4193     86.95     
2514       6.2971     88.6222   
2514.2     5.9422     93.8528   
2514.4     5.4878     97.7389   
2514.6     5.0503     101.3806  
2514.8     5.0786     104.6861  
2515       5.3018     106.575   
2515.2     5.7201     105.8222  
2515.4     6.0688     102.1806  
2515.6     6.2372     96.2639   
2515.8     6.3225     88.1972   
2516       6.7037     80.8917   
2516.2     6.8712     75.0833   
2516.4     6.1354     69.9194   
2516.6     6.0262     67.9583   
2516.8     5.7961     65.2389   
2517       6.0726     63.5694   
2517.2     6.8452     68.2444   
2517.4     8.121      74.9389   
2517.6     10.6197    79.6083   
2517.8     10.6012    77.8583   
2518       9.4726     77.3194   
2518.2     7.4783     81.35     
2518.4     6.8497     85.3306   
2518.6     6.2092     92.5333   
2518.8     6.1918     99.4861   
2519       6.4009     104.5639  
2519.2     5.7258     109.0917  
2519.4     5.6703     114.65    
2519.6     5.6979     120.5889  
2519.8     5.7063     120.3778  
2520       5.6758     121.4778  
2520.2     5.4815     121.6222  
2520.4     5.3493     119.7861  
2520.6     4.9766     120.2639  
2520.8     4.9462     118.6472  
2521       4.9672     119.9389  
2521.2     5.0308     118.8861  
2521.4     5.0547     117.35    
2521.6     5.2638     118.925   
2521.8     5.6545     121.2333  
2522       6.2786     123.3583  
2522.2     6.1503     120.3139  
2522.4     5.6287     120.4083  
2522.6     5.1735     122.1889  
2522.8     5.1172     120.7361  
2523       5.2378     120.9889  
2523.2     5.4815     120.4722  
2523.4     5.6429     118.7028  
2523.6     5.7484     117.1222  
2523.8     5.868      116.85    
2524       6.0562     118.1889  
2524.2     5.5213     117.8528  
2524.4     5.7694     118.1556  
2524.6     6.7934     118.6889  
2524.8     6.9367     116.9667  
2525       7.1637     116.3889  
2525.2     7.1611     114.3333  
2525.4     6.863      112.8556  
2525.6     6.1703     112.8639  
2525.8     5.5194     110.5306  
2526       5.3464     109.7361  
2526.2     5.3387     110.6056  
2526.4     5.3209     112.5472  
2526.6     5.3669     114.7111  
2526.8     5.3259     113.0944  
2527       5.2159     112.6444  
2527.2     4.9137     112.2417  
2527.4     4.8269     110.9667  
2527.6     4.9207     110.9972  
2527.8     4.9509     111.7861  
2528       4.9114     114.3722  
2528.2     4.8678     114.125   
2528.4     4.8678     113.25    
2528.6     4.8224     117.3222  
2528.8     4.7864     117.4444  
2529       4.8496     118.4389  
2529.2     4.8907     118.6778  
2529.4     4.9254     116.5083  
2529.6     4.9369     117.2472  
2529.8     4.9323     118.0167  
2530       4.9794     118.6389  
2530.2     5.0883     118.9306  
2530.4     4.9931     120.8944  
2530.6     4.8224     119.1389  
2530.8     4.7331     121.0278  
2531       4.7592     122.0056  
2531.2     5.1466     119.6056  
2531.4     5.0843     120.2889  
2531.6     4.5599     117.9639  
2531.8     4.5348     115.8361  
2532       4.6542     115.2889  
2532.2     4.6956     114.8194  
2532.4     4.7641     114.1444  
2532.6     4.8678     112.9944  
2532.8     4.9254     114.8639  
2533       4.7979     116.15    
2533.2     4.7066     116.6917  
2533.4     4.8453     117.6278  
2533.6     5.0308     116.5917  
2533.8     4.9836     116.9278  
2534       4.891      116.9528  
2534.2     4.7887     115.0806  
2534.4     4.7242     115.0556  
2534.6     4.6025     115.6667  
2534.8     4.5731     116.075   
2535       4.4063     116.2944  
2535.2     4.4554     115.9083  
2535.4     4.518      119.5667  
2535.6     4.733      121.2083  
2535.8     4.8451     118.5806  
2536       4.9369     115.4472  
2536.2     4.9462     112.5861  
2536.4     4.9416     111.7167  
2536.6     5.4815     111.9722  
2536.8     5.7775     114.0056  
2537       5.6941     114.5611  
2537.2     5.1028     112.9278  
2537.4     5.0095     115.2528  
2537.6     4.9369     116.175   
2537.8     4.877      117.0861  
2538       4.7507     119.4972  
2538.2     4.7286     117.0417  
2538.4     4.6803     117.0139  
2538.6     4.711      116.5889  
2538.8     4.7132     115.4528  
2539       4.733      115.5056  
2539.2     4.7177     115.2417  
2539.4     4.6369     116.5722  
2539.6     4.5599     114.9472  
2539.8     4.5178     116.8111  
2540       4.5854     118.2028  
2540.2     4.5982     118.1417  
2540.4     4.6542     121.3556  
2540.6     4.711      120.7028  
2540.8     4.7509     118.3944  
2541       4.8269     116.1444  
2541.2     4.7733     115.5889  
2541.4     4.5897     115.1222  
2541.6     4.8907     113.5472  
2541.8     4.9612     113.5111  
2542       4.709      113.1917  
2542.2     4.6047     115.2722  
2542.4     4.637      117.0694  
2542.6     4.689      115.7417  
2542.8     4.7397     115.6417  
2543       5.0072     115.975   
2543.2     5.3772     116.0139  
2543.4     5.2118     115.15    
2543.6     4.7507     111.4472  
2543.8     4.8587     108.8694  
2544       4.8337     108.3917  
2544.2     4.7864     109.4083  
2544.4     4.8089     112.2194  
2544.6     4.8542     113.1528  
2544.8     4.9301     113.3167  
2545       5.1758     112.1278  
2545.2     5.1028     112.2     
2545.4     5.0848     112.5861  
2545.6     5.3056     112.4139  
2545.8     5.2505     113.3472  
2546       5.1269     111.8611  
2546.2     5.1464     113.0694  
2546.4     5.05       114.8667  
2546.6     4.9789     111.8139  
2546.8     4.8953     112.0833  
2547       4.5812     113.4639  
2547.2     4.5095     113.7083  
2547.4     4.3941     113.5806  
2547.6     4.3941     114.45    
2547.8     4.5097     117.2028  
2548       4.9719     116.275   
2548.2     5.1955     117.5722  
2548.4     5.0365     118.4139  
2548.6     4.8633     118.2639  
2548.8     4.9887     120.4361  
2549       5.2253     119.1417  
2549.2     5.1051     121.2972  
2549.4     4.5011     122.2806  
2549.6     4.5053     122.575   
2549.8     4.4328     123.0472  
2550       4.5812     122.4472  
2550.2     4.9737     124.2417  
2550.4     6.4771     122.4667  
2550.6     8.6025     122.5389  
2550.8     10.9934    123.6444  
2551       10.269     122.0417  
2551.2     9.0375     122.5333  
2551.4     7.0128     122.6861  
2551.6     6.4457     121.2583  
2551.8     6.6447     120.0583  
2552       7.1996     118.1528  
2552.2     7.5531     117.3     
2552.4     7.413      117.7694  
2552.6     6.559      116.6722  
2552.8     5.801      115.9944  
2553       4.9954     115.2778  
2553.2     4.8497     113.5639  
2553.4     4.6984     112.1722  
