~Version
 VERS              .         2.0                           : CWLS LOG ASCII STANDARD - VERSION 2.0
 WRAP              .         NO                            : ONE LINE PER DEPTH STEP
 DLM               .         SPACE                         : DELIMITING CHARACTER(SPACE TAB OR COMMA)
~Well Information
#_______________________________________________________________________________
#
#PARAMETER_NAME    .UNIT     VALUE                         : DESCRIPTION
#_______________________________________________________________________________
STRT               .m        2505                          : First reference value
STOP               .m        2679                          : Last reference value
STEP               .m        0.2                           : Step increment
NULL               .         -9999                         : Missing value
COMP               .                                       : Company
WELL               .         501                           : Well name
FLD                .                                       : Field
LOC                .                                       : Location
CNTY               .                                       : County
STAT               .                                       : State
CTRY               .                                       : Country
SRVC               .                                       : Service Company
DATE               .                                       : Date
API                .                                       : API number
EREF               .m        139.4                         : 
X                  .m        230550                        : 
Y                  .m        242075                        : 
group              .         Pad5                          : 
Интер-р            .         Ярышев                        : 
Куст               .         5                             : 
Статус             .         Проверено                     : 
Тип                .         Нагнетательные                : 
~Parameter Information Block
#_______________________________________________________________________________
#
#PARAMETER_NAME    .UNIT     VALUE                         : DESCRIPTION
#_______________________________________________________________________________
SET                .         LAS1                          : 
REAL_CREATION_DATE .         Ср апр 11 2012-13_17_17       : 
TLFamily_DEPTH     .         Measured Depth                : 
TLFamily_KS        .         Potential Resistivity         : 
TLFamily_KS1       .         Extra Shallow Resistivity     : 
TLFamily_KS2       .         Shallow Resistivity           : 
TLFamily_KS3       .         Medium Resistivity            : 
TLFamily_KS4       .         Deep Resistivity              : 
TLFamily_KS5       .         Extra Deep Resistivity        : 
TLFamily_LLD       .         Lateral Log Resistivity       : 
TLFamily_OKS3      .         Medium Resistivity Inverted   : 
TLFamily_RM        .         Mud Resistivity               : 
TLFamily_SP        .         Spontaneous Potential         : 
group              .         INI                           : 
~Curve Information
#_______________________________________________________________________________
#
#LOGNAME           .UNIT     LOG_ID                        : DESCRIPTION
#_______________________________________________________________________________
DEPTH              .m                                      : Measured Depth 
KS                 .ohm.m                                  : Potential Resistivity 
KS1                .ohm.m                                  : Extra Shallow Resistivity 
KS2                .ohm.m                                  : Shallow Resistivity 
KS3                .ohm.m                                  : Medium Resistivity 
KS4                .ohm.m                                  : Deep Resistivity 
KS5                .ohm.m                                  : Extra Deep Resistivity 
LLD                .ohm.m                                  : Lateral Log Resistivity 
OKS3               .ohm.m                                  : Medium Resistivity Inverted 
RM                 .ohm.m                                  : Mud Resistivity 
SP                 .mV                                     : Spontaneous Potential 
~Ascii
# ...
2585.4     15.5544    4.4976     16.5226    28.4913    34.1057    16.2184    17.3015    22.9889    0.296      89.4825   
2585.6     15.3626    4.7011     17.0866    29.4797    35.0428    16.7456    17.3159    21.8765    0.301      88.9547   
2585.8     15.1227    4.7724     17.3228    29.7693    35.2216    17.3863    13.9849    20.9295    0.301      89.2294   
2586       14.852     4.6401     16.9522    29.508     35.0064    17.8602    12.0109    20.6927    0.305      89.8596   
2586.2     14.4716    4.5621     16.9686    29.3664    34.9302    18.3808    13.7572    20.2873    0.312      88.4995   
2586.4     14.0913    4.6842     17.3785    29.8448    35.46      18.7612    15.7584    19.7457    0.314      85.0931   
2586.6     13.5738    4.8368     18.0278    30.5593    35.97      18.9414    14.0142    18.8733    0.314      82.8611   
2586.8     13.0496    4.9658     18.1       30.4775    35.2547    18.7812    9.6732     18.2084    0.321      82.7788   
2587       12.6144    4.6706     16.9948    29.0611    33.2348    18.334     7.8105     18.2279    0.326      83.3807   
2587.2     12.2649    4.2974     15.7224    26.8609    30.5128    17.6867    6.8896     19.1619    0.328      83.2289   
2587.4     12.1209    3.853      14.2369    24.9849    28.5657    17.2195    7.8062     20.5468    0.323      81.9923   
2587.6     12.0935    3.7173     13.5974    23.8266    27.3438    17.0326    9.2381     21.8635    0.323      81.5823   
2587.8     12.1586    3.6902     13.3023    23.3419    27.1285    17.1594    11.067     22.6548    0.323      82.6373   
2588       12.2649    3.8022     13.3548    23.175     27.1848    17.433     11.4752    23.0894    0.323      83.3843   
2588.2     12.2443    3.9887     13.4171    23.0586    27.1882    17.7667    11.3332    23.1608    0.328      84.1528   
2588.4     12.1209    4.1651     13.5023    22.8697    26.9696    17.8602    10.7509    23.1673    0.333      85.4516   
2588.6     12.0661    4.0464     13.7319    22.1269    26.0093    17.9403    8.1419     23.5175    0.333      86.4995   
2588.8     12.0661    3.8463     13.076     20.7797    24.7808    18.0604    7.7629     24.6526    0.337      86.9264   
2589       12.1072    3.6359     12.3546    19.4231    23.3734    18.2072    8.0359     26.5531    0.335      86.1687   
2589.2     12.2717    3.5681     12.0299    18.312     22.6847    18.3808    9.1251     28.2072    0.328      84.3904   
2589.4     12.5664    3.4833     11.9643    17.9721    22.6549    18.7278    10.2712    29.8482    0.314      83.1317   
2589.6     12.8645    3.6088     12.2168    17.9689    22.7476    19.235     12.1736    30.6266    0.305      84.4738   
2589.8     13.2483    3.697      12.1775    18.2459    22.9098    19.809     10.9772    31.1098    0.301      87.6507   
2590       13.5738    3.7343     12.1381    18.5386    22.7708    20.3162    10.8175    31.6547    0.296      89.7963   
2590.2     13.9097    3.7173     12.2037    18.8817    22.7111    20.77      12.2664    32.2546    0.296      90.3447   
2590.4     14.2592    3.7648     12.5349    19.3192    22.9098    21.3974    13.3994    32.2709    0.298      89.7094   
2590.6     14.6464    3.8598     13.0563    19.5868    23.1814    22.0515    12.8062    31.7098    0.301      87.9666   
2590.8     15.0747    3.8564     13.1449    19.7284    23.4496    22.9191    13.2285    30.8601    0.301      85.7258   
2591       15.414     3.8802     13.358     20.1785    23.9132    23.493     15.7783    30.1725    0.301      83.0489   
2591.2     15.647     4.1143     14.2336    21.063     24.5854    24.0803    19.6308    28.8979    0.305      80.3395   
2591.4     15.8697    4.3178     15.0764    22.1584    24.89      24.5275    14.4491    27.6396    0.305      79.6878   
2591.6     16.0273    4.3008     15.2338    22.8981    24.9497    24.8812    14.2795    26.5531    0.31       80.6049   
2591.8     16.0753    4.328      15.5519    23.7416    25.198     25.2416    15.5924    25.7229    0.314      80.8812   
2592       16.0924    4.3958     16.0668    24.6607    26.1153    25.8556    16.3446    24.5553    0.319      80.5273   
2592.2     16.0273    4.4739     16.5816    25.9859    28.0425    26.3762    17.0462    23.5337    0.323      80.195    
2592.4     15.7669    4.7045     17.5031    27.8933    29.93      26.79      23.5701    22.1554    0.328      80.9655   
2592.6     15.3386    5.0065     18.6935    30.0148    30.7645    26.8434    19.5121    20.3457    0.323      83.1718   
2592.8     14.9068    5.227      19.4838    31.4942    30.7578    26.3829    12.8821    18.5749    0.323      84.9552   
2593       14.3209    5.1048     19.1592    31.8215    30.1452    25.3084    11.8477    16.7068    0.328      85.7135   
2593.2     13.7589    5.02       18.7624    31         28.9631    23.6799    9.0171     15.429     0.333      86.8004   
2593.4     13.31      4.5892     17.3621    29.9141    27.6451    22.0381    8.5606     14.5826    0.337      88.2227   
2593.6     13.0016    4.2873     16.5292    28.7054    26.9199    20.8835    9.9546     14.0961    0.333      88.7042   
2593.8     12.6966    4.2737     16.2307    28.4032    27.2345    19.8891    11.7741    13.5674    0.319      88.6533   
2594       12.4122    4.4094     16.2963    28.5952    27.8008    19.1549    11.0445    12.7469    0.312      89.4028   
2594.2     12.0832    4.4772     16.1717    28.8628    28.3604    18.5876    10.572     11.7188    0.305      91.4336   
2594.4     11.6275    4.5756     16.175     28.6361    28.5524    17.6933    8.8939     10.5837    0.305      93.3112   
2594.6     11.1752    4.4806     15.7454    27.9531    28.3207    16.8457    8.7051     9.8313     0.305      94.0869   
2594.8     10.6954    4.3687     15.3125    27.0592    27.7842    15.7379    7.9419     9.3448     0.31       95.1564   
2595       10.2089    4.311      15.0764    26.0677    27.2809    14.7434    8.1864     8.9135     0.31       96.3472   
2595.2     9.6263     4.3449     15.001     24.9534    26.7047    13.6289    7.2267     8.4367     0.31       95.1605   
2595.4     9.0404     4.2126     14.2959    23.2474    25.6351    12.3475    6.611      8.0605     0.31       91.0499   
2595.6     8.475      4.0227     13.2761    21.3022    23.7575    11.293     4.9965     7.8659     0.31       86.9624   
2595.8     8.0603     3.6732     12.1611    19.143     21.582     10.5588    4.1816     7.9697     0.31       85.0021   
2596       7.6594     3.3204     10.9445    17.7517    20.2442    9.9048     4.9235     8.8259     0.305      84.0972   
2596.2     7.3613     3.2695     10.7051    16.9208    19.307     8.9971     5.7531     9.5718     0.298      83.3266   
2596.4     7.1489     3.2899     9.7967     15.1235    17.4659    7.9693     5.5842     9.9902     0.296      82.7891   
2596.6     7.0461     3.0694     8.5702     13.5906    15.6711    7.4621     4.0478     10.4345    0.296      82.5561   
2596.8     6.9398     2.8659     7.8881     12.2497    14.426     7.1618     4.0694     10.9891    0.301      82.6996   
2597       6.9912     2.8489     7.8619     11.3621    13.6445    7.0483     5.1751     11.641     0.301      82.8719   
2597.2     7.1249     2.7946     7.6946     10.742     12.8299    6.9816     4.6746     12.3739    0.301      82.4522   
2597.4     7.2414     2.7946     7.4585     9.8292     11.9955    7.1017     5.1213     12.8896    0.301      81.1049   
2597.6     7.4333     2.7878     7.1273     9.0895     11.3729    7.3954     5.043      13.6518    0.31       79.9717   
2597.8     7.5875     2.7539     6.983      8.5891     11.2405    8.1695     4.794      15.0204    0.31       80.5592   
2598       7.7005     2.6216     7.1601     8.5544     11.81      9.3709     4.8858     16.7166    0.31       82.4033   
2598.2     7.9301     2.7098     7.6881     9.0014     13.2306    10.3786    6.1236     18.2636    0.314      84.213    
2598.4     8.1871     2.7607     8.9703     9.9677     14.489     11.4265    9.7184     17.9328    0.323      86.499    
2598.6     8.7834     3.2356     8.849      10.4147    14.6082    12.5877    11.1671    16.3825    0.321      90.4249   
