~Version
 VERS              .         2.0                           : CWLS LOG ASCII STANDARD - VERSION 2.0
 WRAP              .         NO                            : ONE LINE PER DEPTH STEP
 DLM               .         SPACE                         : DELIMITING CHARACTER(SPACE TAB OR COMMA)
~Well Information
#_______________________________________________________________________________
#
#PARAMETER_NAME    .UNIT     VALUE                         : DESCRIPTION
#_______________________________________________________________________________
STRT               .m        2505                          : First reference value
STOP               .m        2679                          : Last reference value
STEP               .m        0.2                           : Step increment
NULL               .         -9999                         : Missing value
COMP               .                                       : Company
WELL               .         501                           : Well name
FLD                .                                       : Field
LOC                .                                       : Location
CNTY               .                                       : County
STAT               .                                       : State
CTRY               .                                       : Country
SRVC               .                                       : Service Company
DATE               .                                       : Date
API                .                                       : API number
EREF               .m        139.4                         : 
X                  .m        230550                        : 
Y                  .m        242075                        : 
group              .         Pad5                          : 
Интер-р            .         Ярышев                        : 
Куст               .         5                             : 
Статус             .         Проверено                     : 
Тип                .         Нагнетательные                : 
~Parameter Information Block
#_______________________________________________________________________________
#
#PARAMETER_NAME    .UNIT     VALUE                         : DESCRIPTION
#_______________________________________________________________________________
SET                .         LAS1                          : 
REAL_CREATION_DATE .         Ср апр 11 2012-13_17_17       : 
TLFamily_DEPTH     .         Measured Depth                : 
TLFamily_KS        .         Potential Resistivity         : 
TLFamily_KS1       .         Extra Shallow Resistivity     : 
TLFamily_KS2       .         Shallow Resistivity           : 
TLFamily_KS3       .         Medium Resistivity            : 
TLFamily_KS4       .         Deep Resistivity              : 
TLFamily_KS5       .         Extra Deep Resistivity        : 
TLFamily_LLD       .         Lateral Log Resistivity       : 
TLFamily_OKS3      .         Medium Resistivity Inverted   : 
TLFamily_RM        .         Mud Resistivity               : 
TLFamily_SP        .         Spontaneous Potential         : 
group              .         INI                           : 
~Curve Information
#_______________________________________________________________________________
#
#LOGNAME           .UNIT     LOG_ID                        : DESCRIPTION
#_______________________________________________________________________________
DEPTH              .m                                      : Measured Depth 
KS                 .ohm.m                                  : Potential Resistivity 
KS1                .ohm.m                                  : Extra Shallow Resistivity 
KS2                .ohm.m                                  : Shallow Resistivity 
KS3                .ohm.m                                  : Medium Resistivity 
KS4                .ohm.m                                  : Deep Resistivity 
KS5                .ohm.m                                  : Extra Deep Resistivity 
LLD                .ohm.m                                  : Lateral Log Resistivity 
OKS3               .ohm.m                                  : Medium Resistivity Inverted 
RM                 .ohm.m                                  : Mud Resistivity 
SP                 .mV                                     : Spontaneous Potential 
~Ascii
# ...
2558.6     6.8267     2.9642     8.0849     8.5041     6.4423     4.3854     5.2385     10.6356    0.323      74.1152   
2558.8     6.8576     2.9608     8.0226     8.4632     6.4224     4.5522     5.3077     10.8172    0.319      74.0808   
2559       6.8919     2.988      8.0455     8.523      6.4787     4.8058     5.0852     10.9988    0.314      74.4794   
2559.2     6.9227     3.0117     8.0521     8.6489     6.5515     5.0728     5.0505     11.2907    0.31       75.409    
2559.4     6.9604     3.0049     8.039      8.8062     6.6409     5.3665     4.9902     11.6215    0.305      74.555    
2559.6     7.0358     2.9744     8.0062     8.8597     6.7635     5.7669     5.1901     11.9491    0.301      71.5936   
2559.8     7.1557     2.9235     7.9406     8.8692     7.0151     6.2207     5.3089     12.4258    0.301      68.7706   
2560       7.3031     2.9167     7.9799     9.0675     7.4059     6.768      6.1125     13.0745    0.296      67.1857   
2560.2     7.4675     2.9541     8.1865     9.4546     8.1046     7.4221     7.5209     13.655     0.301      66.2063   
2560.4     7.6046     3.0931     8.6227     10.0401    8.7735     7.8492     6.1298     13.8853    0.301      66.0154   
2560.6     7.8102     3.2967     9.0851     10.3391    9.1344     8.2363     5.8007     13.5707    0.296      67.41     
2560.8     8.0295     3.2695     8.9244     10.3423    9.1576     8.4232     6.2313     13.3015    0.296      69.6986   
2561       8.122      3.3306     9.1146     10.2415    9.1841     8.4365     6.3326     13.2172    0.301      71.4789   
2561.2     8.2283     3.2899     9.1999     10.3423    9.3728     8.4098     7.6566     13.1556    0.301      72.1343   
2561.4     8.2968     3.3645     9.6458     10.5059    9.6113     8.3564     7.2782     12.8377    0.301      71.7078   
2561.6     8.2762     3.5749     10.3673    10.8711    9.8        8.1896     6.0088     12.2442    0.301      70.5849   
2561.8     8.2317     3.6732     10.5706    11.0631    9.6643     7.9827     6.1607     11.6572    0.301      69.4594   
2562       8.0912     3.619      10.4591    11.0945    9.2934     7.6223     5.9386     11.3102    0.301      68.8447   
2562.2     7.8856     3.6427     10.669     11.1418    8.9589     7.3086     5.0069     11.0313    0.301      68.912    
2562.4     7.7417     3.5172     10.4427    11.1701    8.4291     6.9349     5.0037     11.0378    0.301      69.8488   
2562.6     7.6183     3.3069     9.9148     11.1795    8.0284     6.7547     5.6851     11.401     0.301      71.7001   
2562.8     7.5635     3.2797     9.8196     11.233     7.9059     6.6612     5.4722     11.5405    0.301      73.8174   
2563       7.5977     3.2763     9.6983     11.3243    7.8794     6.6612     5.583      11.6961    0.301      75.7958   
2563.2     7.5703     3.2899     9.5311     11.4974    7.9092     6.6746     5.9743     11.855     0.301      77.5386   
2563.4     7.5635     3.3985     9.6885     11.6391    7.9589     6.6345     5.4758     12.0821    0.301      78.1523   
2563.6     7.5635     3.3035     9.4491     11.7272    7.9589     6.5878     5.4939     12.2896    0.303      77.6605   
2563.8     7.5669     3.3442     9.4753     11.5509    7.9026     6.4743     5.6549     12.575     0.301      76.7197   
2564       7.5909     3.3035     9.4032     11.3149    7.8529     6.2875     5.6901     12.7177    0.305      75.4398   
2564.2     7.6183     3.3306     9.4294     11.0159    7.843      6.1406     5.5641     12.8539    0.307      74.2809   
2564.4     7.632      3.3001     9.3212     10.7326    7.9092     5.9271     5.8365     12.9837    0.305      73.2521   
2564.6     7.6183     3.3137     9.3245     10.5091    8.0052     5.7469     5.8485     13.1004    0.31       71.947    
2564.8     7.5772     3.3645     9.4753     10.4178    8.0516     5.5533     5.8415     13.2269    0.314      71.233    
2565       7.5326     3.4188     9.5934     10.3139    7.9489     5.3398     5.107      13.2431    0.31       71.5381   
2565.2     7.5155     3.334      9.3277     10.1219    7.7436     5.1796     5.2009     13.3664    0.314      72.5175   
2565.4     7.4915     3.2356     9.0424     9.8261     7.5483     5.0461     5.0609     13.655     0.319      73.9733   
2565.6     7.5806     3.1508     8.8588     9.5774     7.3993     4.9927     4.9643     14.2355    0.323      74.5833   
2565.8     7.7245     2.9846     8.4784     9.3508     7.2834     5.0394     5.7386     15.3123    0.328      74.1276   
2566       7.9404     2.9507     8.3669     9.3287     7.3264     5.1662     6.1122     16.3241    0.323      74.429    
2566.2     8.1906     2.971      8.4095     9.6341     7.6046     5.4065     7.0347     17.3328    0.326      74.9825   
2566.4     8.4167     3.1203     8.767      10.0244    8.0052     5.6601     7.0526     18.0722    0.323      73.9516   
2566.6     8.6669     3.2424     9.0785     10.4934    8.3827     5.9404     6.9346     18.776     0.323      71.6579   
2566.8     8.9204     3.3306     9.3179     10.8018    8.7569     6.3275     6.9332     19.4798    0.323      69.9491   
2567       9.1295     3.3069     9.436      11.0725    9.2271     6.6812     7.9331     20.2776    0.326      69.6286   
2567.2     9.3179     3.4019     9.882      11.5635    9.8662     6.9549     8.4286     20.9392    0.328      70.5412   
2567.4     9.4344     3.5817     10.6231    12.1836    10.5252    7.1151     7.4086     21.3965    0.333      72.2917   
2567.6     9.6366     3.697      10.9707    12.3378    10.6212    7.1885     6.5547     21.5911    0.337      73.5705   
2567.8     9.8936     3.4052     10.446     12.0325    10.3067    7.1684     8.5924     21.5521    0.337      74.3266   
2568       10.0855    3.3849     10.364     11.9098    10.1676    6.9415     8.4768     21.4159    0.328      75.4244   
2568.2     10.3322    3.5613     10.8854    12.2623    10.2669    6.808      8.5557     21.3251    0.323      76.7989   
2568.4     10.5652    3.5308     10.869     12.5267    10.1974    6.808      8.1194     21.0073    0.317      77.2999   
2568.6     10.7434    3.5749     11.0166    12.8226    10.1543    6.8347     8.8697     20.9554    0.314      75.7958   
2568.8     10.8873    3.5918     11.1543    13.323     10.2967    6.9015     9.7974     21.0851    0.31       73.3184   
2569       10.973     3.7038     11.6758    13.877     10.4491    6.9682     8.9774     21.124     0.307      71.5283   
2569.2     11.0998    3.7581     11.9906    14.5191    10.5782    7.0083     8.8679     20.8386    0.301      70.6271   
2569.4     11.2403    3.7852     12.0791    14.9378    10.512     7.055      8.9321     20.5176    0.301      70.4769   
2569.6     11.326     3.7682     12.0135    15.2934    10.4888    7.0483     8.7982     20.1511    0.296      70.8236   
2569.8     11.4013    3.8191     12.1939    15.6963    10.608     7.075      9.0542     20.0116    0.301      71.4347   
2570       11.4253    3.8463     12.4136    16.2283    10.9027    7.095      9.5093     19.8754    0.301      71.8009   
2570.2     11.4836    3.8463     12.5907    16.6815    11.2239    7.1551     9.4157     19.6062    0.301      71.2834   
2570.4     11.5316    3.8666     12.6759    17.1191    11.5782    7.1684     9.4865     19.3241    0.301      70.4347   
2570.6     11.5281    3.9345     12.8727    17.4653    12.0749    7.1684     9.317      19.2203    0.301      70.305    
2570.8     11.5076    3.9718     12.9678    17.7706    12.575     7.1684     8.9225     19.1262    0.301      70.6831   
2571       11.4904    3.9548     12.9776    17.9374    13.0121    7.1951     8.9327     19.0808    0.301      70.2474   
2571.2     11.4596    3.9209     12.9678    18.1326    13.5783    7.2419     9.6114     19.2203    0.301      69.3189   
2571.4     11.4082    3.9684     13.1744    18.5103    14.2737    7.3019     9.5207     19.4311    0.301      69.6919   
2571.6     11.3328    4.0125     13.3089    18.8471    15.0254    7.4087     9.4461     19.5025    0.301      71.302    
2571.8     11.23      4.0566     13.3908    19.0234    15.5983    7.5222     8.4038     19.5673    0.301      73.4506   
