~Version
 VERS              .         2.0                           : CWLS LOG ASCII STANDARD - VERSION 2.0
 WRAP              .         NO                            : ONE LINE PER DEPTH STEP
 DLM               .         SPACE                         : DELIMITING CHARACTER(SPACE TAB OR COMMA)
~Well Information
#_______________________________________________________________________________
#
#PARAMETER_NAME    .UNIT     VALUE                         : DESCRIPTION
#_______________________________________________________________________________
STRT               .m        2505                          : First reference value
STOP               .m        2679                          : Last reference value
STEP               .m        0.2                           : Step increment
NULL               .         -9999                         : Missing value
COMP               .                                       : Company
WELL               .         501                           : Well name
FLD                .                                       : Field
LOC                .                                       : Location
CNTY               .                                       : County
STAT               .                                       : State
CTRY               .                                       : Country
SRVC               .                                       : Service Company
DATE               .                                       : Date
API                .                                       : API number
EREF               .m        139.4                         : 
X                  .m        230550                        : 
Y                  .m        242075                        : 
group              .         Pad5                          : 
Интер-р            .         Ярышев                        : 
Куст               .         5                             : 
Статус             .         Проверено                     : 
Тип                .         Нагнетательные                : 
~Parameter Information Block
#_______________________________________________________________________________
#
#PARAMETER_NAME    .UNIT     VALUE                         : DESCRIPTION
#_______________________________________________________________________________
SET                .         LAS1                          : 
REAL_CREATION_DATE .         Ср апр 11 2012-13_17_17       : 
TLFamily_DEPTH     .         Measured Depth                : 
TLFamily_KS        .         Potential Resistivity         : 
TLFamily_KS1       .         Extra Shallow Resistivity     : 
TLFamily_KS2       .         Shallow Resistivity           : 
TLFamily_KS3       .         Medium Resistivity            : 
TLFamily_KS4       .         Deep Resistivity              : 
TLFamily_KS5       .         Extra Deep Resistivity        : 
TLFamily_LLD       .         Lateral Log Resistivity       : 
TLFamily_OKS3      .         Medium Resistivity Inverted   : 
TLFamily_RM        .         Mud Resistivity               : 
TLFamily_SP        .         Spontaneous Potential         : 
group              .         INI                           : 
~Curve Information
#_______________________________________________________________________________
#
#LOGNAME           .UNIT     LOG_ID                        : DESCRIPTION
#_______________________________________________________________________________
DEPTH              .m                                      : Measured Depth 
KS                 .ohm.m                                  : Potential Resistivity 
KS1                .ohm.m                                  : Extra Shallow Resistivity 
KS2                .ohm.m                                  : Shallow Resistivity 
KS3                .ohm.m                                  : Medium Resistivity 
KS4                .ohm.m                                  : Deep Resistivity 
KS5                .ohm.m                                  : Extra Deep Resistivity 
LLD                .ohm.m                                  : Lateral Log Resistivity 
OKS3               .ohm.m                                  : Medium Resistivity Inverted 
RM                 .ohm.m                                  : Mud Resistivity 
SP                 .mV                                     : Spontaneous Potential 
~Ascii
# ...
2612.2     6.5697     2.9982     7.6684     7.308      5.7535     5.1863     4.7645     10.707     0.31       91.1337   
2612.4     6.5869     2.9439     7.7176     7.2859     5.5846     5.1262     4.6925     11.1999    0.301      90.1415   
2612.6     6.6211     2.8964     7.6914     7.3017     5.472      5.1129     4.7366     12.4356    0.294      89.662    
2612.8     6.6794     2.8794     7.6389     7.3269     5.4025     5.1729     4.8653     13.7328    0.296      88.9547   
2613       6.7685     2.8726     7.5667     7.3426     5.3793     5.2864     4.9932     15.2928    0.296      86.5947   
2613.2     6.8679     2.8828     7.5405     7.4119     5.3892     5.4866     5.1309     17.0214    0.303      83.4563   
2613.4     6.9398     2.9303     7.6389     7.5724     5.4389     5.7936     5.6089     18.4582    0.31       81.5386   
2613.6     7.0426     3.0083     7.7766     7.7423     5.4687     6.2007     5.5903     19.9338    0.314      81.8863   
2613.8     7.2174     2.9507     7.5864     7.6825     5.5085     6.6879     4.7365     21.6235    0.319      83.731    
2614       7.4059     2.7471     7.2191     7.6133     5.7502     7.3153     4.8431     24.3348    0.312      86.1019   
2614.2     7.5189     2.9201     7.6946     7.7675     6.0747     8.243      8.6316     25.8883    0.31       88.7876   
2614.4     7.7965     3.0694     8.1111     7.9406     6.4058     10.3519    5.8061     26.9423    0.31       91.9913   
2614.6     8.4852     2.8421     7.2388     7.5094     7.0118     12.521     3.0038     32.1184    0.305      97.5772   
2614.8     9.15       1.8956     5.4844     7.4213     8.4192     15.4442    4.3368     42.2988    0.298      103.5057  
2615       10.1883    1.9126     6.1402     8.1767     10.4226    17.8135    14.5589    49.1678    0.296      105.2505  
2615.2     11.7714    2.3129     7.2978     9.6309     12.1379    19.9425    29.7425    49.8002    0.287      104.2335  
2615.4     13.3134    2.815      8.4522     10.8679    13.1213    21.4107    122.646    45.8144    0.287      102.9666  
2615.6     14.2078    3.5545     9.7737     12.4889    14.3002    21.6176    168.2658   42.3507    0.291      102.7711  
2615.8     14.4305    4.3483     12.2824    14.6199    15.4195    20.6699    127.8296   38.7086    0.296      104.1574  
2616       14.3894    5.0065     14.9977    15.8915    15.2969    19.4886    16.0954    35.4816    0.291      105.8899  
2616.2     14.3174    4.4196     14.7157    15.8159    13.9028    17.2595    8.7798     33.0492    0.294      106.8992  
2616.4     14.266     3.9853     14.5058    15.2336    12.171     15.0171    8.709      32.8546    0.296      108.5123  
2616.6     14.4648    3.6224     13.7975    14.8969    10.9557    13.0015    9.5333     33.5519    0.301      112.6394  
2616.8     14.7389    3.3781     13.1547    15.0416    10.6444    11.5332    16.3364    34.1       0.312      117.6703  
2617       14.8588    3.982      14.8173    17.1222    11.2471    10.5388    25.7204    33.8568    0.303      121.8992  
2617.2     14.9582    4.3246     15.165     20.4335    11.8531    9.6578     19.472     32.4881    0.291      125.9182  
2617.4     15.0542    4.3382     14.7091    22.4385    11.7306    9.0772     14.5438    30.5293    0.287      128.9002  
2617.6     15.0165    4.0498     13.9221    23.3167    11.6445    8.1295     12.8895    29.2288    0.287      128.6662  
2617.8     14.9548    4.0159     14.0926    23.7322    11.8001    7.402      14.1129    28.6612    0.296      125.5376  
2618       14.9514    3.9412     14.1484    23.9305    12.1975    6.808      13.7565    28.4212    0.296      122.2531  
2618.2     15.037     3.7445     13.6597    23.3954    12.575     6.3542     13.1363    28.0774    0.301      120.4084  
2618.4     15.0679    3.7377     13.4794    23.2254    13.5585    5.9137     14.5202    28.058     0.301      120.0864  
2618.6     15.1021    3.7852     13.6433    23.4363    14.8565    5.7402     14.7672    28.3563    0.31       120.5252  
2618.8     15.1295    3.8056     13.6597    24.1665    16.1115    5.6334     15.0771    28.7974    0.31       121.4943  
2619       15.1775    3.8259     13.945     25.0038    18.4527    5.4999     16.7542    28.9531    0.303      122.928   
2619.2     15.2426    3.9345     14.168     25.8757    21.7707    5.4132     17.2829    28.5412    0.305      124.3812  
2619.4     15.342     3.8598     13.9582    26.3699    25.1086    5.3665     16.7718    27.2342    0.305      126.2464  
2619.6     15.3626    3.853      14.0008    26.6437    28.0657    5.2864     16.9621    26.0407    0.296      127.2922  
2619.8     15.2426    4.0702     14.6763    27.012     30.791     5.2463     17.1699    25.2591    0.291      125.4378  
2620       15.1775    4.0125     14.6239    27.2764    32.6155    5.2864     15.7167    24.8213    0.291      122.1276  
2620.2     15.1364    3.9853     14.5714    26.8577    33.4666    5.3398     14.8266    24.3348    0.296      120.7963  
2620.4     14.9719    3.8938     14.2172    26.9616    34.6189    5.3398     13.9195    24.7272    0.296      121.7305  
2620.6     14.8417    4.0328     14.7321    27.0812    35.4998    5.3998     16.9716    24.7824    0.305      122.7675  
2620.8     14.8006    4.0023     14.532     26.9427    35.5428    5.5266     14.4086    24.6234    0.314      123.1646  
2621       14.8109    3.7648     13.8499    26.5304    35.7216    5.7135     14.6067    24.4061    0.296      124.1049  
2621.2     14.7081    3.7818     14.0598    27.012     37.3177    6.0339     15.2638    24.7369    0.301      126.1296  
2621.4     14.4339    4.0057     14.9321    28.5858    40.3145    6.3342     21.8071    24.9607    0.301      127.7119  
2621.6     14.0741    4.3517     16.093     30.1533    42.0861    6.6746     31.6702    24.3478    0.301      127.6924  
2621.8     13.8514    4.5044     16.257     29.7693    41.0795    7.0617     12.7898    23.2905    0.296      126.3236  
2622       13.6218    4.0057     14.4238    27.8587    38.3211    7.3553     9.2758     22.6613    0.296      124.8678  
2622.2     13.4471    3.6631     13.6237    25.8285    36.2084    7.6356     12.7349    22.4213    0.291      124.3776  
2622.4     13.3545    3.5443     13.2203    24.9566    35.3143    7.9827     12.4306    22.2851    0.287      125.0283  
2622.6     13.2654    3.602      13.2597    24.5096    34.7381    8.8369     13.9733    22.0743    0.289      126.7629  
2622.8     13.1901    3.5681     12.8924    24.2673    34.4931    9.7112     12.533     22.1294    0.291      129.0782  
2623       13.1352    3.524      12.594     23.9619    34.2216    10.6389    12.5398    22.0775    0.291      131.2248  
2623.2     13.0667    3.4731     12.4661    23.8329    34.205     12.0004    12.8524    21.9219    0.296      133.3868  
2623.4     12.9365    3.5308     12.7645    23.9714    34.6852    14.4031    13.5575    21.5748    0.296      135.8122  
2623.6     12.8508    3.5511     12.8071    24.0847    34.7812    16.9325    12.9797    21.3349    0.291      138.3488  
2623.8     12.7994    3.4629     12.4005    23.8581    34.2679    19.5287    12.0632    21.2862    0.287      141.2675  
2624       12.6898    3.5002     12.3906    23.6157    34.1487    21.9447    11.7259    21.3024    0.287      143.5715  
2624.2     12.6349    3.4934     12.2759    23.2474    33.8838    23.6332    10.7883    21.6105    0.289      143.9028  
2624.4     12.6932    3.3137     11.7151    22.599     32.9997    25.5153    12.2076    21.7175    0.291      142.7088  
2624.6     12.8063    3.2797     11.561     22.1143    32.5394    26.7366    12.9354    21.617     0.296      141.713   
2624.8     12.8851    3.3645     11.6823    22.0199    32.4533    27.7644    13.108     21.4938    0.301      141.9228  
2625       12.8954    3.4493     11.7381    22.1017    32.6917    29.2794    12.8787    21.6884    0.296      142.6574  
2625.2     12.7583    3.5206     12.0201    22.854     34.2977    30.6209    12.4212    22.4278    0.296      143.8025  
2625.4     12.5458    4.0566     13.8499    23.9808    35.5296    31.1281    11.767     24.0105    0.312      145.8328  
