~Version
 VERS              .         2.0                           : CWLS LOG ASCII STANDARD - VERSION 2.0
 WRAP              .         NO                            : ONE LINE PER DEPTH STEP
 DLM               .         SPACE                         : DELIMITING CHARACTER(SPACE TAB OR COMMA)
~Well Information
#_______________________________________________________________________________
#
#PARAMETER_NAME    .UNIT     VALUE                         : DESCRIPTION
#_______________________________________________________________________________
STRT               .m        2505                          : First reference value
STOP               .m        2679                          : Last reference value
STEP               .m        0.2                           : Step increment
NULL               .         -9999                         : Missing value
COMP               .                                       : Company
WELL               .         501                           : Well name
FLD                .                                       : Field
LOC                .                                       : Location
CNTY               .                                       : County
STAT               .                                       : State
CTRY               .                                       : Country
SRVC               .                                       : Service Company
DATE               .                                       : Date
API                .                                       : API number
EREF               .m        139.4                         : 
X                  .m        230550                        : 
Y                  .m        242075                        : 
group              .         Pad5                          : 
Интер-р            .         Ярышев                        : 
Куст               .         5                             : 
Статус             .         Проверено                     : 
Тип                .         Нагнетательные                : 
~Parameter Information Block
#_______________________________________________________________________________
#
#PARAMETER_NAME    .UNIT     VALUE                         : DESCRIPTION
#_______________________________________________________________________________
SET                .         LAS3                          : 
REAL_CREATION_DATE .         Ср апр 11 2012-13_17_17       : 
TLFamily_DEPTH     .         Measured Depth                : 
TLFamily_GR        .         Gamma Ray                     : 
TLFamily_TNPH      .         Neutron Porosity              : 
group              .         INI                           : 
~Curve Information
#_______________________________________________________________________________
#
#LOGNAME           .UNIT     LOG_ID                        : DESCRIPTION
#_______________________________________________________________________________
DEPTH              .m                                      : Measured Depth 
GR                 .gAPI                                   :  
TNPH               .v/v                                    : Neutron Porosity 
~Ascii
2505.0     68.42      0.244     
2505.2     67.97      0.207     
2505.4     68.83      0.199     
2505.6     68.92      0.199     
2505.8     68.17001   0.212     
2506       68.98      0.192     
2506.2     78.91      0.194     
2506.4     85.14      0.218     
2506.6     84.13      0.238     
2506.8     78.03001   0.228     
2507       75.29      0.215     
2507.2     71.84      0.196     
2507.4     77.17      0.185     
2507.6     77.16      0.161     
2507.8     78.06      0.134     
2508       77.22      0.121     
2508.2     64.84      0.109     
2508.4     55.78      0.106     
2508.6     56.8       0.108     
2508.8     60.09      0.111     
2509       59.41      0.131     
2509.2     61.59      0.149     
2509.4     62         0.19      
2509.6     65.5       0.234     
2509.8     73.64      0.276     
2510       73.86      0.303     
2510.2     76.13      0.254     
2510.4     77.61      0.22      
2510.6     75.84      0.229     
2510.8     72.02      0.233     
2511       72.81      0.245     
2511.2     75.55      0.248     
2511.4     85.12      0.216     
2511.6     87.88      0.24      
2511.8     86.53      0.266     
2512       75.39      0.247     
2512.2     73.75      0.251     
2512.4     77.44      0.215     
2512.6     87.23      0.212     
2512.8     100.27     0.244     
2513       107.88     0.263     
2513.2     108        0.249     
2513.4     109.78     0.255     
2513.6     102.87     0.259     
2513.8     103.89     0.291     
2514       111.25     0.28      
2514.2     118.28     0.287     
2514.4     120.31     0.278     
2514.6     112.52     0.28      
2514.8     104.98     0.3       
2515       106.33     0.259     
2515.2     106.71     0.239     
2515.4     102.42     0.237     
2515.6     100.64     0.228     
2515.8     91.31      0.24      
2516       78.39      0.258     
2516.2     77.56      0.271     
2516.4     82.88      0.26      
2516.6     85.17      0.24      
2516.8     79.72      0.201     
2517       78.21999   0.17      
2517.2     68.05      0.146     
2517.4     55.91      0.138     
2517.6     57.19      0.139     
2517.8     68.94      0.202     
2518       82.78      0.248     
2518.2     95.86      0.275     
2518.4     118.42     0.284     
2518.6     121.31     0.282     
2518.8     126.34     0.272     
2519       127.93     0.268     
2519.2     116.06     0.279     
2519.4     119.09     0.309     
2519.6     118.92     0.28      
2519.8     111.58     0.265     
2520       111.98     0.253     
2520.2     114.61     0.251     
2520.4     127.7      0.248     
2520.6     121.75     0.256     
2520.8     120.78     0.263     
2521       121.09     0.275     
2521.2     112.53     0.239     
2521.4     112.06     0.22      
2521.6     105.38     0.214     
2521.8     94.31      0.203     
2522       91.4       0.223     
2522.2     93.97      0.236     
2522.4     100.59     0.261     
2522.6     106.72     0.28      
2522.8     106.5      0.295     
2523       106.58     0.265     
2523.2     113.42     0.248     
2523.4     123.23     0.227     
2523.6     118.19     0.245     
2523.8     114.73     0.24      
2524       112.58     0.245     
2524.2     100.69     0.227     
2524.4     90.63      0.254     
2524.6     100.59     0.236     
2524.8     97.25      0.215     
2525       103.56     0.229     
2525.2     113.31     0.242     
2525.4     113.14     0.258     
2525.6     116.78     0.272     
2525.8     114.06     0.255     
2526       111.56     0.253     
2526.2     113.08     0.25      
2526.4     110.36     0.243     
2526.6     109.97     0.247     
2526.8     111.89     0.269     
2527       114.2      0.248     
2527.2     112.52     0.263     
2527.4     113.47     0.268     
2527.6     113.58     0.263     
2527.8     111.23     0.274     
2528       112.84     0.273     
2528.2     109.31     0.268     
2528.4     104.81     0.232     
2528.6     108.66     0.228     
2528.8     110.52     0.255     
2529       110.29     0.241     
2529.2     107.14     0.253     
2529.4     115.03     0.239     
2529.6     115.81     0.256     
2529.8     111.8      0.271     
2530       111.89     0.283     
2530.2     112.76     0.265     
2530.4     116.11     0.261     
2530.6     114.77     0.277     
2530.8     112.25     0.298     
2531       106.73     0.303     
2531.2     109.81     0.336     
2531.4     117.99     0.314     
2531.6     109.48     0.332     
2531.8     108.13     0.323     
2532       107.97     0.273     
2532.2     104        0.285     
2532.4     99.69      0.303     
2532.6     98.89      0.299     
2532.8     100.44     0.324     
2533       97.88      0.309     
2533.2     95.09      0.289     
2533.4     104.06     0.308     
2533.6     102.55     0.331     
2533.8     107.41     0.323     
2534       105        0.299     
2534.2     109.39     0.283     
2534.4     111.92     0.291     
2534.6     111.98     0.279     
2534.8     116.09     0.262     
2535       112.8      0.267     
2535.2     109.34     0.277     
2535.4     101.06     0.271     
2535.6     103.03     0.272     
2535.8     105.07     0.25      
2536       106.91     0.254     
2536.2     99.2       0.271     
2536.4     96.14      0.257     
2536.6     90.11      0.274     
2536.8     100.33     0.296     
2537       105.26     0.292     
2537.2     105.94     0.297     
2537.4     107.14     0.314     
2537.6     97.77      0.319     
2537.8     98.17001   0.291     
2538       100.69     0.273     
2538.2     104.7      0.267     
2538.4     100.64     0.286     
2538.6     98.33      0.285     
2538.8     107.13     0.267     
2539       110.14     0.27      
2539.2     107.06     0.306     
2539.4     109.55     0.308     
2539.6     111.56     0.284     
2539.8     115.08     0.277     
2540       116.02     0.236     
2540.2     110.95     0.268     
2540.4     107.25     0.256     
2540.6     115.22     0.26      
2540.8     114.73     0.285     
2541       115.69     0.298     
2541.2     111.42     0.295     
2541.4     113.36     0.283     
2541.6     116.67     0.283     
2541.8     120.44     0.293     
2542       120.52     0.276     
2542.2     117.69     0.253     
2542.4     117.05     0.256     
2542.6     111.09     0.275     
2542.8     107.02     0.28      
2543       101.59     0.264     
2543.2     107.34     0.263     
2543.4     108.22     0.269     
2543.6     108.19     0.26      
2543.8     106.88     0.251     
2544       108.23     0.28      
2544.2     107.69     0.298     
2544.4     99.3       0.274     
2544.6     88.86      0.252     
2544.8     90.73      0.23      
2545       88.48      0.248     
2545.2     90         0.274     
2545.4     94.78      0.266     
2545.6     104.7      0.275     
2545.8     109.83     0.278     
2546       110.97     0.26      
2546.2     108.91     0.288     
2546.4     107.81     0.296     
2546.6     110.23     0.281     
2546.8     111.03     0.273     
2547       116.39     0.278     
2547.2     119.88     0.276     
2547.4     118.08     0.264     
2547.6     109.77     0.253     
2547.8     100.97     0.248     
2548       103.7      0.246     
2548.2     104        0.242     
2548.4     99.89      0.254     
2548.6     95.88      0.267     
2548.8     93.94      0.261     
2549       96.12      0.249     
2549.2     99.72      0.248     
2549.4     103.55     0.233     
2549.6     105.63     0.229     
2549.8     106.69     0.246     
2550       94.73      0.251     
2550.2     83.05      0.252     
2550.4     71.58      0.209     
2550.6     69.53      0.171     
2550.8     74.22      0.167     
2551       92.06001   0.205     
2551.2     93.97      0.225     
2551.4     92.77      0.256     
2551.6     99.73      0.207     
2551.8     94.91      0.208     
2552       106.22     0.241     
2552.2     114.27     0.272     
2552.4     125.11     0.255     
2552.6     128.34     0.253     
2552.8     127.23     0.255     
2553       131.13     0.256     
2553.2     137.89     0.284     
2553.4     145.98     0.294     
