~Version
 VERS              .         2.0                           : CWLS LOG ASCII STANDARD - VERSION 2.0
 WRAP              .         NO                            : ONE LINE PER DEPTH STEP
 DLM               .         SPACE                         : DELIMITING CHARACTER(SPACE TAB OR COMMA)
~Well Information
#_______________________________________________________________________________
#
#PARAMETER_NAME    .UNIT     VALUE                         : DESCRIPTION
#_______________________________________________________________________________
STRT               .m        2505                          : First reference value
STOP               .m        2679                          : Last reference value
STEP               .m        0.2                           : Step increment
NULL               .         -9999                         : Missing value
COMP               .                                       : Company
WELL               .         501                           : Well name
FLD                .                                       : Field
LOC                .                                       : Location
CNTY               .                                       : County
STAT               .                                       : State
CTRY               .                                       : Country
SRVC               .                                       : Service Company
DATE               .                                       : Date
API                .                                       : API number
EREF               .m        139.4                         : 
X                  .m        230550                        : 
Y                  .m        242075                        : 
group              .         Pad5                          : 
Интер-р            .         Ярышев                        : 
Куст               .         5                             : 
Статус             .         Проверено                     : 
Тип                .         Нагнетательные                : 
~Parameter Information Block
#_______________________________________________________________________________
#
#PARAMETER_NAME    .UNIT     VALUE                         : DESCRIPTION
#_______________________________________________________________________________
SET                .         LAS1                          : 
REAL_CREATION_DATE .         Ср апр 11 2012-13_17_17       : 
TLFamily_DEPTH     .         Measured Depth                : 
TLFamily_KS        .         Potential Resistivity         : 
TLFamily_KS1       .         Extra Shallow Resistivity     : 
TLFamily_KS2       .         Shallow Resistivity           : 
TLFamily_KS3       .         Medium Resistivity            : 
TLFamily_KS4       .         Deep Resistivity              : 
TLFamily_KS5       .         Extra Deep Resistivity        : 
TLFamily_LLD       .         Lateral Log Resistivity       : 
TLFamily_OKS3      .         Medium Resistivity Inverted   : 
TLFamily_RM        .         Mud Resistivity               : 
TLFamily_SP        .         Spontaneous Potential         : 
group              .         INI                           : 
~Curve Information
#_______________________________________________________________________________
#
#LOGNAME           .UNIT     LOG_ID                        : DESCRIPTION
#_______________________________________________________________________________
DEPTH              .m                                      : Measured Depth 
KS                 .ohm.m                                  : Potential Resistivity 
KS1                .ohm.m                                  : Extra Shallow Resistivity 
KS2                .ohm.m                                  : Shallow Resistivity 
KS3                .ohm.m                                  : Medium Resistivity 
KS4                .ohm.m                                  : Deep Resistivity 
KS5                .ohm.m                                  : Extra Deep Resistivity 
LLD                .ohm.m                                  : Lateral Log Resistivity 
OKS3               .ohm.m                                  : Medium Resistivity Inverted 
RM                 .ohm.m                                  : Mud Resistivity 
SP                 .mV                                     : Spontaneous Potential 
~Ascii
# ...
2625.6     12.4499    3.9412     13.5942    23.8707    35.6123    32.2894    12.5738    24.8634    0.317      146.662   
2625.8     12.7583    3.5104     11.7676    22.2465    33.5195    32.9568    10.8779    23.8353    0.291      144.4568  
2626       12.8131    3.4324     11.5479    21.5226    32.6453    32.1559    12.7848    23.6926    0.287      141.1008  
2626.2     12.7651    3.8463     12.4103    21.6894    32.844     31.1948    12.8814    23.6472    0.305      138.6718  
2626.4     12.9193    3.4188     11.3085    20.8364    31.0757    31.6887    11.9052    22.937     0.305      137.3179  
2626.6     13.1215    3.3069     11.1445    19.9488    29.8604    31.355     12.3241    21.7824    0.301      136.0015  
2626.8     13.1763    3.4052     11.5347    20.0935    29.9399    30.9546    13.2833    21.4613    0.301      134.5273  
2627       13.2072    3.4697     11.7282    20.3516    30.1618    31.2883    12.28      21.2603    0.301      134.1646  
2627.2     13.262     3.4358     11.8856    20.4587    30.1121    31.5953    13.0328    20.9003    0.31       134.8812  
2627.4     13.2997    3.4019     11.9217    20.4461    30.0393    31.8889    13.9215    20.7608    0.296      135.8837  
2627.6     13.3203    3.4867     12.0725    20.5877    30.0525    32.3428    13.0147    20.9813    0.287      137.2341  
2627.8     13.2552    3.4595     11.984     21.3117    30.4399    32.7966    12.9483    21.8051    0.287      138.4923  
2628       13.1352    3.5952     12.4759    21.9129    30.6817    33.2571    12.4476    22.564     0.301      137.7701  
2628.2     13.005     3.5172     12.3021    22.2496    30.9532    33.7576    12.3097    23.4786    0.296      135.0838  
2628.4     12.9091    3.5545     12.4497    22.4259    31.0294    34.8388    11.4914    24.1078    0.301      132.5401  
2628.6     12.772     3.5681     12.4693    22.9138    31.5592    35.88      10.5204    24.9932    0.305      129.4347  
2628.8     12.6007    3.5918     12.6595    23.43      32.7049    37.4817    8.6577     26.965     0.305      124.9439  
2629       12.4739    3.5681     12.9383    24.2106    34.1189    38.9233    8.7893     29.1477    0.296      121.9177  
2629.2     12.539     3.5884     13.1711    24.8401    35.5859    39.0234    9.1251     30.8471    0.291      121.4923  
2629.4     13.0735    3.4629     12.9711    23.6377    33.748     38.603     7.848      31.2525    0.291      121.2675  
2629.6     14.1153    2.876      10.1509    20.5468    30.281     37.8288    7.3683     30.7433    0.296      120.3915  
2629.8     15.3112    2.53       8.9375     18.2994    27.7279    36.3071    13.3404    29.4104    0.301      119.5952  
2630       16.3906    2.876      9.9082     18.3875    28.6385    35.8399    52.3581    27.5293    0.31       119.9167  
2630.2     17.6139    3.3815     11.338     19.9047    30.5823    36.8944    179.067    24.2634    0.31       121.6965  
2630.4     18.1039    4.1855     13.5089    22.0167    32.8705    38.2559    352.3008   20.8743    0.301      123.4264  
2630.6     17.7989    4.9793     16.2373    24.3113    35.7845    39.5507    253.9525   17.5403    0.291      124.7958  
2630.8     16.9628    5.7053     19.1264    27.0686    38.2913    39.9311    85.4375    15.0528    0.291      126.0185  
2631       15.6024    6.1938     22.6058    29.3255    39.6787    39.5507    24.7296    12.5426    0.296      124.9223  
2631.2     14.1392    6.2277     23.6617    30.4082    38.9535    38.1892    12.3428    10.7751    0.296      121.197   
2631.4     12.8028    5.5764     22.1106    30.1627    36.3607    36.3004    7.8647     9.8151     0.301      118.4043  
2631.6     11.9839    4.7656     19.9757    29.379     33.3043    33.751     7.3943     9.3318     0.301      117.4727  
2631.8     11.182     4.3348     17.9098    28.6896    31.1585    32.1559    7.2522     9.3254     0.301      117.4794  
2632       10.5412    3.9345     15.9159    28.2647    29.4101    31.395     6.8927     9.4843     0.296      118.3102  
2632.2     10.1403    3.7106     14.3681    28.0507    28.4266    31.682     6.7606     9.8053     0.287      119.5118  
2632.4     9.7908     3.5783     13.4367    27.8429    28.5425    32.89      6.8206     10.2983    0.287      121.7634  
2632.6     9.4379     3.5409     12.8334    27.8524    29.5227    36.2938    7.4226     10.9113    0.294      125.5463  
2632.8     9.0746     3.7072     13.1088    28.6172    32.493     39.2437    7.4877     11.8453    0.296      129.2016  
2633       8.5367     3.8429     13.7811    30.1407    36.0362    40.4583    7.1042     12.6626    0.296      130.9393  
2633.2     8.098      4.0837     14.4796    29.8102    37.0495    40.1647    8.2428     12.4907    0.301      129.8405  
2633.4     7.7519     3.9345     13.5122    26.8861    34.9534    37.0679    7.14       11.2356    0.294      127.82    
2633.6     7.447      3.9514     13.0498    23.8833    31.4532    32.236     5.6989     9.9545     0.291      129.3014  
2633.8     7.1591     3.6393     11.3741    19.8701    27.2544    27.2038    4.575      8.7708     0.287      133.6867  
2634       6.9056     3.2695     10.0722    16.2314    23.7046    22.0915    4.3322     8.1254     0.291      137.1867  
2634.2     6.6794     3.256      9.9279     14.3177    20.8965    18.0204    4.6929     7.7557     0.301      139.9383  
2634.4     6.5629     3.1542     9.4196     12.8792    18.7573    15.4909    5.0933     7.4184     0.305      143.6816  
2634.6     6.5012     3.161      9.0884     11.5856    16.3069    13.5621    4.9226     7.0876     0.305      147.9383  
2634.8     6.3881     2.9914     8.2685     10.7011    14.5188    11.5866    4.6205     6.9319     0.296      150.0283  
2635       6.2853     3.066      8.2488     9.9709     12.7306    10.3319    4.5655     7.0811     0.294      148.8338  
2635.2     6.1071     3.0796     8.2357     9.8764     11.6114    9.1439     4.5872     7.4703     0.291      146.5952  
2635.4     6.0695     3.0457     8.1898     9.7694     10.363     8.7569     4.7015     7.6389     0.291      145.4964  
2635.6     6.0832     2.8625     7.652      9.675      9.7305     8.4098     4.4315     8.0216     0.294      145.6883  
2635.8     6.0352     2.9914     7.8586     9.8701     9.6411     8.0628     4.3804     8.3913     0.301      146.2094  
2636       5.9118     3.0931     8.2718     10.166     9.4954     7.7558     5.8953     8.4886     0.305      145.9697  
2636.2     5.9701     3.1406     8.1242     9.7253     8.7967     7.4087     5.1147     8.1124     0.31       144.9753  
2636.4     5.8981     3.1237     7.8684     9.0108     7.8297     6.7413     4.717      7.6746     0.303      143.7876  
2636.6     5.8193     3.049      7.6782     8.3908     7.194      6.194      4.5584     7.5838     0.296      142.4491  
2636.8     5.7611     2.9235     7.3438     7.8053     6.7933     5.8336     4.1411     7.7492     0.287      142.2325  
2637       5.7473     2.8285     7.2651     7.3867     6.6111     5.7002     4.1132     8.0962     0.305      143.9552  
2637.2     5.7987     2.7302     7.0191     7.116      6.8231     5.7469     4.2428     8.5535     0.305      146.0345  
2637.4     5.8707     2.7268     7.1404     7.1569     7.3761     6.0138     4.6685     9.1535     0.305      147.18    
2637.6     5.9461     2.8862     7.3438     7.478      7.9489     6.194      5.3111     9.6237     0.301      147.0134  
2637.8     5.9598     3.0321     7.6291     7.7329     8.2602     6.3409     5.3305     9.8281     0.294      145.1451  
2638       5.9941     3.1813     7.8783     7.799      8.0317     6.3409     5.4433     9.6562     0.291      142.4228  
2638.2     6.1174     2.9235     7.2651     7.5976     7.2701     6.2474     4.4471     9.3902     0.296      141.0489  
2638.4     6.1551     2.7675     7.0093     7.223      6.7701     5.9538     4.5041     9.374      0.296      141.3637  
2638.6     6.162      2.8659     7.3503     7.116      6.4588     5.7269     5.3674     9.5621     0.301      142.2912  
2638.8     6.1791     2.9439     7.5372     7.0688     6.1939     5.6134     5.1725     9.7567     0.305      144.0725  
