~Version
 VERS              .         2.0                           : CWLS LOG ASCII STANDARD - VERSION 2.0
 WRAP              .         NO                            : ONE LINE PER DEPTH STEP
 DLM               .         SPACE                         : DELIMITING CHARACTER(SPACE TAB OR COMMA)
~Well Information
#_______________________________________________________________________________
#
#PARAMETER_NAME    .UNIT     VALUE                         : DESCRIPTION
#_______________________________________________________________________________
STRT               .m        2505                          : First reference value
STOP               .m        2679                          : Last reference value
STEP               .m        0.2                           : Step increment
NULL               .         -9999                         : Missing value
COMP               .                                       : Company
WELL               .         501                           : Well name
FLD                .                                       : Field
LOC                .                                       : Location
CNTY               .                                       : County
STAT               .                                       : State
CTRY               .                                       : Country
SRVC               .                                       : Service Company
DATE               .                                       : Date
API                .                                       : API number
EREF               .m        139.4                         : 
X                  .m        230550                        : 
Y                  .m        242075                        : 
group              .         Pad5                          : 
Интер-р            .         Ярышев                        : 
Куст               .         5                             : 
Статус             .         Проверено                     : 
Тип                .         Нагнетательные                : 
~Parameter Information Block
#_______________________________________________________________________________
#
#PARAMETER_NAME    .UNIT     VALUE                         : DESCRIPTION
#_______________________________________________________________________________
SET                .         LAS4                          : 
REAL_CREATION_DATE .         Ср апр 11 2012-13_17_18       : 
TLFamily_DEPTH     .         Measured Depth                : 
TLFamily_RT        .         Resistivity 20                : 
TLFamily_SP        .         Spontaneous Potential         : 
group              .         INI                           : 
~Curve Information
#_______________________________________________________________________________
#
#LOGNAME           .UNIT     LOG_ID                        : DESCRIPTION
#_______________________________________________________________________________
DEPTH              .m                                      : Measured Depth 
RT                 .ohm.m                                  : Extra Deep Resistivity 
SP                 .mV                                     : Spontaneous Potential 
~Ascii
# ...
2553.6     4.5599     112.0833  
2553.8     4.5262     116.4222  
2554       4.6025     117.9083  
2554.2     4.5982     116.5278  
2554.4     4.594      115.9306  
2554.6     4.5241     116.3306  
2554.8     4.5305     115.0694  
2555       4.5602     112.0778  
2555.2     4.4948     113.4639  
2555.4     4.4144     113.2556  
2555.6     4.4268     112.2056  
2555.8     4.3981     113.7306  
2556       4.3963     115.6056  
2556.2     4.3496     117.5778  
2556.4     4.3738     120.025   
2556.6     4.3477     121.9972  
2556.8     4.3844     118.6306  
2557       4.5307     115.0389  
2557.2     4.7973     116.7667  
2557.4     4.845      116.2889  
2557.6     4.4011     117.4111  
2557.8     4.0342     116.7472  
2558       4.1349     116.7389  
2558.2     4.0934     119.4111  
2558.4     4.1387     118.0861  
2558.6     4.1444     118.5417  
2558.8     4.1885     117.9778  
2559       4.2428     119.7028  
2559.2     4.2604     120.6139  
2559.4     4.1198     119.9528  
2559.6     4.0784     121.3944  
2559.8     4.1245     119.8917  
2560       4.2978     119.8     
2560.2     4.4688     120.8056  
2560.4     4.9836     121.2806  
2560.6     5.1809     123.4944  
2560.8     4.8929     124.7583  
2561       4.6502     125.0417  
2561.2     4.996      125.9028  
2561.4     5.4552     126.7361  
2561.6     5.5885     126.3306  
2561.8     5.4816     125.5639  
2562       5.0405     123.8694  
2562.2     4.8725     122.0444  
2562.4     4.6132     120.2194  
2562.6     4.4597     120.4333  
2562.8     4.4563     122.8278  
2563       4.6348     124.7417  
2563.2     4.6936     126.0667  
2563.4     4.689      124.6972  
2563.6     4.722      125.0972  
2563.8     4.5898     124.8306  
2564       4.5516     123.7222  
2564.2     4.577      126.7694  
2564.4     4.5494     126.6278  
2564.6     4.594      123.2278  
2564.8     4.6847     120.7889  
2565       4.6829     120.9333  
2565.2     4.4391     122.6167  
2565.4     4.1961     123.6389  
2565.6     4.2135     126.7611  
2565.8     4.1904     125.5833  
2566       4.1966     124.1472  
2566.2     4.4379     126.6     
2566.4     4.9369     125.1917  
2566.6     5.0981     125.0806  
2566.8     5.2452     125.5611  
2567       5.2402     124.8417  
2567.2     5.4347     124.85    
2567.4     5.5668     126.25    
2567.6     5.5454     126.4833  
2567.8     5.2627     126.1167  
2568       5.2871     127.7722  
2568.2     5.962      126.0722  
2568.4     6.1595     126.5639  
2568.6     6.1167     127.0556  
2568.8     6.5516     125.725   
2569       6.7377     125.8306  
2569.2     7.0037     125.3972  
2569.4     6.7866     126.2472  
2569.6     6.6398     128.5806  
2569.8     6.6363     131.2778  
2570       6.6949     131.6361  
2570.2     6.966      130.1083  
2570.4     7.014      130.0056  
2570.6     6.966      129.525   
2570.8     6.9367     128.925   
2571       6.9551     129.0194  
2571.2     6.832      130.1139  
2571.4     6.8717     131.1778  
2571.6     6.9697     132.9833  
2571.8     6.7576     133.1444  
2572       6.5517     134.3583  
2572.2     6.3546     135.125   
2572.4     6.2657     134.3083  
2572.6     5.9621     134.2333  
2572.8     5.9257     131.1139  
2573       6.2387     130.0861  
2573.2     6.9253     128.7667  
2573.4     6.5921     128.6194  
2573.6     6.365      130.3833  
2573.8     6.8642     130.8583  
2574       7.2307     133.0639  
2574.2     6.9811     132.1639  
2574.4     6.8861     133.8306  
2574.6     7.0482     135.7639  
2574.8     7.0476     133.8361  
2575       6.9995     134.5528  
2575.2     7.4447     132.6278  
2575.4     7.8275     129.9222  
2575.6     7.9796     129.8417  
2575.8     7.9522     128.9333  
2576       7.9437     129.0222  
2576.2     8.0813     128.4056  
2576.4     8.2319     131.4222  
2576.6     7.8719     134.5056  
2576.8     7.4374     133.3417  
2577       7.3608     134.1667  
2577.2     7.5361     132.6889  
2577.4     7.646      132.1556  
2577.6     8.1155     131.2861  
2577.8     8.5286     129.6389  
2578       8.2416     128.575   
2578.2     8.1951     126.6194  
2578.4     8.379      127.4972  
2578.6     7.9707     128.25    
2578.8     7.6879     129.8667  
2579       7.658      130.5639  
2579.2     7.9522     129.3472  
2579.4     8.0303     128.5583  
2579.6     8.3504     128.0889  
2579.8     8.6526     128.5889  
2580       8.6112     127.9417  
2580.2     9.509      127.6917  
2580.4     10.0693    127.7     
2580.6     9.6137     125.5917  
2580.8     9.1009     125.8833  
2581       9.0601     127.1389  
2581.2     9.2975     128.2222  
2581.4     9.2741     130.9389  
2581.6     9.2743     130.0139  
2581.8     9.4992     130.1139  
2582       10.2832    129.2778  
2582.2     10.269     128.2     
2582.4     10.3421    130.3     
2582.6     10.5746    131.0389  
2582.8     10.6048    132.475   
2583       10.2137    131.5667  
2583.2     9.7293     134.8944  
2583.4     9.9872     137.5722  
2583.6     10.4569    136.4583  
2583.8     10.6346    138.7222  
2584       10.6197    138.0861  
2584.2     11.0248    139.05    
2584.4     10.9055    138.6278  
2584.6     10.6196    138.2722  
2584.8     10.5015    140.9028  
2585       10.3197    139.8417  
2585.2     11.3562    140.8472  
2585.4     11.709     140.6361  
2585.6     12.0199    142.6361  
2585.8     11.857     141.9778  
2586       10.7126    139.0167  
2586.2     10.0604    140.6583  
2586.4     10.1454    138.5833  
2586.6     10.6061    137.7111  
2586.8     10.1802    136.5167  
2587       8.6031     135.2389  
2587.2     7.317      135.4306  
2587.4     6.9919     133.7111  
2587.6     7.1288     136.1     
2587.8     7.6819     135.6861  
2588       8.2711     134.3222  
2588.2     8.4277     133.3306  
2588.4     8.1897     131.2806  
2588.6     7.598      132.0167  
2588.8     7.1353     130.6889  
2589       6.5858     130.5056  
2589.2     6.7401     131.6194  
2589.4     7.1154     131.9333  
2589.6     7.5151     133.0194  
2589.8     7.9345     134.2167  
2590       8.0762     136.6361  
2590.2     8.0437     137.45    
2590.4     8.3587     136.8222  
2590.6     8.7813     138.2056  
2590.8     9.0772     138.4     
2591       9.3571     137.3333  
2591.2     10.269     135.7444  
2591.4     10.6351    135.0917  
2591.6     10.3403    135.6861  
2591.8     10.3841    135.5806  
2592       11.2442    138.1722  
2592.2     11.7434    139.0861  
2592.4     12.0422    139.7139  
2592.6     12.4693    138.9278  
2592.8     11.6843    136.2111  
2593       9.8476     134.5333  
2593.2     9.1617     132.025   
2593.4     8.7327     131.0833  
2593.6     8.7102     129.6472  
2593.8     9.124      128.4833  
2594       9.5122     126.5806  
2594.2     9.0792     124.6111  
2594.4     8.5759     127.7167  
2594.6     7.8182     126.5222  
2594.8     7.4955     124.9833  
2595       7.147      125.0083  
2595.2     6.8835     122.0972  
2595.4     6.2534     121.9722  
2595.6     5.0072     121.9528  
2595.8     4.7187     123.5694  
2596       4.0266     123.2     
2596.2     4.1277     121.7167  
2596.4     4.4432     123.3833  
2596.6     3.5441     123.8083  
2596.8     3.412      127.2806  
2597       3.4203     127.1444  
2597.2     3.682      126.8028  
2597.4     3.6755     128.5389  
2597.6     3.5441     126.8444  
2597.8     3.5764     127.2333  
2598       3.6558     127.4028  
2598.2     3.8381     128.1528  
2598.4     4.3149     127.6028  
2598.6     5.2502     127.5944  
2598.8     5.0269     130.1389  
2599       4.5389     130.2417  
2599.2     4.5984     131.7861  
2599.4     4.7777     131.6056  
2599.6     5.2253     130.5139  
2599.8     5.5037     130.2222  
2600       6.3575     128.225   
2600.2     7.9321     128.8     
2600.4     10.4143    128.6056  
2600.6     7.3568     126.3917  
2600.8     6.4906     123.8194  
2601       5.1534     123.45    
2601.2     4.7124     124.8056  
2601.4     4.1848     122.5083  
2601.6     3.873      119.9333  
2601.8     3.8151     119.0889  
2602       3.8734     118.5528  
