~Version
 VERS              .         2.0                           : CWLS LOG ASCII STANDARD - VERSION 2.0
 WRAP              .         NO                            : ONE LINE PER DEPTH STEP
 DLM               .         SPACE                         : DELIMITING CHARACTER(SPACE TAB OR COMMA)
~Well Information
#_______________________________________________________________________________
#
#PARAMETER_NAME    .UNIT     VALUE                         : DESCRIPTION
#_______________________________________________________________________________
STRT               .m        2505                          : First reference value
STOP               .m        2679                          : Last reference value
STEP               .m        0.2                           : Step increment
NULL               .         -9999                         : Missing value
COMP               .                                       : Company
WELL               .         501                           : Well name
FLD                .                                       : Field
LOC                .                                       : Location
CNTY               .                                       : County
STAT               .                                       : State
CTRY               .                                       : Country
SRVC               .                                       : Service Company
DATE               .                                       : Date
API                .                                       : API number
EREF               .m        139.4                         : 
X                  .m        230550                        : 
Y                  .m        242075                        : 
group              .         Pad5                          : 
Интер-р            .         Ярышев                        : 
Куст               .         5                             : 
Статус             .         Проверено                     : 
Тип                .         Нагнетательные                : 
~Parameter Information Block
#_______________________________________________________________________________
#
#PARAMETER_NAME    .UNIT     VALUE                         : DESCRIPTION
#_______________________________________________________________________________
SET                .         LAS1                          : 
REAL_CREATION_DATE .         Ср апр 11 2012-13_17_17       : 
TLFamily_DEPTH     .         Measured Depth                : 
TLFamily_KS        .         Potential Resistivity         : 
TLFamily_KS1       .         Extra Shallow Resistivity     : 
TLFamily_KS2       .         Shallow Resistivity           : 
TLFamily_KS3       .         Medium Resistivity            : 
TLFamily_KS4       .         Deep Resistivity              : 
TLFamily_KS5       .         Extra Deep Resistivity        : 
TLFamily_LLD       .         Lateral Log Resistivity       : 
TLFamily_OKS3      .         Medium Resistivity Inverted   : 
TLFamily_RM        .         Mud Resistivity               : 
TLFamily_SP        .         Spontaneous Potential         : 
group              .         INI                           : 
~Curve Information
#_______________________________________________________________________________
#
#LOGNAME           .UNIT     LOG_ID                        : DESCRIPTION
#_______________________________________________________________________________
DEPTH              .m                                      : Measured Depth 
KS                 .ohm.m                                  : Potential Resistivity 
KS1                .ohm.m                                  : Extra Shallow Resistivity 
KS2                .ohm.m                                  : Shallow Resistivity 
KS3                .ohm.m                                  : Medium Resistivity 
KS4                .ohm.m                                  : Deep Resistivity 
KS5                .ohm.m                                  : Extra Deep Resistivity 
LLD                .ohm.m                                  : Lateral Log Resistivity 
OKS3               .ohm.m                                  : Medium Resistivity Inverted 
RM                 .ohm.m                                  : Mud Resistivity 
SP                 .mV                                     : Spontaneous Potential 
~Ascii
# ...
2531.8     6.8713     3.1203     8.5932     9.4483     7.843      5.2463     5.1396     10.3761    0.323      86.0664   
2532       6.8747     3.066      8.5046     9.3287     7.7105     5.2997     5.3202     10.3891    0.323      86.0062   
2532.2     6.9056     3.0524     8.5276     9.2501     7.5913     5.4332     5.3882     10.3502    0.323      84.8086   
2532.4     6.9467     3.0389     8.4391     9.2091     7.5218     5.5934     5.5102     10.2918    0.323      84.2197   
2532.6     6.9467     3.0864     8.5178     9.2721     7.5317     5.7135     5.6728     10.2497    0.323      85.1291   
2532.8     6.9672     3.1508     8.6391     9.3508     7.5317     5.8737     5.3514     10.2205    0.323      86.4398   
2533       7.0049     3.0864     8.4948     9.3287     7.4589     6.0339     5.4285     10.1945    0.323      87.8071   
2533.2     7.0289     3.0728     8.4915     9.3287     7.4324     6.1607     5.6978     10.1783    0.323      89.9342   
2533.4     7.0289     3.1101     8.6096     9.4641     7.4986     6.2875     5.7596     10.1978    0.328      91.5638   
2533.6     7.0118     3.161      8.7473     9.5963     7.5814     6.3876     5.7277     10.2205    0.328      90.7876   
2533.8     6.9604     3.1983     8.8359     9.6624     7.6377     6.4743     5.6359     10.2205    0.333      88.5998   
2534       6.8987     3.2254     8.9211     9.7002     7.6642     6.501      5.2882     10.2821    0.337      87.8596   
2534.2     6.8302     3.1678     8.8195     9.7033     7.6642     6.4877     5.2988     10.4734    0.339      87.823    
2534.4     6.7616     3.1542     8.826      9.6813     7.6443     6.4477     5.1616     10.7556    0.337      85.6718   
2534.6     6.6931     3.1203     8.7801     9.6781     7.6178     6.3943     5.0504     10.9664    0.328      82.6795   
2534.8     6.676      3.0999     8.6293     9.5805     7.5582     6.3475     4.9636     11.0961    0.321      81.6456   
2535       6.6897     3.0117     8.3833     9.4326     7.4854     6.3142     5.001      11.1999    0.319      82.8395   
2535.2     6.7274     2.9914     8.2685     9.2973     7.4257     6.2608     4.9833     11.3037    0.314      84.9053   
2535.4     6.8199     2.9439     8.0849     9.1714     7.4092     6.2274     5.1251     11.3815    0.314      86.8678   
2535.6     6.9227     2.9201     7.9668     9.0549     7.3728     6.2074     5.4256     11.3588    0.31       88.3025   
2535.8     7.0495     2.9608     8.0291     9.0329     7.3728     6.194      5.6222     11.2907    0.31       89.6775   
2536       7.1763     3.0253     8.1374     9.058      7.4092     6.1673     5.5794     11.2064    0.305      90.9424   
2536.2     7.3133     3.0558     8.2161     9.0014     7.3794     6.1807     5.5681     11.0734    0.305      91.3056   
2536.4     7.4949     2.9778     8.098      8.9542     7.3993     6.2074     5.9283     10.9697    0.301      90.2094   
2536.6     7.5909     3.0321     8.3538     9.1084     7.5218     6.2274     7.8972     10.7005    0.305      88.0417   
2536.8     7.5977     3.3103     9.0654     9.568      7.8032     6.2207     6.731      10.3826    0.301      86.195    
2537       7.5566     3.4561     9.472      9.9205     7.9556     6.2474     6.2997     10.0551    0.301      86.1641   
2537.2     7.4059     3.4731     9.5737     10.0968    7.9854     6.2074     5.8338     9.8183     0.301      87.9151   
2537.4     7.2585     3.412      9.6229     10.1786    7.9489     6.1673     5.7172     9.6529     0.301      89.519    
2537.6     7.0837     3.3747     9.6983     10.273     7.939      6.0739     5.3539     9.6043     0.301      89.7896   
2537.8     6.9433     3.2967     9.6131     10.336     7.8761     6.0272     5.0992     9.6399     0.301      89.4907   
2538       6.837      3.2085     9.3245     10.3139    7.79       5.9805     5.1136     9.6983     0.301      90.3945   
2538.2     6.7548     3.1508     9.1146     10.2888    7.7172     5.9271     5.0705     9.7729     0.301      92.3189   
2538.4     6.7102     3.1135     8.885      10.2353    7.6609     5.8804     5.0399     9.8832     0.301      93.1888   
2538.6     6.7        3.083      8.6588     10.1377    7.5781     5.847      5.0516     9.974      0.301      91.7896   
2538.8     6.7        3.0321     8.4423     10.0149    7.5052     5.8069     5.1477     10.0194    0.301      88.7181   
2539       6.7034     3.0457     8.3866     9.9142     7.4887     5.7869     5.2912     10.0194    0.301      85.5864   
2539.2     6.6931     3.0728     8.3833     9.7505     7.5118     5.7803     5.2328     10.0389    0.301      83.2706   
2539.4     6.6794     3.0728     8.3735     9.5491     7.5383     5.7936     5.1136     10.0875    0.301      82.1286   
2539.6     6.6657     3.0592     8.3505     9.3885     7.5582     5.8069     5.0658     10.1297    0.301      82.5062   
2539.8     6.6657     3.0457     8.321      9.228      7.5714     5.8069     5.0824     10.1556    0.301      83.9491   
2540       6.6794     3.0287     8.3046     9.0895     7.5714     5.7936     5.142      10.1686    0.296      86.054    
2540.2     6.7034     3.0185     8.2554     9.0077     7.5681     5.7669     5.1858     10.1556    0.296      87.7855   
2540.4     6.7377     3.0117     8.1898     8.9258     7.5582     5.7602     5.1876     10.1783    0.296      87.8555   
2540.6     6.7753     3.0083     8.1767     8.9038     7.5516     5.7536     5.3672     10.2172    0.301      87.0478   
2540.8     6.7822     3.0253     8.262      8.9636     7.5913     5.7602     5.6411     10.2529    0.298      86.269    
2541       6.7993     3.1101     8.4325     9.0203     7.6046     5.7803     5.2844     10.2886    0.296      84.1337   
2541.2     6.8096     3.0457     8.3177     9.0266     7.5847     5.8203     4.9361     10.4086    0.301      80.7603   
2541.4     6.7959     3.0389     8.3079     9.036      7.5748     5.8537     5.5185     10.5059    0.301      78.5129   
2541.6     6.7959     3.1033     8.4882     9.1651     7.5979     5.8737     5.7032     10.441     0.301      78.268    
2541.8     6.7891     3.1406     8.6063     9.2563     7.5847     5.9004     5.4842     10.3956    0.301      79.1687   
2542       6.7514     3.1406     8.5571     9.2658     7.5185     5.9004     5.1286     10.4216    0.301      79.9712   
2542.2     6.7274     3.0898     8.4522     9.2249     7.4522     5.887      5.0266     10.5578    0.301      80.375    
2542.4     6.7411     3.0389     8.4095     9.1714     7.3728     5.8603     5.0409     10.707     0.301      81.5262   
2542.6     6.8028     2.9914     8.2948     9.0895     7.2867     5.8603     4.9841     10.9015    0.301      83.2603   
2542.8     6.9056     2.9608     8.1734     8.9857     7.2502     5.8603     5.1485     11.0929    0.301      83.2341   
2543       6.9604     2.9473     8.1374     9.0769     7.3132     5.8737     5.6622     11.0961    0.301      81.7397   
2543.2     7.0118     3.1813     8.5899     9.2658     7.4224     5.9071     6.3881     10.9988    0.301      80.8441   
2543.4     7.07       3.1508     8.5079     9.3162     7.4423     5.9271     5.5002     10.8464    0.301      79.8359   
2543.6     7.0221     3.1915     8.6194     9.3665     7.4456     5.9271     5.5867     10.8529    0.301      77.9506   
2543.8     6.9707     3.1881     8.7407     9.4483     7.4522     5.9071     5.3834     10.8886    0.301      76.2819   
2544       6.9467     3.1678     8.8063     9.4169     7.4191     5.887      5.3033     10.8983    0.301      75.5514   
2544.2     6.9535     3.1339     8.8096     9.335      7.3529     5.8603     5.1983     10.9145    0.301      76.0288   
2544.4     6.9981     3.0592     8.5833     9.2406     7.2933     5.847      5.1069     10.8951    0.301      77.6739   
2544.6     7.0666     3.0355     8.4882     9.1934     7.2403     5.847      5.3143     10.8659    0.301      79.0129   
2544.8     7.1317     3.0253     8.4227     9.2721     7.2867     5.8336     5.5487     10.7978    0.301      79.624    
2545       7.2071     3.1542     8.6883     9.4169     7.343      5.847      6.0275     10.6356    0.301      79.9228   
