~Version
 VERS              .         2.0                           : CWLS LOG ASCII STANDARD - VERSION 2.0
 WRAP              .         NO                            : ONE LINE PER DEPTH STEP
 DLM               .         SPACE                         : DELIMITING CHARACTER(SPACE TAB OR COMMA)
~Well Information
#_______________________________________________________________________________
#
#PARAMETER_NAME    .UNIT     VALUE                         : DESCRIPTION
#_______________________________________________________________________________
STRT               .m        2505                          : First reference value
STOP               .m        2679                          : Last reference value
STEP               .m        0.2                           : Step increment
NULL               .         -9999                         : Missing value
COMP               .                                       : Company
WELL               .         501                           : Well name
FLD                .                                       : Field
LOC                .                                       : Location
CNTY               .                                       : County
STAT               .                                       : State
CTRY               .                                       : Country
SRVC               .                                       : Service Company
DATE               .                                       : Date
API                .                                       : API number
EREF               .m        139.4                         : 
X                  .m        230550                        : 
Y                  .m        242075                        : 
group              .         Pad5                          : 
Интер-р            .         Ярышев                        : 
Куст               .         5                             : 
Статус             .         Проверено                     : 
Тип                .         Нагнетательные                : 
~Parameter Information Block
#_______________________________________________________________________________
#
#PARAMETER_NAME    .UNIT     VALUE                         : DESCRIPTION
#_______________________________________________________________________________
SET                .         LAS3                          : 
REAL_CREATION_DATE .         Ср апр 11 2012-13_17_17       : 
TLFamily_DEPTH     .         Measured Depth                : 
TLFamily_GR        .         Gamma Ray                     : 
TLFamily_TNPH      .         Neutron Porosity              : 
group              .         INI                           : 
~Curve Information
#_______________________________________________________________________________
#
#LOGNAME           .UNIT     LOG_ID                        : DESCRIPTION
#_______________________________________________________________________________
DEPTH              .m                                      : Measured Depth 
GR                 .gAPI                                   :  
TNPH               .v/v                                    : Neutron Porosity 
~Ascii
# ...
2650.8     78.33      0.351     
2651       89.55      0.278     
2651.2     101.41     0.277     
2651.4     101.05     0.265     
2651.6     110.14     0.309     
2651.8     105.45     0.31      
2652       93.38      0.304     
2652.2     90.17      0.366     
2652.4     81.63      0.352     
2652.6     90.86      0.275     
2652.8     99.28001   0.228     
2653       101.92     0.208     
2653.2     100.81     0.219     
2653.4     104.16     0.228     
2653.6     104.06     0.258     
2653.8     100.4      0.238     
2654       90.86      0.244     
2654.2     86.14      0.262     
2654.4     73.61      0.246     
2654.6     73.86      0.23      
2654.8     70.59      0.229     
2655       68.42      0.224     
2655.2     75.36      0.221     
2655.4     83.81      0.256     
2655.6     83.56      0.257     
2655.8     81.64      0.247     
2656       94.66      0.248     
2656.2     102.95     0.258     
2656.4     118.17     0.248     
2656.6     119.02     0.252     
2656.8     107.23     0.271     
2657       106.36     0.253     
2657.2     95.2       0.257     
2657.4     84.8       0.27      
2657.6     73.78999   0.258     
2657.8     74.23      0.249     
2658       81.16      0.276     
2658.2     84.94      0.261     
2658.4     78.55      0.26      
2658.6     73.98      0.232     
2658.8     71.41      0.229     
2659       73.73      0.251     
2659.2     79.81      0.286     
2659.4     84.08      0.268     
2659.6     85.63      0.297     
2659.8     95.23      0.314     
2660       110.39     0.335     
2660.2     116        0.32      
2660.4     115.77     0.276     
2660.6     108.58     0.266     
2660.8     92.41      0.223     
2661       93.42      0.218     
2661.2     97.49      0.237     
2661.4     83         0.251     
2661.6     73.73      0.222     
2661.8     63.52      0.203     
2662       57.25      0.19      
2662.2     59.55      0.172     
2662.4     65.48      0.185     
2662.6     79.72      0.193     
2662.8     91.28      0.214     
2663       93.98      0.238     
2663.2     104.45     0.278     
2663.4     115.73     0.255     
2663.6     109.64     0.242     
2663.8     106.33     0.28      
2664       103.34     0.316     
2664.2     80.16      0.302     
2664.4     58.5       0.239     
2664.6     57.49      0.211     
2664.8     63.8       0.23      
2665       67.73      0.229     
2665.2     70.75      0.243     
2665.4     73.16      0.236     
2665.6     78.21999   0.238     
2665.8     84.63      0.251     
2666       83.97      0.238     
2666.2     92.3       0.267     
2666.4     95.05      0.281     
2666.6     93.58      0.244     
2666.8     95.09      0.219     
2667       106.25     0.207     
2667.2     118.48     0.225     
2667.4     119.15     0.225     
2667.6     117.69     0.248     
2667.8     112.81     0.232     
2668       104.75     0.228     
2668.2     92.84      0.259     
2668.4     92.91      0.258     
2668.6     89.34      0.241     
2668.8     82.42      0.256     
2669       81.09      0.29      
2669.2     80.83      0.293     
2669.4     77.7       0.302     
2669.6     86.74      0.283     
2669.8     92.13      0.281     
2670       84.36      0.261     
2670.2     70.47      0.247     
2670.4     66.75      0.213     
2670.6     64.67      0.21      
2670.8     65.12      0.22      
2671       70.12      0.217     
2671.2     83.07999   0.245     
2671.4     88.14      0.272     
2671.6     87.55      0.252     
2671.8     89.13      0.249     
2672       89         0.265     
2672.2     82.65      0.253     
2672.4     73.8       0.269     
2672.6     66.96      0.27      
2672.8     66.81      0.275     
2673       56.4       0.354     
2673.2     43.05      0.484     
2673.4     32.69      0.534     
2673.6     40.19      0.424     
2673.8     61.64      0.301     
2674       81.19      0.238     
2674.2     87.2       0.196     
2674.4     84.85      0.213     
2674.6     80.3       0.217     
2674.8     78.59      0.223     
2675       76.92001   0.243     
2675.2     75.97      0.257     
2675.4     78.25      0.258     
2675.6     87.81      0.24      
2675.8     92.23      0.25      
2676       98.33      0.235     
2676.2     105.61     0.24      
2676.4     111.33     0.249     
2676.6     114.84     0.248     
2676.8     118.23     0.254     
2677       120.2      0.26      
2677.2     118.38     0.256     
2677.4     118.59     0.273     
2677.6     109.84     0.24      
2677.8     109.78     0.221     
2678       111.22     0.204     
2678.2     121.5      0.213     
2678.4     124.34     0.208     
2678.6     120.84     0.219     
2678.8     120.97     0.246     
2679       120.14     0.269     
