~Version
 VERS              .         2.0                           : CWLS LOG ASCII STANDARD - VERSION 2.0
 WRAP              .         NO                            : ONE LINE PER DEPTH STEP
 DLM               .         SPACE                         : DELIMITING CHARACTER(SPACE TAB OR COMMA)
~Well Information
#_______________________________________________________________________________
#
#PARAMETER_NAME    .UNIT     VALUE                         : DESCRIPTION
#_______________________________________________________________________________
STRT               .m        2505                          : First reference value
STOP               .m        2679                          : Last reference value
STEP               .m        0.2                           : Step increment
NULL               .         -9999                         : Missing value
COMP               .                                       : Company
WELL               .         501                           : Well name
FLD                .                                       : Field
LOC                .                                       : Location
CNTY               .                                       : County
STAT               .                                       : State
CTRY               .                                       : Country
SRVC               .                                       : Service Company
DATE               .                                       : Date
API                .                                       : API number
EREF               .m        139.4                         : 
X                  .m        230550                        : 
Y                  .m        242075                        : 
group              .         Pad5                          : 
Интер-р            .         Ярышев                        : 
Куст               .         5                             : 
Статус             .         Проверено                     : 
Тип                .         Нагнетательные                : 
~Parameter Information Block
#_______________________________________________________________________________
#
#PARAMETER_NAME    .UNIT     VALUE                         : DESCRIPTION
#_______________________________________________________________________________
SET                .         LAS1                          : 
REAL_CREATION_DATE .         Ср апр 11 2012-13_17_17       : 
TLFamily_DEPTH     .         Measured Depth                : 
TLFamily_KS        .         Potential Resistivity         : 
TLFamily_KS1       .         Extra Shallow Resistivity     : 
TLFamily_KS2       .         Shallow Resistivity           : 
TLFamily_KS3       .         Medium Resistivity            : 
TLFamily_KS4       .         Deep Resistivity              : 
TLFamily_KS5       .         Extra Deep Resistivity        : 
TLFamily_LLD       .         Lateral Log Resistivity       : 
TLFamily_OKS3      .         Medium Resistivity Inverted   : 
TLFamily_RM        .         Mud Resistivity               : 
TLFamily_SP        .         Spontaneous Potential         : 
group              .         INI                           : 
~Curve Information
#_______________________________________________________________________________
#
#LOGNAME           .UNIT     LOG_ID                        : DESCRIPTION
#_______________________________________________________________________________
DEPTH              .m                                      : Measured Depth 
KS                 .ohm.m                                  : Potential Resistivity 
KS1                .ohm.m                                  : Extra Shallow Resistivity 
KS2                .ohm.m                                  : Shallow Resistivity 
KS3                .ohm.m                                  : Medium Resistivity 
KS4                .ohm.m                                  : Deep Resistivity 
KS5                .ohm.m                                  : Extra Deep Resistivity 
LLD                .ohm.m                                  : Lateral Log Resistivity 
OKS3               .ohm.m                                  : Medium Resistivity Inverted 
RM                 .ohm.m                                  : Mud Resistivity 
SP                 .mV                                     : Spontaneous Potential 
~Ascii
# ...
2652.4     12.6966    4.3924     18.8247    44.9218    49.5334    14.3964    24.3442    19.5738    0.31       131.8791  
2652.6     11.9016    5.1082     20.5922    46.6215    53.504     15.1906    9.7279     19.1198    0.296      135.3971  
2652.8     11.1204    5.2236     19.9757    44.4214    53.511     15.858     6.9193     17.9068    0.31       137.8097  
2653       10.483     4.6096     17.4572    38.8627    49.2255    15.7112    6.7037     16.2755    0.319      139.8909  
2653.2     10.0718    4.0973     15.6273    32.2968    44.6789    14.7701    7.2906     14.9588    0.333      141.3909  
2653.4     9.736      3.8666     14.4337    28.1325    41.6457    13.709     7.355      13.9112    0.31       141.1466  
2653.6     9.4961     3.7173     13.4663    25.0479    38.7251    12.3875    6.9906     13.0745    0.296      139.2063  
2653.8     9.2734     3.6766     12.6661    22.7375    36.023     11.3731    6.9239     12.601     0.314      138.1245  
2654       9.1123     3.5918     12.0102    20.7294    32.6586    10.452     6.983      12.3383    0.323      140.196   
2654.2     8.9341     3.5545     11.5347    19.1807    29.3836    9.531      7.0226     12.2637    0.301      144.7305  
2654.4     8.8416     3.5613     11.2986    18.013     26.1583    8.8503     5.8556     12.2831    0.305      149.5221  
2654.6     8.7765     3.3137     10.4526    17.0655    23.5522    8.2563     7.708      12.455     0.319      151.4738  
2654.8     8.66       3.3611     10.5542    16.1213    21.2574    7.6757     6.9        12.601     0.333      149.945   
2655       8.6703     3.3306     10.3476    15.539     19.4925    7.1684     7.1667     12.575     0.296      148.6301  
2655.2     8.636      3.3272     10.1148    14.9724    17.5719    6.8347     7.009      12.4745    0.317      150.2109  
2655.4     8.5675     3.3408     10.0918    14.7363    16.5321    6.5411     7.8046     12.4712    0.328      152.5525  
2655.6     8.4613     3.412      10.3148    14.5034    15.638     6.3275     6.6229     12.3902    0.296      151.3549  
2655.8     8.4304     3.4595     10.2525    14.0722    14.7539    6.0873     6.4379     12.5361    0.319      145.8693  
2656       8.3756     3.2967     9.882      13.5025    13.8035    5.9137     6.4957     12.6302    0.307      141.2222  
2656.2     8.4578     3.2628     9.8262     12.9107    13.181     5.7402     5.9353     12.7534    0.314      141.3472  
2656.4     8.6326     3.0049     9.0097     12.4291    12.9392    5.6735     8.7629     12.7891    0.319      141.4619  
2656.6     8.7936     3.1135     9.272      12.2119    13.181     5.7269     8.9943     12.3188    0.303      138.0694  
2656.8     8.989      3.1983     9.4819     12.3567    13.5883    5.9271     9.3687     11.5469    0.319      135.8205  
2657       9.0369     3.3985     9.7836     12.64      14.0353    6.154      8.8045     11.0021    0.296      137.7629  
2657.2     8.9547     3.602      10.4001    12.9296    14.1909    6.3809     8.2077     10.5383    0.319      141.8344  
2657.4     8.756      3.6359     10.5673    12.9894    13.9293    6.5811     7.5147     9.987      0.319      145.3153  
2657.6     8.6052     3.6699     10.892     12.7722    13.2505    6.8147     5.9633     9.5718     0.31       146.5478  
2657.8     8.4955     3.4358     10.3739    12.363     12.5087    6.8748     6.3773     9.5264     0.328      145.6461  
2658       8.3893     3.2356     10.0197    12.0514    12.2637    7.0617     7.3129     9.6205     0.291      144.8447  
2658.2     8.3139     3.2288     10.0623    12.2717    12.3465    7.2352     8.3331     9.7502     0.314      144.4743  
2658.4     8.1906     3.4188     10.3739    12.6463    12.426     7.1551     7.6794     9.8248     0.333      143.3683  
2658.6     7.9473     3.5545     10.4722    13.0366    12.2505    7.3153     6.4669     9.8248     0.301      141.7366  
2658.8     7.7005     3.6088     10.3312    12.9548    11.7107    7.5021     5.0827     10.1362    0.319      142.143   
2659       7.5087     3.3103     9.4425     12.363     11.1478    7.7357     4.8979     10.8626    0.321      145.5977  
2659.2     7.3305     3.0321     8.8621     11.6454    11.0021    8.0895     5.8931     12.015     0.291      148.2119  
2659.4     7.214      2.9574     8.7342     11.2645    11.2107    9.4109     5.6159     13.7037    0.319      147.1296  
2659.6     7.142      2.9778     8.603      11.2425    11.9756    11.9604    4.2923     15.9317    0.319      145.2459  
2659.8     7.1626     2.9167     8.2292     11.3117    13.8201    14.0694    4.2663     20.803     0.301      145.4645  
2660       7.2379     2.6386     7.7897     12.2025    17.1977    15.7379    7.6342     25.7748    0.31       145.3369  
2660.2     7.5772     2.6487     8.6817     12.8572    18.4825    17.086     7.7299     26.9747    0.319      141.7675  
2660.4     8.3208     2.5707     7.816      12.3851    17.1546    17.4864    8.1598     27.1239    0.301      137.0797  
2660.6     9.126      2.703      7.6061     11.0914    14.7969    16.7123    8.9244     27.3877    0.296      136.2166  
2660.8     9.6537     2.8455     7.4618     10.2132    13.4161    15.5243    8.7389     27.8245    0.319      138.9959  
2661       10.0718    2.988      7.7504     9.6687     12.3597    15.2573    8.5999     27.8277    0.323      141.7186  
2661.2     10.3356    3.1169     8.4227     9.313      11.6345    15.2173    8.8693     27.8309    0.294      143.6919  
2661.4     10.5173    3.2187     9.1835     9.2406     11.0815    15.3775    9.1799     27.8342    0.305      144.3066  
2661.6     10.6852    3.256      9.6393     9.3539     10.7471    15.858     8.8756     27.8309    0.321      143.1466  
2661.8     10.9833    3.1881     9.7541     9.527      10.4259    16.6255    9.0513     27.8342    0.305      142.518   
2662       11.3636    3.213      9.8688     10.0747    10.6742    17.6266    9.8438     27.8245    0.312      142.5514  
2662.2     11.7097    3.1135     10.1476    11.5195    11.6378    18.7011    21.3006    27.8277    0.319      142.8858  
2662.4     11.8194    3.6122     11.1707    14.1918    12.6776    19.8757    23.4921    27.8277    0.328      143.4712  
2662.6     11.7954    4.1109     12.9689    17.9091    13.9293    20.2628    17.9856    27.8277    0.333      141.5504  
2662.8     11.7714    4.5112     15.0961    20.4398    14.489     20.1293    6.8889     27.8277    0.336      136.2973  
2663       11.7646    4.6367     15.2043    20.6727    13.9856    19.8891    6.5849     27.8245    0.326      132.8354  
2663.2     11.7132    4.6706     13.3712    18.973     12.7968    19.9291    7.5611     27.8245    0.323      134.4136  
2663.4     11.6995    4.8368     12.9514    17.9437    12.5518    20.2762    9.5157     27.8277    0.323      134.6121  
2663.6     11.7029    4.8843     12.8071    17.8524    13.33      21.6644    9.9531     27.8212    0.323      130.7613  
2663.8     11.7029    4.8843     12.7645    18.7317    14.6678    25.2283    7.5323     27.8245    0.323      128.2099  
2664       11.7029    4.8843     12.5677    20.3957    17.403     28.7521    6.9809     27.8212    0.323      128.8642  
2664.2     11.7029    4.8843     12.5218    23.3922    21.7575    30.5541    9.1778     27.8245    0.323      133.1728  
2664.4     11.7029    4.8843     12.5218    25.5956    25.7676    30.4073    5.0542     27.818     0.323      138.4769  
2664.6     11.7029    4.8843     12.5185    25.6805    26.2875    27.9646    4.091      27.818     0.323      139.0571  
2664.8     11.7006    4.8843     12.5185    25.6522    21.4462    23.7667    3.8497     27.8212    0.323      134.1183  
2665       11.7029    4.8843     12.5185    25.6249    16.6414    18.274     5.1297     27.818     0.323      128.035   
2665.2     11.7029    4.8843     12.5185    25.3437    13.4922    13.6155    5.381      27.8147    0.323      127.1265  
2665.4     11.7029    4.8843     12.5218    25.2525    11.82      10.7991    5.2723     -9999      0.323      130.2973  
2665.6     11.7029    4.8843     12.5174    25.2493    10.7405    8.7302     5.4973     -9999      0.323      129.9856  
