~Version
 VERS              .         2.0                           : CWLS LOG ASCII STANDARD - VERSION 2.0
 WRAP              .         NO                            : ONE LINE PER DEPTH STEP
 DLM               .         SPACE                         : DELIMITING CHARACTER(SPACE TAB OR COMMA)
~Well Information
#_______________________________________________________________________________
#
#PARAMETER_NAME    .UNIT     VALUE                         : DESCRIPTION
#_______________________________________________________________________________
STRT               .m        2505                          : First reference value
STOP               .m        2679                          : Last reference value
STEP               .m        0.2                           : Step increment
NULL               .         -9999                         : Missing value
COMP               .                                       : Company
WELL               .         501                           : Well name
FLD                .                                       : Field
LOC                .                                       : Location
CNTY               .                                       : County
STAT               .                                       : State
CTRY               .                                       : Country
SRVC               .                                       : Service Company
DATE               .                                       : Date
API                .                                       : API number
EREF               .m        139.4                         : 
X                  .m        230550                        : 
Y                  .m        242075                        : 
group              .         Pad5                          : 
Интер-р            .         Ярышев                        : 
Куст               .         5                             : 
Статус             .         Проверено                     : 
Тип                .         Нагнетательные                : 
~Parameter Information Block
#_______________________________________________________________________________
#
#PARAMETER_NAME    .UNIT     VALUE                         : DESCRIPTION
#_______________________________________________________________________________
SET                .         LAS1                          : 
REAL_CREATION_DATE .         Ср апр 11 2012-13_17_17       : 
TLFamily_DEPTH     .         Measured Depth                : 
TLFamily_KS        .         Potential Resistivity         : 
TLFamily_KS1       .         Extra Shallow Resistivity     : 
TLFamily_KS2       .         Shallow Resistivity           : 
TLFamily_KS3       .         Medium Resistivity            : 
TLFamily_KS4       .         Deep Resistivity              : 
TLFamily_KS5       .         Extra Deep Resistivity        : 
TLFamily_LLD       .         Lateral Log Resistivity       : 
TLFamily_OKS3      .         Medium Resistivity Inverted   : 
TLFamily_RM        .         Mud Resistivity               : 
TLFamily_SP        .         Spontaneous Potential         : 
group              .         INI                           : 
~Curve Information
#_______________________________________________________________________________
#
#LOGNAME           .UNIT     LOG_ID                        : DESCRIPTION
#_______________________________________________________________________________
DEPTH              .m                                      : Measured Depth 
KS                 .ohm.m                                  : Potential Resistivity 
KS1                .ohm.m                                  : Extra Shallow Resistivity 
KS2                .ohm.m                                  : Shallow Resistivity 
KS3                .ohm.m                                  : Medium Resistivity 
KS4                .ohm.m                                  : Deep Resistivity 
KS5                .ohm.m                                  : Extra Deep Resistivity 
LLD                .ohm.m                                  : Lateral Log Resistivity 
OKS3               .ohm.m                                  : Medium Resistivity Inverted 
RM                 .ohm.m                                  : Mud Resistivity 
SP                 .mV                                     : Spontaneous Potential 
~Ascii
2505.0     3.5132     0.5692     -9999      -9999      -9999      0.4144     124.7164   26.1899    0.291      26.2315   
2505.2     4.829      1.4173     -9999      -9999      -9999      0.3877     119.9302   24.4321    0.291      57.0406   
2505.4     5.905      1.8787     -9999      -9999      -9999      0.3743     96.926     23.8645    0.296      81.0144   
2505.6     6.6623     2.3943     1.8148     -9999      -9999      0.3743     92.4541    23.8613    0.296      100.7104  
2505.8     7.1797     2.8353     4.3497     -9999      -9999      0.361      108.3073   24.7175    0.291      117.7994  
2506       7.6731     2.9303     5.6811     -9999      -9999      0.361      162.3073   26.858     0.291      131.4295  
2506.2     8.1392     2.7471     6.3534     -9999      -9999      0.3543     119.393    30.0882    0.291      139.9918  
2506.4     8.5401     2.8285     7.3339     -9999      -9999      0.3476     118.5961   31.7747    0.291      145.2094  
2506.6     8.9821     3.1881     8.544      -9999      -9999      0.3476     -9999      32.1638    0.291      148.3693  
2506.8     9.2494     3.5138     9.3704     2.1207     -9999      0.3476     -9999      33.2989    0.296      150.1764  
2507       9.479      3.3849     9.2261     4.9441     -9999      0.3476     -9999      36.0654    0.301      152.1394  
2507.2     9.9964     3.0728     8.7342     6.2945     -9999      0.3476     -9999      38.8999    0.301      153.9167  
2507.4     10.8531    2.6453     7.9996     7.0373     -9999      0.361      0.2498     40.5572    0.298      154.358   
2507.6     11.9359    2.5639     7.9242     7.5346     -9999      0.361      8.5498     40.2199    0.301      152.9321  
2507.8     13.4299    2.4147     7.4553     8.0225     -9999      0.361      15.6785    38.3194    0.301      151.43    
2508       15.1227    2.4486     7.5471     8.6237     -9999      0.361      31.1601    34.8427    0.301      152.6749  
2508.2     16.7127    2.6928     8.3866     9.9173     -9999      0.3476     94.559     31.0676    0.301      156.4053  
2508.4     18.2341    3.2153     10.0164    11.7618    -9999      0.3476     123.6384   26.0667    0.301      159.4568  
2508.6     19.2827    3.8666     12.2037    14.5223    -9999      0.3476     113.2928   21.523     0.301      160.1646  
2508.8     19.7007    4.5699     14.9779    17.6089    2.667      0.3343     105.5763   17.9654    0.301      160.2032  
2509       19.3512    5.2914     18.4607    21.2644    7.0118     0.3209     108.4048   14.8031    0.301      161.1168  
2509.2     18.1793    6.0547     22.5172    26.0614    11.7902    0.3209     87.3581    12.2507    0.301      162.5607  
2509.4     16.4831    6.6687     25.8785    31.2612    15.1545    0.3076     49.2012    10.5188    0.301      163.8724  
2509.6     14.7355    7.0657     28.256     36.1148    18.3931    0.3076     13.1269    9.1924     0.305      165.3647  
2509.8     12.6418    6.7807     27.8658    39.5426    20.5389    0.3076     11.249     8.56       0.301      168.0643  
2510       10.9182    6.4584     27.164     40.7418    21.1117    0.3076     5.2363     8.4756     0.298      172.0746  
2510.2     9.6812     5.2711     22.5336    39.1649    20.5919    0.3076     4.993      8.7935     0.301      175.7269  
2510.4     8.708      4.5688     19.4412    36.2313    19.721     0.3209     5.4516     9.1697     0.301      179.2855  
2510.6     8.1871     4.0702     16.4734    33.0617    19.1448    0.3209     4.9261     9.4389     0.296      183.7078  
2510.8     7.7759     3.8191     13.8827    29.1114    17.9692    0.3209     4.3031     9.841      0.301      186.8971  
2511       7.4573     3.3917     11.6003    25.6994    16.8632    0.3343     4.7915     10.5318    0.298      187.2598  
2511.2     7.3305     3.2865     10.5181    22.2528    16.1447    0.3343     4.5333     11.2096    0.305      185.4691  
2511.4     7.3168     3.0931     9.5901     19.6749    15.8698    0.3343     5.0292     11.6345    0.301      181.376   
2511.6     7.3236     3.1135     9.3114     17.6888    15.9592    0.3343     5.4714     11.8421    0.301      175.892   
2511.8     7.4161     3.1135     8.8883     15.7561    16.0288    0.3343     5.5653     11.5502    0.301      171.4866  
2512       7.4333     3.1135     8.6194     13.9966    16.042     0.3343     5.5252     11.4269    0.301      169.3061  
2512.2     7.3784     3.2322     8.8522     12.8257    16.2274    0.3343     5.2157     11.5048    0.303      169.2269  
2512.4     7.3921     3.2492     8.8752     11.8153    16.0983    0.3343     5.129      11.855     0.305      168.5499  
2512.6     7.4949     3.1203     8.7145     11.1512    15.6645    0.3343     5.4061     12.241     0.305      163.91    
2512.8     7.6423     2.971      8.4063     10.5689    15.1843    0.3943     6.0552     12.5166    0.298      155.5201  
2513       7.841      3.049      8.5374     10.3265    14.8896    1.629      6.2854     12.7112    0.301      146.9841  
2513.2     7.961      3.1339     8.6981     10.4084    14.7506    3.0039     6.818      12.8734    0.301      141.5725  
2513.4     8.0364     3.2628     9.1539     10.6633    14.4393    3.8848     7.7691     12.7696    0.303      138.8266  
2513.6     8.0912     3.3781     9.4163     10.9025    13.9558    4.5389     6.8194     12.5783    0.305      136.1235  
2513.8     8.0432     3.4222     9.6622     11.0883    13.2207    5.0995     7.6058     12.2021    0.305      132.1008  
2514       7.8822     3.5681     10.1115    11.2991    12.4889    5.4065     6.5906     11.7318    0.303      127.876   
2514.2     7.6766     3.5918     10.2755    11.318     11.7537    5.6468     5.8275     11.5729    0.305      125.8097  
2514.4     7.4812     3.5477     10.2984    11.0883    10.863     5.8603     4.432      11.988     0.305      126.124   
2514.6     7.3784     3.161      9.4491     10.7137    10.2371    6.0339     5.216      12.7826    0.301      126.3961  
2514.8     7.375      3.0796     9.2228     10.4021    9.6378     6.2608     5.3813     13.8561    0.301      125.963   
2515       7.5155     2.9982     8.9244     10.4021    9.3199     6.5144     5.5048     14.8647    0.301      127.4172  
2515.2     7.68       2.9574     8.5374     10.4052    9.1709     6.7547     6.206      16.0971    0.301      131.6085  
2515.4     7.8582     3.0694     8.6129     10.528     9.1609     7.0617     6.4625     17.0474    0.301      136.6785  
2515.6     8.1255     3.0796     8.5243     10.6854    9.2735     7.5155     6.1082     17.6279    0.301      142.018   
2515.8     8.2385     3.0321     8.5112     10.9529    9.6013     7.8158     10.1558    17.589     0.301      148.2984  
2516       8.2317     3.5002     9.7672     11.5006    10.002     8.0494     8.1626     16.8625    0.301      154.9429  
2516.2     8.2968     3.6665     10.164     11.6769    9.8298     8.2496     5.4649     16.0712    0.301      159.5905  
2516.4     8.2728     3.4934     9.6918     10.9655    9.2934     8.3497     5.322      16.0193    0.301      162.0149  
2516.6     8.3413     3.2051     9.1999     10.2667    8.8099     8.303      5.8069     16.0841    0.301      163.3313  
2516.8     8.6806     3.066      8.967      9.7537     8.5185     8.4632     4.9665     16.402     0.305      163.625   
2517       9.3076     2.72       8.1308     9.3665     8.4556     8.7569     5.6158     17.0441    0.298      163.356   
2517.2     10.0238    2.4757     7.5208     9.3193     8.6907     9.1306     10.094     17.3652    0.301      163.3663  
2517.4     10.8531    2.7471     8.2062     10.1125    9.4921     9.6912     30.2584    16.4539    0.301      164.4697  
2517.6     11.3534    3.4731     9.8951     11.8279    10.5053    10.1717    53.5422    14.5728    0.301      164.3904  
2517.8     11.2917    4.2669     12.0365    13.94      11.7504    10.372     25.2182    12.7891    0.305      161.9475  
2518       10.7434    5.1116     14.0336    15.369     12.4028    10.3319    9.4319     11.2778    0.305      158.9198  
2518.2     9.9896     4.8029     14.2959    16.1842    12.3597    10.1317    7.7664     10.3534    0.305      154.0859  
