~Version
 VERS              .         2.0                           : CWLS LOG ASCII STANDARD - VERSION 2.0
 WRAP              .         NO                            : ONE LINE PER DEPTH STEP
 DLM               .         SPACE                         : DELIMITING CHARACTER(SPACE TAB OR COMMA)
~Well Information
#_______________________________________________________________________________
#
#PARAMETER_NAME    .UNIT     VALUE                         : DESCRIPTION
#_______________________________________________________________________________
STRT               .m        2505                          : First reference value
STOP               .m        2679                          : Last reference value
STEP               .m        0.2                           : Step increment
NULL               .         -9999                         : Missing value
COMP               .                                       : Company
WELL               .         501                           : Well name
FLD                .                                       : Field
LOC                .                                       : Location
CNTY               .                                       : County
STAT               .                                       : State
CTRY               .                                       : Country
SRVC               .                                       : Service Company
DATE               .                                       : Date
API                .                                       : API number
EREF               .m        139.4                         : 
X                  .m        230550                        : 
Y                  .m        242075                        : 
group              .         Pad5                          : 
Интер-р            .         Ярышев                        : 
Куст               .         5                             : 
Статус             .         Проверено                     : 
Тип                .         Нагнетательные                : 
~Parameter Information Block
#_______________________________________________________________________________
#
#PARAMETER_NAME    .UNIT     VALUE                         : DESCRIPTION
#_______________________________________________________________________________
SET                .         LAS4                          : 
REAL_CREATION_DATE .         Ср апр 11 2012-13_17_18       : 
TLFamily_DEPTH     .         Measured Depth                : 
TLFamily_RT        .         Resistivity 20                : 
TLFamily_SP        .         Spontaneous Potential         : 
group              .         INI                           : 
~Curve Information
#_______________________________________________________________________________
#
#LOGNAME           .UNIT     LOG_ID                        : DESCRIPTION
#_______________________________________________________________________________
DEPTH              .m                                      : Measured Depth 
RT                 .ohm.m                                  : Extra Deep Resistivity 
SP                 .mV                                     : Spontaneous Potential 
~Ascii
# ...
2650.8     17.0019    120.8667  
2651       22.1624    121.3444  
2651.2     11.2717    122.5417  
2651.4     9.9659     120.7361  
2651.6     9.2988     119.9944  
2651.8     9.0887     118.7917  
2652       9.2975     115.0667  
2652.2     10.4489    111.8833  
2652.4     10.5375    108.3306  
2652.6     8.8974     101.6944  
2652.8     7.2624     94.4361   
2653       7.1766     88.9778   
2653.2     7.2466     85.7333   
2653.4     6.9444     80.4944   
2653.6     6.5349     74.5972   
2653.8     6.4487     74.1222   
2654       6.3803     73.0306   
2654.2     6.3675     72.1611   
2654.4     6.6741     73.05     
2654.6     6.6079     73.8194   
2654.8     6.3936     74.5296   
2655       6.1206     75.5222   
2655.2     5.9344     77.638    
2655.4     5.7562     79.7546   
2655.6     5.7118     81.1102   
2655.8     5.8562     83.9574   
2656       6.0269     88.1361   
2656.2     6.2091     91.8537   
2656.4     6.4962     94.3444   
2656.6     6.6193     97.0796   
2656.8     6.6091     100.1157  
2657       6.4994     101.1722  
2657.2     6.2657     97.812    
2657.4     5.9525     94.75     
2657.6     5.9111     94.7981   
2657.8     6.0592     95.2176   
2658       6.2347     96.0306   
2658.2     6.0562     97.3722   
2658.4     5.5973     97.3806   
2658.6     4.4761     96.5444   
2658.8     4.2447     96.9194   
2659       4.3236     97.8972   
2659.2     4.3137     98.8      
2659.4     4.2487     99.8139   
2659.6     4.3839     100.8361  
2659.8     4.5053     100.8685  
2660       4.7423     99.2602   
2660.2     5.1358     98.4722   
2660.4     6.1236     97.8157   
2660.6     6.4193     96.1972   
2660.8     6.2846     95.1889   
2661       6.2186     94.9667   
2661.2     6.3194     96.0611   
2661.4     6.7561     96.5694   
2661.6     7.9296     94.2694   
2661.8     8.6179     90.925    
2662       11.6981    89.7056   
2662.2     13.702     90.1361   
2662.4     12.4043    90.9528   
2662.6     7.1803     92.1472   
2662.8     6.3594     91.6028   
2663       6.4813     91.9278   
2663.2     7.2691     94.875    
2663.4     7.8228     98.3028   
2663.6     6.8642     99.7083   
2663.8     6.3603     99.4167   
2664       5.8457     97.1722   
2664.2     6.0088     92.7139   
2664.4     5.2779     88.6583   
2664.6     4.1292     85.4806   
2664.8     4.1086     83.5472   
2665       4.4013     83.1306   
2665.2     4.6047     82.4472   
2665.4     4.7558     81.2528   
2665.6     5.1236     82.4972   
2665.8     5.7052     84.0139   
2666       6.6535     84.1528   
2666.2     6.8751     85.1194   
2666.4     6.4576     86.95     
2666.6     6.0201     88.6      
2666.8     6.4457     91.0361   
2667       6.6879     93.6472   
2667.2     6.572      95.4639   
2667.4     6.8365     97.6917   
2667.6     6.6466     99.6944   
2667.8     6.5957     100.4667  
2668       6.044      100.5     
2668.2     5.7566     100.9556  
2668.4     5.8884     101.075   
2668.6     5.9825     101.925   
2668.8     5.4117     103.5306  
2669       5.6291     103.3944  
2669.2     5.865      101.9389  
2669.4     5.9491     99.4639   
2669.6     5.9698     95.7194   
2669.8     5.7398     93.1472   
2670       6.6023     93.1556   
2670.2     7.1671     93.6556   
2670.4     8.1581     91.8972   
2670.6     8.9983     90.2278   
2670.8     9.0632     90.7972   
2671       6.8642     91.5389   
2671.2     6.2357     92.075    
2671.4     5.9682     91.6528   
2671.6     6.2643     90.4861   
2671.8     7.2523     89.6056   
2672       8.926      90.5333   
2672.2     9.2743     92.4583   
2672.4     10.2646    94.8056   
2672.6     11.1243    95.9889   
2672.8     13.1861    95.7139   
2673       15.7037    94.4528   
2673.2     14.9307    93.4639   
2673.4     16.566     91.6167   
2673.6     16.208     87.75     
2673.8     10.9528    84.2611   
2674       7.3768     82.3167   
2674.2     6.6643     80.125    
2674.4     5.756      79.1917   
2674.6     5.4921     80.1611   
2674.8     5.5696     80.9667   
2675       5.1513     80.675    
2675.2     4.7733     78.7139   
2675.4     4.8449     76.5222   
2675.6     5.1394     75.6556   
2675.8     5.3617     75.175    
2676       5.6841     75.5222   
2676.2     5.7234     76.5444   
2676.4     5.8639     78.1222   
2676.6     5.9584     80.5685   
2676.8     6.0238     84.1046   
2677       6.0291     88.4889   
2677.2     6.2893     92.1824   
2677.4     6.5237     95.9778   
2677.6     6.7861     99.3806   
2677.8     6.2579     101.5889  
2678       5.955      105.4972  
2678.2     5.9997     109.3411  
2678.4     6.2186     111.0207  
2678.6     6.3066     110.7464  
2678.8     6.3385     110.0777  
2679       6.3385     109.7389  
