~Version
 VERS              .         2.0                           : CWLS LOG ASCII STANDARD - VERSION 2.0
 WRAP              .         NO                            : ONE LINE PER DEPTH STEP
 DLM               .         SPACE                         : DELIMITING CHARACTER(SPACE TAB OR COMMA)
~Well Information
#_______________________________________________________________________________
#
#PARAMETER_NAME    .UNIT     VALUE                         : DESCRIPTION
#_______________________________________________________________________________
STRT               .m        2505                          : First reference value
STOP               .m        2679                          : Last reference value
STEP               .m        0.2                           : Step increment
NULL               .         -9999                         : Missing value
COMP               .                                       : Company
WELL               .         501                           : Well name
FLD                .                                       : Field
LOC                .                                       : Location
CNTY               .                                       : County
STAT               .                                       : State
CTRY               .                                       : Country
SRVC               .                                       : Service Company
DATE               .                                       : Date
API                .                                       : API number
EREF               .m        139.4                         : 
X                  .m        230550                        : 
Y                  .m        242075                        : 
group              .         Pad5                          : 
Интер-р            .         Ярышев                        : 
Куст               .         5                             : 
Статус             .         Проверено                     : 
Тип                .         Нагнетательные                : 
~Parameter Information Block
#_______________________________________________________________________________
#
#PARAMETER_NAME    .UNIT     VALUE                         : DESCRIPTION
#_______________________________________________________________________________
SET                .         LAS1                          : 
REAL_CREATION_DATE .         Ср апр 11 2012-13_17_17       : 
TLFamily_DEPTH     .         Measured Depth                : 
TLFamily_KS        .         Potential Resistivity         : 
TLFamily_KS1       .         Extra Shallow Resistivity     : 
TLFamily_KS2       .         Shallow Resistivity           : 
TLFamily_KS3       .         Medium Resistivity            : 
TLFamily_KS4       .         Deep Resistivity              : 
TLFamily_KS5       .         Extra Deep Resistivity        : 
TLFamily_LLD       .         Lateral Log Resistivity       : 
TLFamily_OKS3      .         Medium Resistivity Inverted   : 
TLFamily_RM        .         Mud Resistivity               : 
TLFamily_SP        .         Spontaneous Potential         : 
group              .         INI                           : 
~Curve Information
#_______________________________________________________________________________
#
#LOGNAME           .UNIT     LOG_ID                        : DESCRIPTION
#_______________________________________________________________________________
DEPTH              .m                                      : Measured Depth 
KS                 .ohm.m                                  : Potential Resistivity 
KS1                .ohm.m                                  : Extra Shallow Resistivity 
KS2                .ohm.m                                  : Shallow Resistivity 
KS3                .ohm.m                                  : Medium Resistivity 
KS4                .ohm.m                                  : Deep Resistivity 
KS5                .ohm.m                                  : Extra Deep Resistivity 
LLD                .ohm.m                                  : Lateral Log Resistivity 
OKS3               .ohm.m                                  : Medium Resistivity Inverted 
RM                 .ohm.m                                  : Mud Resistivity 
SP                 .mV                                     : Spontaneous Potential 
~Ascii
# ...
2598.8     9.1432     3.256      8.7932     10.0212    13.83      13.5221    7.3852     14.7609    0.319      94.3539   
2599       9.3453     3.1915     8.7014     9.8764     13.3531    14.4031    6.7181     13.8464    0.323      96.3302   
2599.2     9.4413     3.161      8.7998     10.1062    13.3995    16.3118    6.7884     13.5707    0.323      96.2088   
2599.4     9.5784     3.1678     9.4622     10.6035    14.234     19.235     6.9782     13.7069    0.33       93.5309   
2599.6     9.7805     3.2424     9.9541     11.4502    15.7109    22.7255    7.705      14.0442    0.333      89.7531   
2599.8     10.1472    3.1915     10.3148    12.4417    18.1911    26.3895    6.8675     15.0463    0.333      87.6445   
2600       10.3733    3.1339     11.2232    13.3986    20.3733    30.6609    23.0722    15.5815    0.323      87.5854   
2600.2     10.3802    3.8089     12.8202    15.2431    22.2542    32.9434    59.7598    14.8517    0.319      88.1178   
2600.4     10.1952    4.5417     14.6173    17.9658    22.7343    33.7042    35.3632    12.8507    0.305      88.0813   
2600.6     9.5921     4.9861     15.306     19.933     21.3866    31.969     6.9657     11.0832    0.296      88.1327   
2600.8     8.6429     4.959      15.4601    18.9258    18.0619    28.4985    4.7939     9.734      0.298      88.8776   
2601       7.9473     4.4671     14.8239    17.2985    14.9294    24.7811    4.5602     8.894      0.301      90.465    
2601.2     7.2962     4.0973     14.191     16.5021    12.7074    21.1705    3.893      8.3265     0.305      92.8066   
2601.4     6.8439     3.6631     12.7809    15.3721    10.8828    16.8057    3.9611     8.1448     0.31       94.6337   
2601.6     6.5389     3.3679     11.1937    14.1729    9.3596     13.3486    3.8408     8.1643     0.314      95.1708   
2601.8     6.3779     3.144      10.0328    12.98      8.3894     11.1862    4.803      8.3427     0.319      94.3369   
2602       6.2888     2.9201     8.8588     12.2214    7.8728     9.4376     4.7733     8.4951     0.323      92.7485   
2602.2     6.1928     3.066      8.8555     12.0042    7.3959     7.9026     4.2909     8.4432     0.323      91.6847   
2602.4     6.1483     3.0762     8.4882     12.0294    7.0747     6.9082     4.2075     8.3459     0.319      90.8086   
2602.6     6.0283     3.0694     8.1439     11.3652    6.6343     5.9604     3.8742     8.2584     0.323      88.8477   
2602.8     5.9392     3.0049     7.8619     10.4052    6.2105     5.2463     3.907      8.3524     0.333      87.2742   
2603       5.8844     2.8794     7.6291     9.5837     5.9356     4.619      3.907      8.5989     0.335      89.2063   
2603.2     5.8947     2.7573     7.4028     8.7999     5.8495     4.1852     3.9672     8.92       0.323      93.0201   
2603.4     5.9598     2.72       7.2388     8.2806     5.7932     3.8448     4.5111     9.2216     0.314      95.0036   
2603.6     6.0934     2.7064     7.1011     7.991      5.8826     3.5511     4.6254     9.3902     0.312      94.7058   
2603.8     6.2511     2.7234     7.0027     7.8084     6.0615     3.3376     4.8003     9.5297     0.298      93.9624   
2604       6.3881     2.7675     7.0617     7.7738     6.3529     3.1907     5.4016     9.5945     0.296      94.624    
2604.2     6.5081     2.9032     7.3438     7.8997     6.7833     3.084      5.3904     9.5848     0.296      95.178    
2604.4     6.5595     2.9507     7.5504     8.0571     7.3728     2.9905     5.559      9.4551     0.303      92.9491   
2604.6     6.5492     3.0931     7.9209     8.183      7.8198     2.9038     5.3356     9.3545     0.31       89.4069   
2604.8     6.4807     3.1508     8.2226     8.2963     8.0615     2.8303     5.1413     9.241      0.314      88.8205   
2605       6.4224     3.1746     8.3931     8.2365     8.0052     2.7236     4.5529     9.1859     0.323      92.3014   
2605.2     6.395      3.0287     8.1636     8.1452     7.8297     2.6568     4.7946     9.28       0.321      96.3297   
2605.4     6.371      2.9846     8.1767     8.0949     7.6443     2.6168     5.0701     9.3027     0.323      98.1698   
2605.6     6.3916     2.9812     8.1767     8.2302     7.5085     2.6168     4.9433     9.28       0.319      98.7289   
2605.8     6.4293     3.0253     8.1734     8.3152     7.3264     2.6301     4.5728     9.2118     0.323      99.5345   
2606       6.4532     2.9439     7.9176     8.3813     7.2271     2.6501     4.6963     9.3124     0.33       100.8642  
2606.2     6.5252     2.9371     7.9209     8.4159     7.1807     2.6835     5.1147     9.4097     0.342      101.357   
2606.4     6.5903     2.91       7.8881     8.6016     7.2171     2.7236     5.9591     9.3221     0.333      99.4347   
2606.6     6.6623     3.0864     8.2718     8.7338     7.2006     2.817      5.4927     8.9329     0.321      96.2279   
2606.8     6.6588     3.1508     8.3243     8.8692     7.1178     3.0172     5.3443     8.6151     0.31       93.6924   
2607       6.5629     3.2254     8.4751     8.8755     6.9721     3.2041     4.9156     8.3848     0.296      91.4141   
2607.2     6.4635     3.1881     8.485      8.8377     6.8496     3.3376     4.8865     8.2486     0.296      89.5972   
2607.4     6.371      3.1644     8.6129     8.7401     6.6906     3.391      4.7577     8.1481     0.301      90.0134   
2607.6     6.2751     3.0864     8.4194     8.6992     6.6012     3.471      4.604      8.08       0.301      92.5149   
2607.8     6.1517     3.0728     8.3669     8.6992     6.578      3.6846     5.1323     8.0248     0.31       95.7449   
2608       6.0763     3.1169     8.4653     8.6866     6.5284     3.8581     4.5897     7.9632     0.319      98.4306   
2608.2     5.9838     3.0457     8.2062     8.5828     6.4323     4.1651     4.368      8.0151     0.314      100.2906  
2608.4     5.9187     2.9778     7.9635     8.523      6.3529     4.4521     4.396      8.0184     0.31       101.6646  
2608.6     5.905      2.8964     7.793      8.4348     6.2436     4.8058     4.4244     7.9989     0.323      101.59    
2608.8     5.8604     2.9439     7.8357     8.4002     6.2038     5.1529     4.6382     7.9762     0.333      99.8308   
2609       5.8193     2.9541     7.8094     8.2995     6.1277     5.4199     4.544      8.0054     0.321      98.3735   
2609.2     5.8022     2.9167     7.6258     8.0886     6.0085     5.52       4.0955     8.1124     0.31       98.231    
2609.4     5.7816     2.8184     7.3765     7.8305     5.8859     5.5667     4.1718     8.2292     0.296      98.7016   
2609.6     5.809      2.7946     7.2847     7.5755     5.8131     5.6067     4.1969     8.3329     0.296      98.59     
2609.8     5.881      2.6996     6.9568     7.4119     5.7833     5.6735     4.0929     8.4756     0.294      97.5962   
2610       5.9564     2.7268     7.0191     7.2891     5.8462     5.7602     4.2602     8.8        0.301      96.5499   
2610.2     6.0215     2.7234     6.9568     7.3678     6.0747     5.8336     4.5142     9.1243     0.31       95.7541   
2610.4     6.066      2.7675     7.1175     7.4654     6.2767     5.9137     5.0387     9.2508     0.312      95.0314   
2610.6     6.0934     2.9541     7.4684     7.629      6.439      5.9137     4.9559     9.2702     0.319      93.7382   
2610.8     6.1448     2.971      7.3897     7.5629     6.3595     5.887      4.241      9.3708     0.319      91.9913   
2611       6.2134     2.8353     7.0945     7.3111     6.2072     5.8336     4.0772     9.7243     0.314      91.3812   
2611.2     6.3402     2.6962     6.9994     7.1947     6.1674     5.7269     4.4372     10.1394    0.323      92.1687   
2611.4     6.443      2.781      7.2355     7.2702     6.2568     5.6534     5.6722     10.3664    0.328      92.482    
2611.6     6.5492     2.9439     7.6389     7.4591     6.3032     5.58       5.5887     10.3048    0.333      91.554    
2611.8     6.5972     3.0592     7.7209     7.5031     6.1774     5.4599     5.007      10.3243    0.33       90.8544   
2612       6.5835     3.0389     7.6586     7.415      5.9754     5.3264     4.8355     10.4864    0.328      91.1862   
