~Version
 VERS              .         2.0                           : CWLS LOG ASCII STANDARD - VERSION 2.0
 WRAP              .         NO                            : ONE LINE PER DEPTH STEP
 DLM               .         SPACE                         : DELIMITING CHARACTER(SPACE TAB OR COMMA)
~Well Information
#_______________________________________________________________________________
#
#PARAMETER_NAME    .UNIT     VALUE                         : DESCRIPTION
#_______________________________________________________________________________
STRT               .m        2505                          : First reference value
STOP               .m        2679                          : Last reference value
STEP               .m        0.2                           : Step increment
NULL               .         -9999                         : Missing value
COMP               .                                       : Company
WELL               .         501                           : Well name
FLD                .                                       : Field
LOC                .                                       : Location
CNTY               .                                       : County
STAT               .                                       : State
CTRY               .                                       : Country
SRVC               .                                       : Service Company
DATE               .                                       : Date
API                .                                       : API number
EREF               .m        139.4                         : 
X                  .m        230550                        : 
Y                  .m        242075                        : 
group              .         Pad5                          : 
Интер-р            .         Ярышев                        : 
Куст               .         5                             : 
Статус             .         Проверено                     : 
Тип                .         Нагнетательные                : 
~Parameter Information Block
#_______________________________________________________________________________
#
#PARAMETER_NAME    .UNIT     VALUE                         : DESCRIPTION
#_______________________________________________________________________________
SET                .         LAS1                          : 
REAL_CREATION_DATE .         Ср апр 11 2012-13_17_17       : 
TLFamily_DEPTH     .         Measured Depth                : 
TLFamily_KS        .         Potential Resistivity         : 
TLFamily_KS1       .         Extra Shallow Resistivity     : 
TLFamily_KS2       .         Shallow Resistivity           : 
TLFamily_KS3       .         Medium Resistivity            : 
TLFamily_KS4       .         Deep Resistivity              : 
TLFamily_KS5       .         Extra Deep Resistivity        : 
TLFamily_LLD       .         Lateral Log Resistivity       : 
TLFamily_OKS3      .         Medium Resistivity Inverted   : 
TLFamily_RM        .         Mud Resistivity               : 
TLFamily_SP        .         Spontaneous Potential         : 
group              .         INI                           : 
~Curve Information
#_______________________________________________________________________________
#
#LOGNAME           .UNIT     LOG_ID                        : DESCRIPTION
#_______________________________________________________________________________
DEPTH              .m                                      : Measured Depth 
KS                 .ohm.m                                  : Potential Resistivity 
KS1                .ohm.m                                  : Extra Shallow Resistivity 
KS2                .ohm.m                                  : Shallow Resistivity 
KS3                .ohm.m                                  : Medium Resistivity 
KS4                .ohm.m                                  : Deep Resistivity 
KS5                .ohm.m                                  : Extra Deep Resistivity 
LLD                .ohm.m                                  : Lateral Log Resistivity 
OKS3               .ohm.m                                  : Medium Resistivity Inverted 
RM                 .ohm.m                                  : Mud Resistivity 
SP                 .mV                                     : Spontaneous Potential 
~Ascii
# ...
2639       6.1517     2.9642     7.5405     6.9523     5.9158     5.4732     4.7397     10.1686    0.301      146.7767  
2639.2     6.1483     2.8896     7.4126     6.7918     5.5581     5.3264     4.7465     10.5967    0.294      148.3359  
2639.4     6.1757     2.7912     7.1765     6.6659     5.3065     5.233      4.6466     11.041     0.291      148.0098  
2639.6     6.2271     2.7675     7.088      6.6722     5.1972     5.1529     4.6377     11.4821    0.314      147.661   
2639.8     6.2716     2.8014     7.0224     6.7792     5.1641     5.1262     5.1915     11.6021    0.301      147.6188  
2640       6.3813     2.8184     6.9043     6.8295     5.1276     5.1195     4.9628     11.4983    0.305      146.7809  
2640.2     6.4875     2.7234     6.6584     6.8107     5.2071     5.2196     4.6416     11.5177    0.305      145.1775  
2640.4     6.6863     2.6352     6.5174     6.7005     5.3926     5.3932     4.6158     11.6864    0.291      143.5406  
2640.6     6.9124     2.5368     6.4026     6.7697     5.6508     5.7135     4.6262     12.2604    0.291      142.7233  
2640.8     7.2311     2.5673     6.6026     6.9901     6.0151     6.0939     5.3143     12.922     0.298      142.5921  
2641       7.7862     2.4825     6.4813     7.2891     6.4456     6.5544     5.2328     13.3566    0.305      140.8843  
2641.2     8.379      2.5436     6.701      7.67       6.8827     7.1684     7.0988     13.4053    0.305      137.8981  
2641.4     8.9376     2.7675     7.2814     8.2869     7.5383     7.8091     10.7062    12.9415    0.31       136.3256  
2641.6     9.2323     3.2628     8.3112     9.1273     8.2602     8.3431     13.5415    12.2507    0.305      136.4347  
2641.8     9.174      3.7343     9.8033     10.1125    8.9556     8.7302     14.4102    11.2972    0.291      137.9954  
2642       8.7765     4.1719     11.2986    11.0536    9.3099     8.8102     8.9209     10.3145    0.296      139.9943  
2642.2     8.2145     4.2805     12.1053    11.3621    9.3132     8.63       6.0651     9.7113     0.307      140.0422  
2642.4     7.728      3.965      11.9643    11.2236    8.8629     8.2563     5.4798     9.614      0.314      138.269   
2642.6     7.3442     3.7513     11.6528    10.7231    8.2768     7.9827     4.595      9.8767     0.319      136.4136  
2642.8     7.0872     3.2492     10.246     10.3014    7.737      7.9293     4.5109     10.6778    0.291      135.5571  
2643       6.9433     3.0592     9.4065     9.9929     7.4787     8.2763     4.8896     11.8421    0.296      136.1229  
2643.2     6.8644     2.9541     8.7244     9.9646     7.5052     9.1439     4.7821     13.2172    0.31       137.1008  
2643.4     6.9056     2.8828     8.1308     10.1408    7.9291     11.0661    4.315      15.1177    0.319      137.4342  
2643.6     7.0426     2.7878     7.4848     10.3769    8.843      13.8157    4.2007     18.0852    0.312      137.142   
2643.8     7.2311     2.6012     7.2159     10.9466    10.6643    16.3385    4.7864     21.844     0.291      136.231   
2644       7.6389     2.5945     7.7176     11.8185    12.8564    19.2484    5.9598     26.1185    0.301      134.715   
2644.2     8.2317     2.6386     7.8947     12.5236    14.4459    22.3184    7.9559     28.9531    0.317      133.2608  
2644.4     8.9102     2.8421     8.2521     12.7628    15.6711    23.3729    9.2425     30.5941    0.321      132.8102  
2644.6     9.5715     3.1746     8.7604     12.8855    16.0586    23.1393    10.9445    30.7239    0.323      133.8122  
2644.8     10.0855    3.3917     9.1867     12.511     15.3996    22.1716    10.1551    29.2255    0.305      135.1487  
2645       10.4864    3.5477     9.8492     11.7115    13.9128    19.6755    8.058      27.1077    0.298      134.8344  
2645.2     10.6954    3.4392     10.1148    10.934     12.6776    17.5332    8.1793     26.3521    0.31       132.9995  
2645.4     10.8942    3.4968     10.5608    10.4808    11.7968    15.7779    7.434      26.4818    0.323      132.4187  
2645.6     11.1066    3.446      10.8658    10.4273    11.214     13.8958    7.284      27.9055    0.333      134.0237  
2645.8     11.3911    3.3917     11.0232    10.5154    10.6246    12.4676    8.7694     28.9855    0.305      135.8282  
2646       11.8776    3.3001     10.7936    10.7703    9.8133     11.5733    9.3744     28.9758    0.296      135.9002  
2646.2     12.4293    3.2628     10.5181    11.1921    8.9324     10.7724    9.6472     28.5704    0.31       133.1409  
2646.4     12.9091    3.2831     10.3673    12.0577    8.4523     10.065     11.2144    28.7747    0.319      128.1872  
2646.6     13.2826    3.4561     10.7346    13.3325    8.2006     9.6979     12.8625    29.2904    0.328      122.8395  
2646.8     13.7041    3.6156     11.3577    14.5412    8.098      9.4776     12.3487    29.9196    0.301      119.1986  
2647       13.9782    3.7004     11.8102    15.3627    8.0615     9.3308     12.4221    31.3595    0.31       118.8447  
2647.2     14.1941    3.7784     12.2759    15.8443    8.1675     9.2774     12.1791    32.7281    0.321      119.6975  
2647.4     14.3585    3.8089     12.5579    16.2661    8.4655     9.3642     12.3116    34.0578    0.328      119.035   
2647.6     14.5265    3.8395     12.8268    16.8137    8.9622     9.5978     11.7549    37.1064    0.319      117.1296  
2647.8     14.6875    3.8395     12.9514    17.3677    9.5914     10.1717    11.3236    40.2037    0.298      115.2541  
2648       14.8691    3.7988     13.0629    18.1641    10.7239    10.8391    11.1421    43.502     0.314      115.3601  
2648.2     15.2392    3.7513     13.0039    18.91      12.3995    11.9337    11.1786    46.8846    0.328      117.784   
2648.4     15.7258    3.6597     12.6497    19.5459    14.5817    13.2151    12.6848    50.7732    0.337      119.7814  
2648.6     16.3734    3.6359     12.6432    20.1785    17.6679    14.8969    13.4174    53.6685    0.323      120.0931  
2648.8     17.1136    3.4934     12.3808    21.0441    21.2674    15.878     13.4952    56.4197    0.303      120.2171  
2649       18.3472    3.4086     12.2529    20.4838    23.039     16.9392    16.0347    54.6486    0.305      121.6307  
2649.2     19.5636    2.7573     9.6065     21.0158    25.2013    16.9926    26.159     50.0078    0.287      124.3061  
2649.4     20.7219    3.5274     13.1449    22.0419    27.3736    17.1127    87.1355    44.556     0.323      126.4141  
2649.6     21.7978    3.6902     13.9024    21.8877    27.3074    17.4998    87.9464    37.4794    0.337      126.945   
2649.8     22.4215    2.6589     10.7903    23.3891    29.0922    17.8201    55.2779    31.7033    0.287      126.8323  
2650       22.0925    4.7011     18.6247    26.7476    34.7779    17.086     103.4177   28.9466    0.307      127.7222  
2650.2     21.5305    4.9861     20.5201    31.6673    38.129     17.2862    39.2714    29.3942    0.312      130.5309  
2650.4     21.5443    4.5281     18.5459    31.5067    36.8177    17.3797    31.7529    24.5294    0.305      133.3966  
2650.6     21.0919    4.3416     19.11      33.5527    37.6157    16.9926    73.24      20.0862    0.328      133.8225  
2650.8     20.105     5.5674     23.0936    37.9535    42.5248    16.7523    43.2291    17.1846    0.301      131.892   
2651       18.7241    5.4577     21.4973    45.7874    48.5599    16.7123    37.8383    16.8885    0.294      129.0648  
2651.2     17.1718    6.3465     27.8396    52.1683    52.1684    16.6322    14.4343    16.5382    0.328      126.9856  
2651.4     16.0684    5.495      24.6652    51.7908    50.1196    15.9381    10.9834    16.6225    0.337      126.5355  
2651.6     15.2495    4.8979     21.6875    48.23      46.3346    14.5365    9.8596     16.5058    0.314      126.159   
2651.8     14.6018    4.5994     20.0315    46.1116    44.1723    13.709     9.5691     17.0149    0.296      124.8637  
2652       13.9234    4.501      18.8444    44.5347    43.9339    13.3352    9.633      18.1468    0.31       124.6466  
2652.2     13.3682    4.5044     18.7427    43.0994    45.318     13.749     12.3362    19.2657    0.321      127.466   
