~Version
 VERS              .         2.0                           : CWLS LOG ASCII STANDARD - VERSION 2.0
 WRAP              .         NO                            : ONE LINE PER DEPTH STEP
 DLM               .         SPACE                         : DELIMITING CHARACTER(SPACE TAB OR COMMA)
~Well Information
#_______________________________________________________________________________
#
#PARAMETER_NAME    .UNIT     VALUE                         : DESCRIPTION
#_______________________________________________________________________________
STRT               .m        2505                          : First reference value
STOP               .m        2679                          : Last reference value
STEP               .m        0.2                           : Step increment
NULL               .         -9999                         : Missing value
COMP               .                                       : Company
WELL               .         501                           : Well name
FLD                .                                       : Field
LOC                .                                       : Location
CNTY               .                                       : County
STAT               .                                       : State
CTRY               .                                       : Country
SRVC               .                                       : Service Company
DATE               .                                       : Date
API                .                                       : API number
EREF               .m        139.4                         : 
X                  .m        230550                        : 
Y                  .m        242075                        : 
group              .         Pad5                          : 
Интер-р            .         Ярышев                        : 
Куст               .         5                             : 
Статус             .         Проверено                     : 
Тип                .         Нагнетательные                : 
~Parameter Information Block
#_______________________________________________________________________________
#
#PARAMETER_NAME    .UNIT     VALUE                         : DESCRIPTION
#_______________________________________________________________________________
SET                .         LAS1                          : 
REAL_CREATION_DATE .         Ср апр 11 2012-13_17_17       : 
TLFamily_DEPTH     .         Measured Depth                : 
TLFamily_KS        .         Potential Resistivity         : 
TLFamily_KS1       .         Extra Shallow Resistivity     : 
TLFamily_KS2       .         Shallow Resistivity           : 
TLFamily_KS3       .         Medium Resistivity            : 
TLFamily_KS4       .         Deep Resistivity              : 
TLFamily_KS5       .         Extra Deep Resistivity        : 
TLFamily_LLD       .         Lateral Log Resistivity       : 
TLFamily_OKS3      .         Medium Resistivity Inverted   : 
TLFamily_RM        .         Mud Resistivity               : 
TLFamily_SP        .         Spontaneous Potential         : 
group              .         INI                           : 
~Curve Information
#_______________________________________________________________________________
#
#LOGNAME           .UNIT     LOG_ID                        : DESCRIPTION
#_______________________________________________________________________________
DEPTH              .m                                      : Measured Depth 
KS                 .ohm.m                                  : Potential Resistivity 
KS1                .ohm.m                                  : Extra Shallow Resistivity 
KS2                .ohm.m                                  : Shallow Resistivity 
KS3                .ohm.m                                  : Medium Resistivity 
KS4                .ohm.m                                  : Deep Resistivity 
KS5                .ohm.m                                  : Extra Deep Resistivity 
LLD                .ohm.m                                  : Lateral Log Resistivity 
OKS3               .ohm.m                                  : Medium Resistivity Inverted 
RM                 .ohm.m                                  : Mud Resistivity 
SP                 .mV                                     : Spontaneous Potential 
~Ascii
# ...
2572       11.0998    4.0498     13.3548    19.0674    16.095     7.649      8.4134     19.963     0.301      75.3338   
2572.2     10.9662    4.043      13.3646    19.0611    16.5288    7.7958     7.5967     20.6214    0.301      75.784    
2572.4     10.901     3.9684     13.1482    18.8156    16.7208    8.0494     7.3941     21.3835    0.301      74.4717   
2572.6     10.9422    3.7377     12.4136    18.3592    16.8765    8.3831     7.7508     22.3013    0.298      73.0751   
2572.8     10.9936    3.6732     12.3119    18.2711    17.393     8.6367     9.3006     23.537     0.301      74.0303   
2573       11.045     3.7648     12.6235    18.6645    18.158     8.7168     8.9651     24.6786    0.301      76.5658   
2573.2     11.2506    3.7716     12.512     18.589     18.307     8.8236     9.0447     24.8667    0.296      77.465    
2573.4     11.5418    3.7377     12.1513    17.9878    17.6348    8.7569     9.4872     24.1564    0.301      76.0355   
2573.6     11.7166    3.6834     11.8496    17.588     17.2871    8.5166     9.7175     23.9813    0.301      74.4594   
2573.8     11.9119    3.8327     12.3349    17.6069    17.2672    8.2363     9.5254     24.137     0.301      74.4974   
2574       12.0593    3.8836     12.6563    17.4559    17.0652    8.2363     9.6185     24.3737    0.301      75.6703   
2574.2     12.1792    3.8463     12.6497    17.459     17.0454    8.2229     10.1878    24.5229    0.301      76.8894   
2574.4     12.3197    3.9243     13.017     17.5566    17.0685    8.2763     10.3714    24.4548    0.301      78.1728   
2574.6     12.4122    3.9887     13.2039    17.8462    17.095     8.3497     9.9707     24.4224    0.301      79.3791   
2574.8     12.5458    3.9616     13.1941    17.9972    16.9924    8.4899     9.6239     24.5294    0.301      79.5309   
2575       12.6589    3.9073     13.1318    18.2742    16.9295    8.6501     10.7951    24.6559    0.301      78.3333   
2575.2     12.748     3.9684     13.4335    18.8376    17.0155    8.7902     11.1017    24.724     0.301      76.4938   
2575.4     12.8474    4.0396     13.6893    19.4137    17.148     8.9571     11.2378    24.5034    0.305      74.7207   
2575.6     12.9365    4.0668     13.804     19.741     17.1546    9.1039     11.2856    23.8937    0.305      72.8421   
2575.8     12.9742    4.0294     13.7057    19.8669    17.1116    9.2641     10.8877    23.3229    0.307      71.6019   
2576       12.9536    4.1346     14.0008    20.125     17.1281    9.3775     11.3263    22.8429    0.314      72.9532   
2576.2     12.8817    4.1584     14.1779    20.4618    17.2275    9.4776     11.1293    22.5575    0.319      76.269    
2576.4     12.7789    4.1719     14.3222    20.8018    17.3864    9.5711     10.502     22.4213    0.319      79.106    
2576.6     12.6726    4.2059     14.4173    20.9591    17.5851    9.6779     9.5727     22.817     0.323      80.1754   
2576.8     12.5972    4.1177     14.25      20.956     17.7374    9.818      9.4303     23.4786    0.323      79.6631   
2577       12.5733    4.0227     13.9483    20.8301    18.0586    9.9982     9.33       24.3997    0.328      79.4552   
2577.2     12.6486    3.9412     13.663     20.7766    18.6083    10.3319    11.1023    25.5737    0.326      79.7305   
2577.4     12.7       3.8768     13.5351    21.1291    19.4858    10.719     12.2973    26.5661    0.323      78.2114   
2577.6     12.772     4.0193     13.9254    21.8058    20.6117    11.2729    11.4121    27.3315    0.323      74.966    
2577.8     12.8131    4.1041     14.1123    22.5739    21.6118    11.5866    11.8578    27.8828    0.323      73.3225   
2578       12.8063    4.1923     14.4304    22.9075    22.3933    11.7201    11.6594    27.7726    0.326      74.7608   
2578.2     12.796     4.2126     14.5288    22.8697    22.4595    11.5666    10.691     27.0623    0.328      77.1883   
2578.4     12.82      4.1448     14.2861    22.2213    21.7939    11.2663    9.7189     25.9823    0.333      79.0854   
2578.6     12.844     4.043      13.9418    21.2078    21.0554    10.719     9.578      25.5996    0.337      80.5972   
2578.8     12.8954    3.9209     13.5187    20.4209    20.3269    10.2785    9.9403     25.7521    0.33       82.1517   
2579       12.9845    3.8361     13.2597    19.8166    19.9064    10.0316    10.294     26.3683    0.323      83.714    
2579.2     13.1421    3.792      13.1154    19.5175    19.7342    9.9715     10.9948    27.098     0.314      84.3189   
2579.4     13.3443    3.7716     12.9678    19.4577    19.8004    10.0917    11.4352    27.9963    0.31       83.9311   
2579.6     13.5259    3.7886     12.935     19.8417    20.221     10.3586    12.4863    28.872     0.305      82.8971   
2579.8     13.7589    3.8734     13.2302    20.402     20.8866    10.9526    13.0805    29.5758    0.301      80.8915   
2580       13.9165    3.8463     13.3253    21.4596    21.8767    11.6       13.8565    30.5195    0.296      78.7608   
2580.2     14.0022    4.1041     14.3353    22.8288    23.486     12.214     14.7343    31.6579    0.298      77.6872   
2580.4     14.033     4.2737     15.0305    24.305     24.7311    12.501     12.2437    31.8882    0.301      78.1888   
2580.6     14.1564    4.3008     15.2929    24.582     24.6582    12.6545    11.9944    31.1066    0.301      79.9321   
2580.8     14.2592    4.1923     14.8862    24.091     23.9132    12.4542    12.3214    30.1952    0.301      82.1034   
2581       14.3209    4.1753     14.8173    23.4269    23.1946    12.0071    12.0689    29.7347    0.301      83.9491   
2581.2     14.3962    4.138      14.7124    23.0523    22.6979    11.5332    11.4467    29.3812    0.301      84.5694   
2581.4     14.5367    4.0769     14.5124    22.5487    22.1681    11.3197    12.6999    29.1542    0.301      85.1631   
2581.6     14.6978    3.9752     14.1451    22.2087    21.7906    11.1194    13.7777    29.2612    0.303      86.6605   
2581.8     14.8246    4.0057     14.1844    22.1143    21.8038    10.9659    13.7185    29.3131    0.31       86.1116   
2582       14.9993    4.0566     14.3484    22.4228    22.0853    10.8391    13.9192    29.1282    0.314      82.8374   
2582.2     15.1638    4.0837     14.4107    22.7281    22.3635    10.8124    14.8247    28.885     0.314      80.196    
2582.4     15.2666    4.1278     14.5484    23.0869    22.7244    10.8525    15.2948    28.645     0.319      79.8524   
2582.6     15.3351    4.2025     14.8173    23.7574    23.1747    10.9459    14.3281    28.3466    0.323      81.6358   
2582.8     15.3283    4.3212     15.3256    24.4876    23.6085    11.0394    12.5555    28.1553    0.328      84.7654   
2583       15.3283    4.3619     15.5552    24.7961    23.9132    11.2129    12.2487    28.2331    0.323      87.6646   
2583.2     15.3386    4.2296     15.306     24.7898    23.996     11.3731    13.388     28.4796    0.323      89.7757   
2583.4     15.3557    4.1685     15.1781    24.8087    24.2675    11.5332    14.332     28.6353    0.323      92.1497   
2583.6     15.4174    4.1923     15.3322    25.114     24.8271    11.7868    14.1312    28.4115    0.323      94.5838   
2583.8     15.4928    4.2059     15.3683    25.4445    25.5921    12.1205    14.8198    27.9509    0.328      96.0854   
2584       15.5202    4.25       15.4503    25.8096    26.4365    12.4609    14.4444    27.4969    0.333      96.2649   
2584.2     15.5407    4.2974     15.5749    26.203     27.4398    12.7613    14.1161    26.9942    0.337      95.0581   
2584.4     15.5236    4.3348     15.7224    26.543     28.3538    13.1617    13.9535    26.3618    0.339      93.5782   
2584.6     15.5065    4.3449     15.8077    26.7759    29.3869    13.5488    12.4849    25.7034    0.323      92.2371   
2584.8     15.5613    4.2839     15.6339    26.7035    30.1386    14.0827    12.8401    25.0353    0.319      90.5334   
2585       15.6161    4.1923     15.4699    26.7885    31.1353    14.5766    14.4992    24.5424    0.31       89.4774   
2585.2     15.6367    4.3076     15.8307    27.5345    32.5824    15.4842    17.6314    23.9326    0.301      89.6235   
