~Version
 VERS              .         2.0                           : CWLS LOG ASCII STANDARD - VERSION 2.0
 WRAP              .         NO                            : ONE LINE PER DEPTH STEP
 DLM               .         SPACE                         : DELIMITING CHARACTER(SPACE TAB OR COMMA)
~Well Information
#_______________________________________________________________________________
#
#PARAMETER_NAME    .UNIT     VALUE                         : DESCRIPTION
#_______________________________________________________________________________
STRT               .m        2505                          : First reference value
STOP               .m        2679                          : Last reference value
STEP               .m        0.2                           : Step increment
NULL               .         -9999                         : Missing value
COMP               .                                       : Company
WELL               .         501                           : Well name
FLD                .                                       : Field
LOC                .                                       : Location
CNTY               .                                       : County
STAT               .                                       : State
CTRY               .                                       : Country
SRVC               .                                       : Service Company
DATE               .                                       : Date
API                .                                       : API number
EREF               .m        139.4                         : 
X                  .m        230550                        : 
Y                  .m        242075                        : 
group              .         Pad5                          : 
Интер-р            .         Ярышев                        : 
Куст               .         5                             : 
Статус             .         Проверено                     : 
Тип                .         Нагнетательные                : 
~Parameter Information Block
#_______________________________________________________________________________
#
#PARAMETER_NAME    .UNIT     VALUE                         : DESCRIPTION
#_______________________________________________________________________________
SET                .         LAS4                          : 
REAL_CREATION_DATE .         Ср апр 11 2012-13_17_18       : 
TLFamily_DEPTH     .         Measured Depth                : 
TLFamily_RT        .         Resistivity 20                : 
TLFamily_SP        .         Spontaneous Potential         : 
group              .         INI                           : 
~Curve Information
#_______________________________________________________________________________
#
#LOGNAME           .UNIT     LOG_ID                        : DESCRIPTION
#_______________________________________________________________________________
DEPTH              .m                                      : Measured Depth 
RT                 .ohm.m                                  : Extra Deep Resistivity 
SP                 .mV                                     : Spontaneous Potential 
~Ascii
# ...
2602.2     4.0237     119.1889  
2602.4     4.3299     119.5056  
2602.6     3.7943     119.3     
2602.8     3.5443     118.6028  
2603       3.309      117.6056  
2603.2     3.1764     118.4917  
2603.4     3.2053     119       
2603.6     3.4804     120.3111  
2603.8     3.6927     121.4028  
2604       4.0635     122.2222  
2604.2     4.1465     125.6778  
2604.4     4.1885     126.8056  
2604.6     4.1616     128.6778  
2604.8     4.2116     131.1444  
2605       3.9897     133.2972  
2605.2     3.9409     134.5944  
2605.4     4.0139     136.3     
2605.6     4.1122     138.2139  
2605.8     4.0747     136.7639  
2606       3.9989     138.7889  
2606.2     4.0489     138.2833  
2606.4     4.3629     134.3     
2606.6     4.5771     133.1583  
2606.8     4.556      131.0417  
2607       4.3137     132.5111  
2607.2     4.2272     132.1583  
2607.4     4.1808     130.9389  
2607.6     4.1847     131.6361  
2607.8     4.071      132.4889  
2608       4.1769     133.4833  
2608.2     4.0941     130       
2608.4     3.8431     129.1889  
2608.6     3.8326     127.6278  
2608.8     3.8572     127.2833  
2609       3.8466     130.75    
2609.2     3.7363     129.7806  
2609.4     3.5459     130.4833  
2609.6     3.4899     130.7306  
2609.8     3.4648     131.5389  
2610       3.2889     133.0472  
2610.2     3.434      134.5833  
2610.4     3.812      138.0056  
2610.6     3.9283     137.8472  
2610.8     3.814      139.8139  
2611       3.3565     138.8194  
2611.2     3.3845     136.7833  
2611.4     3.7338     139.4083  
2611.6     4.1375     139.125   
2611.8     4.2585     139.4556  
2612       3.8641     139.4583  
2612.2     3.7394     141.0333  
2612.4     3.652      143.1611  
2612.6     3.6255     144.0556  
2612.8     3.6091     143.5222  
2613       3.7089     139.6917  
2613.2     3.765      139.8861  
2613.4     3.8414     140.7222  
2613.6     3.8784     140.2139  
2613.8     3.79       139.8778  
2614       3.5201     137.6278  
2614.2     3.8022     136.7861  
2614.4     4.1363     139.8972  
2614.6     3.8652     141.9278  
2614.8     3.2378     140.9083  
2615       4.9602     139.3556  
2615.2     7.8577     138.7333  
2615.4     11.0994    137.2167  
2615.6     9.6137     134.1417  
2615.8     9.2157     131.2556  
2616       9.4783     129.0389  
2616.2     7.9986     126.7083  
2616.4     9.3571     124.6528  
2616.6     10.0621    124.9556  
2616.8     10.9815    124.0972  
2617       13.0057    123.875   
2617.2     17.5903    123.7389  
2617.4     13.9823    120.9833  
2617.6     13.0802    119.7944  
2617.8     15.4932    118.7778  
2618       17.1183    118.3528  
2618.2     16.8112    121.2667  
2618.4     15.7037    122.7778  
2618.6     16.9862    126.2694  
2618.8     17.9632    129.9972  
2619       18.041     131.8111  
2619.2     17.5362    132.3444  
2619.4     19.5686    131.6889  
2619.6     20.6529    133.1222  
2619.8     23.8724    133.0056  
2620       22.8846    136.7528  
2620.2     19.6602    140.8611  
2620.4     18.924     142.9306  
2620.6     19.2663    146.3556  
2620.8     18.5451    145.6611  
2621       13.4904    147.9278  
2621.2     13.451     152.6083  
2621.4     17.0983    154.2917  
2621.6     17.5385    152.7972  
2621.8     15.4335    149.4972  
2622       13.702     147.7472  
2622.2     14.7902    144.0778  
2622.4     17.5493    145.4444  
2622.6     16.9408    146.1417  
2622.8     17.0808    141.8     
2623       16.7955    141.9667  
2623.2     15.5081    141.05    
2623.4     17.5493    140.5611  
2623.6     17.6256    141.4528  
2623.8     15.2515    141.1806  
2624       13.5259    140.1778  
2624.2     14.96      138.1611  
2624.4     19.7915    136.65    
2624.6     18.465     134.1167  
2624.8     15.9536    134.5806  
2625       14.4294    133.6583  
2625.2     14.3544    129.2333  
2625.4     20.2498    129.5667  
2625.6     21.2522    131.4611  
2625.8     14.4729    134.1583  
2626       10.905     135.8833  
2626.2     14.8945    136.15    
2626.4     14.364     137.4111  
2626.6     11.9822    136.9333  
2626.8     12.702     136.3056  
2627       14.8601    135.3139  
2627.2     18.2579    136.6028  
2627.4     18.5134    139.2972  
2627.6     17.8509    140.9083  
2627.8     18.1966    144.8806  
2628       18.5541    147.2667  
2628.2     18.041     148.0667  
2628.4     15.2016    149.3333  
2628.6     15.771     150.35    
2628.8     12.4693    152.5917  
2629       11.3129    154.6833  
2629.2     10.2719    156.4278  
2629.4     9.2602     154.6417  
2629.6     8.662      152.8139  
2629.8     13.385     153.7861  
2630       17.0264    153.9944  
2630.2     19.6465    153.3528  
2630.4     18.6351    152.6     
2630.6     18.3206    151.1444  
2630.8     15.1139    148.8278  
2631       12.4232    146.6139  
2631.2     9.4292     144.95    
2631.4     8.6502     142.3111  
2631.6     8.3688     139.7     
2631.8     8.844      136.8833  
2632       8.5502     133.1889  
2632.2     8.2421     134.375   
2632.4     8.1378     135.2611  
2632.6     8.3686     132.9722  
2632.8     7.7309     130.2528  
2633       7.9207     123.3944  
2633.2     7.7695     116.0333  
2633.4     7.0788     109.4     
2633.6     5.9143     104.0944  
2633.8     4.9485     98.6333   
2634       5.1474     93.8444   
2634.2     5.4844     91.1722   
2634.4     4.8973     87.7      
2634.6     4.3241     88.6194   
2634.8     4.3537     88.4167   
2635       4.44       85.1444   
2635.2     4.7083     83.3917   
2635.4     4.4638     81.3139   
2635.6     4.2981     80.4167   
2635.8     4.7999     81.7667   
2636       4.5832     85.5944   
2636.2     4.1205     86.1028   
2636.4     3.9607     87.5111   
2636.6     3.8118     92.1028   
2636.8     3.7428     91.8528   
2637       3.8189     92.4694   
2637.2     4.1495     92.4833   
2637.4     4.3701     91.8583   
2637.6     4.5179     94.2889   
2637.8     4.3236     94.5833   
2638       4.1885     94.25     
2638.2     4.1467     95.7306   
2638.4     4.2824     98.3167   
2638.6     4.4493     96.7972   
2638.8     4.2938     94.4611   
2639       4.2938     96.6444   
2639.2     4.1476     95.3889   
2639.4     3.948      94.1556   
2639.6     3.8466     91.8333   
2639.8     3.8466     88.8056   
2640       3.9499     89        
2640.2     4.0071     88.5167   
2640.4     4.3471     90.2333   
2640.6     5.358      94.1361   
2640.8     7.0482     98.1611   
2641       7.5038     102.8222  
2641.2     8.2319     106.6139  
2641.4     8.6713     105.1778  
2641.6     9.4227     103.2806  
2641.8     8.8687     104.2583  
2642       8.1587     100.5833  
2642.2     5.8246     98.2111   
2642.4     5.1571     97.8556   
2642.6     4.6809     97.7056   
2642.8     4.3859     100.5167  
2643       4.3661     101.0444  
2643.2     4.3137     102.35    
2643.4     4.5353     104.0361  
2643.6     4.9749     104.3361  
2643.8     5.1245     102.7833  
2644       5.2505     100.4639  
2644.2     6.3225     99.3611   
2644.4     6.6141     96.0417   
2644.6     6.7664     95.0083   
2644.8     6.4919     94.9528   
2645       6.3035     92.5611   
2645.2     6.4685     93.0167   
2645.4     6.7054     94.5389   
2645.6     7.2402     97.0306   
2645.8     7.7579     100.2111  
2646       8.1056     102.9333  
2646.2     8.6838     105.4333  
2646.4     8.8008     106.7889  
2646.6     8.6437     110.3861  
2646.8     8.3393     114.0722  
2647       8.1943     117.3     
2647.2     8.0437     120.1278  
2647.4     8.0345     120.2861  
2647.6     8.0542     122.6861  
2647.8     8.3047     126.4722  
2648       8.8118     129.7139  
2648.2     9.1803     132.1722  
2648.4     9.2774     129.3611  
2648.6     10.106     125.9528  
2648.8     10.4065    123.7278  
2649       9.0734     122.4556  
2649.2     15.2577    122.725   
2649.4     14.0788    123.7528  
2649.6     10.1323    124.3333  
2649.8     77.6359    122.9444  
2650       389.9889   123.7889  
2650.2     18.1174    124.1389  
2650.4     17.2422    120.375   
2650.6     16.0191    120.3667  
