~Version
 VERS              .         2.0                           : CWLS LOG ASCII STANDARD - VERSION 2.0
 WRAP              .         NO                            : ONE LINE PER DEPTH STEP
 DLM               .         SPACE                         : DELIMITING CHARACTER(SPACE TAB OR COMMA)
~Well Information
#_______________________________________________________________________________
#
#PARAMETER_NAME    .UNIT     VALUE                         : DESCRIPTION
#_______________________________________________________________________________
STRT               .m        2505                          : First reference value
STOP               .m        2679                          : Last reference value
STEP               .m        0.2                           : Step increment
NULL               .         -9999                         : Missing value
COMP               .                                       : Company
WELL               .         501                           : Well name
FLD                .                                       : Field
LOC                .                                       : Location
CNTY               .                                       : County
STAT               .                                       : State
CTRY               .                                       : Country
SRVC               .                                       : Service Company
DATE               .                                       : Date
API                .                                       : API number
EREF               .m        139.4                         : 
X                  .m        230550                        : 
Y                  .m        242075                        : 
group              .         Pad5                          : 
Интер-р            .         Ярышев                        : 
Куст               .         5                             : 
Статус             .         Проверено                     : 
Тип                .         Нагнетательные                : 
~Parameter Information Block
#_______________________________________________________________________________
#
#PARAMETER_NAME    .UNIT     VALUE                         : DESCRIPTION
#_______________________________________________________________________________
SET                .         LAS3                          : 
REAL_CREATION_DATE .         Ср апр 11 2012-13_17_17       : 
TLFamily_DEPTH     .         Measured Depth                : 
TLFamily_GR        .         Gamma Ray                     : 
TLFamily_TNPH      .         Neutron Porosity              : 
group              .         INI                           : 
~Curve Information
#_______________________________________________________________________________
#
#LOGNAME           .UNIT     LOG_ID                        : DESCRIPTION
#_______________________________________________________________________________
DEPTH              .m                                      : Measured Depth 
GR                 .gAPI                                   :  
TNPH               .v/v                                    : Neutron Porosity 
~Ascii
# ...
2553.6     149.95     0.292     
2553.8     139.33     0.3       
2554       142.03     0.309     
2554.2     153.95     0.282     
2554.4     149        0.306     
2554.6     144.02     0.278     
2554.8     143.14     0.305     
2555       141.53     0.322     
2555.2     136.67     0.287     
2555.4     136        0.257     
2555.6     131.25     0.288     
2555.8     132.19     0.276     
2556       138.22     0.279     
2556.2     131.23     0.291     
2556.4     136.42     0.291     
2556.6     140.77     0.307     
2556.8     136.86     0.286     
2557       127.22     0.25      
2557.2     111.7      0.25      
2557.4     115.88     0.224     
2557.6     120.25     0.238     
2557.8     126.72     0.242     
2558       127.8      0.26      
2558.2     130.56     0.253     
2558.4     132.47     0.259     
2558.6     133.33     0.268     
2558.8     130.45     0.282     
2559       133.17     0.303     
2559.2     137.41     0.3       
2559.4     148.55     0.294     
2559.6     161.53     0.28      
2559.8     180.56     0.259     
2560       208.84     0.277     
2560.2     210.72     0.267     
2560.4     197.53     0.265     
2560.6     214.08     0.289     
2560.8     219.33     0.319     
2561       218.78     0.289     
2561.2     230.84     0.265     
2561.4     228.8      0.274     
2561.6     225.66     0.27      
2561.8     203.6      0.329     
2562       197.27     0.315     
2562.2     190.64     0.297     
2562.4     195.17     0.293     
2562.6     207.08     0.309     
2562.8     217.28     0.344     
2563       222.08     0.307     
2563.2     231.27     0.324     
2563.4     244.39     0.334     
2563.6     239.98     0.326     
2563.8     249.59     0.354     
2564       247.91     0.368     
2564.2     239.72     0.343     
2564.4     228.58     0.317     
2564.6     211.73     0.313     
2564.8     205.84     0.302     
2565       190        0.293     
2565.2     194.63     0.319     
2565.4     193.02     0.29      
2565.6     189.83     0.3       
2565.8     209.78     0.317     
2566       219.5      0.314     
2566.2     238.42     0.318     
2566.4     262.84     0.286     
2566.6     276.5      0.288     
2566.8     281.34     0.28      
2567       304.41     0.294     
2567.2     327.56     0.3       
2567.4     346.56     0.341     
2567.6     325.36     0.338     
2567.8     305.59     0.294     
2568       308.25     0.308     
2568.2     326.73     0.314     
2568.4     325.73     0.363     
2568.6     344.78     0.381     
2568.8     355.25     0.336     
2569       361.39     0.356     
2569.2     345.33     0.353     
2569.4     344.39     0.355     
2569.6     337.28     0.395     
2569.8     327.77     0.381     
2570       344.94     0.384     
2570.2     352.14     0.392     
2570.4     362.7      0.349     
2570.6     363.55     0.358     
2570.8     351.83     0.335     
2571       336.7      0.306     
2571.2     338.63     0.328     
2571.4     315.8      0.319     
2571.6     291.19     0.312     
2571.8     282.92     0.346     
2572       310.89     0.361     
2572.2     317.63     0.376     
2572.4     317.57     0.355     
2572.6     324.98     0.362     
2572.8     347.18     0.406     
2573       356.03     0.408     
2573.2     319.77     0.366     
2573.4     328.02     0.302     
2573.6     328.45     0.305     
2573.8     314.77     0.29      
2574       291.36     0.314     
2574.2     297.48     0.364     
2574.4     304.38     0.393     
2574.6     299.61     0.421     
2574.8     286.34     0.364     
2575       282        0.327     
2575.2     261.36     0.342     
2575.4     245.5      0.332     
2575.6     223.78     0.313     
2575.8     197.09     0.308     
2576       180.45     0.311     
2576.2     185.42     0.324     
2576.4     184.92     0.29      
2576.6     197.02     0.339     
2576.8     200.09     0.369     
2577       195.32     0.338     
2577.2     190.59     0.296     
2577.4     198.23     0.296     
2577.6     186.88     0.35      
2577.8     173.75     0.336     
2578       159.03     0.337     
2578.2     149.88     0.319     
2578.4     149.62     0.332     
2578.6     148.83     0.289     
2578.8     148.63     0.287     
2579       155.33     0.293     
2579.2     158.09     0.307     
2579.4     153.88     0.321     
2579.6     155.83     0.306     
2579.8     168.33     0.321     
2580       175.19     0.292     
2580.2     177.69     0.282     
2580.4     165.16     0.259     
2580.6     141.61     0.26      
2580.8     142.52     0.288     
2581       144.3      0.297     
2581.2     131.33     0.267     
2581.4     134.56     0.292     
2581.6     129.5      0.288     
2581.8     123.13     0.296     
2582       135.11     0.286     
2582.2     138.2      0.285     
2582.4     130.03     0.295     
2582.6     127.21     0.346     
2582.8     131.56     0.349     
2583       141.27     0.34      
2583.2     148.52     0.318     
2583.4     149.67     0.279     
2583.6     151.33     0.315     
2583.8     157.57     0.288     
2584       142.83     0.292     
2584.2     136.75     0.323     
2584.4     145.02     0.407     
2584.6     142.66     0.408     
2584.8     147.27     0.435     
2585       153.01     0.444     
2585.2     154.78     0.41      
2585.4     146.03     0.368     
2585.6     134.3      0.345     
2585.8     120.23     0.319     
2586       118.8      0.302     
2586.2     125.19     0.349     
2586.4     132.89     0.393     
2586.6     133.86     0.332     
2586.8     123.36     0.274     
2587       110.88     0.282     
2587.2     111.63     0.271     
2587.4     119.72     0.294     
2587.6     138.58     0.304     
2587.8     149.94     0.325     
2588       149.39     0.343     
2588.2     149.06     0.306     
2588.4     135.14     0.286     
2588.6     123.97     0.283     
2588.8     117.91     0.291     
2589       130.03     0.27      
2589.2     141.53     0.275     
2589.4     150.83     0.256     
2589.6     156.98     0.279     
2589.8     148.88     0.294     
2590       139.92     0.311     
2590.2     147.86     0.309     
2590.4     148.42     0.313     
2590.6     148.09     0.289     
2590.8     145.53     0.321     
2591       154.38     0.311     
2591.2     151.86     0.329     
2591.4     147.36     0.332     
2591.6     134.77     0.35      
2591.8     148.07     0.368     
2592       155.2      0.373     
2592.2     182.09     0.401     
2592.4     193.45     0.422     
2592.6     188.31     0.418     
2592.8     167.28     0.369     
2593       145.7      0.312     
2593.2     136.11     0.312     
2593.4     138.34     0.303     
2593.6     140.09     0.304     
2593.8     136.81     0.333     
2594       151.97     0.299     
2594.2     147.88     0.304     
2594.4     135.53     0.262     
2594.6     127.67     0.262     
2594.8     129.78     0.235     
2595       133.3      0.219     
2595.2     139.41     0.259     
2595.4     146.39     0.267     
2595.6     149.84     0.257     
2595.8     153.16     0.274     
2596       157.21     0.313     
2596.2     140.3      0.311     
2596.4     129.31     0.26      
2596.6     132.3      0.248     
2596.8     132.84     0.274     
2597       135.11     0.262     
2597.2     134.47     0.254     
2597.4     135.47     0.256     
2597.6     134.68     0.26      
2597.8     142.91     0.285     
2598       146.83     0.363     
2598.2     142.67     0.334     
2598.4     142        0.324     
2598.6     135.06     0.352     
2598.8     134.86     0.317     
2599       140.13     0.279     
2599.2     133.88     0.268     
2599.4     133.78     0.245     
2599.6     129.34     0.263     
2599.8     110.63     0.236     
2600       100.38     0.217     
2600.2     84.18      0.25      
2600.4     92.92      0.278     
2600.6     127.84     0.298     
2600.8     145.3      0.363     
2601       143.92     0.354     
2601.2     142.72     0.311     
2601.4     141.55     0.265     
2601.6     141.02     0.254     
2601.8     135.54     0.294     
2602       133.67     0.315     
