~Version
 VERS              .         2.0                           : CWLS LOG ASCII STANDARD - VERSION 2.0
 WRAP              .         NO                            : ONE LINE PER DEPTH STEP
 DLM               .         SPACE                         : DELIMITING CHARACTER(SPACE TAB OR COMMA)
~Well Information
#_______________________________________________________________________________
#
#PARAMETER_NAME    .UNIT     VALUE                         : DESCRIPTION
#_______________________________________________________________________________
STRT               .m        2505                          : First reference value
STOP               .m        2679                          : Last reference value
STEP               .m        0.2                           : Step increment
NULL               .         -9999                         : Missing value
COMP               .                                       : Company
WELL               .         501                           : Well name
FLD                .                                       : Field
LOC                .                                       : Location
CNTY               .                                       : County
STAT               .                                       : State
CTRY               .                                       : Country
SRVC               .                                       : Service Company
DATE               .                                       : Date
API                .                                       : API number
EREF               .m        139.4                         : 
X                  .m        230550                        : 
Y                  .m        242075                        : 
group              .         Pad5                          : 
Интер-р            .         Ярышев                        : 
Куст               .         5                             : 
Статус             .         Проверено                     : 
Тип                .         Нагнетательные                : 
~Parameter Information Block
#_______________________________________________________________________________
#
#PARAMETER_NAME    .UNIT     VALUE                         : DESCRIPTION
#_______________________________________________________________________________
SET                .         LAS3                          : 
REAL_CREATION_DATE .         Ср апр 11 2012-13_17_17       : 
TLFamily_DEPTH     .         Measured Depth                : 
TLFamily_GR        .         Gamma Ray                     : 
TLFamily_TNPH      .         Neutron Porosity              : 
group              .         INI                           : 
~Curve Information
#_______________________________________________________________________________
#
#LOGNAME           .UNIT     LOG_ID                        : DESCRIPTION
#_______________________________________________________________________________
DEPTH              .m                                      : Measured Depth 
GR                 .gAPI                                   :  
TNPH               .v/v                                    : Neutron Porosity 
~Ascii
# ...
2602.2     129.59     0.316     
2602.4     129.36     0.293     
2602.6     131.98     0.294     
2602.8     127.06     0.298     
2603       127.64     0.289     
2603.2     126.64     0.266     
2603.4     135.78     0.26      
2603.6     141.06     0.308     
2603.8     136.69     0.31      
2604       140.31     0.282     
2604.2     140.8      0.237     
2604.4     136.13     0.23      
2604.6     140.61     0.27      
2604.8     142.22     0.35      
2605       135.2      0.295     
2605.2     142.69     0.278     
2605.4     142.86     0.286     
2605.6     144.98     0.289     
2605.8     149.31     0.266     
2606       145.52     0.253     
2606.2     148.25     0.282     
2606.4     149.73     0.312     
2606.6     146.63     0.299     
2606.8     146.23     0.297     
2607       143.45     0.294     
2607.2     136.61     0.288     
2607.4     137.3      0.274     
2607.6     135.55     0.279     
2607.8     132.56     0.296     
2608       124.91     0.331     
2608.2     120.39     0.344     
2608.4     118.98     0.333     
2608.6     118.97     0.298     
2608.8     121.33     0.343     
2609       126.47     0.377     
2609.2     130.48     0.327     
2609.4     126.67     0.282     
2609.6     123.39     0.273     
2609.8     135.44     0.29      
2610       138.94     0.322     
2610.2     139.28     0.293     
2610.4     143.86     0.311     
2610.6     131.59     0.335     
2610.8     129.03     0.318     
2611       127.45     0.275     
2611.2     134.92     0.264     
2611.4     139.97     0.289     
2611.6     136.84     0.313     
2611.8     141.41     0.338     
2612       147.28     0.308     
2612.2     148.25     0.316     
2612.4     156.88     0.333     
2612.6     149.8      0.35      
2612.8     146.82     0.359     
2613       148.81     0.361     
2613.2     143.56     0.369     
2613.4     134.92     0.337     
2613.6     141.44     0.277     
2613.8     144.94     0.278     
2614       143.06     0.263     
2614.2     135.41     0.239     
2614.4     132.34     0.196     
2614.6     141.34     0.18      
2614.8     158.72     0.151     
2615       130.91     0.122     
2615.2     63.27      0.105     
2615.4     55.39      0.092     
2615.6     45.14      0.09      
2615.8     43.55      0.116     
2616       43.2       0.142     
2616.2     49.94      0.176     
2616.4     54.39      0.186     
2616.6     51.99      0.189     
2616.8     50.97      0.164     
2617       46.63      0.163     
2617.2     47.75      0.163     
2617.4     50.36      0.188     
2617.6     50.92      0.214     
2617.8     45.05      0.215     
2618       44.07      0.206     
2618.2     44.97      0.199     
2618.4     48.72      0.195     
2618.6     57.64      0.21      
2618.8     54.58      0.211     
2619       49.61      0.206     
2619.2     46.14      0.201     
2619.4     45.88      0.18      
2619.6     44.03      0.179     
2619.8     42.17      0.197     
2620       44.97      0.217     
2620.2     46.22      0.204     
2620.4     47.47      0.206     
2620.6     49.33      0.191     
2620.8     46.45      0.214     
2621       39.38      0.208     
2621.2     37         0.189     
2621.4     33.61      0.179     
2621.6     32.27      0.169     
2621.8     30.63      0.168     
2622       34.69      0.187     
2622.2     37.48      0.196     
2622.4     32.09      0.199     
2622.6     33.94      0.197     
2622.8     41.78      0.2       
2623       43.03      0.224     
2623.2     42.6       0.218     
2623.4     43.03      0.21      
2623.6     40.83      0.211     
2623.8     42.09      0.228     
2624       39.92      0.212     
2624.2     44.27      0.24      
2624.4     43.25      0.215     
2624.6     41.78      0.191     
2624.8     45.41      0.18      
2625       41.98      0.173     
2625.2     38.94      0.179     
2625.4     46.13      0.213     
2625.6     46.14      0.213     
2625.8     47.84      0.2       
2626       43.53      0.189     
2626.2     41.17      0.204     
2626.4     42.78      0.215     
2626.6     36.91      0.201     
2626.8     34.48      0.197     
2627       40.95      0.193     
2627.2     41.65      0.209     
2627.4     41.86      0.199     
2627.6     44.08      0.178     
2627.8     39.58      0.183     
2628       43.78      0.216     
2628.2     38.78      0.22      
2628.4     42.84      0.219     
2628.6     45.2       0.246     
2628.8     45.22      0.225     
2629       47.03      0.197     
2629.2     45.56      0.216     
2629.4     54.06      0.224     
2629.6     60.92      0.199     
2629.8     59.48      0.169     
2630       46.96      0.139     
2630.2     28.64      0.133     
2630.4     19.91      0.118     
2630.6     23.64      0.139     
2630.8     36.11      0.146     
2631       56.44      0.177     
2631.2     78.68      0.26      
2631.4     93.73      0.303     
2631.6     104.97     0.274     
2631.8     106.89     0.267     
2632       113.88     0.285     
2632.2     123.02     0.256     
2632.4     119.72     0.247     
2632.6     124.25     0.291     
2632.8     136.31     0.307     
2633       134.52     0.34      
2633.2     133.44     0.313     
2633.4     116.97     0.262     
2633.6     86.34      0.237     
2633.8     76.05      0.24      
2634       72.99      0.233     
2634.2     70.3       0.233     
2634.4     68.36      0.256     
2634.6     68.23      0.252     
2634.8     66.3       0.242     
2635       71.28      0.219     
2635.2     71.53      0.22      
2635.4     71.36      0.227     
2635.6     65.91      0.21      
2635.8     63.66      0.216     
2636       70.41      0.218     
2636.2     70.61      0.212     
2636.4     68.14      0.193     
2636.6     66.06      0.199     
2636.8     60.95      0.217     
2637       61.89      0.212     
2637.2     69.53      0.215     
2637.4     68         0.237     
2637.6     72.53      0.221     
2637.8     69.67      0.213     
2638       62.34      0.211     
2638.2     65.3       0.196     
2638.4     64.28001   0.196     
2638.6     63.05      0.194     
2638.8     57.06      0.201     
2639       52.48      0.187     
2639.2     55.2       0.19      
2639.4     53.06      0.2       
2639.6     56.25      0.21      
2639.8     62.19      0.202     
2640       62.91      0.217     
2640.2     60.38      0.225     
2640.4     58.53      0.203     
2640.6     54.17      0.188     
2640.8     59.77      0.179     
2641       56.13      0.193     
2641.2     53.45      0.189     
2641.4     47.59      0.174     
2641.6     45.48      0.174     
2641.8     55.92      0.189     
2642       58.11      0.195     
2642.2     60.33      0.208     
2642.4     59.83      0.215     
2642.6     60.55      0.202     
2642.8     52.92      0.204     
2643       52.95      0.207     
2643.2     59.98      0.216     
2643.4     63.36      0.223     
2643.6     70.03      0.216     
2643.8     78.14      0.229     
2644       94.12      0.264     
2644.2     114.16     0.305     
2644.4     117.44     0.379     
2644.6     121.84     0.345     
2644.8     109.89     0.302     
2645       97.19      0.283     
2645.2     87.58      0.272     
2645.4     86.13      0.276     
2645.6     86.08      0.271     
2645.8     89.63      0.285     
2646       101.56     0.308     
2646.2     101.95     0.313     
2646.4     102.55     0.305     
2646.6     109.23     0.283     
2646.8     118.14     0.297     
2647       122.19     0.321     
2647.2     115.97     0.317     
2647.4     112.23     0.317     
2647.6     114.48     0.283     
2647.8     115.79     0.266     
2648       112.52     0.271     
2648.2     103.77     0.278     
2648.4     97.09      0.287     
2648.6     76.68999   0.295     
2648.8     67.33      0.323     
2649       48.11      0.461     
2649.2     30.05      0.556     
2649.4     17.96      0.544     
2649.6     18.78      0.453     
2649.8     27.28      0.482     
2650       37.09      0.431     
2650.2     42.94      0.405     
2650.4     49.86      0.421     
2650.6     66.72      0.379     
