~Version
 VERS              .         2.0                           : CWLS LOG ASCII STANDARD - VERSION 2.0
 WRAP              .         NO                            : ONE LINE PER DEPTH STEP
 DLM               .         SPACE                         : DELIMITING CHARACTER(SPACE TAB OR COMMA)
~Well Information
#_______________________________________________________________________________
#
#PARAMETER_NAME    .UNIT     VALUE                         : DESCRIPTION
#_______________________________________________________________________________
STRT               .m        2505                          : First reference value
STOP               .m        2679                          : Last reference value
STEP               .m        0.2                           : Step increment
NULL               .         -9999                         : Missing value
COMP               .                                       : Company
WELL               .         501                           : Well name
FLD                .                                       : Field
LOC                .                                       : Location
CNTY               .                                       : County
STAT               .                                       : State
CTRY               .                                       : Country
SRVC               .                                       : Service Company
DATE               .                                       : Date
API                .                                       : API number
EREF               .m        139.4                         : 
X                  .m        230550                        : 
Y                  .m        242075                        : 
group              .         Pad5                          : 
Интер-р            .         Ярышев                        : 
Куст               .         5                             : 
Статус             .         Проверено                     : 
Тип                .         Нагнетательные                : 
~Parameter Information Block
#_______________________________________________________________________________
#
#PARAMETER_NAME    .UNIT     VALUE                         : DESCRIPTION
#_______________________________________________________________________________
SET                .         LAS1                          : 
REAL_CREATION_DATE .         Ср апр 11 2012-13_17_17       : 
TLFamily_DEPTH     .         Measured Depth                : 
TLFamily_KS        .         Potential Resistivity         : 
TLFamily_KS1       .         Extra Shallow Resistivity     : 
TLFamily_KS2       .         Shallow Resistivity           : 
TLFamily_KS3       .         Medium Resistivity            : 
TLFamily_KS4       .         Deep Resistivity              : 
TLFamily_KS5       .         Extra Deep Resistivity        : 
TLFamily_LLD       .         Lateral Log Resistivity       : 
TLFamily_OKS3      .         Medium Resistivity Inverted   : 
TLFamily_RM        .         Mud Resistivity               : 
TLFamily_SP        .         Spontaneous Potential         : 
group              .         INI                           : 
~Curve Information
#_______________________________________________________________________________
#
#LOGNAME           .UNIT     LOG_ID                        : DESCRIPTION
#_______________________________________________________________________________
DEPTH              .m                                      : Measured Depth 
KS                 .ohm.m                                  : Potential Resistivity 
KS1                .ohm.m                                  : Extra Shallow Resistivity 
KS2                .ohm.m                                  : Shallow Resistivity 
KS3                .ohm.m                                  : Medium Resistivity 
KS4                .ohm.m                                  : Deep Resistivity 
KS5                .ohm.m                                  : Extra Deep Resistivity 
LLD                .ohm.m                                  : Lateral Log Resistivity 
OKS3               .ohm.m                                  : Medium Resistivity Inverted 
RM                 .ohm.m                                  : Mud Resistivity 
SP                 .mV                                     : Spontaneous Potential 
~Ascii
# ...
2545.2     7.2825     3.1237     8.5965     9.5554     7.3661     5.8603     5.3512     10.5091    0.301      80.0005   
2545.4     7.2893     3.1474     8.6588     9.6498     7.3827     5.8336     6.2537     10.3859    0.301      80.4342   
2545.6     7.3202     3.2221     8.8785     9.7253     7.4191     5.8003     5.8201     10.2918    0.301      80.1085   
2545.8     7.2996     3.2153     8.8949     9.7285     7.4191     5.7669     5.6353     10.2918    0.301      77.5612   
2546       7.2482     3.2458     9.0162     9.7631     7.4456     5.7269     5.6946     10.3372    0.301      74.036    
2546.2     7.19       3.2356     9.0556     9.8261     7.4854     5.6935     5.6441     10.3891    0.301      72.2413   
2546.4     7.118      3.239      9.1375     9.9236     7.5582     5.6735     5.5204     10.5091    0.301      72.5736   
2546.6     7.0118     3.2628     9.213      10.0023    7.6013     5.6334     5.394      10.6551    0.301      73.7695   
2546.8     6.8987     3.239      9.1408     10.0527    7.6145     5.6001     5.2021     10.6843    0.301      74.9697   
2547       6.8439     3.178      8.9408     9.9614     7.5781     5.5533     4.9447     10.8172    0.301      75.8004   
2547.2     6.813      3.1203     8.7342     9.8072     7.482      5.4999     4.8326     11.0572    0.301      76.2629   
2547.4     6.837      3.0185     8.4358     9.568      7.3993     5.4532     4.6611     11.495     0.301      75.9198   
2547.6     6.9433     2.9439     8.1308     9.3067     7.2668     5.4466     4.6762     12.0302    0.301      75.018    
2547.8     7.1317     2.8387     7.8422     9.0738     7.194      5.4732     5.0056     12.7242    0.301      74.2407   
2548       7.2996     2.8557     7.8193     9.0077     7.2569     5.5467     5.7849     13.3988    0.301      72.928    
2548.2     7.4401     3.0796     8.2325     9.1745     7.4456     5.6468     6.446      14.0766    0.301      71.0355   
2548.4     7.6149     3.1339     8.3341     9.2469     7.6013     5.8069     5.8074     14.962     0.301      69.0777   
2548.6     7.6731     3.0965     8.3144     9.3539     7.8066     5.9004     5.8692     15.7598    0.301      67.6538   
2548.8     7.6526     3.2797     9.1867     9.6404     8.0483     5.9671     7.8877     15.8279    0.305      67.6085   
2549       7.6731     3.4256     9.4753     9.8324     8.0648     5.9938     5.9168     15.5069    0.301      68.3915   
2549.2     7.6594     3.3306     9.2523     9.5805     7.8264     6.0205     5.4718     15.4842    0.301      69.1096   
2549.4     7.6457     3.2322     9.0556     9.3413     7.6178     6.0339     5.2531     15.9317    0.301      69.0849   
2549.6     7.7245     3.0999     8.8129     9.1241     7.4986     6.2474     5.0586     16.7587    0.301      68.1106   
2549.8     7.937      2.9371     8.4718     8.9133     7.4655     6.5811     4.8582     18.0171    0.301      67.7088   
2550       8.379      2.7302     7.9242     8.7653     7.5913     7.2752     4.957      19.1457    0.301      67.9331   
2550.2     9.0849     2.5232     7.3831     8.7999     8.194      8.0094     5.3717     20.5662    0.301      67.0808   
2550.4     9.8114     2.4893     7.488      9.4326     8.9357     8.8102     8.0298     20.5662    0.301      65.5962   
2550.6     10.7023    2.8353     8.3964     10.5374    10.0716    9.6779     15.7173    19.3111    0.301      65.2469   
2550.8     11.2951    3.4256     9.8688     12.1679    11.2305    10.1183    40.1001    16.8041    0.301      66.3416   
2551       11.3419    4.4208     12.2914    14.1028    11.9271    10.1851    8.1039     14.2245    0.301      67.3035   
2551.2     10.8839    4.7215     13.7384    15.0102    11.8696    9.8914     6.6915     12.4161    0.301      67.552    
2551.4     10.3802    4.3619     13.7712    14.837     11.3994    9.3842     7.105      11.9329    0.301      68.6435   
2551.6     9.9964     4.1923     14.2566    14.6356    11.0451    9.0238     6.7508     11.628     0.301      70.9871   
2551.8     9.7291     3.9243     13.7811    14.8748    11.0385    8.6634     9.0252     11.4464    0.301      73.0165   
2552       9.3453     3.982      13.991     15.4414    11.1676    8.263      7.3883     10.9988    0.305      73.7685   
2552.2     8.989      4.0634     13.7057    16.4549    11.3266    7.9093     7.5693     10.2983    0.301      74.2567   
2552.4     8.5709     4.1584     13.5023    17.1977    11.1345    7.5288     5.6212     9.4713     0.301      74.534    
2552.6     8.1323     4.121      13.1678    17.7171    10.7438    6.8748     4.8533     9.0789     0.301      73.8843   
2552.8     7.7143     3.7716     11.9676    17.3488    10.2106    6.4076     4.8921     8.9556     0.301      73.0535   
2553       7.399      3.5409     11.3216    16.3888    9.6576     5.9671     4.8422     9.0691     0.305      72.1003   
2553.2     7.1454     3.3747     10.7608    15.3973    9.2603     5.5934     4.5785     9.2313     0.305      70.9146   
2553.4     6.9878     3.2492     10.1181    14.3082    9.0119     5.3998     4.6742     9.5654     0.301      70.517    
2553.6     6.8919     3.1678     9.5868     13.4364    8.8563     5.2597     4.8764     9.8508     0.301      71.5643   
2553.8     6.8507     3.1135     9.1736     12.8541    8.8331     5.1529     4.8627     10.1297    0.305      73.4043   
2554       6.8713     3.0796     8.8391     12.2749    8.8993     5.0862     5.0792     10.2756    0.303      74.2721   
2554.2     6.8884     3.0999     8.6653     11.872     9.0814     5.0328     5.0792     10.3859    0.305      73.9892   
2554.4     6.9056     3.1203     8.5997     11.5698    9.4722     4.9794     5.2167     10.5188    0.305      73.823    
2554.6     6.9364     3.1474     8.6227     11.1544    9.9027     4.9527     5.2823     10.5772    0.31       73.6435   
2554.8     6.9535     3.1372     8.626      10.7042    10.2537    4.8993     5.2814     10.5675    0.314      73.1867   
2555       6.9741     3.1949     8.7539     10.2951    10.3298    4.7792     5.3825     10.441     0.314      72.6008   
2555.2     6.9741     3.1813     8.7014     9.9205     10.1378    4.7124     5.3776     10.0616    0.314      71.2032   
2555.4     6.9672     3.1813     8.7145     9.5994     9.7702     4.6056     5.0669     9.8021     0.319      69.5916   
2555.6     6.9261     3.1949     8.7506     9.3854     9.4159     4.5122     5.0451     9.7016     0.319      69.0921   
2555.8     6.8816     3.1813     8.7473     9.228      9.1344     4.4521     5.0421     9.7599     0.323      70.3843   
2556       6.8713     3.0931     8.6129     9.1777     8.8761     4.4455     5.2499     9.8605     0.323      72.5782   
2556.2     6.8439     3.0999     8.6686     9.2091     8.747      4.4588     5.1544     9.9935     0.326      73.5916   
2556.4     6.8405     3.1271     8.6752     9.2847     8.651      4.5122     4.9144     10.1426    0.328      73.0808   
2556.6     6.8507     3.0796     8.4817     9.3162     8.4986     4.6323     5.0311     10.3664    0.323      72.1445   
2556.8     6.8884     3.0524     8.4522     9.3823     8.3993     4.7525     4.932      10.7134    0.323      70.9763   
2557       6.9193     2.988      8.3636     9.6435     8.4556     4.8325     7.4522     11.1124    0.323      69.428    
2557.2     6.8576     3.144      8.849      9.9677     8.492      4.8726     4.9437     10.9534    0.323      68.2094   
2557.4     6.909      3.3645     9.1933     10.0621    8.1874     4.8325     5.0346     10.5772    0.323      67.3719   
2557.6     6.8884     3.1847     8.5833     9.6372     7.6244     4.7391     4.9453     10.3016    0.323      66.9805   
2557.8     6.8028     3.1406     8.5178     9.1934     7.1608     4.4988     4.8197     10.2821    0.328      68.1471   
2558       6.7856     3.0728     8.4456     8.9825     6.8827     4.3654     4.9313     10.3567    0.335      70.518    
2558.2     6.7685     3.0287     8.3997     8.7653     6.6939     4.2986     4.9688     10.4702    0.337      72.4403   
2558.4     6.7753     3.0015     8.3144     8.6142     6.5383     4.2986     4.9949     10.5124    0.333      73.5478   
