~Version
 VERS              .         2.0                           : CWLS LOG ASCII STANDARD - VERSION 2.0
 WRAP              .         NO                            : ONE LINE PER DEPTH STEP
 DLM               .         SPACE                         : DELIMITING CHARACTER(SPACE TAB OR COMMA)
~Well Information
#_______________________________________________________________________________
#
#PARAMETER_NAME    .UNIT     VALUE                         : DESCRIPTION
#_______________________________________________________________________________
STRT               .m        2531                          : First reference value
STOP               .m        2738                          : Last reference value
STEP               .m        0.2                           : Step increment
NULL               .         -9999                         : Missing value
COMP               .                                       : Company
WELL               .         502                           : Well name
FLD                .                                       : Field
LOC                .                                       : Location
CNTY               .                                       : County
STAT               .                                       : State
CTRY               .                                       : Country
SRVC               .                                       : Service Company
DATE               .                                       : Date
API                .                                       : API number
EREF               .m        139.4                         : 
X                  .m        230550                        : 
Y                  .m        242075                        : 
group              .         Pad5                          : 
Интер-р            .         Пузин                         : 
Куст               .         5                             : 
Статус             .         Не проверено                  : 
Тип                .         Эксплуатация                  : 
~Parameter Information Block
#_______________________________________________________________________________
#
#PARAMETER_NAME    .UNIT     VALUE                         : DESCRIPTION
#_______________________________________________________________________________
SET                .         LAS3                          : 
REAL_CREATION_DATE .         Ср апр 11 2012-13_17_18       : 
TLFamily_DEPTH     .         Measured Depth                : 
TLFamily_GR        .         Gamma Ray                     : 
TLFamily_TNPH      .         Neutron Porosity              : 
group              .         INI                           : 
~Curve Information
#_______________________________________________________________________________
#
#LOGNAME           .UNIT     LOG_ID                        : DESCRIPTION
#_______________________________________________________________________________
DEPTH              .m                                      : Measured Depth 
GR                 .gAPI                                   :  
TNPH               .v/v                                    : Neutron Porosity 
~Ascii
2531.0     89.63      0.275     
2531.2     94.17      0.242     
2531.4     99.04      0.263     
2531.6     96.5       0.259     
2531.8     95.45999   0.292     
2532       93.38      0.287     
2532.2     92.95999   0.278     
2532.4     105.82     0.237     
2532.6     113.75     0.231     
2532.8     115.93     0.215     
2533       109.71     0.203     
2533.2     104.09     0.214     
2533.4     93.25      0.213     
2533.6     89.57      0.225     
2533.8     85.4       0.25      
2534       75.24001   0.245     
2534.2     66.46      0.238     
2534.4     56.68      0.203     
2534.6     53.61      0.174     
2534.8     49.73      0.161     
2535       45.28      0.161     
2535.2     48.9       0.129     
2535.4     54.31      0.122     
2535.6     56.71      0.124     
2535.8     53.56      0.115     
2536       49.59      0.115     
2536.2     48.1       0.126     
2536.4     50.07      0.159     
2536.6     51.4       0.22      
2536.8     57.1       0.211     
2537       54.34      0.213     
2537.2     64.22      0.23      
2537.4     66.02      0.23      
2537.6     69.8       0.228     
2537.8     75.28      0.251     
2538       81.95      0.239     
2538.2     82.59      0.23      
2538.4     79.82001   0.216     
2538.6     75.93001   0.19      
2538.8     78.31001   0.19      
2539       92.3       0.211     
2539.2     99.02      0.241     
2539.4     105.58     0.23      
2539.6     102.76     0.219     
2539.8     101.43     0.257     
2540       94.24      0.259     
2540.2     87.07      0.238     
2540.4     82.3       0.253     
2540.6     84.75999   0.241     
2540.8     76.36      0.24      
2541       68.38      0.236     
2541.2     72.25      0.235     
2541.4     73.3       0.229     
2541.6     76.62      0.228     
2541.8     74.25      0.243     
2542       78.07999   0.239     
2542.2     79.69      0.221     
2542.4     77.39999   0.221     
2542.6     83.85001   0.21      
2542.8     86.62      0.229     
2543       84.22      0.219     
2543.2     83.16      0.195     
2543.4     93.64999   0.21      
2543.6     110.07     0.242     
2543.8     106.37     0.294     
2544       101.54     0.253     
2544.2     96.28999   0.263     
2544.4     90.23      0.263     
2544.6     93.41      0.275     
2544.8     102.94     0.259     
2545       103.32     0.208     
2545.2     99.54001   0.193     
2545.4     101.85     0.217     
2545.6     102.93     0.196     
2545.8     90.95      0.191     
2546       96.59      0.218     
2546.2     102.6      0.244     
2546.4     98.12      0.252     
2546.6     101.07     0.228     
2546.8     103.99     0.213     
2547       104.09     0.212     
2547.2     102.32     0.201     
2547.4     100.28     0.216     
2547.6     92.31      0.21      
2547.8     94.32999   0.227     
2548       94.56001   0.264     
2548.2     94.46      0.252     
2548.4     96.36      0.218     
2548.6     103.28     0.191     
2548.8     105.73     0.19      
2549       99.44      0.215     
2549.2     98.18      0.221     
2549.4     94.37      0.217     
2549.6     91.28999   0.209     
2549.8     95.7       0.209     
2550       101.36     0.227     
2550.2     103.67     0.221     
2550.4     102.71     0.213     
2550.6     99.49001   0.22      
2550.8     102.09     0.231     
2551       101.31     0.254     
2551.2     100.65     0.272     
2551.4     97.79      0.288     
2551.6     92.66      0.264     
2551.8     88.29001   0.213     
2552       87.23      0.193     
2552.2     77.33      0.173     
2552.4     69.91      0.168     
2552.6     65.66      0.162     
2552.8     54.37      0.18      
2553       52.84      0.201     
2553.2     60.18      0.225     
2553.4     67.1       0.209     
2553.6     66.99001   0.218     
2553.8     69.05      0.269     
2554       76.79      0.263     
2554.2     85.24001   0.283     
2554.4     96.09      0.27      
2554.6     101.15     0.259     
2554.8     102.8      0.264     
2555       101.27     0.218     
2555.2     92.61      0.248     
2555.4     90.81001   0.262     
2555.6     86.46      0.237     
2555.8     77.16      0.244     
2556       72.91      0.219     
2556.2     73.17001   0.235     
2556.4     76.1       0.26      
2556.6     76.27      0.25      
2556.8     76.17      0.213     
2557       77.23      0.186     
2557.2     68.23      0.199     
2557.4     69.54001   0.243     
2557.6     70.84      0.229     
2557.8     75.56      0.23      
2558       82.12      0.232     
2558.2     85.14      0.249     
2558.4     79.08      0.225     
2558.6     80.59      0.231     
2558.8     81.74      0.239     
2559       91.82      0.258     
2559.2     94.66      0.265     
2559.4     87.89      0.252     
2559.6     80.33      0.218     
2559.8     66.96      0.197     
2560       66.42999   0.209     
2560.2     64.65      0.207     
2560.4     74.62      0.211     
2560.6     80.64999   0.22      
2560.8     85.92      0.214     
2561       86.27      0.195     
2561.2     83.05      0.233     
2561.4     72.53999   0.239     
2561.6     72.19      0.231     
2561.8     71.14      0.242     
2562       71.06      0.262     
2562.2     68.02      0.252     
2562.4     66.28      0.239     
2562.6     66.54      0.206     
2562.8     71.64      0.192     
2563       76.6       0.203     
2563.2     72.04001   0.211     
2563.4     70.93001   0.17      
2563.6     70.55      0.15      
2563.8     66.44      0.155     
2564       58.92      0.14      
2564.2     51.72      0.141     
2564.4     52.04      0.131     
2564.6     48.11      0.105     
2564.8     44.13      0.112     
2565       47.4       0.128     
2565.2     47         0.14      
2565.4     48.15      0.171     
2565.6     55.83      0.197     
2565.8     55.77      0.193     
2566       59.81      0.206     
2566.2     59.21      0.23      
2566.4     63.2       0.238     
2566.6     63.23      0.241     
2566.8     63.74      0.242     
2567       62.87      0.24      
2567.2     63.62      0.232     
2567.4     72.41      0.22      
2567.6     78.95      0.232     
2567.8     84.88      0.243     
2568       98.13      0.216     
2568.2     107.9      0.241     
2568.4     109.03     0.236     
2568.6     108.33     0.237     
2568.8     105.92     0.231     
2569       101.38     0.228     
2569.2     88.10001   0.223     
2569.4     75.28      0.225     
2569.6     66.12      0.225     
2569.8     52.95      0.194     
2570       49.73      0.206     
2570.2     50.17      0.209     
2570.4     51.09      0.203     
2570.6     46.76      0.207     
2570.8     45.34      0.183     
2571       47.89      0.17      
2571.2     52.76      0.162     
2571.4     53.57      0.174     
2571.6     53.66      0.201     
2571.8     59.97      0.205     
2572       65.45999   0.188     
2572.2     68.21999   0.173     
2572.4     67.51      0.197     
2572.6     70.48      0.186     
2572.8     73.26      0.171     
2573       64.13      0.166     
2573.2     49.01      0.138     
2573.4     43.26      0.11      
2573.6     45.41      0.1       
2573.8     47.49      0.115     
2574       49.83      0.116     
2574.2     47.94      0.131     
2574.4     50.67      0.172     
2574.6     50.53      0.206     
2574.8     56.05      0.255     
2575       65.89      0.233     
2575.2     75.82      0.219     
2575.4     85.35      0.206     
2575.6     93.95      0.23      
2575.8     104.36     0.229     
2576       103.46     0.218     
2576.2     101.44     0.21      
2576.4     104.15     0.233     
2576.6     99.93      0.212     
2576.8     101.15     0.254     
2577       101.05     0.255     
2577.2     112.02     0.259     
2577.4     119.57     0.263     
2577.6     113.93     0.282     
2577.8     114.83     0.279     
2578       111.42     0.273     
2578.2     107.63     0.25      
2578.4     106.05     0.273     
2578.6     101.84     0.265     
2578.8     100.77     0.254     
2579       97.9       0.22      
2579.2     97.86      0.176     
2579.4     102.71     0.209     
