~Version
 VERS              .         2.0                           : CWLS LOG ASCII STANDARD - VERSION 2.0
 WRAP              .         NO                            : ONE LINE PER DEPTH STEP
 DLM               .         SPACE                         : DELIMITING CHARACTER(SPACE TAB OR COMMA)
~Well Information
#_______________________________________________________________________________
#
#PARAMETER_NAME    .UNIT     VALUE                         : DESCRIPTION
#_______________________________________________________________________________
STRT               .m        2531                          : First reference value
STOP               .m        2738                          : Last reference value
STEP               .m        0.2                           : Step increment
NULL               .         -9999                         : Missing value
COMP               .                                       : Company
WELL               .         502                           : Well name
FLD                .                                       : Field
LOC                .                                       : Location
CNTY               .                                       : County
STAT               .                                       : State
CTRY               .                                       : Country
SRVC               .                                       : Service Company
DATE               .                                       : Date
API                .                                       : API number
EREF               .m        139.4                         : 
X                  .m        230550                        : 
Y                  .m        242075                        : 
group              .         Pad5                          : 
Интер-р            .         Пузин                         : 
Куст               .         5                             : 
Статус             .         Не проверено                  : 
Тип                .         Эксплуатация                  : 
~Parameter Information Block
#_______________________________________________________________________________
#
#PARAMETER_NAME    .UNIT     VALUE                         : DESCRIPTION
#_______________________________________________________________________________
SET                .         LAS1                          : 
REAL_CREATION_DATE .         Ср апр 11 2012-13_17_18       : 
TLFamily_DEPTH     .         Measured Depth                : 
TLFamily_KS        .         Potential Resistivity         : 
TLFamily_KS1       .         Extra Shallow Resistivity     : 
TLFamily_KS2       .         Shallow Resistivity           : 
TLFamily_KS3       .         Medium Resistivity            : 
TLFamily_KS4       .         Deep Resistivity              : 
TLFamily_KS5       .         Extra Deep Resistivity        : 
TLFamily_LLD       .         Lateral Log Resistivity       : 
TLFamily_OKS3      .         Medium Resistivity Inverted   : 
TLFamily_RM        .         Mud Resistivity               : 
TLFamily_SP        .         Spontaneous Potential         : 
group              .         INI                           : 
~Curve Information
#_______________________________________________________________________________
#
#LOGNAME           .UNIT     LOG_ID                        : DESCRIPTION
#_______________________________________________________________________________
DEPTH              .m                                      : Measured Depth 
KS                 .ohm.m                                  : Potential Resistivity 
KS1                .ohm.m                                  : Extra Shallow Resistivity 
KS2                .ohm.m                                  : Shallow Resistivity 
KS3                .ohm.m                                  : Medium Resistivity 
KS4                .ohm.m                                  : Deep Resistivity 
KS5                .ohm.m                                  : Extra Deep Resistivity 
LLD                .ohm.m                                  : Lateral Log Resistivity 
OKS3               .ohm.m                                  : Medium Resistivity Inverted 
RM                 .ohm.m                                  : Mud Resistivity 
SP                 .mV                                     : Spontaneous Potential 
~Ascii
# ...
2571.2     18.5983    13.4658    25.5547    11.7744    7.7353     3.655      14.2804    20.9416    0.821      119.7308  
2571.4     17.5756    13.846     27.8848    13.4603    7.3209     3.5896     11.7662    22.6166    0.821      119.94    
2571.6     16.8281    13.0314    27.7501    14.4182    6.8801     3.5503     9.6196     24.5865    0.817      120.5517  
2571.8     16.0161    12.4069    27.2177    15.1171    6.5183     3.5503     9.2931     27.5575    0.814      121.59    
2572       15.8088    11.4939    25.2622    15.4407    6.2716     3.6288     8.2734     32.1032    0.811      122.665   
2572.2     15.8904    10.1737    22.3209    15.3825    6.2617     3.9167     9.8856     33.7426    0.814      123.6283  
2572.4     15.8564    10.6421    22.5115    15.596     6.4196     4.2701     11.9179    31.5913    0.811      124.905   
2572.6     16.6888    11.4227    22.5706    15.9779    6.6301     4.8197     9.0663     30.723     0.807      126.6783  
2572.8     17.9154    9.8648     17.9565    15.3501    7.038      5.7685     7.1143     31.8246    0.804      127.5192  
2573       19.6889    8.4903     16.5433    14.3211    7.709      6.9659     9.8856     31.9995    0.814      127.1558  
2573.2     24.5407    7.8047     15.9781    14.3664    8.7944     8.0783     16.3626    29.0771    0.817      126.9125  
2573.4     29.141     9.1182     18.3837    15.6219    10.393     9.3346     30.2013    25.1114    0.827      127.1767  
2573.6     33.0958    11.1036    21.5781    17.2399    11.61      11.2452    40.1365    19.516     0.848      127.8333  
2573.8     36.7652    13.398     25.673     19.6442    12.998     12.2921    56.2297    15.7026    0.854      128.5517  
2574       37.3089    16.948     35.6243    23.66      14.7413    13.1035    63.7124    12.8191    0.854      128.71    
2574.2     35.114     20.3284    46.7851    27.7502    15.9714    13.5092    48.3033    10.0262    0.865      127.9958  
2574.4     29.0663    23.3965    58.4378    32.4553    16.9122    13.0512    21.575     8.4516     0.865      126.7542  
2574.6     23.7728    24.6218    68.7589    37.7687    16.7115    12.122     11.8403    7.2917     0.856      125.7092  
2574.8     19.4579    21.2991    64.3356    37.6716    14.8729    10.8657    7.9982     6.2193     0.841      125.5692  
2575       15.0682    16.7648    53.5388    34.8628    12.7151    8.7457     8.1361     5.743      0.844      126.8775  
2575.2     12.8733    13.812     44.5437    33.8176    10.9949    7.5679     7.0794     5.5875     0.841      130.1033  
2575.4     10.8348    11.8028    34.3426    32.9471    9.3799     6.6649     6.0741     5.743      0.838      135.015   
2575.6     9.1835     9.9056     24.0397    29.7694    8.426      6.4948     5.7257     6.0281     0.838      139.5983  
2575.8     8.5176     8.5785     18.7058    25.608     7.8241     6.4424     4.7538     6.4072     0.838      142.8908  
2576       7.9706     7.7911     15.84      21.6861    7.3998     6.521      4.4834     6.6891     0.834      145.2092  
2576.2     7.8109     6.722      12.7672    18.0683    7.1235     6.6387     4.5637     6.8673     0.838      146.4942  
2576.4     7.8177     6.5829     11.6268    14.7223    7.0314     6.6649     5.157      6.9936     0.841      146.7775  
2576.6     7.8313     6.4539     10.7789    13.1044    7.0775     6.7042     4.8983     7.0779     0.841      146.91    
2576.8     7.7429     7.0105     10.5916    11.1952    7.038      6.7369     5.7979     7.0682     0.861      147.2033  
2577       7.709      6.8069     10.2137    9.9202     7.1038     6.7434     4.7928     7.1492     0.844      147.795   
2577.2     7.5187     6.7186     10.0132    8.943      7.2814     6.7303     4.905      7.201      0.841      148.0192  
2577.4     7.4032     6.4879     10.0033    8.0304     7.4656     6.6518     5.0614     6.9483     0.841      147.9567  
2577.6     7.376      6.4471     9.9047     7.4415     7.584      6.6256     4.9749     6.4169     0.838      147.995   
2577.8     7.3624     6.2808     9.655      7.0855     7.6103     6.5864     4.7423     6.2614     0.834      148.0025  
2578       7.3012     6.2163     9.4151     6.8008     7.6235     6.5079     5.1168     6.2128     0.836      147.9775  
2578.2     7.2979     6.2571     9.4446     6.7231     7.5643     6.4686     5.1521     6.1448     0.834      147.7058  
2578.4     7.3148     6.274      9.3165     6.626      7.3011     6.4293     5.0973     6.08       0.834      147.5558  
2578.6     7.3012     6.2163     9.0897     6.4966     7.0446     6.4293     4.9576     6.0605     0.834      147.635   
2578.8     7.4066     6.2367     8.9845     6.3995     6.7354     6.5733     4.6399     6.2484     0.834      147.5117  
2579       7.6002     5.7717     8.6        6.4189     6.663      6.9659     4.9541     6.5465     0.834      147.32    
2579.2     7.8313     5.8023     8.7939     6.7652     6.9393     7.7642     5.6053     7.201      0.831      147.2467  
2579.4     7.8551     6.0263     9.3066     7.888      8.255      8.2157     5.923      8.2637     0.831      147.1117  
2579.6     7.6206     7.6248     11.9226    8.7973     8.7352     8.3531     6.8223     8.5488     0.841      146.8017  
2579.8     7.641      7.4314     11.0681    8.5805     8.2287     8.2746     5.2896     7.7518     0.824      146.5683  
2580       7.6818     7.0716     10.1808    7.5062     6.6137     7.7511     4.978      6.7798     0.824      146.4567  
2580.2     7.4779     6.7186     9.6944     6.8622     5.9197     6.7173     4.9925     6.4104     0.821      146.4008  
2580.4     7.3284     6.4946     9.6353     6.393      5.5579     6.2461     4.8134     6.2452     0.821      146.7883  
2580.6     7.1789     6.2299     9.6615     6.2248     5.3408     5.9844     5.0105     6.2096     0.817      147.6617  
2580.8     7.0702     6.2333     9.9146     6.0565     5.2487     5.7488     4.9518     6.0994     0.817      147.8275  
2581       6.9921     6.1824     9.5432     5.9141     5.0809     5.5787     4.8499     5.9763     0.814      147.7417  
2581.2     6.8935     6.1247     9.1784     5.885      4.9066     5.4871     4.7274     5.9439     0.814      147.6633  
2581.4     6.8596     6.0127     8.932      5.94       4.8277     5.4609     4.6822     5.9439     0.811      147.6708  
2581.6     6.8358     5.9109     8.7676     6.05       4.7388     5.5002     4.8605     5.9893     0.811      147.8025  
2581.8     6.8935     5.8905     8.6986     6.3477     4.7092     5.6114     4.7836     6.0217     0.807      147.4325  
2582       6.9343     5.7955     8.485      6.5419     4.7487     5.7358     4.7836     6.1869     0.804      146.995   
2582.2     6.8833     6.0331     8.7874     6.5678     4.8507     5.8535     5.1183     6.2808     0.811      146.805   
2582.4     6.9207     6.0636     8.8071     6.5937     4.9461     5.9909     4.7897     6.3456     0.804      146.6433  
2582.6     6.8732     6.0806     8.8465     6.5743     4.9987     6.0367     4.9178     6.4104     0.807      147.2175  
2582.8     6.812      6.2163     9.0371     6.5419     4.9987     5.9975     4.955      6.3262     0.811      147.7708  
2583       6.846      6.084      8.7676     6.4189     4.8803     5.8797     4.8272     6.1707     0.814      147.4333  
2583.2     6.7984     6.1009     8.715      6.1924     4.8013     5.6572     4.8191     6.0184     0.824      147.0483  
2583.4     6.6965     6.1145     8.7413     6.0694     4.7882     5.474      4.6931     5.9309     0.834      147.1633  
2583.6     6.7033     5.86       8.4357     5.885      4.8079     5.2777     4.5985     5.8208     0.831      147.4817  
2583.8     6.6897     5.7819     8.4324     5.7717     5.002      5.1599     4.6413     5.8143     0.834      147.3267  
2584       6.6285     5.8837     8.5836     5.7976     5.2158     5.0814     4.7028     5.8597     0.848      146.885   
2584.2     6.6421     5.7989     8.4916     5.8009     5.2224     5.0553     4.8045     5.8726     0.846      146.8833  
2584.4     6.7203     5.843      8.4653     5.8365     5.1993     5.0553     4.6726     5.8953     0.841      146.7408  
