~Version
 VERS              .         2.0                           : CWLS LOG ASCII STANDARD - VERSION 2.0
 WRAP              .         NO                            : ONE LINE PER DEPTH STEP
 DLM               .         SPACE                         : DELIMITING CHARACTER(SPACE TAB OR COMMA)
~Well Information
#_______________________________________________________________________________
#
#PARAMETER_NAME    .UNIT     VALUE                         : DESCRIPTION
#_______________________________________________________________________________
STRT               .m        2531                          : First reference value
STOP               .m        2738                          : Last reference value
STEP               .m        0.2                           : Step increment
NULL               .         -9999                         : Missing value
COMP               .                                       : Company
WELL               .         502                           : Well name
FLD                .                                       : Field
LOC                .                                       : Location
CNTY               .                                       : County
STAT               .                                       : State
CTRY               .                                       : Country
SRVC               .                                       : Service Company
DATE               .                                       : Date
API                .                                       : API number
EREF               .m        139.4                         : 
X                  .m        230550                        : 
Y                  .m        242075                        : 
group              .         Pad5                          : 
Интер-р            .         Пузин                         : 
Куст               .         5                             : 
Статус             .         Не проверено                  : 
Тип                .         Эксплуатация                  : 
~Parameter Information Block
#_______________________________________________________________________________
#
#PARAMETER_NAME    .UNIT     VALUE                         : DESCRIPTION
#_______________________________________________________________________________
SET                .         LAS1                          : 
REAL_CREATION_DATE .         Ср апр 11 2012-13_17_18       : 
TLFamily_DEPTH     .         Measured Depth                : 
TLFamily_KS        .         Potential Resistivity         : 
TLFamily_KS1       .         Extra Shallow Resistivity     : 
TLFamily_KS2       .         Shallow Resistivity           : 
TLFamily_KS3       .         Medium Resistivity            : 
TLFamily_KS4       .         Deep Resistivity              : 
TLFamily_KS5       .         Extra Deep Resistivity        : 
TLFamily_LLD       .         Lateral Log Resistivity       : 
TLFamily_OKS3      .         Medium Resistivity Inverted   : 
TLFamily_RM        .         Mud Resistivity               : 
TLFamily_SP        .         Spontaneous Potential         : 
group              .         INI                           : 
~Curve Information
#_______________________________________________________________________________
#
#LOGNAME           .UNIT     LOG_ID                        : DESCRIPTION
#_______________________________________________________________________________
DEPTH              .m                                      : Measured Depth 
KS                 .ohm.m                                  : Potential Resistivity 
KS1                .ohm.m                                  : Extra Shallow Resistivity 
KS2                .ohm.m                                  : Shallow Resistivity 
KS3                .ohm.m                                  : Medium Resistivity 
KS4                .ohm.m                                  : Deep Resistivity 
KS5                .ohm.m                                  : Extra Deep Resistivity 
LLD                .ohm.m                                  : Lateral Log Resistivity 
OKS3               .ohm.m                                  : Medium Resistivity Inverted 
RM                 .ohm.m                                  : Mud Resistivity 
SP                 .mV                                     : Spontaneous Potential 
~Ascii
# ...
2691.8     11.9424    8.8908     16.6945    14.7806    15.9386    9.7075     7.1804     15.4369    0.784      144.0575  
2692       11.6366    8.178      15.8729    12.5219    10.6364    6.5079     6.2727     12.3979    0.773      145.4883  
2692.2     11.3954    7.5943     15.2813    10.0885    8.1366     4.8982     6.3532     10.6159    0.757      145.1217  
2692.4     11.3104    7.2549     14.4334    7.9981     6.1071     3.8644     6.4049     10.1364    0.758      144.3383  
2692.6     11.2595    7.0241     13.4344    7.2991     4.4527     2.896      6.6307     10.0068    0.784      144.0942  
2692.8     11.2425    7.0716     13.0268    7.024      3.6962     2.5164     6.9743     10.1234    0.787      144.2008  
2693       11.2289    7.1191     12.5996    7.4868     3.137      2.2024     6.8402     10.2044    0.777      143.7608  
2693.2     11.2629    7.0648     12.4287    8.354      2.7489     2.0453     6.9646     10.2725    0.777      143.3208  
2693.4     11.1269    6.9291     12.5339    10.205     2.7226     1.9537     7.0625     10.8038    0.784      143.57    
2693.6     11.0726    7.5807     13.7104    12.4119    2.9199     1.849      7.4789     11.1278    0.775      144.2967  
2693.8     11.3342    7.2074     12.7113    12.2436    3.2225     1.8098     7.5003     11.2704    0.76       145.0642  
2694       11.6162    7.1497     12.2184    11.5511    3.2817     1.7705     7.2231     11.5036    0.753      145.6733  
2694.2     11.8404    7.1599     12.1001    10.9557    3.3475     1.764      7.6536     11.7564    0.778      145.8717  
2694.4     12.1768    7.2549     12.1658    10.6256    3.5317     1.8229     8.5733     11.779     0.794      145.5658  
2694.6     12.5064    7.523      12.6062    10.5803    3.9396     1.9668     8.707      11.5101    0.773      145.1367  
2694.8     12.4316    7.9065     13.3884    11.1369    5.2881     2.3463     8.7353     10.9593    0.787      145.095   
2695       12.0477    8.4428     14.7489    12.3795    7.6827     2.5688     8.8783     11.2963    0.78       144.6833  
2695.2     11.5347    8.9722     17.033     14.0719    10.6364    2.7651     8.4976     11.9313    0.767      144.1467  
2695.4     11.8744    8.212      16.0438    13.7386    13.3467    3.0399     8.3141     11.5036    0.757      144.025   
2695.6     12.9209    7.2549     13.3555    11.7517    13.1427    3.4587     7.7735     10.807     0.77       144.05    
2695.8     13.2878    7.6859     13.0006    11.1758    13.6427    3.8251     8.1828     11.4583    0.787      144.5067  
2696       13.3422    8.1645     13.7959    11.8488    15.5735    4.787      8.9191     12.9616    0.79       145.2183  
2696.2     13.5834    8.4156     14.7095    12.7678    19.2409    6.7173     9.0138     16.3117    0.77       145.39    
2696.4     13.7635    8.436      16.5959    14.8712    24.076     9.1514     8.8897     19.9664    0.79       145.0433  
2696.6     13.4849    9.7189     19.9809    19.8222    34.3054    12.0893    9.5346     23.5109    0.777      144.6883  
2696.8     12.7578    10.6624    22.5969    24.7537    43.1336    13.3391    11.0845    28.2606    0.76       144.7067  
2697       12.7442    11.6399    25.3575    25.3718    42.5547    13.4438    10.4705    27.0489    0.763      144.2717  
2697.2     13.2946    9.6985     19.1725    20.4046    32.549     12.3183    9.2485     22.7592    0.775      142.915   
2697.4     13.8178    9.0062     17.0757    16.0879    19.3133    9.6094     7.4331     17.2157    0.794      142.2633  
2697.6     13.7363    8.9145     16.9147    13.6739    14.9715    7.2407     7.5176     15.5082    0.78       142.78    
2697.8     13.7975    9.1691     17.7462    12.2889    12.1066    5.703      8.003      14.8343    0.789      143.495   
2698       14.1916    8.9315     18.0156    11.3052    9.5378     5.0029     8.1504     14.3191    0.78       143.4567  
2698.2     15.4079    9.0299     18.7715    10.3603    7.8866     4.5449     8.3508     13.8429    0.773      142.3217  
2698.4     16.3321    8.436      16.8654    10.0885    6.5479     3.9887     7.7432     12.9292    0.762      140.8633  
2698.6     16.7092    10.1737    19.3894    11.2016    5.7947     3.5372     11.8248    11.1148    0.79       139.81    
2698.8     16.2777    12.821     23.1195    13.0138    5.4986     3.3278     16.7582    9.9031     0.8        139.2617  
2699       15.2109    13.1061    23.5566    14.6447    4.9        3.2689     14.122     9.5597     0.794      138.7567  
2699.2     13.6072    11.9114    23.4711    15.5313    4.1303     3.2886     8.6466     9.7152     0.78       137.09    
2699.4     12.5607    10.3128    23.0505    15.5831    3.9231     3.5372     8.0041     10.0716    0.79       134.6667  
2699.6     12.2414    9.6307     21.9857    15.1236    3.8804     3.9298     7.2527     10.4863    0.773      132.0233  
2699.8     12.0511    9.4474     20.5133    15.0136    3.808      3.9036     7.3716     10.9852    0.76       128.5167  
2700       12.1598    9.203      18.4396    14.4408    3.6435     3.7466     6.9621     11.0112    0.777      123.8633  
2700.2     12.4112    8.9383     16.5039    13.6609    3.4758     3.3736     7.3359     10.7487    0.8        119.3983  
2700.4     12.8733    9.237      15.9255    13.0073    3.5186     3.0268     7.8529     10.7001    0.79       117.2808  
2700.6     13.3422    9.4915     15.1959    12.2371    3.7159     2.8174     8.2172     11.0306    0.787      116.31    
2700.8     13.6955    8.9926     14.302     11.344     4.2422     2.6081     7.3734     11.0144    0.794      115.5117  
2701       13.9843    9.6985     15.3931    10.5868    4.854      2.5426     8.2191     10.4928    0.777      115.7133  
2701.2     14.1236    10.6896    16.8753    10.0108    5.6565     2.5164     11.3785    10.5317    0.767      116.8142  
2701.4     13.6819    10.7914    17.0231    9.6031     6.3538     2.6277     9.0762     11.2315    0.794      119.4258  
2701.6     13.0976    10.5674    17.4307    9.5966     6.9656     2.8174     8.0467     12.764     0.807      123.4183  
2701.8     13.1451    9.6442     17.3945    9.8587     7.7024     3.0007     8.008      14.1863    0.794      129.45    
2702       13.3286    8.9519     16.6156    10.2762    8.8701     3.197      7.433      15.4596    0.794      135.8733  
2702.2     13.6378    9.074      16.6419    10.7939    9.7088     3.3933     7.9272     17.0245    0.794      140.0842  
2702.4     14.0285    9.1351     16.3034    11.4346    10.2154    3.4849     8.9035     17.8669    0.777      142.555   
2702.6     14.2391    9.3184     16.4645    11.6158    10.4292    3.5241     9.1196     18.489     0.77       144.0983  
2702.8     14.3037    9.4949     16.9048    11.6676    10.3601    3.5765     9.1168     19.1467    0.79       145.0842  
2703       14.2595    9.4983     17.2302    11.7712    10.1233    3.6419     9.2286     19.7072    0.804      145.445   
2703.2     14.1304    9.5831     17.6804    11.6806    9.574      3.727      9.0907     20.3616    0.787      145.8067  
2703.4     13.947     9.4881     17.7396    11.3311    9.0576     3.8905     8.9636     21.6447    0.797      146.0083  
2703.6     13.8722    9.1419     17.3321    10.7745    8.6234     4.0738     8.4739     22.4417    0.797      145.4617  
2703.8     13.9741    8.8229     16.7734    10.5091    8.084      4.414      8.1494     23.3165    0.775      144.1183  
2704       14.0625    8.6532     16.471     10.3732    7.5511     4.7804     8.0108     25.4548    0.79       142.0442  
2704.2     14.7216    8.7211     15.0611    9.9008     7.0511     5.4609     9.1367     25.6687    0.8        140.5217  
2704.4     15.4283    8.0966     13.8287    9.4801     6.8933     7.1229     8.769      28.8082    0.814      140.575   
2704.6     15.7545    8.0491     13.4738    9.862      7.8406     9.9366     8.2998     39.8207    0.79       141.6058  
2704.8     16.3321    8.6804     15.2748    11.645     9.9522     13.6924    8.9194     51.2637    0.8        142.865   
2705       17.5756    8.626      16.1424    13.7127    14.3795    27.2109    10.268     62.4219    0.777      143.58    
