~Version
 VERS              .         2.0                           : CWLS LOG ASCII STANDARD - VERSION 2.0
 WRAP              .         NO                            : ONE LINE PER DEPTH STEP
 DLM               .         SPACE                         : DELIMITING CHARACTER(SPACE TAB OR COMMA)
~Well Information
#_______________________________________________________________________________
#
#PARAMETER_NAME    .UNIT     VALUE                         : DESCRIPTION
#_______________________________________________________________________________
STRT               .m        2531                          : First reference value
STOP               .m        2738                          : Last reference value
STEP               .m        0.2                           : Step increment
NULL               .         -9999                         : Missing value
COMP               .                                       : Company
WELL               .         502                           : Well name
FLD                .                                       : Field
LOC                .                                       : Location
CNTY               .                                       : County
STAT               .                                       : State
CTRY               .                                       : Country
SRVC               .                                       : Service Company
DATE               .                                       : Date
API                .                                       : API number
EREF               .m        139.4                         : 
X                  .m        230550                        : 
Y                  .m        242075                        : 
group              .         Pad5                          : 
Интер-р            .         Пузин                         : 
Куст               .         5                             : 
Статус             .         Не проверено                  : 
Тип                .         Эксплуатация                  : 
~Parameter Information Block
#_______________________________________________________________________________
#
#PARAMETER_NAME    .UNIT     VALUE                         : DESCRIPTION
#_______________________________________________________________________________
SET                .         LAS3                          : 
REAL_CREATION_DATE .         Ср апр 11 2012-13_17_18       : 
TLFamily_DEPTH     .         Measured Depth                : 
TLFamily_GR        .         Gamma Ray                     : 
TLFamily_TNPH      .         Neutron Porosity              : 
group              .         INI                           : 
~Curve Information
#_______________________________________________________________________________
#
#LOGNAME           .UNIT     LOG_ID                        : DESCRIPTION
#_______________________________________________________________________________
DEPTH              .m                                      : Measured Depth 
GR                 .gAPI                                   :  
TNPH               .v/v                                    : Neutron Porosity 
~Ascii
# ...
2579.6     95.98      0.218     
2579.8     95.48      0.193     
2580       99.52      0.218     
2580.2     103.22     0.213     
2580.4     107.03     0.219     
2580.6     109.89     0.224     
2580.8     102.62     0.218     
2581       104.14     0.226     
2581.2     108.46     0.261     
2581.4     111.72     0.242     
2581.6     111.83     0.259     
2581.8     104.76     0.252     
2582       102.6      0.227     
2582.2     98.77      0.208     
2582.4     100.11     0.212     
2582.6     96.49001   0.219     
2582.8     100.62     0.247     
2583       103.82     0.258     
2583.2     102.91     0.246     
2583.4     107.96     0.216     
2583.6     108.45     0.226     
2583.8     109.42     0.229     
2584       108.72     0.233     
2584.2     106.9      0.243     
2584.4     107.54     0.217     
2584.6     99.74      0.215     
2584.8     102.2      0.226     
2585       105.45     0.222     
2585.2     102.11     0.207     
2585.4     103.31     0.213     
2585.6     103.2      0.242     
2585.8     106.03     0.248     
2586       107.84     0.242     
2586.2     109        0.226     
2586.4     109.19     0.223     
2586.6     100.63     0.235     
2586.8     95.21      0.237     
2587       89.62      0.251     
2587.2     89.64      0.232     
2587.4     92.83      0.225     
2587.6     97.08      0.238     
2587.8     95.71999   0.249     
2588       95.82      0.268     
2588.2     97.43      0.237     
2588.4     99.73      0.227     
2588.6     98.76      0.243     
2588.8     99.52      0.266     
2589       98.17001   0.234     
2589.2     91.00999   0.235     
2589.4     86.24      0.247     
2589.6     87.44      0.23      
2589.8     78.14999   0.19      
2590       85.96      0.206     
2590.2     82.93999   0.229     
2590.4     77.08      0.225     
2590.6     73.67      0.247     
2590.8     90.83      0.295     
2591       96.25      0.3       
2591.2     96.21001   0.294     
2591.4     99.32999   0.278     
2591.6     101.23     0.251     
2591.8     99.36      0.262     
2592       90.75      0.233     
2592.2     94.68001   0.211     
2592.4     96.53      0.218     
2592.6     98.56      0.267     
2592.8     99.25      0.287     
2593       99.37      0.261     
2593.2     97.32001   0.248     
2593.4     101.44     0.239     
2593.6     99.87      0.244     
2593.8     91.72      0.224     
2594       87.85      0.227     
2594.2     82.66      0.226     
2594.4     85.11      0.238     
2594.6     88.8       0.238     
2594.8     90.57999   0.267     
2595       94.05      0.284     
2595.2     100.05     0.268     
2595.4     103.5      0.233     
2595.6     97.98      0.248     
2595.8     99.54001   0.23      
2596       102.97     0.219     
2596.2     106.87     0.196     
2596.4     112.92     0.239     
2596.6     105.62     0.265     
2596.8     101.75     0.228     
2597       103.47     0.263     
2597.2     98.07999   0.272     
2597.4     96.96999   0.263     
2597.6     95.82      0.264     
2597.8     97         0.29      
2598       95.43999   0.249     
2598.2     94.16      0.235     
2598.4     101.36     0.237     
2598.6     101.4      0.224     
2598.8     94.51      0.184     
2599       77.03      0.174     
2599.2     68.83      0.154     
2599.4     58.04      0.155     
2599.6     59.97      0.161     
2599.8     68.21999   0.191     
2600       73.42      0.168     
2600.2     66.09      0.172     
2600.4     78.23      0.173     
2600.6     87.31      0.207     
2600.8     90.5       0.194     
2601       93.00999   0.188     
2601.2     98.47      0.216     
2601.4     102.75     0.186     
2601.6     106.84     0.215     
2601.8     108.82     0.212     
2602       115.71     0.223     
2602.2     127.72     0.228     
2602.4     137.48     0.284     
2602.6     136.95     0.371     
2602.8     135.14     0.294     
2603       134.59     0.286     
2603.2     141.66     0.335     
2603.4     137.58     0.334     
2603.6     135.99     0.309     
2603.8     127.51     0.255     
2604       119.2      0.257     
2604.2     123.6      0.272     
2604.4     125.91     0.241     
2604.6     130.16     0.283     
2604.8     131.72     0.298     
2605       128.09     0.296     
2605.2     132.31     0.278     
2605.4     138        0.312     
2605.6     129.34     0.322     
2605.8     128.38     0.303     
2606       116.31     0.294     
2606.2     108.88     0.274     
2606.4     107.85     0.267     
2606.6     106.82     0.255     
2606.8     105.15     0.259     
2607       103.79     0.239     
2607.2     112.38     0.218     
2607.4     116.63     0.228     
2607.6     127.83     0.22      
2607.8     134.19     0.215     
2608       139.12     0.224     
2608.2     150.83     0.248     
2608.4     162.06     0.255     
2608.6     185.22     0.274     
2608.8     201.1      0.287     
2609       189.69     0.311     
2609.2     186.53     0.259     
2609.4     186.21     0.26      
2609.6     184.94     0.262     
2609.8     190.64     0.286     
2610       199.49     0.264     
2610.2     223.45     0.278     
2610.4     220.14     0.251     
2610.6     208.68     0.275     
2610.8     197.66     0.262     
2611       187.45     0.257     
2611.2     172.78     0.26      
2611.4     182.94     0.275     
2611.6     201.96     0.243     
2611.8     198.84     0.258     
2612       196.39     0.286     
2612.2     208.06     0.305     
2612.4     220.94     0.3       
2612.6     238.4      0.301     
2612.8     242.16     0.354     
2613       243.64     0.406     
2613.2     235.45     0.327     
2613.4     231.79     0.281     
2613.6     213.12     0.255     
2613.8     206.79     0.266     
2614       200.73     0.251     
2614.2     179.07     0.24      
2614.4     170.45     0.235     
2614.6     171.34     0.227     
2614.8     160.64     0.299     
2615       152.78     0.255     
2615.2     166.85     0.252     
2615.4     188.3      0.261     
2615.6     211        0.271     
2615.8     233.38     0.267     
2616       253.64     0.267     
2616.2     263.03     0.279     
2616.4     266.9      0.27      
2616.6     291.53     0.266     
2616.8     320.42     0.256     
2617       361        0.274     
2617.2     366.33     0.349     
2617.4     339.65     0.317     
2617.6     315.62     0.266     
2617.8     291.05     0.255     
2618       263.67     0.219     
2618.2     282.34     0.254     
2618.4     339.74     0.337     
2618.6     357.57     0.332     
2618.8     353.61     0.313     
2619       340.23     0.318     
2619.2     341.56     0.35      
2619.4     341.48     0.396     
2619.6     343.41     0.352     
2619.8     352.34     0.299     
2620       344.9      0.354     
2620.2     349.8      0.369     
2620.4     344.75     0.431     
2620.6     333.04     0.469     
2620.8     315.05     0.384     
2621       301.43     0.361     
2621.2     278.92     0.317     
2621.4     266.21     0.274     
2621.6     280.63     0.28      
2621.8     282.08     0.322     
2622       288.54     0.311     
2622.2     303.75     0.337     
2622.4     326.43     0.317     
2622.6     315.96     0.337     
2622.8     312.26     0.334     
2623       328.68     0.373     
2623.2     331.99     0.386     
2623.4     316.18     0.373     
2623.6     304.45     0.351     
2623.8     301.24     0.317     
2624       308.08     0.309     
2624.2     292.32     0.288     
2624.4     284.14     0.266     
2624.6     272.9      0.307     
2624.8     273.97     0.291     
2625       265.72     0.35      
2625.2     268.14     0.278     
2625.4     268.7      0.265     
2625.6     254.03     0.313     
2625.8     229.17     0.308     
2626       186.16     0.344     
2626.2     170.88     0.324     
2626.4     174.34     0.295     
2626.6     185.89     0.326     
2626.8     197.19     0.293     
2627       187.93     0.287     
2627.2     186.69     0.345     
2627.4     195.3      0.305     
2627.6     194.55     0.335     
2627.8     184.55     0.316     
2628       177.68     0.275     
