~Version
 VERS              .         2.0                           : CWLS LOG ASCII STANDARD - VERSION 2.0
 WRAP              .         NO                            : ONE LINE PER DEPTH STEP
 DLM               .         SPACE                         : DELIMITING CHARACTER(SPACE TAB OR COMMA)
~Well Information
#_______________________________________________________________________________
#
#PARAMETER_NAME    .UNIT     VALUE                         : DESCRIPTION
#_______________________________________________________________________________
STRT               .m        2531                          : First reference value
STOP               .m        2738                          : Last reference value
STEP               .m        0.2                           : Step increment
NULL               .         -9999                         : Missing value
COMP               .                                       : Company
WELL               .         502                           : Well name
FLD                .                                       : Field
LOC                .                                       : Location
CNTY               .                                       : County
STAT               .                                       : State
CTRY               .                                       : Country
SRVC               .                                       : Service Company
DATE               .                                       : Date
API                .                                       : API number
EREF               .m        139.4                         : 
X                  .m        230550                        : 
Y                  .m        242075                        : 
group              .         Pad5                          : 
Интер-р            .         Пузин                         : 
Куст               .         5                             : 
Статус             .         Не проверено                  : 
Тип                .         Эксплуатация                  : 
~Parameter Information Block
#_______________________________________________________________________________
#
#PARAMETER_NAME    .UNIT     VALUE                         : DESCRIPTION
#_______________________________________________________________________________
SET                .         LAS1                          : 
REAL_CREATION_DATE .         Ср апр 11 2012-13_17_18       : 
TLFamily_DEPTH     .         Measured Depth                : 
TLFamily_KS        .         Potential Resistivity         : 
TLFamily_KS1       .         Extra Shallow Resistivity     : 
TLFamily_KS2       .         Shallow Resistivity           : 
TLFamily_KS3       .         Medium Resistivity            : 
TLFamily_KS4       .         Deep Resistivity              : 
TLFamily_KS5       .         Extra Deep Resistivity        : 
TLFamily_LLD       .         Lateral Log Resistivity       : 
TLFamily_OKS3      .         Medium Resistivity Inverted   : 
TLFamily_RM        .         Mud Resistivity               : 
TLFamily_SP        .         Spontaneous Potential         : 
group              .         INI                           : 
~Curve Information
#_______________________________________________________________________________
#
#LOGNAME           .UNIT     LOG_ID                        : DESCRIPTION
#_______________________________________________________________________________
DEPTH              .m                                      : Measured Depth 
KS                 .ohm.m                                  : Potential Resistivity 
KS1                .ohm.m                                  : Extra Shallow Resistivity 
KS2                .ohm.m                                  : Shallow Resistivity 
KS3                .ohm.m                                  : Medium Resistivity 
KS4                .ohm.m                                  : Deep Resistivity 
KS5                .ohm.m                                  : Extra Deep Resistivity 
LLD                .ohm.m                                  : Lateral Log Resistivity 
OKS3               .ohm.m                                  : Medium Resistivity Inverted 
RM                 .ohm.m                                  : Mud Resistivity 
SP                 .mV                                     : Spontaneous Potential 
~Ascii
# ...
2624.8     14.2154    9.9497     18.7978    14.1787    9.4917     6.6649     8.9052     16.1821    0.8        150.0633  
2625       14.2256    10.0515    19.1758    14.3923    9.6496     6.9135     9.1955     16.545     0.8        149.49    
2625.2     14.3003    10.1533    19.4157    14.5476    9.7351     7.437      8.9614     16.9565    0.797      149.2375  
2625.4     14.229     10.2823    19.6129    14.6382    9.6693     7.6333     9.114      17.2448    0.797      149.5367  
2625.6     14.1168    10.4248    19.764     14.6058    9.347      7.509      8.7802     17.1152    0.8        149.605   
2625.8     14.1848    10.2416    19.3302    13.8745    8.8668     7.2276     8.6648     15.4466    0.804      149.6783  
2626       14.4124    9.7902     18.3246    13.0073    8.0478     6.9397     9.0849     14.1539    0.8        149.7817  
2626.2     14.3615    9.9701     18.4002    12.8164    7.7879     6.4555     9.3902     13.3245    0.821      149.7842  
2626.4     14.1134    10.0515    18.8175    13.0332    8.0511     6.3901     9.176      12.9551    0.834      149.895   
2626.6     13.7023    10.2585    19.3138    13.2403    8.3076     6.377      8.8142     13.0588    0.831      150.5283  
2626.8     13.4713    10.0108    19.2382    13.3147    8.2747     6.4686     8.38       13.412     0.839      151.2942  
2627       13.5698    9.6171     18.3377    13.0914    8.1136     6.6911     8.1211     14.0761    0.838      151.3     
2627.2     13.9605    8.9044     16.872     12.9232    8.1695     7.0313     7.755      15.5147    0.827      150.86    
2627.4     14.11      8.6804     16.6485    13.6189    8.7944     7.738      7.835      17.7049    0.826      150.4825  
2627.6     14.3139    9.2845     17.8973    14.8906    10.3272    8.5625     10.3581    20.2191    0.821      150.1092  
2627.8     14.7012    9.9158     18.9819    16.3888    11.8205    9.6225     10.4125    21.9298    0.821      149.8925  
2628       14.5517    10.5267    20.0532    18.2819    13.3072    10.0805    9.4718     24.4861    0.824      149.7542  
2628.2     14.2188    11.1851    21.7096    18.819     13.8269    10.0282    9.8325     25.4159    0.827      149.4775  
2628.4     14.1848    10.9611    21.0392    17.9777    12.8204    9.4458     9.8718     23.2063    0.831      149.7458  
2628.6     14.3207    10.3977    19.7969    15.2207    11.0969    8.2876     9.0459     19.2179    0.834      150.2925  
2628.8     14.2833    9.9768     18.6466    13.3503    9.0378     7.1098     8.3497     15.6313    0.827      150.4492  
2629       14.1916    9.3456     17.4011    11.8941    7.8537     6.1153     8.3079     14.4066    0.824      150.2742  
2629.2     14.144     8.9451     16.918     10.8716    7.3274     5.5525     8.3822     14.1831    0.811      149.89    
2629.4     14.161     8.8093     17.2729    10.5739    7.1268     5.4217     8.5665     14.5751    0.817      149.62    
2629.6     14.3751    8.8025     17.079     10.713     7.2288     5.6049     8.5766     15.236     0.814      149.855   
2629.8     14.8099    8.4563     16.2804    11.357     7.584      6.1022     8.883      16.4283    0.804      150.075   
2630       15.3841    8.565      16.3198    12.1918    8.5576     6.7042     10.3375    18.5861    0.8        149.89    
2630.2     15.9244    9.1012     17.3288    13.8486    9.7022     8.4316     10.9145    20.5755    0.797      149.6092  
2630.4     16.3117    9.4134     18.1274    17.1493    11.6198    10.3422    12.0868    24.0519    0.8        149.5367  
2630.6     16.3728    10.1465    20.0598    21.1424    15.6162    12.0042    12.1671    28.3449    0.8        149.6967  
2630.8     15.9923    11.5958    24.697     25.7116    18.2278    13.3652    12.6138    31.021     0.821      150.0708  
2631       16.101     11.8571    25.1801    26.184     18.491     13.5354    10.9267    30.1268    0.831      150.4367  
2631.2     16.6514    11.3141    23.4448    23.2458    15.5438    13.0381    10.0673    26.6342    0.834      150.42    
2631.4     16.7126    10.8627    21.6833    19.3853    13.4322    10.9573    10.3896    23.0605    0.841      150.1983  
2631.6     16.5291    11.0086    21.703     17.3887    12.0639    9.4785     10.2842    21.8585    0.827      149.7633  
2631.8     16.5427    10.4588    21.3448    15.4245    10.5048    7.437      10.0787    21.2494    0.817      149.1325  
2632       16.699     10.1737    21.0523    14.2111    9.8733     6.7173     9.5787     21.2753    0.816      148.92    
2632.2     16.964     9.6374     20.0006    13.8098    9.4523     6.2723     9.6919     21.4308    0.827      149.1667  
2632.4     17.4329    9.6612     20.0204    13.8875    9.5444     5.9321     11.5321    21.3855    0.831      149.5925  
2632.6     17.8338    10.228     20.8157    14.7029    9.6397     5.8535     12.0462    21.2461    0.827      149.465   
2632.8     18.2075    10.4113    20.888     15.6802    9.5707     5.8012     11.8329    21.0096    0.824      149.05    
2633       18.3842    10.6217    21.2298    17.1881    9.4588     5.8404     12.6534    20.7245    0.821      149.1908  
2633.2     18.425     10.9271    22.3274    18.8967    9.3963     5.8928     12.8656    20.3843    0.814      149.3933  
2633.4     18.1124    11.1783    23.2739    19.7833    9.4983     5.9713     12.7085    20.2385    0.814      149.7367  
2633.6     17.7251    11.5143    24.3519    20.5244    9.6299     6.076      11.6762    20.4135    0.811      150.0492  
2633.8     17.596     11.1579    23.9181    20.5535    9.6628     6.1938     10.3398    20.8541    0.807      149.7433  
2634       17.63      10.3739    22.6955    20.1134    9.7614     6.3574     10.5665    21.3531    0.8        149.4583  
2634.2     17.7047    10.2823    22.4688    20.0228    10.2351    6.5079     11.173     21.6447    0.797      149.6675  
2634.4     17.7998    10.5131    22.7613    20.6247    11.1626    6.6518     11.9408    21.622     0.794      149.9858  
2634.6     18.0682    10.5945    22.6298    21.0195    12.406     6.8874     11.7693    21.1975    0.797      149.9892  
2634.8     18.1328    10.7099    22.6166    21.3431    13.5638    7.0706     12.2876    20.5949    0.804      149.8517  
2635       18.16      11.1987    23.3922    21.4919    15.136     7.2407     12.7947    20.0117    0.827      149.735   
2635.2     18.143     11.0765    22.9979    21.5372    16.7016    7.4894     11.6777    19.8238    0.831      149.6933  
2635.4     17.9697    11.2122    23.5007    21.2686    17.3397    7.8165     11.6396    19.6424    0.838      149.6733  
2635.6     17.9935    11.1036    23.4514    21.0777    17.9548    8.2091     10.7875    19.3573    0.834      149.6883  
2635.8     18.3774    10.5165    22.7152    20.8156    18.6817    8.9616     10.3662    19.2341    0.831      149.9017  
2636       18.7104    10.2348    22.5706    21.3689    19.6817    9.9235     11.8619    18.8       0.821      149.8142  
2636.2     19.1011    10.7371    23.6683    22.4756    21.0171    10.7741    15.3915    18.0548    0.817      149.1725  
2636.4     19.4171    11.7044    25.2787    23.6406    22.3196    11.8341    14.0723    17.4198    0.824      148.8242  
2636.6     19.1793    12.7667    26.7773    24.7634    22.5893    12.6586    13.6117    16.7653    0.829      148.8883  
2636.8     18.5609    12.9635    27.0928    24.8249    21.6716    13.0381    12.4895    15.9229    0.834      148.7033  
2637       18.0513    12.6683    27.0303    23.9901    20.3724    13.2082    11.0702    15.5989    0.827      148.6467  
2637.2     17.7387    11.3005    25.3772    22.686     19.5632    13.2082    9.4532     16.1886    0.821      148.7017  
2637.4     17.0456    10.9747    25.8176    22.7733    20.1816    13.2213    10.185     16.2534    0.817      148.61    
2637.6     16.6311    11.8775    27.5693    23.9027    20.4711    13.0904    12.69      15.4045    0.817      148.665   
2637.8     15.6763    12.6445    28.059     24.3395    19.3429    12.5146    13.9806    13.2078    0.814      148.945   
2638       14.2052    13.2249    27.5003    23.4335    17.0108    11.3826    12.4626    11.1278    0.811      149.01    
