~Version
 VERS              .         2.0                           : CWLS LOG ASCII STANDARD - VERSION 2.0
 WRAP              .         NO                            : ONE LINE PER DEPTH STEP
 DLM               .         SPACE                         : DELIMITING CHARACTER(SPACE TAB OR COMMA)
~Well Information
#_______________________________________________________________________________
#
#PARAMETER_NAME    .UNIT     VALUE                         : DESCRIPTION
#_______________________________________________________________________________
STRT               .m        2531                          : First reference value
STOP               .m        2738                          : Last reference value
STEP               .m        0.2                           : Step increment
NULL               .         -9999                         : Missing value
COMP               .                                       : Company
WELL               .         502                           : Well name
FLD                .                                       : Field
LOC                .                                       : Location
CNTY               .                                       : County
STAT               .                                       : State
CTRY               .                                       : Country
SRVC               .                                       : Service Company
DATE               .                                       : Date
API                .                                       : API number
EREF               .m        139.4                         : 
X                  .m        230550                        : 
Y                  .m        242075                        : 
group              .         Pad5                          : 
Интер-р            .         Пузин                         : 
Куст               .         5                             : 
Статус             .         Не проверено                  : 
Тип                .         Эксплуатация                  : 
~Parameter Information Block
#_______________________________________________________________________________
#
#PARAMETER_NAME    .UNIT     VALUE                         : DESCRIPTION
#_______________________________________________________________________________
SET                .         LAS3                          : 
REAL_CREATION_DATE .         Ср апр 11 2012-13_17_18       : 
TLFamily_DEPTH     .         Measured Depth                : 
TLFamily_GR        .         Gamma Ray                     : 
TLFamily_TNPH      .         Neutron Porosity              : 
group              .         INI                           : 
~Curve Information
#_______________________________________________________________________________
#
#LOGNAME           .UNIT     LOG_ID                        : DESCRIPTION
#_______________________________________________________________________________
DEPTH              .m                                      : Measured Depth 
GR                 .gAPI                                   :  
TNPH               .v/v                                    : Neutron Porosity 
~Ascii
# ...
2676.8     36.28      0.214     
2677       28.93      0.179     
2677.2     24.19      0.181     
2677.4     23.71      0.188     
2677.6     23.49      0.18      
2677.8     25.14      0.164     
2678       28.71      0.169     
2678.2     28.54      0.18      
2678.4     31.49      0.198     
2678.6     32.29      0.187     
2678.8     31.17      0.198     
2679       32.56      0.226     
2679.2     36.25      0.2       
2679.4     40.37      0.184     
2679.6     42.87      0.181     
2679.8     41.54      0.225     
2680       41.87      0.213     
2680.2     36.42      0.217     
2680.4     30.6       0.196     
2680.6     31.82      0.197     
2680.8     33.07      0.183     
2681       32.73      0.172     
2681.2     34.32      0.2       
2681.4     36.6       0.217     
2681.6     32.41      0.204     
2681.8     34.41      0.222     
2682       33.46      0.228     
2682.2     33.24      0.22      
2682.4     35.64      0.227     
2682.6     39.35      0.228     
2682.8     50.32      0.199     
2683       58.81      0.236     
2683.2     66.64      0.238     
2683.4     73.16      0.227     
2683.6     62.28      0.199     
2683.8     46.54      0.189     
2684       49.07      0.172     
2684.2     51.49      0.166     
2684.4     46.3       0.104     
2684.6     43.02      0.095     
2684.8     45.7       0.085     
2685       41.91      0.098     
2685.2     43.54      0.123     
2685.4     43.91      0.154     
2685.6     42.2       0.137     
2685.8     43.4       0.112     
2686       45.14      0.115     
2686.2     40.64      0.13      
2686.4     35.84      0.129     
2686.6     31.57      0.125     
2686.8     31.55      0.124     
2687       30.93      0.141     
2687.2     35.69      0.136     
2687.4     39.71      0.15      
2687.6     38.33      0.147     
2687.8     40.82      0.122     
2688       43.95      0.117     
2688.2     44.73      0.131     
2688.4     49.1       0.139     
2688.6     55.42      0.126     
2688.8     76.00999   0.155     
2689       107.31     0.199     
2689.2     120.18     0.271     
2689.4     123.43     0.317     
2689.6     127        0.285     
2689.8     112.43     0.295     
2690       108.84     0.229     
2690.2     107.39     0.202     
2690.4     95.81001   0.234     
2690.6     91.3       0.285     
2690.8     82.2       0.304     
2691       88.23      0.3       
2691.2     92.95      0.295     
2691.4     88.92      0.276     
2691.6     88.33      0.226     
2691.8     99.91      0.17      
2692       101.59     0.191     
2692.2     92.77      0.214     
2692.4     94.93      0.215     
2692.6     88.43001   0.208     
2692.8     87.84      0.218     
2693       90.57      0.226     
2693.2     89.82001   0.243     
2693.4     91.75      0.21      
2693.6     100.26     0.215     
2693.8     102.74     0.23      
2694       91.64      0.239     
2694.2     87.92      0.24      
2694.4     91.46      0.223     
2694.6     88.61      0.238     
2694.8     95.11      0.248     
2695       98.04      0.227     
2695.2     103.63     0.248     
2695.4     100.42     0.256     
2695.6     100.42     0.249     
2695.8     98.76      0.219     
2696       97.73      0.216     
2696.2     102.44     0.244     
2696.4     110.1      0.242     
2696.6     99.54001   0.233     
2696.8     93.16      0.267     
2697       93.84      0.273     
2697.2     91.33      0.21      
2697.4     88.9       0.226     
2697.6     86.39      0.225     
2697.8     89.71      0.195     
2698       88.02      0.189     
2698.2     79.97      0.189     
2698.4     72.47      0.189     
2698.6     60.49      0.182     
2698.8     65.94      0.184     
2699       79.44      0.156     
2699.2     91.86      0.182     
2699.4     90.75      0.194     
2699.6     79.28001   0.19      
2699.8     68.86      0.196     
2700       61.59      0.209     
2700.2     57.67      0.224     
2700.4     55.33      0.226     
2700.6     48.26      0.22      
2700.8     49.54      0.216     
2701       48.64      0.205     
2701.2     49.86      0.204     
2701.4     53.58      0.243     
2701.6     55.35      0.274     
2701.8     64.99      0.247     
2702       84.12      0.274     
2702.2     97.46001   0.278     
2702.4     104.23     0.26      
2702.6     114.25     0.273     
2702.8     111.3      0.236     
2703       103.34     0.275     
2703.2     102.32     0.296     
2703.4     100.49     0.27      
2703.6     89.39      0.29      
2703.8     92.28      0.269     
2704       86.65      0.195     
2704.2     77.8       0.157     
2704.4     74.53      0.176     
2704.6     75.99      0.204     
2704.8     84.67      0.22      
2705       89.06999   0.25      
2705.2     79.91      0.287     
2705.4     64.68001   0.329     
2705.6     46.97      0.386     
2705.8     14.74      0.279     
2706       4.77       0.357     
2706.2     4.849999   0.305     
2706.4     12.87      0.371     
2706.6     11.66      0.404     
2706.8     17.29      0.569     
2707       31.76      0.583     
2707.2     48.09      0.404     
2707.4     64.36      0.375     
2707.6     79.42001   0.264     
2707.8     91.28999   0.272     
2708       96.44      0.285     
2708.2     92.57      0.244     
2708.4     93.45      0.262     
2708.6     91.4       0.272     
2708.8     89.45      0.262     
2709       96.86      0.19      
2709.2     97.01      0.142     
2709.4     96.67      0.179     
2709.6     90.31      0.179     
2709.8     86.99001   0.207     
2710       86.88      0.233     
2710.2     86.75999   0.258     
2710.4     82.8       0.237     
2710.6     70.57      0.194     
2710.8     68.44      0.194     
2711       60.78      0.238     
2711.2     66.17      0.24      
2711.4     68.17001   0.24      
2711.6     67.53      0.222     
2711.8     75.50999   0.195     
2712       72.16      0.197     
2712.2     79.77      0.205     
2712.4     84.11      0.194     
2712.6     83.81      0.194     
2712.8     81.54      0.185     
2713       78.44      0.216     
2713.2     69.29      0.197     
2713.4     57.36      0.203     
2713.6     52.34      0.214     
2713.8     56.75      0.238     
2714       61.36      0.26      
2714.2     65.62      0.261     
2714.4     79.92      0.254     
2714.6     103.76     0.239     
2714.8     114.42     0.239     
2715       117.02     0.299     
2715.2     109.12     0.242     
2715.4     92.91      0.216     
2715.6     90.94      0.195     
2715.8     88.75      0.213     
2716       84.44      0.219     
2716.2     78.58      0.213     
2716.4     83.7       0.218     
2716.6     87.59      0.193     
2716.8     75.87      0.178     
2717       71.22      0.155     
2717.2     70.28      0.151     
2717.4     70.37      0.15      
2717.6     76.17      0.182     
2717.8     76.2       0.201     
2718       63.75      0.207     
2718.2     54.15      0.185     
2718.4     50.08      0.171     
2718.6     46.13      0.161     
2718.8     44.57      0.117     
2719       46.79      0.117     
2719.2     57.18      0.178     
2719.4     65.43      0.234     
2719.6     69.95      0.232     
2719.8     74.06999   0.24      
2720       79.34      0.244     
2720.2     90.86      0.243     
2720.4     91.74      0.252     
2720.6     73.36      0.254     
2720.8     63.68      0.28      
2721       67.98      0.231     
2721.2     52.45      0.193     
2721.4     43.83      0.199     
2721.6     42.54      0.199     
2721.8     51.06      0.186     
2722       53.27      0.195     
2722.2     47.97      0.178     
2722.4     52.7       0.16      
2722.6     54.1       0.177     
2722.8     53.27      0.203     
2723       57.42      0.22      
2723.2     62.11      0.206     
2723.4     68.34      0.233     
2723.6     71.22      0.244     
2723.8     83.86      0.248     
2724       91.33      0.216     
2724.2     93.99001   0.173     
2724.4     97.37      0.179     
2724.6     98.94      0.175     
2724.8     98.58      0.189     
2725       103.5      0.196     
2725.2     121.82     0.23      
