~Version
 VERS              .         2.0                           : CWLS LOG ASCII STANDARD - VERSION 2.0
 WRAP              .         NO                            : ONE LINE PER DEPTH STEP
 DLM               .         SPACE                         : DELIMITING CHARACTER(SPACE TAB OR COMMA)
~Well Information
#_______________________________________________________________________________
#
#PARAMETER_NAME    .UNIT     VALUE                         : DESCRIPTION
#_______________________________________________________________________________
STRT               .m        2531                          : First reference value
STOP               .m        2738                          : Last reference value
STEP               .m        0.2                           : Step increment
NULL               .         -9999                         : Missing value
COMP               .                                       : Company
WELL               .         502                           : Well name
FLD                .                                       : Field
LOC                .                                       : Location
CNTY               .                                       : County
STAT               .                                       : State
CTRY               .                                       : Country
SRVC               .                                       : Service Company
DATE               .                                       : Date
API                .                                       : API number
EREF               .m        139.4                         : 
X                  .m        230550                        : 
Y                  .m        242075                        : 
group              .         Pad5                          : 
Интер-р            .         Пузин                         : 
Куст               .         5                             : 
Статус             .         Не проверено                  : 
Тип                .         Эксплуатация                  : 
~Parameter Information Block
#_______________________________________________________________________________
#
#PARAMETER_NAME    .UNIT     VALUE                         : DESCRIPTION
#_______________________________________________________________________________
SET                .         LAS1                          : 
REAL_CREATION_DATE .         Ср апр 11 2012-13_17_18       : 
TLFamily_DEPTH     .         Measured Depth                : 
TLFamily_KS        .         Potential Resistivity         : 
TLFamily_KS1       .         Extra Shallow Resistivity     : 
TLFamily_KS2       .         Shallow Resistivity           : 
TLFamily_KS3       .         Medium Resistivity            : 
TLFamily_KS4       .         Deep Resistivity              : 
TLFamily_KS5       .         Extra Deep Resistivity        : 
TLFamily_LLD       .         Lateral Log Resistivity       : 
TLFamily_OKS3      .         Medium Resistivity Inverted   : 
TLFamily_RM        .         Mud Resistivity               : 
TLFamily_SP        .         Spontaneous Potential         : 
group              .         INI                           : 
~Curve Information
#_______________________________________________________________________________
#
#LOGNAME           .UNIT     LOG_ID                        : DESCRIPTION
#_______________________________________________________________________________
DEPTH              .m                                      : Measured Depth 
KS                 .ohm.m                                  : Potential Resistivity 
KS1                .ohm.m                                  : Extra Shallow Resistivity 
KS2                .ohm.m                                  : Shallow Resistivity 
KS3                .ohm.m                                  : Medium Resistivity 
KS4                .ohm.m                                  : Deep Resistivity 
KS5                .ohm.m                                  : Extra Deep Resistivity 
LLD                .ohm.m                                  : Lateral Log Resistivity 
OKS3               .ohm.m                                  : Medium Resistivity Inverted 
RM                 .ohm.m                                  : Mud Resistivity 
SP                 .mV                                     : Spontaneous Potential 
~Ascii
# ...
2611.4     7.2945     6.2774     9.9113     5.9918     4.1501     5.4806     4.7456     6.1059     0.821      148.5483  
2611.6     7.3012     6.3521     9.9935     6.4545     4.183      5.5395     5.3791     6.323      0.824      148.595   
2611.8     7.5731     6.3657     9.6287     6.7037     4.1402     5.7619     4.8317     6.4299     0.821      147.9558  
2612       7.5459     6.3419     9.3033     7.1179     4.3145     5.8928     5.2942     6.728      0.817      147.6758  
2612.2     7.4304     7.1938     10.3846    7.6874     4.479      5.9844     5.2131     7.0131     0.822      147.5367  
2612.4     7.4779     6.6915     9.6353     7.8751     4.581      6.0106     4.9851     7.3435     0.814      147.4433  
2612.6     7.4372     6.8849     10.0296    7.558      4.5382     5.9386     5.0548     7.363      0.814      147.43    
2612.8     7.4847     6.6779     9.6615     7.2053     4.5974     5.6703     5.0267     7.5217     0.806      147.0683  
2613       7.5493     6.7458     9.5498     6.7684     4.6237     5.4609     5.0876     7.6481     0.8        146.7933  
2613.2     7.5731     6.7424     9.5334     6.4222     4.6106     5.1796     5.0265     7.7583     0.797      146.955   
2613.4     7.6206     6.6643     9.3789     6.0112     4.5711     4.9767     5.0439     7.9786     0.799      147.3933  
2613.6     7.641      6.61       9.4052     5.8688     4.6402     4.859      5.22       8.1147     0.807      147.4517  
2613.8     7.6002     6.7831     9.7799     5.9109     4.7487     4.6561     5.4548     8.1276     0.821      147.44    
2614       7.4779     6.8748     9.9639     5.9465     4.7652     4.4009     5.496      7.8781     0.834      147.195   
2614.2     7.3318     7.2074     10.1611    5.7264     4.4856     4.1915     4.9905     7.4602     0.834      147.1883  
2614.4     7.2809     6.5795     9.3165     5.4384     4.1435     3.8382     4.5514     7.1751     0.834      147.6533  
2614.6     7.111      6.3182     8.8597     5.1504     3.8869     3.5896     4.7532     6.6761     0.834      147.7267  
2614.8     7.1755     6.0025     8.6132     5.0598     3.6271     3.3998     4.5477     6.4299     0.824      147.6167  
2615       7.4372     5.6326     8.1038     5.0081     3.5317     3.4587     4.6085     6.7053     0.819      147.5283  
2615.2     7.6886     5.7344     8.2484     5.2022     3.7422     3.5896     5.209      7.201      0.821      147.695   
2615.4     8.171      5.8702     8.2812     5.5776     4.0843     3.9429     5.3767     7.9267     0.814      147.8658  
2615.6     8.4157     6.4811     9.1226     6.2507     4.4987     4.1915     6.1085     9.0704     0.827      147.9817  
2615.8     8.735      6.9562     9.7207     6.872      5.1368     4.4664     6.1438     9.9809     0.827      148.7883  
2616       9.0748     7.2651     10.0033    7.257      5.4789     5.0029     6.2396     10.7131    0.827      149.0108  
2616.2     9.4757     7.1666     10.0625    7.5127     5.8341     5.5133     5.9852     11.9572    0.827      148.4783  
2616.4     9.8664     7.1395     10.4371    7.8751     6.9097     6.2723     6.2045     13.331     0.824      148.1783  
2616.6     9.8155     7.7945     12.0442    8.9171     8.5905     6.9135     6.9806     15.262     0.827      148.06    
2616.8     9.6456     9.0401     14.8607    10.1014    9.7614     7.1491     7.3651     16.6551    0.827      148.05    
2617       9.9752     8.8568     14.4203    9.9008     9.2977     7.2538     6.3882     15.9553    0.821      148.0567  
2617.2     10.4678    7.954      12.4451    8.3184     7.6629     6.9005     5.9302     14.3839    0.819      148.0017  
2617.4     10.8959    7.8183     12.0015    6.9949     6.6433     6.1153     6.5159     13.7133    0.817      147.785   
2617.6     11.6434    7.5943     11.6597    6.6454     5.9394     5.6965     7.1504     13.7198    0.817      147.7267  
2617.8     12.0647    7.6214     12.1066    6.5289     5.5907     5.5264     8.7746     13.5999    0.816      147.8675  
2618       12.4792    8.6871     13.9076    6.7684     5.5052     5.6311     8.1702     13.5189    0.821      148.3267  
2618.2     12.7918    9.0164     14.417     7.3703     5.7684     5.8274     7.9093     14.1085    0.807      148.6333  
2618.4     12.6355    9.3456     15.8137    8.2278     5.9526     6.0367     8.8864     14.695     0.804      148.38    
2618.6     12.768     9.5085     16.7142    8.93       5.923      6.1545     8.095      14.6917    0.8        148.3633  
2618.8     13.0636    9.461      16.8753    9.4154     5.5973     6.2069     8.1494     14.1604    0.8        148.7667  
2619       13.1179    9.2913     16.5302    10.2438    5.4        6.0629     8.1013     13.8526    0.8        148.8233  
2619.2     13.1383    9.4542     16.7076    11.0657    5.2816     6.0106     8.3659     13.7003    0.804      148.355   
2619.4     13.1859    9.5797     17.1579    11.5511    5.3145     5.919      8.1652     13.642     0.814      147.8283  
2619.6     13.2199    9.5831     17.5753    11.8553    5.3408     5.8404     8.5134     13.4411    0.834      147.9042  
2619.8     13.2708    9.6035     17.4832    12.0236    5.4164     5.8012     8.3507     13.2208    0.834      147.9217  
2620       13.3286    9.5967     17.4044    12.153     5.5118     5.7423     8.4048     12.981     0.841      147.9017  
2620.2     13.3218    9.6578     17.5095    12.276     5.6828     5.6703     8.3695     12.2618    0.841      148.5383  
2620.4     13.3864    9.6103     17.4734    12.2889    6.0315     5.7227     8.3504     12.1322    0.834      149.0017  
2620.6     13.3082    9.5628     17.6278    12.8487    6.5446     5.8012     8.6268     12.2099    0.831      149.0267  
2620.8     13.1485    10.0379    18.6269    13.3309    7.1893     5.8012     8.6298     12.3849    0.821      149.055   
2621       12.9481    9.9429     18.4264    13.525     7.9721     5.8404     8.5226     12.2812    0.821      148.9383  
2621.2     12.7782    9.8071     17.9959    13.2209    8.1695     5.8535     8.4357     12.0188    0.821      148.8242  
2621.4     12.3875    9.7868     17.9171    13.0979    8.3241     5.8274     7.7324     12.3525    0.821      148.5375  
2621.6     11.9016    9.7291     17.9335    13.1011    8.5181     5.8797     7.3996     13.143     0.824      148.1992  
2621.8     11.8336    9.0469     17.0166    12.9749    8.676      6.3247     6.9002     14.4455    0.824      148.2333  
2622       11.7861    8.5174     16.2213    13.2985    9.5838     6.4948     6.7405     15.8257    0.827      148.2133  
2622.2     11.7997    9.0605     17.3189    13.8033    10.2154    6.5864     7.583      16.4867    0.834      148.0717  
2622.4     12.2142    8.9111     16.2147    13.7192    10.189     6.5471     7.8285     16.1335    0.827      148.645   
2622.6     12.9311    8.7754     15.3668    12.6125    9.2056     6.4163     7.7598     15.0611    0.831      149.2567  
2622.8     13.2538    8.9553     14.9593    11.9394    8.8273     5.9386     8.1747     14.6334    0.824      149.0267  
2623       13.4781    9.1962     15.3011    11.5446    8.63       5.6834     8.4353     14.4552    0.824      148.7417  
2623.2     13.5732    9.3931     16.0504    11.59      8.6727     5.5656     8.6787     14.4714    0.821      148.6683  
2623.4     13.6819    9.6442     17.2893    11.5802    8.7221     5.5264     8.875      14.3321    0.822      148.81    
2623.6     13.8043    9.685      17.5555    11.4735    8.7352     5.5787     8.6415     14.2252    0.817      148.94    
2623.8     13.9673    9.7087     17.7856    11.4864    8.8142     5.6572     8.6165     14.4585    0.821      149.145   
2624       13.9945    9.6646     17.8283    11.865     9.0312     5.8274     8.9245     14.9542    0.812      148.9442  
2624.2     14.0115    9.9768     18.4955    12.4895    9.2878     5.9713     9.2211     15.4952    0.811      148.6217  
2624.4     14.0829    10.1092    19.0312    13.195     9.4325     6.1807     8.9019     15.6313    0.807      148.7917  
2624.6     14.1576    10.004     18.7584    13.9554    9.4457     6.4817     8.5802     15.8063    0.802      149.5833  
