~Version
 VERS              .         2.0                           : CWLS LOG ASCII STANDARD - VERSION 2.0
 WRAP              .         NO                            : ONE LINE PER DEPTH STEP
 DLM               .         SPACE                         : DELIMITING CHARACTER(SPACE TAB OR COMMA)
~Well Information
#_______________________________________________________________________________
#
#PARAMETER_NAME    .UNIT     VALUE                         : DESCRIPTION
#_______________________________________________________________________________
STRT               .m        2531                          : First reference value
STOP               .m        2738                          : Last reference value
STEP               .m        0.2                           : Step increment
NULL               .         -9999                         : Missing value
COMP               .                                       : Company
WELL               .         502                           : Well name
FLD                .                                       : Field
LOC                .                                       : Location
CNTY               .                                       : County
STAT               .                                       : State
CTRY               .                                       : Country
SRVC               .                                       : Service Company
DATE               .                                       : Date
API                .                                       : API number
EREF               .m        139.4                         : 
X                  .m        230550                        : 
Y                  .m        242075                        : 
group              .         Pad5                          : 
Интер-р            .         Пузин                         : 
Куст               .         5                             : 
Статус             .         Не проверено                  : 
Тип                .         Эксплуатация                  : 
~Parameter Information Block
#_______________________________________________________________________________
#
#PARAMETER_NAME    .UNIT     VALUE                         : DESCRIPTION
#_______________________________________________________________________________
SET                .         LAS1                          : 
REAL_CREATION_DATE .         Ср апр 11 2012-13_17_18       : 
TLFamily_DEPTH     .         Measured Depth                : 
TLFamily_KS        .         Potential Resistivity         : 
TLFamily_KS1       .         Extra Shallow Resistivity     : 
TLFamily_KS2       .         Shallow Resistivity           : 
TLFamily_KS3       .         Medium Resistivity            : 
TLFamily_KS4       .         Deep Resistivity              : 
TLFamily_KS5       .         Extra Deep Resistivity        : 
TLFamily_LLD       .         Lateral Log Resistivity       : 
TLFamily_OKS3      .         Medium Resistivity Inverted   : 
TLFamily_RM        .         Mud Resistivity               : 
TLFamily_SP        .         Spontaneous Potential         : 
group              .         INI                           : 
~Curve Information
#_______________________________________________________________________________
#
#LOGNAME           .UNIT     LOG_ID                        : DESCRIPTION
#_______________________________________________________________________________
DEPTH              .m                                      : Measured Depth 
KS                 .ohm.m                                  : Potential Resistivity 
KS1                .ohm.m                                  : Extra Shallow Resistivity 
KS2                .ohm.m                                  : Shallow Resistivity 
KS3                .ohm.m                                  : Medium Resistivity 
KS4                .ohm.m                                  : Deep Resistivity 
KS5                .ohm.m                                  : Extra Deep Resistivity 
LLD                .ohm.m                                  : Lateral Log Resistivity 
OKS3               .ohm.m                                  : Medium Resistivity Inverted 
RM                 .ohm.m                                  : Mud Resistivity 
SP                 .mV                                     : Spontaneous Potential 
~Ascii
# ...
2598       6.8256     5.714      7.5845     4.5033     3.5975     3.9036     4.6891     7.6319     0.804      146.83    
2598.2     6.8969     5.5715     7.5714     4.4385     3.5975     4.0738     4.5627     7.3435     0.804      147.255   
2598.4     7.2333     5.171      7.3085     4.3803     3.7159     4.8197     4.3364     7.6157     0.8        147.0233  
2598.6     7.8924     4.6891     6.6249     4.5097     4.2126     5.7096     4.3476     9.0283     0.8        146.5317  
2598.8     9.3126     4.3972     6.408      5.1246     5.5644     7.0706     6.1918     10.7584    0.8        146.57    
2599       10.8551    5.1778     7.7653     6.5128     7.2419     9.557      9.4189     12.1192    0.804      146.4258  
2599.2     12.469     6.3657     9.7864     8.9883     9.5904     10.8657    16.3626    13.2662    0.807      146.485   
2599.4     13.3082    9.2981     13.1123    10.6645    11.4324    11.8865    16.6038    12.8515    0.814      146.7817  
2599.6     13.8586    12.0132    15.518     11.2081    10.9587    12.9465    6.9786     11.6203    0.814      146.9058  
2599.8     14.2459    10.4995    14.302     10.5545    10.6035    13.5092    6.1019     11.9831    0.817      146.9475  
2600       12.9107    9.0605     15.8795    10.8457    11.8863    12.9596    18.694     12.9098    0.838      146.9808  
2600.2     11.7453    11.908     24.8843    12.3213    12.5902    12.122     10.4214    12.7931    0.849      147.1908  
2600.4     11.5075    12.2372    24.9632    12.0041    10.6495    11.3368    6.727      9.9161     0.838      147.5692  
2600.6     10.3523    11.2699    21.1903    10.0496    7.6564     9.2364     5.8298     7.3565     0.844      147.7192  
2600.8     9.5505     8.8908     16.3264    8.2019     5.8868     6.678      5.194      5.9536     0.839      147.5     
2601       8.6093     8.1034     15.3602    7.6356     4.706      5.3955     6.1438     5.0302     0.848      147.3517  
2601.2     7.8313     7.9065     15.8433    7.8557     3.8343     4.4075     4.7064     4.635      0.838      147.2433  
2601.4     7.4304     6.9834     13.2175    7.9333     3.308      3.8382     4.2705     4.3952     0.824      147.1817  
2601.6     6.9989     6.3792     11.5282    7.8751     2.887      3.511      4.3284     4.3498     0.821      146.9733  
2601.8     6.7033     5.8803     10.3747    7.7586     2.6502     3.3082     4.3129     4.447      0.817      146.7325  
2602       6.547      5.6529     9.5958     7.6227     2.6502     3.2624     4.2224     4.7192     0.824      146.9183  
2602.2     6.3839     5.7208     9.4709     7.9657     2.7686     3.2886     4.3515     5.2181     0.827      147.1133  
2602.4     6.3499     5.5986     8.9188     8.7488     2.8804     3.3671     4.4658     5.5616     0.831      147.1475  
2602.6     6.4654     5.6733     8.5179     8.93       2.9331     3.4325     4.6068     5.7495     0.836      147.14    
2602.8     6.5606     5.6462     8.0972     8.5805     3.1107     3.4849     4.5748     5.9698     0.834      146.9233  
2603       6.6285     5.7955     8.1136     8.1696     3.4199     3.5241     4.6871     6.1707     0.824      146.4733  
2603.2     6.6217     6.0399     8.347      7.8104     3.9133     3.5503     4.7501     6.2906     0.827      146.41    
2603.4     6.6761     5.9516     8.3273     7.5127     4.6632     3.5765     4.8241     6.216      0.814      146.8617  
2603.6     6.7237     6.1824     8.6033     6.7231     5.4658     3.4587     4.815      6.0119     0.817      147.4383  
2603.8     6.7135     6.1688     8.5244     6.2054     5.6598     3.3671     4.9567     5.743      0.821      147.5117  
2604       6.744      6.1519     8.4061     5.72       5.5513     3.2231     4.7632     5.5227     0.821      147.3367  
2604.2     6.7372     5.9584     8.1892     5.2605     5.6302     3.1446     4.6059     5.3413     0.819      147.1683  
2604.4     6.7033     5.8294     8.1235     5.1699     6.0282     3.1053     4.5498     5.4644     0.817      147.085   
2604.6     6.6149     5.8125     8.3568     5.2475     6.2815     3.1446     4.6888     5.7106     0.817      147.2567  
2604.8     6.6761     5.8023     8.4521     5.4643     6.3999     3.21       4.5375     6.1707     0.817      147.3783  
2605       6.7271     5.619      8.4061     5.6682     6.4492     3.2493     5.4582     6.4817     0.821      147.165   
2605.2     6.6149     6.0432     8.8465     5.9271     6.3933     3.282      5.1836     6.5724     0.821      146.7617  
2605.4     6.6353     6.3928     8.9254     6.1212     6.1104     3.2755     4.36       6.5206     0.812      146.7233  
2605.6     6.4213     6.2842     8.5639     6.0694     5.6039     3.1839     4.253      6.553      0.807      146.9317  
2605.8     6.2412     6.0466     8.4784     5.8785     5.1566     3.0857     4.2932     6.5919     0.807      147.1083  
2606       6.3567     5.3407     7.7357     5.5776     4.7487     2.9745     4.2563     6.6632     0.804      147.0067  
2606.2     6.3193     5.4629     8.0906     5.4287     4.4461     2.8567     4.8745     6.6891     0.8        146.925   
2606.4     6.3567     5.6937     8.0676     5.2831     4.2685     2.7127     4.4647     6.5012     0.8        147.0358  
2606.6     6.4654     5.5783     7.4399     4.9175     3.9856     2.6604     4.4322     5.8823     0.797      147.0283  
2606.8     6.4315     5.5715     7.4202     4.7298     3.7652     2.595      4.5089     5.5616     0.797      147.2083  
2607       6.4451     5.4798     7.4498     4.6909     3.7027     2.5819     4.5126     5.4449     0.797      147.3325  
2607.2     6.4994     5.4018     7.4596     4.7298     3.6797     2.6735     4.6586     5.3607     0.8        147.3     
2607.4     6.5334     5.4629     7.5911     4.8592     3.7488     2.8698     4.7473     5.3283     0.8        147.0067  
2607.6     6.5402     5.6258     7.6963     4.9563     3.8146     3.21       4.5462     5.3996     0.8        147.105   
2607.8     6.5912     5.5511     7.5451     4.9886     3.9133     3.6157     4.5117     5.4449     0.804      147.3417  
2608       6.7508     5.3916     7.3972     5.0728     4.1172     4.0999     4.6014     5.5681     0.811      147.3567  
2608.2     6.9003     5.3882     7.5122     5.3543     4.4461     5.1469     4.744      5.8402     0.826      147.33    
2608.4     7.0396     5.4561     7.7225     5.953      5.196      5.9713     4.8468     6.8543     0.831      147.205   
2608.6     6.9819     5.9754     8.7709     6.9302     6.5315     7.2015     5.4425     7.8295     0.834      147.26    
2608.8     7.0566     6.6643     9.793      7.7813     7.2025     8.2876     5.319      8.2151     0.846      147.3817  
2609       7.4711     6.5489     9.2146     7.4933     7.14       8.8765     5.0213     8.1082     0.834      147.745   
2609.2     8.1235     6.4098     8.508      6.7328     6.8998     8.9551     4.9918     8.3155     0.827      148.4017  
2609.4     8.4496     6.61       8.8662     6.6325     7.0906     9.0074     5.6332     8.7108     0.827      148.4533  
2609.6     9.0782     6.6304     9.2146     6.6584     7.4195     9.1121     5.8723     8.9311     0.821      147.9317  
2609.8     9.2379     7.6995     11.0813    6.8364     7.6432     8.9943     8.38       8.8793     0.829      147.58    
2610       9.1563     8.5853     12.2052    6.9885     7.6629     8.6672     6.8493     8.2669     0.824      147.7183  
2610.2     8.769      8.9044     12.6588    6.7296     7.0183     8.1241     6.2947     7.4861     0.831      147.9017  
2610.4     8.47       8.0423     12.1658    6.2571     6.3933     7.4239     5.2657     6.877      0.824      147.935   
2610.6     8.1235     7.764      12.1527    5.9788     5.7223     6.8219     5.3426     6.2938     0.831      147.9083  
2610.8     7.692      7.4857     12.1789    6.0436     5.0513     6.2723     5.2848     5.9439     0.834      147.875   
2611       7.5527     7.0784     11.3968    6.0241     4.5448     5.8274     4.8041     5.6653     0.829      147.9025  
2611.2     7.4677     6.4403     10.1742    5.9076     4.1599     5.6441     4.4087     5.7171     0.821      148.1483  
