~Version
 VERS              .         2.0                           : CWLS LOG ASCII STANDARD - VERSION 2.0
 WRAP              .         NO                            : ONE LINE PER DEPTH STEP
 DLM               .         SPACE                         : DELIMITING CHARACTER(SPACE TAB OR COMMA)
~Well Information
#_______________________________________________________________________________
#
#PARAMETER_NAME    .UNIT     VALUE                         : DESCRIPTION
#_______________________________________________________________________________
STRT               .m        2531                          : First reference value
STOP               .m        2738                          : Last reference value
STEP               .m        0.2                           : Step increment
NULL               .         -9999                         : Missing value
COMP               .                                       : Company
WELL               .         502                           : Well name
FLD                .                                       : Field
LOC                .                                       : Location
CNTY               .                                       : County
STAT               .                                       : State
CTRY               .                                       : Country
SRVC               .                                       : Service Company
DATE               .                                       : Date
API                .                                       : API number
EREF               .m        139.4                         : 
X                  .m        230550                        : 
Y                  .m        242075                        : 
group              .         Pad5                          : 
Интер-р            .         Пузин                         : 
Куст               .         5                             : 
Статус             .         Не проверено                  : 
Тип                .         Эксплуатация                  : 
~Parameter Information Block
#_______________________________________________________________________________
#
#PARAMETER_NAME    .UNIT     VALUE                         : DESCRIPTION
#_______________________________________________________________________________
SET                .         LAS1                          : 
REAL_CREATION_DATE .         Ср апр 11 2012-13_17_18       : 
TLFamily_DEPTH     .         Measured Depth                : 
TLFamily_KS        .         Potential Resistivity         : 
TLFamily_KS1       .         Extra Shallow Resistivity     : 
TLFamily_KS2       .         Shallow Resistivity           : 
TLFamily_KS3       .         Medium Resistivity            : 
TLFamily_KS4       .         Deep Resistivity              : 
TLFamily_KS5       .         Extra Deep Resistivity        : 
TLFamily_LLD       .         Lateral Log Resistivity       : 
TLFamily_OKS3      .         Medium Resistivity Inverted   : 
TLFamily_RM        .         Mud Resistivity               : 
TLFamily_SP        .         Spontaneous Potential         : 
group              .         INI                           : 
~Curve Information
#_______________________________________________________________________________
#
#LOGNAME           .UNIT     LOG_ID                        : DESCRIPTION
#_______________________________________________________________________________
DEPTH              .m                                      : Measured Depth 
KS                 .ohm.m                                  : Potential Resistivity 
KS1                .ohm.m                                  : Extra Shallow Resistivity 
KS2                .ohm.m                                  : Shallow Resistivity 
KS3                .ohm.m                                  : Medium Resistivity 
KS4                .ohm.m                                  : Deep Resistivity 
KS5                .ohm.m                                  : Extra Deep Resistivity 
LLD                .ohm.m                                  : Lateral Log Resistivity 
OKS3               .ohm.m                                  : Medium Resistivity Inverted 
RM                 .ohm.m                                  : Mud Resistivity 
SP                 .mV                                     : Spontaneous Potential 
~Ascii
# ...
2651.6     8.6569     7.506      10.0691    8.0369     9.8206     8.9812     7.5598     10.4766    0.8        148.2958  
2651.8     9.068      7.6079     8.8925     6.6066     7.5643     8.5101     5.9759     7.1751     0.807      147.7483  
2652       9.1088     6.9223     8.2484     5.3414     6.1433     7.5679     6.1472     5.7884     0.797      147.4267  
2652.2     9.1597     6.5625     8.4719     4.7492     5.0382     7.4894     5.5058     5.1177     0.8        147.52    
2652.4     9.3738     6.2605     9.3099     4.5162     5.0184     9.9496     5.5277     5.2117     0.804      147.7325  
2652.6     9.6116     6.0534     9.7207     4.6456     5.7223     14.53      5.547      5.824      0.809      147.4225  
2652.8     10.0941    6.3521     10.1348    5.0987     8.1629     20.6152    6.0027     7.3111     0.804      147.2942  
2653       11.4803    6.1281     10.0756    6.626      12.2547    28.4018    6.0732     9.767      0.794      147.7517  
2653.2     12.7034    5.7005     11.9883    10.3603    17.2213    34.7749    5.5546     13.0718    0.8        148.205   
2653.4     14.3071    7.2617     15.1565    14.1593    22.3591    41.9464    12.0263    14.8213    0.8        148.045   
2653.6     14.5313    12.4341    19.8692    18.9129    22.7472    42.038     59.9241    13.5254    0.8        147.5708  
2653.8     13.2674    16.9955    25.0486    20.9677    20.1224    36.2668    29.1371    8.7788     0.79       147.0883  
2654       10.8212    14.4772    21.3547    18.0165    13.8335    31.2416    6.2751     6.2484     0.78       146.6367  
2654.2     8.1914     11.1376    20.4772    12.276     8.6168     23.5205    5.9092     4.9525     0.777      146.5192  
2654.4     6.9683     7.9337     18.318     8.0498     4.706      16.8855    4.0769     3.9578     0.78       146.6242  
2654.6     6.1189     7.0716     15.6823    6.4966     3.2423     7.2669     4.0764     3.5658     0.784      146.8875  
2654.8     5.7044     5.619      11.2029    5.1893     2.3673     3.956      3.8325     3.4945     0.795      147.55    
2655       5.368      5.2185     9.4644     4.678      1.7062     2.9221     3.3184     3.6241     0.794      148.1083  
2655.2     5.2083     4.8588     8.3667     4.6715     1.4661     2.523      3.3532     3.7861     0.807      148.0017  
2655.4     5.2287     4.4922     7.108      5.4676     1.42       2.4641     3.2997     4.0323     0.789      147.8475  
2655.6     5.1608     4.4718     6.8023     6.3024     1.5812     2.451      3.3254     4.3596     0.797      147.6575  
2655.8     5.1744     5.0013     7.0324     6.8137     1.624      2.3332     4.2533     4.298      0.804      147.4692  
2656       5.2219     4.9877     6.2831     6.6098     1.5319     2.2155     3.985      4.1295     0.795      147.595   
2656.2     5.0317     5.0963     6.2502     6.0177     1.4036     2.0584     3.5287     3.9513     0.797      147.2017  
2656.4     4.8957     4.8452     6.1286     5.6164     1.3608     1.849      3.687      3.9157     0.787      146.4442  
2656.6     4.8142     4.5669     6.0202     5.0404     1.3674     1.7705     3.3425     3.9157     0.787      146.385   
2656.8     4.7836     4.5058     6.1385     4.6715     1.4891     1.7443     3.4859     3.9805     0.78       146.8917  
2657       4.9025     4.1868     5.6751     4.4062     1.6898     1.7313     3.368      4.1295     0.773      147.2442  
2657.2     4.9569     4.275      5.7441     4.322      2.1206     1.7313     3.3747     4.3174     0.773      147.21    
2657.4     5.0792     4.4718     5.869      4.3868     3.137      1.7378     3.803      4.4924     0.767      147.2517  
2657.6     5.3578     4.5974     5.7934     4.4094     3.9856     1.7836     3.9252     4.5442     0.77       147.49    
2657.8     5.4665     4.7569     5.9019     4.5227     4.8013     1.7967     3.8832     4.6512     0.777      147.5183  
2658       5.5515     5.0556     6.2305     4.7104     5.6664     1.8098     4.2596     4.7581     0.787      147.32    
2658.2     5.684      5.2253     6.4507     4.788      5.9657     1.8359     4.4198     4.797      0.8        147.3592  
2658.4     5.6772     5.4357     6.8549     4.7621     6.0118     1.8359     4.2716     4.7516     0.809      147.4683  
2658.6     5.6126     5.4765     6.9798     4.7686     5.8934     1.8032     4.3389     4.6674     0.8        147.405   
2658.8     5.4869     5.5817     7.2066     4.6392     5.5907     1.7836     4.3109     4.5248     0.79       147.3858  
2659       5.4801     5.3678     6.9995     4.4515     5.2191     1.7574     4.0706     4.4017     0.794      147.405   
2659.2     5.368      5.0895     6.8286     4.3479     4.9263     1.7443     3.7023     4.447      0.8        147.3917  
2659.4     5.2899     5.1235     7.062      4.3738     4.8605     1.7443     4.0627     4.5054     0.797      147.45    
2659.6     5.2831     5.0352     6.9404     4.4321     4.706      1.7967     4.0395     4.473      0.785      147.4483  
2659.8     5.2287     5.1371     6.8023     4.3803     4.4593     1.993      3.8939     4.4665     0.773      147.26    
2660       5.2763     4.8112     6.3357     4.3317     4.3737     2.0846     3.7834     4.6026     0.772      147.0767  
2660.2     5.3646     4.6144     6.2634     4.4515     4.4954     2.1369     3.5208     4.8974     0.773      146.515   
2660.4     5.5345     4.8045     6.6249     4.6133     4.5382     2.2024     3.8395     4.9784     0.777      146.3092  
2660.6     5.6636     5.3475     6.8746     4.7395     4.4527     2.2416     4.4575     4.8488     0.773      146.7083  
2660.8     5.667      5.4832     6.8023     4.6715     4.1797     2.2809     4.5334     4.5734     0.77       146.67    
2661       5.5073     5.6428     6.8648     4.5615     3.9856     2.3594     4.1513     4.4341     0.77       146.9167  
2661.2     5.3782     5.2796     6.8615     4.4062     3.8409     2.4903     4.0692     4.4082     0.777      147.4717  
2661.4     5.2695     5.3135     7.1639     4.3156     3.706      2.824      3.9612     4.4211     0.8        147.5067  
2661.6     5.2219     4.9809     6.8746     4.2962     3.6567     3.4849     3.636      4.4535     0.797      147.425   
2661.8     5.086      5.0081     6.8878     4.2864     3.6501     4.0476     3.8441     4.46       0.806      147.9333  
2662       5.0249     5.1167     6.9338     4.2573     3.5679     4.5449     3.9678     4.2462     0.79       147.9317  
2662.2     4.9909     4.8961     6.4145     4.1441     3.4528     5.0814     3.646      4.0712     0.787      147.6     
2662.4     4.9093     4.852      6.3225     4.102      3.3936     5.1338     3.5758     4.0258     0.792      147.32    
2662.6     4.8346     4.6008     6.1056     4.2055     3.4495     5.1207     3.5397     4.0615     0.794      147.3033  
2662.8     4.753      4.6823     6.2338     4.2703     3.4528     5.0029     3.8198     3.974      0.794      147.3942  
2663       4.7327     4.723      6.1779     4.1797     3.3738     4.872      3.6924     3.8444     0.78       147.2283  
2663.2     4.6511     4.6212     5.823      4.0373     3.2225     4.7804     3.4223     3.7731     0.767      147.2433  
2663.4     4.6579     4.3734     5.5404     3.882      3.2357     4.859      3.3474     3.9546     0.767      147.345   
2663.6     4.7259     3.956      5.2906     3.9531     3.4593     5.016      3.0334     4.3628     0.763      147.15    
2663.8     4.7904     4.1257     5.6981     4.2508     3.979      5.2057     3.4617     4.8423     0.784      146.8467  
2664       4.9365     4.3768     6.0432     4.5939     4.3211     5.3432     4.0229     4.9525     0.797      146.93    
2664.2     5.052      5.0149     6.2962     4.7104     4.331      5.3824     4.2812     4.7775     0.8        147.255   
2664.4     5.1676     5.042      5.8953     4.5097     4.1238     5.2777     3.7287     4.3952     0.784      147.28    
2664.6     5.1608     4.9266     5.8        4.2962     4.0777     5.0683     3.7287     4.2332     0.78       147.205   
2664.8     5.0452     4.8384     6.1451     4.3156     4.1994     4.8851     3.8062     4.3174     0.78       147.3983  
