~Version
 VERS              .         2.0                           : CWLS LOG ASCII STANDARD - VERSION 2.0
 WRAP              .         NO                            : ONE LINE PER DEPTH STEP
 DLM               .         SPACE                         : DELIMITING CHARACTER(SPACE TAB OR COMMA)
~Well Information
#_______________________________________________________________________________
#
#PARAMETER_NAME    .UNIT     VALUE                         : DESCRIPTION
#_______________________________________________________________________________
STRT               .m        2531                          : First reference value
STOP               .m        2738                          : Last reference value
STEP               .m        0.2                           : Step increment
NULL               .         -9999                         : Missing value
COMP               .                                       : Company
WELL               .         502                           : Well name
FLD                .                                       : Field
LOC                .                                       : Location
CNTY               .                                       : County
STAT               .                                       : State
CTRY               .                                       : Country
SRVC               .                                       : Service Company
DATE               .                                       : Date
API                .                                       : API number
EREF               .m        139.4                         : 
X                  .m        230550                        : 
Y                  .m        242075                        : 
group              .         Pad5                          : 
Интер-р            .         Пузин                         : 
Куст               .         5                             : 
Статус             .         Не проверено                  : 
Тип                .         Эксплуатация                  : 
~Parameter Information Block
#_______________________________________________________________________________
#
#PARAMETER_NAME    .UNIT     VALUE                         : DESCRIPTION
#_______________________________________________________________________________
SET                .         LAS1                          : 
REAL_CREATION_DATE .         Ср апр 11 2012-13_17_18       : 
TLFamily_DEPTH     .         Measured Depth                : 
TLFamily_KS        .         Potential Resistivity         : 
TLFamily_KS1       .         Extra Shallow Resistivity     : 
TLFamily_KS2       .         Shallow Resistivity           : 
TLFamily_KS3       .         Medium Resistivity            : 
TLFamily_KS4       .         Deep Resistivity              : 
TLFamily_KS5       .         Extra Deep Resistivity        : 
TLFamily_LLD       .         Lateral Log Resistivity       : 
TLFamily_OKS3      .         Medium Resistivity Inverted   : 
TLFamily_RM        .         Mud Resistivity               : 
TLFamily_SP        .         Spontaneous Potential         : 
group              .         INI                           : 
~Curve Information
#_______________________________________________________________________________
#
#LOGNAME           .UNIT     LOG_ID                        : DESCRIPTION
#_______________________________________________________________________________
DEPTH              .m                                      : Measured Depth 
KS                 .ohm.m                                  : Potential Resistivity 
KS1                .ohm.m                                  : Extra Shallow Resistivity 
KS2                .ohm.m                                  : Shallow Resistivity 
KS3                .ohm.m                                  : Medium Resistivity 
KS4                .ohm.m                                  : Deep Resistivity 
KS5                .ohm.m                                  : Extra Deep Resistivity 
LLD                .ohm.m                                  : Lateral Log Resistivity 
OKS3               .ohm.m                                  : Medium Resistivity Inverted 
RM                 .ohm.m                                  : Mud Resistivity 
SP                 .mV                                     : Spontaneous Potential 
~Ascii
# ...
2705.2     20.2053    8.5582     16.4612    16.5474    19.7803    38.6224    10.1802    79.9325    0.78       143.045   
2705.4     23.1545    7.3499     16.3264    21.1489    25.5759    53.7576    9.8716     85.5909    0.807      141.4367  
2705.6     25.9201    8.2391     19.0213    25.3686    33.0358    66.7653    11.994     88.8025    0.777      140.1817  
2705.8     31.1626    12.02      26.212     27.8602    33.9436    72.9594    36.7404    76.7209    0.821      139.3442  
2706       35.1412    11.6636    24.1416    27.9282    31.8944    74.8176    58.1075    65.0982    0.772      138.3608  
2706.2     35.6101    15.8144    31.9041    28.611     30.9833    64.5973    35.5309    54.046     0.787      138.1525  
2706.4     34.5704    18.981     41.5925    29.6788    29.3914    52.8285    48.4808    37.5009    0.8        138.565   
2706.6     36.9079    12.7531    34.221     23.194     21.8525    46.9847    52.7912    21.4179    0.777      139.2467  
2706.8     39.4246    8.065      23.033     17.2074    13.5329    36.9473    37.2208    10.2985    0.74       139.6467  
2707       36.7652    7.3296     27.9242    19.3303    15.6425    30.7835    27.1429    6.89       0.746      140.1558  
2707.2     31.2679    15.285     57.041     34.7301    20.8789    29.9983    26.7419    7.9527     0.79       141.5542  
2707.4     26.9666    15.7669    62.4731    48.2596    24.0234    30.5611    30.5096    9.3037     0.797      143.4092  
2707.6     22.7909    15.19      65.2668    56.8726    22.7538    28.5326    14.816     9.8707     0.797      144.9158  
2707.8     20.8984    13.8731    55.0152    64.5844    20.6026    24.5543    14.4096    10.0133    0.787      146.3592  
2708       20.0558    11.8028    40.3634    63.659     16.8168    20.6676    10.8568    10.8621    0.797      147.2075  
2708.2     17.9018    10.7099    32.9886    66.8979    17.3463    18.3905    9.4379     14.9315    0.78       147.2625  
2708.4     14.6605    12.2983    38.9535    79.6994    20.6881    16.6238    8.7828     18.6639    0.773      147.0308  
2708.6     12.0375    15.1764    46.647     90.0331    23.1024    14.0458    11.7888    19.759     0.78       146.7925  
2708.8     11.0454    13.9953    43.9916    83.7095    20.8658    12.1482    13.4834    15.7674    0.763      146.6342  
2709       10.4814    9.9904     24.9467    52.54      16.1622    9.3607     5.2492     11.5101    0.79       146.3192  
2709.2     10.0329    8.1509     17.8382    32.0216    11.8731    5.7881     5.3244     8.7302     0.78       146.0442  
2709.4     9.5539     7.4721     15.5048    22.6504    10.3995    3.6419     5.4915     6.9353     0.794      145.2308  
2709.6     9.2515     7.3771     14.7489    16.0879    9.9127     2.7258     5.9514     6.1577     0.773      143.44    
2709.8     8.9185     7.2888     13.6447    12.7678    9.6924     1.8883     5.9198     5.6847     0.77       141.7317  
2710       8.3885     7.2345     12.9151    10.9298    9.4194     1.535      5.7572     5.4773     0.794      140.8875  
2710.2     8.1167     6.7628     11.8865    8.8879     8.6332     1.2863     5.3517     5.3477     0.797      140.3033  
2710.4     7.974      6.3317     10.8907    7.7457     7.1696     1.0507     5.0021     5.1371     0.787      138.2183  
2710.6     7.9876     6.3453     10.0493    7.5774     6.1039     0.8806     5.2163     4.9006     0.784      135.2475  
2710.8     7.8517     6.3182     9.4644     8.2311     5.4822     0.8152     5.6474     4.9914     0.763      132.9042  
2711       7.6104     6.9223     9.9968     8.4899     4.7421     0.789      5.3535     5.1242     0.777      132.5475  
2711.2     7.5866     6.7594     9.5958     8.3767     4.2224     0.7628     6.4586     5.1857     0.79       134.3533  
2711.4     7.4643     6.3589     8.9582     7.7715     3.7981     0.7759     4.9964     5.1793     0.787      135.9067  
2711.6     7.4304     6.1009     8.7545     7.4803     3.5646     0.7628     5.122      5.2927     0.784      135.52    
2711.8     7.5731     5.8362     8.5606     7.2053     3.5975     0.7367     5.0407     5.5033     0.77       133.6267  
2712       7.7565     6.0466     8.9122     7.0661     3.831      0.7367     5.5897     5.7365     0.772      132.0767  
2712.2     7.9774     6.4268     8.9977     7.1179     4.3803     0.789      6.2377     6.0119     0.8        131.3917  
2712.4     7.9944     6.7628     9.07       7.3347     5.1434     0.8414     6.1402     6.2355     0.784      130.96    
2712.6     7.8585     7.3024     9.8094     7.545      6.4722     0.8479     6.3098     6.0411     0.794      131.0267  
2712.8     7.8788     7.3499     10.1282    7.2538     7.755      0.8675     6.372      5.1371     0.757      130.0917  
2713       8.0521     6.7933     9.4183     6.4934     7.6366     0.9199     5.2785     4.123      0.79       125.985   
2713.2     8.2798     6.5523     9.0568     5.7588     6.9952     0.9461     5.7888     3.6889     0.784      121.5533  
2713.4     8.4632     6.9019     9.3        5.5517     6.6762     1.0638     6.637      3.6047     0.763      119.2733  
2713.6     8.4836     7.4517     9.6944     5.6358     7.0248     1.2732     6.7055     4.1133     0.797      119.05    
2713.8     8.3613     7.8963     10.3813    5.8429     7.3505     1.7051     6.5443     4.8229     0.78       120.2017  
2714       8.3613     7.5603     9.8719     5.9076     7.7485     3.053      6.5069     5.6523     0.79       123.1483  
2714.2     8.4904     7.5196     9.9968     6.0727     8.9128     4.872      6.4134     7.5509     0.78       128.9975  
2714.4     8.5108     7.1599     9.9146     7.5386     12.406     8.7326     6.2642     10.4928    0.787      135.6958  
2714.6     8.2798     7.1938     10.7526    9.8296     20.2934    12.5539    5.3938     14.5038    0.773      139.4675  
2714.8     7.9876     7.506      12.6719    13.1173    25.5956    15.3413    6.3755     21.5248    0.77       139.5617  
2715       8.0147     8.212      14.9428    14.7256    25.4081    17.1735    6.2792     23.0832    0.787      137.6783  
2715.2     8.239      7.9744     12.994     12.7225    17.9515    15.9957    6.1843     20.2709    0.763      136.5233  
2715.4     8.6229     7.8319     11.4231    9.6419     12.6165    12.3576    6.7763     13.8882    0.79       137.8117  
2715.6     8.7962     7.2583     9.7371     6.5289     8.5247     8.8111     5.8189     10.0262    0.77       139.7533  
2715.8     8.9253     6.3453     8.5244     4.678      4.8901     5.7096     4.9802     9.0154     0.782      140.5217  
2716       9.0374     5.9312     8.3996     3.636      3.3212     4.5056     5.2778     9.2065     0.757      141.135   
2716.2     9.0952     5.9414     9.5104     3.2412     2.4265     3.3867     5.3595     10.0392    0.784      142.575   
2716.4     9.1088     6.3114     10.24      3.4095     2.1568     3.1315     5.8019     10.428     0.777      142.4592  
2716.6     9.5131     6.4607     10.0888    3.6328     1.8937     3.1446     6.3859     10.1655    0.784      140.4733  
2716.8     9.8494     6.1688     9.3132     4.1926     1.67       3.2951     6.4141     9.7281     0.787      138.0533  
2717       10.162     6.1756     9.3329     5.0792     1.5779     3.5503     5.8902     9.2551     0.784      135.7892  
2717.2     10.3625    6.4403     9.8587     6.7166     1.6174     3.7728     6.6856     8.4678     0.784      134.625   
2717.4     10.5358    8.1407     11.916     8.1081     1.6996     3.9952     8.2016     7.9721     0.784      135.9133  
2717.6     10.9163    7.954      11.147     8.1275     1.7358     4.4271     8.028      7.9203     0.76       138.2008  
2717.8     11.1711    7.2481     10.1479    7.8233     1.8805     5.2254     6.0794     8.8145     0.763      138.8283  
2718       11.6774    6.6609     10.5094    8.0951     2.3805     6.9986     6.646      11.6138    0.79       139.275   
2718.2     12.8461    6.7729     11.3376    9.4801     3.9988     8.9681     7.9177     16.5255    0.785      140.1658  
2718.4     14.6197    6.1417     11.8897    11.7194    5.9197     10.4862    7.5317     19.8627    0.79       139.8742  
