~Version
 VERS              .         2.0                           : CWLS LOG ASCII STANDARD - VERSION 2.0
 WRAP              .         NO                            : ONE LINE PER DEPTH STEP
 DLM               .         SPACE                         : DELIMITING CHARACTER(SPACE TAB OR COMMA)
~Well Information
#_______________________________________________________________________________
#
#PARAMETER_NAME    .UNIT     VALUE                         : DESCRIPTION
#_______________________________________________________________________________
STRT               .m        2531                          : First reference value
STOP               .m        2738                          : Last reference value
STEP               .m        0.2                           : Step increment
NULL               .         -9999                         : Missing value
COMP               .                                       : Company
WELL               .         502                           : Well name
FLD                .                                       : Field
LOC                .                                       : Location
CNTY               .                                       : County
STAT               .                                       : State
CTRY               .                                       : Country
SRVC               .                                       : Service Company
DATE               .                                       : Date
API                .                                       : API number
EREF               .m        139.4                         : 
X                  .m        230550                        : 
Y                  .m        242075                        : 
group              .         Pad5                          : 
Интер-р            .         Пузин                         : 
Куст               .         5                             : 
Статус             .         Не проверено                  : 
Тип                .         Эксплуатация                  : 
~Parameter Information Block
#_______________________________________________________________________________
#
#PARAMETER_NAME    .UNIT     VALUE                         : DESCRIPTION
#_______________________________________________________________________________
SET                .         LAS1                          : 
REAL_CREATION_DATE .         Ср апр 11 2012-13_17_18       : 
TLFamily_DEPTH     .         Measured Depth                : 
TLFamily_KS        .         Potential Resistivity         : 
TLFamily_KS1       .         Extra Shallow Resistivity     : 
TLFamily_KS2       .         Shallow Resistivity           : 
TLFamily_KS3       .         Medium Resistivity            : 
TLFamily_KS4       .         Deep Resistivity              : 
TLFamily_KS5       .         Extra Deep Resistivity        : 
TLFamily_LLD       .         Lateral Log Resistivity       : 
TLFamily_OKS3      .         Medium Resistivity Inverted   : 
TLFamily_RM        .         Mud Resistivity               : 
TLFamily_SP        .         Spontaneous Potential         : 
group              .         INI                           : 
~Curve Information
#_______________________________________________________________________________
#
#LOGNAME           .UNIT     LOG_ID                        : DESCRIPTION
#_______________________________________________________________________________
DEPTH              .m                                      : Measured Depth 
KS                 .ohm.m                                  : Potential Resistivity 
KS1                .ohm.m                                  : Extra Shallow Resistivity 
KS2                .ohm.m                                  : Shallow Resistivity 
KS3                .ohm.m                                  : Medium Resistivity 
KS4                .ohm.m                                  : Deep Resistivity 
KS5                .ohm.m                                  : Extra Deep Resistivity 
LLD                .ohm.m                                  : Lateral Log Resistivity 
OKS3               .ohm.m                                  : Medium Resistivity Inverted 
RM                 .ohm.m                                  : Mud Resistivity 
SP                 .mV                                     : Spontaneous Potential 
~Ascii
# ...
2557.8     9.8291     9.3286     13.4738    8.587      6.8735     5.1338     6.3744     8.2637     0.854      131.05    
2558       9.7815     8.8772     12.8691    8.6258     6.7485     5.2908     5.9192     8.3868     0.841      132.4467  
2558.2     9.7679     7.9201     12.1724    8.4058     6.5249     5.3955     7.2427     8.4905     0.848      132.485   
2558.4     9.7747     8.0966     13.2733    8.4381     6.4986     5.5002     7.7235     8.5294     0.844      132.235   
2558.6     9.6048     8.7822     13.7564    8.7229     6.6038     5.6834     7.1935     8.4905     0.841      133.36    
2558.8     9.0442     9.108      13.7433    8.7876     6.7683     5.8404     6.4707     8.4581     0.841      135.5733  
2559       8.6535     8.3885     12.948     8.6582     6.9064     6.0891     5.4459     8.7724     0.838      137.835   
2559.2     8.3205     7.7843     12.7376    8.5223     7.038      6.1938     5.1751     9.3847     0.833      139.3583  
2559.4     8.4191     7.187      12.3433    8.4155     7.0183     6.2592     4.627      10.1688    0.827      139.4275  
2559.6     9.1903     6.3283     10.6146    8.0434     6.9262     6.2723     5.1652     11.2347    0.831      137.0317  
2559.8     10.1145    5.9855     10.1808    7.9204     6.8604     6.1284     7.6053     11.2768    0.841      132.5183  
2560       11.2255    7.2549     11.147     8.0563     6.7584     5.9451     11.0263    10.7001    0.838      128.8692  
2560.2     12.2278    9.013      12.0343    8.1404     6.492      5.7227     9.1357     9.9873     0.838      127.0158  
2560.4     12.0307    10.323     12.8297    8.011      6.1039     5.5395     8.0411     9.5661     0.831      126.3883  
2560.6     11.4123    10.1805    13.6184    7.9528     5.8341     5.4348     8.3646     9.4949     0.831      127.01    
2560.8     10.5494    10.357     15.7316    7.8848     5.6039     5.3824     8.1478     9.3847     0.824      129.7225  
2561       10.1145    9.6239     16.5499    7.7586     5.3802     5.3562     5.7147     9.5888     0.814      134.0967  
2561.2     9.8902     8.4631     14.8738    7.4091     5.1237     5.3432     5.3267     10.1493    0.812      136.6583  
2561.4     9.9921     7.4042     13.086     7.1567     4.9691     5.317      5.9912     11.1343    0.811      135.7817  
2561.6     10.4678    6.9902     12.8297    7.2926     4.9921     5.2581     8.5586     12.4076    0.821      132.485   
2561.8     10.9027    7.7368     13.2963    7.8816     5.1105     5.1992     9.2154     13.1042    0.821      129.475   
2562       11.2187    9.0605     14.0325    8.587      5.0974     5.0945     6.4511     13.6161    0.824      128.76    
2562.2     11.5686    9.2641     13.2536    8.9171     4.8934     4.9702     7.5088     15.2263    0.817      128.6925  
2562.4     11.4735    8.8093     12.8231    8.5093     4.7027     4.7935     8.2074     17.6984    0.831      126.7633  
2562.6     11.6977    8.8025     13.7367    8.3605     4.6566     4.6496     8.2797     19.7136    0.841      124.265   
2562.8     11.9084    9.2234     14.6536    8.2149     4.6073     4.6103     8.1489     21.8326    0.841      122.9942  
2563       11.854     9.6476     15.071     8.0369     4.5843     4.6365     7.6737     25.5682    0.848      123.0858  
2563.2     11.956     9.4677     14.3611    7.7651     4.5711     4.8328     7.1581     29.427     0.848      123.8825  
2563.4     12.1734    8.9111     13.8945    7.4803     4.6632     5.173      7.2939     32.8354    0.854      124.3758  
2563.6     13.0364    8.4428     13.5461    7.3832     5.0776     6.0498     7.7143     37.1089    0.861      125.5592  
2563.8     13.9266    7.9473     13.0466    7.668      5.6697     6.9921     10.0454    38.7969    0.858      127.6325  
2564       15.6831    8.4903     13.625     8.2796     6.7979     8.1044     7.7774     41.4666    0.858      130.3475  
2564.2     20.5723    7.4314     12.5635    9.5643     9.4917     10.8395    13.8771    42.5293    0.851      132.0725  
2564.4     24.4795    7.9405     13.8222    10.5545    11.0048    12.4492    19.5755    40.1318    0.848      132.3142  
2564.6     29.4298    9.0469     15.9846    12.2727    12.7875    13.928     25.878     36.5678    0.848      132.0125  
2564.8     34.4209    10.8491    20.7138    14.923     14.6031    15.0796    42.5085    32.4628    0.844      131.2458  
2565       36.9011    13.9003    26.9022    17.4211    15.7675    16.6107    59.4021    26.686     0.844      130.26    
2565.2     37.6894    16.6833    35.2168    20.6182    16.7674    17.0295    69.4617    22.5324    0.841      129.0817  
2565.4     35.1276    19.6157    46.9744    25.8604    17.9318    16.8594    56.5529    19.0138    0.841      127.7333  
2565.6     31.0301    22.5854    59.3691    30.4425    18.2476    15.9041    30.2108    15.087     0.841      126.0883  
2565.8     27.2859    22.5005    63.87      33.5361    17.3858    14.386     14.7553    12.8191    0.841      124.5017  
2566       22.3934    19.7718    60.3003    36.5164    15.0669    12.6978    12.9921    11.0371    0.838      123.4108  
2566.2     19.6413    17.3146    55.5665    37.5421    12.952     10.4338    11.3108    9.5467     0.838      122.8175  
2566.4     17.9086    14.932     46.6339    38.3123    11.1626    8.4839     8.6252     8.322      0.838      122.0775  
2566.6     16.4816    13.4523    39.6009    37.8755    9.4786     7.2145     9.2104     7.7064     0.834      121.1992  
2566.8     15.4215    12.4001    31.8647    36.2025    8.0182     6.1153     8.8657     7.1718     0.841      121.08    
2567       14.674     11.7383    28.0195    34.4421    7.2748     5.016      8.7909     6.8964     0.834      121.4183  
2567.2     14.0557    11.5109    25.5744    32.2093    6.7617     4.5449     8.6791     6.9612     0.844      122.0733  
2567.4     13.4101    11.2258    23.4711    28.077     6.3571     4.257      8.0684     7.269      0.844      123.2167  
2567.6     12.7034    10.6556    21.3744    24.7667    6.3144     4.1065     8.549      7.8166     0.851      125.2183  
2567.8     11.5482    10.9611    21.611     22.7151    6.6104     4.0999     8.0686     8.1276     0.854      128.8167  
2568       10.3115    11.4091    21.9199    20.3173    7.3866     4.1523     5.5365     8.6525     0.844      133.53    
2568.2     8.9593     10.2178    19.3171    18.1265    7.8471     4.3093     5.0276     9.7411     0.834      137.9717  
2568.4     8.3341     8.3206     16.6485    16.0555    8.3405     4.4533     4.572      11.1213    0.831      140.9883  
2568.6     8.0351     7.4517     14.6964    14.1528    8.903      4.4925     4.4319     12.683     0.831      142.3433  
2568.8     7.9536     6.6304     12.7376    12.3019    9.4786     4.4402     4.8644     14.3937    0.827      142.0967  
2569       8.3341     6.3759     11.1799    10.8975    9.6496     4.2831     4.7255     16.3376    0.831      140.99    
2569.2     9.0612     5.938      9.7338     9.8361     9.5575     4.1392     5.8094     17.4651    0.831      138.4933  
2569.4     10.4882    6.0738     9.2475     8.4899     9.0378     4.0083     7.1873     18.3302    0.831      134.5867  
2569.6     12.1123    6.5999     9.2244     7.8816     8.8076     3.812      9.6632     18.8648    0.827      130.0033  
2569.8     13.9164    8.178      10.7461    7.6615     8.7056     3.6288     11.011     18.5343    0.831      125.42    
2570       15.7817    9.6408     12.5865    7.6809     8.4787     3.6026     10.4438    18.5246    0.827      122.9425  
2570.2     16.6243    10.3977    14.7687    7.6486     8.2681     3.6288     10.5801    18.8518    0.831      121.8783  
2570.4     17.5008    10.3298    16.2673    7.8298     8.1234     3.6419     10.7458    19.0851    0.827      120.905   
2570.6     18.5541    10.3977    18.4725    8.3281     8.084      3.6681     14.7303    19.192     0.831      119.9625  
2570.8     19.1453    11.9929    22.7875    9.4413     8.0774     3.7008     16.6295    19.448     0.827      119.3558  
2571       19.3627    12.8889    24.2927    10.548     7.959      3.6942     13.1521    19.9988    0.821      119.4625  
