~Version
 VERS              .         2.0                           : CWLS LOG ASCII STANDARD - VERSION 2.0
 WRAP              .         NO                            : ONE LINE PER DEPTH STEP
 DLM               .         SPACE                         : DELIMITING CHARACTER(SPACE TAB OR COMMA)
~Well Information
#_______________________________________________________________________________
#
#PARAMETER_NAME    .UNIT     VALUE                         : DESCRIPTION
#_______________________________________________________________________________
STRT               .m        2531                          : First reference value
STOP               .m        2738                          : Last reference value
STEP               .m        0.2                           : Step increment
NULL               .         -9999                         : Missing value
COMP               .                                       : Company
WELL               .         502                           : Well name
FLD                .                                       : Field
LOC                .                                       : Location
CNTY               .                                       : County
STAT               .                                       : State
CTRY               .                                       : Country
SRVC               .                                       : Service Company
DATE               .                                       : Date
API                .                                       : API number
EREF               .m        139.4                         : 
X                  .m        230550                        : 
Y                  .m        242075                        : 
group              .         Pad5                          : 
Интер-р            .         Пузин                         : 
Куст               .         5                             : 
Статус             .         Не проверено                  : 
Тип                .         Эксплуатация                  : 
~Parameter Information Block
#_______________________________________________________________________________
#
#PARAMETER_NAME    .UNIT     VALUE                         : DESCRIPTION
#_______________________________________________________________________________
SET                .         LAS1                          : 
REAL_CREATION_DATE .         Ср апр 11 2012-13_17_18       : 
TLFamily_DEPTH     .         Measured Depth                : 
TLFamily_KS        .         Potential Resistivity         : 
TLFamily_KS1       .         Extra Shallow Resistivity     : 
TLFamily_KS2       .         Shallow Resistivity           : 
TLFamily_KS3       .         Medium Resistivity            : 
TLFamily_KS4       .         Deep Resistivity              : 
TLFamily_KS5       .         Extra Deep Resistivity        : 
TLFamily_LLD       .         Lateral Log Resistivity       : 
TLFamily_OKS3      .         Medium Resistivity Inverted   : 
TLFamily_RM        .         Mud Resistivity               : 
TLFamily_SP        .         Spontaneous Potential         : 
group              .         INI                           : 
~Curve Information
#_______________________________________________________________________________
#
#LOGNAME           .UNIT     LOG_ID                        : DESCRIPTION
#_______________________________________________________________________________
DEPTH              .m                                      : Measured Depth 
KS                 .ohm.m                                  : Potential Resistivity 
KS1                .ohm.m                                  : Extra Shallow Resistivity 
KS2                .ohm.m                                  : Shallow Resistivity 
KS3                .ohm.m                                  : Medium Resistivity 
KS4                .ohm.m                                  : Deep Resistivity 
KS5                .ohm.m                                  : Extra Deep Resistivity 
LLD                .ohm.m                                  : Lateral Log Resistivity 
OKS3               .ohm.m                                  : Medium Resistivity Inverted 
RM                 .ohm.m                                  : Mud Resistivity 
SP                 .mV                                     : Spontaneous Potential 
~Ascii
# ...
2544.4     7.8381     6.2774     10.4864    7.7651     6.1894     7.2145     5.5663     7.2399     0.841      145.895   
2544.6     7.94       6.4268     9.9179     7.7521     6.2815     7.3323     5.3378     7.35       0.838      146.0117  
2544.8     8.0215     6.4607     9.6878     7.6842     6.3769     7.4763     5.6264     7.525      0.834      145.7033  
2545       8.0895     6.5523     9.7207     7.5903     6.5117     7.6595     5.5251     7.8036     0.838      145.2467  
2545.2     8.239      6.5761     9.8587     7.5709     6.6104     8.0913     5.4052     8.1147     0.838      145.06    
2545.4     8.4904     6.4336     9.7601     7.7198     6.9393     8.5101     5.5941     8.5423     0.834      145.1683  
2545.6     8.7554     6.2435     9.9573     8.3508     7.9063     8.6933     7.6171     9.3977     0.834      145.4267  
2545.8     8.6263     7.3737     12.1789    8.9947     8.4655     8.5755     8.5729     9.4398     0.848      145.415   
2546       8.7079     8.3681     12.7508    9.1177     8.2681     8.3531     5.6067     8.6784     0.834      145.535   
2546.2     8.6365     8.1441     11.6728    8.0531     6.9952     7.9212     5.2816     7.8036     0.831      145.725   
2546.4     8.3137     7.411      10.7658    7.2603     6.2223     7.0117     5.2237     7.4181     0.831      145.66    
2546.6     8.1235     6.7322     10.5292    6.9237     5.8999     6.4293     5.6925     7.3954     0.831      145.7333  
2546.8     8.0419     6.7119     11.0944    6.7781     5.7223     6.2592     5.3944     7.5379     0.831      145.605   
2547       8.1235     6.5523     10.9531    6.736      5.6368     6.2854     5.3855     7.768      0.831      145.5017  
2547.2     8.0623     6.5489     10.6672    7.0014     5.8605     6.2069     6.1809     8.0823     0.831      145.485   
2547.4     7.9774     7.0648     11.1733    7.3638     6.0183     6.1414     6.2428     7.7453     0.831      145.5167  
2547.6     8.0351     7.0071     10.516     7.3315     5.6565     6.0106     5.4114     7.2852     0.834      145.9383  
2547.8     7.9196     6.8748     10.0822    7.1956     5.321      5.8012     5.4923     6.9288     0.831      146.205   
2548       7.872      6.5422     9.8587     7.3088     5.1303     5.6965     5.1463     6.9548     0.831      145.945   
2548.2     7.8177     6.3725     9.7601     7.2991     5.15       5.6965     5.5042     7.1168     0.827      145.6475  
2548.4     7.7973     6.4675     10.2531    7.3509     5.3145     5.775      5.5096     7.512      0.824      145.5933  
2548.6     7.9196     6.5557     10.2137    7.3056     5.3868     5.8928     5.4669     7.687      0.821      145.6033  
2548.8     8.1914     6.3249     9.6418     7.16       5.4033     6.1414     5.7307     7.8749     0.817      145.6325  
2549       8.5448     6.3826     9.5564     7.1632     5.5842     6.4163     6.013      8.2605     0.817      145.8133  
2549.2     8.538      6.61       9.9705     7.6745     6.2091     6.5079     7.0942     9.3458     0.814      145.2417  
2549.4     8.4055     7.8319     11.9752    8.3831     6.7288     6.521      6.2935     9.6309     0.824      144.3083  
2549.6     8.6059     7.7606     11.5907    8.4187     6.5643     6.4817     5.8651     9.3977     0.814      144.3783  
2549.8     8.6535     7.411      10.6475    7.5968     6.0315     6.2723     5.8703     8.9635     0.814      144.9583  
2550       8.4904     7.2617     10.6015    7.215      6.0052     5.8535     5.7883     9.2227     0.817      145.4433  
2550.2     8.2798     7.1463     10.8118    7.0273     6.0447     5.6311     5.8589     9.605      0.817      145.5283  
2550.4     8.1642     7.0071     11.2653    6.9237     5.9197     5.474      5.6719     10.1137    0.824      145.245   
2550.6     8.1099     6.8883     11.193     6.8655     5.7749     5.3562     5.6826     10.3502    0.822      145.2017  
2550.8     8.0759     6.868      10.9104    6.7814     5.5151     5.2254     5.488      10.5122    0.821      145.1433  
2551       8.1371     6.6609     10.2169    6.6325     5.3013     5.0683     5.6712     10.8135    0.824      144.9642  
2551.2     8.1914     6.5354     10.0033    6.5484     5.1434     4.9636     5.5211     11.2185    0.824      144.5158  
2551.4     8.3477     6.4946     9.9113     6.5969     5.0875     4.9113     5.7002     11.6008    0.821      143.6575  
2551.6     8.6841     6.5014     9.7766     6.7425     5.0711     4.9767     5.3647     12.1711    0.824      142.4325  
2551.8     9.4214     6.2672     9.3723     6.8267     5.15       5.2254     5.6607     13.8234    0.821      140.5642  
2552       10.1892    5.8702     8.9714     6.8914     5.4        5.5395     8.9004     14.7954    0.827      138.2458  
2552.2     11.6774    6.6372     10.023     7.5612     6.1368     5.8797     8.5611     15.1583    0.827      136.7008  
2552.4     13.5189    7.5502     11.2325    8.3217     6.7288     6.3508     11.3009    15.0903    0.817      136.2483  
2552.6     14.6401    8.5242     12.2447    8.9753     7.1169     6.534      14.4788    13.9271    0.819      135.44    
2552.8     15.6526    9.8004     14.1377    9.5772     7.2781     6.5995     12.8087    12.0188    0.821      134.0625  
2553       16.0942    11.7553    18.4166    10.2244    7.1104     6.2461     10.9482    10.1558    0.827      133.2267  
2553.2     15.3672    11.9318    20.257     10.3409    6.9327     5.9975     11.8415    9.2875     0.829      133.1767  
2553.4     14.4838    12.5291    22.8138    10.6321    6.8341     5.6965     9.6607     8.6654     0.838      132.7583  
2553.6     13.2742    11.9318    23.6683    10.9298    6.788      5.3955     8.3907     8.1438     0.848      131.6358  
2553.8     12.3976    11.0697    22.7613    10.9363    6.5512     5.2123     8.7036     7.8231     0.856      131.1675  
2554       11.4225    10.357     21.3744    11.2502    6.3407     5.1599     8.7169     7.512      0.858      132.5725  
2554.2     10.0465    10.7201    21.2002    12.3342    6.3604     5.2581     6.8233     7.4278     0.854      136.0542  
2554.4     9.1971     9.4745     18.4232    12.962     6.4854     5.3824     5.0698     7.917      0.858      140.0233  
2554.6     8.5312     8.2595     16.2344    13.0526    6.5709     5.4348     5.1206     8.3544     0.856      142.485   
2554.8     8.3817     7.3974     14.5682    12.7905    6.4788     5.4217     4.9187     8.646      0.851      142.7317  
2555       8.5991     6.6066     11.9818    12.0365    6.3078     5.3562     6.2547     8.9959     0.844      141.8233  
2555.2     8.8098     6.868      11.7451    11.3246    6.1762     5.2646     6.2497     9.145      0.848      140.1867  
2555.4     9.2447     7.1395     11.1273    10.8845    6.1729     5.1861     6.2067     9.1968     0.841      138.4642  
2555.6     9.4553     7.8183     11.0451    10.205     6.1433     5.1076     6.5363     9.0866     0.851      136.9117  
2555.8     9.6728     7.6554     11.0616    9.6807     6.1368     5.0553     6.8482     8.957      0.841      135.6567  
2556       9.8596     7.859      11.4231    9.1306     6.1039     5.0029     7.2977     8.8858     0.848      134.2233  
2556.2     10.0057    8.2357     12.317     8.6323     6.2683     4.9506     7.1455     8.8015     0.848      132.8867  
2556.4     9.9378     8.5378     12.6653    8.3928     6.5051     4.859      7.156      8.5909     0.848      132.8567  
2556.6     9.598      8.9926     13.4607    8.2116     6.7288     4.8066     6.8823     8.2896     0.851      133.78    
2556.8     9.3194     8.9383     13.5428    8.0693     6.8538     4.7543     5.5425     8.0175     0.848      135.0033  
2557       9.4214     8.0966     12.2973    7.6874     6.6828     4.7412     5.4264     8.0077     0.844      135.3408  
2557.2     9.5097     7.1191     11.6991    7.558      6.5972     4.7543     7.3667     8.1341     0.854      133.1475  
2557.4     9.8223     7.5128     12.3104    7.9463     6.6893     4.8197     7.9687     8.1211     0.858      130.4708  
2557.6     10.0669    8.1984     12.7836    8.3411     6.8472     4.9506     7.5971     8.1568     0.854      129.8117  
