~Version
 VERS              .         2.0                           : CWLS LOG ASCII STANDARD - VERSION 2.0
 WRAP              .         NO                            : ONE LINE PER DEPTH STEP
 DLM               .         SPACE                         : DELIMITING CHARACTER(SPACE TAB OR COMMA)
~Well Information
#_______________________________________________________________________________
#
#PARAMETER_NAME    .UNIT     VALUE                         : DESCRIPTION
#_______________________________________________________________________________
STRT               .m        2531                          : First reference value
STOP               .m        2738                          : Last reference value
STEP               .m        0.2                           : Step increment
NULL               .         -9999                         : Missing value
COMP               .                                       : Company
WELL               .         502                           : Well name
FLD                .                                       : Field
LOC                .                                       : Location
CNTY               .                                       : County
STAT               .                                       : State
CTRY               .                                       : Country
SRVC               .                                       : Service Company
DATE               .                                       : Date
API                .                                       : API number
EREF               .m        139.4                         : 
X                  .m        230550                        : 
Y                  .m        242075                        : 
group              .         Pad5                          : 
Интер-р            .         Пузин                         : 
Куст               .         5                             : 
Статус             .         Не проверено                  : 
Тип                .         Эксплуатация                  : 
~Parameter Information Block
#_______________________________________________________________________________
#
#PARAMETER_NAME    .UNIT     VALUE                         : DESCRIPTION
#_______________________________________________________________________________
SET                .         LAS1                          : 
REAL_CREATION_DATE .         Ср апр 11 2012-13_17_18       : 
TLFamily_DEPTH     .         Measured Depth                : 
TLFamily_KS        .         Potential Resistivity         : 
TLFamily_KS1       .         Extra Shallow Resistivity     : 
TLFamily_KS2       .         Shallow Resistivity           : 
TLFamily_KS3       .         Medium Resistivity            : 
TLFamily_KS4       .         Deep Resistivity              : 
TLFamily_KS5       .         Extra Deep Resistivity        : 
TLFamily_LLD       .         Lateral Log Resistivity       : 
TLFamily_OKS3      .         Medium Resistivity Inverted   : 
TLFamily_RM        .         Mud Resistivity               : 
TLFamily_SP        .         Spontaneous Potential         : 
group              .         INI                           : 
~Curve Information
#_______________________________________________________________________________
#
#LOGNAME           .UNIT     LOG_ID                        : DESCRIPTION
#_______________________________________________________________________________
DEPTH              .m                                      : Measured Depth 
KS                 .ohm.m                                  : Potential Resistivity 
KS1                .ohm.m                                  : Extra Shallow Resistivity 
KS2                .ohm.m                                  : Shallow Resistivity 
KS3                .ohm.m                                  : Medium Resistivity 
KS4                .ohm.m                                  : Deep Resistivity 
KS5                .ohm.m                                  : Extra Deep Resistivity 
LLD                .ohm.m                                  : Lateral Log Resistivity 
OKS3               .ohm.m                                  : Medium Resistivity Inverted 
RM                 .ohm.m                                  : Mud Resistivity 
SP                 .mV                                     : Spontaneous Potential 
~Ascii
# ...
2718.6     16.8757    7.3703     14.5057    15.4601    8.357      11.8603    20.9683    13.3698    0.79       138.3492  
2718.8     17.9276    11.9283    20.453     18.0178    12.0629    11.8734    68.0827    9.6734     0.765      136.3908  
2719       16.6718    15.5158    24.6674    18.8449    14.2282    10.8264    29.1389    9.3847     0.797      135.3117  
2719.2     13.5596    17.2569    27.1848    17.159     15.3761    9.1972     9.4791     9.2972     0.8        133.7617  
2719.4     11.9831    12.3662    23.3857    13.8616    11.9389    7.7773     6.106      9.2227     0.778      131.275   
2719.6     10.8076    9.1419     21.118     10.9622    9.0839     7.1229     6.1787     9.1514     0.784      130.0067  
2719.8     10.1009    7.8828     19.4288    8.9203     7.7682     7.3323     6.6865     9.1514     0.76       131.4133  
2720       9.8291     6.9155     15.3076    8.0175     7.8471     9.7141     5.8807     9.1514     0.77       134.71    
2720.2     9.3602     6.8001     13.9996    8.3411     9.051      14.3598    5.7971     9.1514     0.784      136.6508  
2720.4     8.735      6.9223     13.2142    9.917      11.8271    25.4115    6.1829     9.1514     0.787      136.2842  
2720.6     7.3692     6.6338     13.8616    17.0522    24.2964    30.4564    4.7931     9.1514     0.767      135.2258  
2720.8     5.4326     8.7482     21.0523    24.9867    31.707     31.5164    4.8871     9.1514     0.763      132.4642  
2721       5.351      7.1666     22.689     28.5301    29.3914    31.0714    4.0068     -9999      0.753      126.1525  
2721.2     5.8675     5.8125     13.3292    18.8449    15.5537    25.3918    3.7278     -9999      0.753      120.6575  
2721.4     5.9286     5.5511     8.4193     12.2177    8.7089     15.7732    3.8523     -9999      0.751      119.2517  
2721.6     5.9354     5.5715     6.4474     7.9269     5.5644     9.7141     4.038      -9999      0.753      119.7883  
2721.8     5.9354     5.5783     6.2239     5.0016     3.5745     5.2516     4.2976     -9999      0.753      119.7883  
2722       5.9422     5.5783     6.5723     3.8496     2.1437     3.6942     4.4026     -9999      0.753      119.1533  
2722.2     5.949      5.5851     6.638      3.0018     1.624      2.752      5.1423     -9999      0.753      119.7483  
2722.4     5.9422     5.5885     6.6512     2.4517     1.3543     1.9406     5.4722     -9999      0.753      122.22    
2722.6     5.949      5.5851     6.6512     2.3352     1.2359     1.692      5.3161     -9999      0.753      125.4117  
2722.8     5.949      5.5918     6.6643     2.484      1.2687     1.5611     5.148      -9999      0.753      127.8217  
2723       5.9422     5.5918     6.6643     3.4354     1.3214     1.535      5.1601     -9999      0.753      129.8817  
2723.2     5.949      5.5918     6.6643     4.7168     1.499      1.7443     5.1724     -9999      0.753      131.8067  
2723.4     5.949      5.5817     6.6643     4.9692     1.8674     2.0846     5.1635     -9999      -9999      134.46    
2723.6     -9999      5.5896     6.6643     4.9984     2.466      2.5164     5.13       -9999      -9999      137.66    
2723.8     -9999      -9999      6.6709     5.021      2.9002     2.6866     7.934      -9999      -9999      140.1333  
2724       -9999      -9999      6.6643     5.0404     2.8278     2.7258     7.6421     -9999      -9999      142.15    
2724.2     -9999      -9999      6.6643     5.0469     2.5318     2.4772     6.5869     -9999      -9999      144.0783  
2724.4     -9999      -9999      -9999      5.0469     2.2522     2.1239     6.2997     -9999      -9999      145.1733  
2724.6     -9999      -9999      -9999      5.0469     2.1897     1.9406     6.5913     -9999      -9999      144.5742  
2724.8     -9999      -9999      -9999      5.0469     2.6502     1.8621     6.324      -9999      -9999      143.7892  
2725       -9999      -9999      -9999      5.0469     4.5218     1.8883     6.2835     -9999      -9999      144.3692  
2725.2     -9999      -9999      -9999      5.0469     6.413      1.9537     5.8502     -9999      -9999      145.6742  
2725.4     -9999      -9999      -9999      5.0469     6.5643     2.0192     6.3294     -9999      -9999      146.5792  
2725.6     -9999      -9999      -9999      -9999      6.5742     1.993      5.6605     -9999      -9999      146.6592  
2725.8     -9999      -9999      -9999      -9999      6.5841     1.9145     6.103      -9999      -9999      145.8217  
2726       -9999      -9999      -9999      -9999      6.5907     1.8621     6.4505     -9999      -9999      144.3     
2726.2     -9999      -9999      -9999      -9999      6.5972     1.7574     6.4566     -9999      -9999      142.815   
2726.4     -9999      -9999      -9999      -9999      6.5972     1.7182     6.2977     -9999      -9999      141.045   
2726.6     -9999      -9999      -9999      -9999      6.5972     1.7182     6.0141     -9999      -9999      138.8358  
2726.8     -9999      -9999      -9999      -9999      6.5841     1.7574     5.3653     -9999      -9999      137.0058  
2727       -9999      -9999      -9999      -9999      6.5907     1.7967     5.433      -9999      -9999      136.5192  
2727.2     -9999      -9999      -9999      -9999      6.5907     1.849      5.4474     -9999      -9999      136.6683  
2727.4     -9999      -9999      -9999      -9999      6.595      1.9799     5.1064     -9999      -9999      136.5483  
2727.6     -9999      -9999      -9999      -9999      -9999      1.993      4.2836     -9999      -9999      136.5783  
2727.8     -9999      -9999      -9999      -9999      -9999      1.9537     4.6121     -9999      -9999      136.9525  
2728       -9999      -9999      -9999      -9999      -9999      1.8752     6.047      -9999      -9999      137.1542  
2728.2     -9999      -9999      -9999      -9999      -9999      1.8359     7.8804     -9999      -9999      137.3808  
2728.4     -9999      -9999      -9999      -9999      -9999      1.7705     9.6905     -9999      -9999      137.3267  
2728.6     -9999      -9999      -9999      -9999      -9999      1.7705     8.5007     -9999      -9999      136.3183  
2728.8     -9999      -9999      -9999      -9999      -9999      1.849      8.9688     -9999      -9999      135.9067  
2729       -9999      -9999      -9999      -9999      -9999      2.1762     8.5107     -9999      -9999      136.5686  
2729.2     -9999      -9999      -9999      -9999      -9999      2.7782     8.4438     -9999      -9999      136.8552  
2729.4     -9999      -9999      -9999      -9999      -9999      3.9298     6.6239     -9999      -9999      -9999     
2729.6     -9999      -9999      -9999      -9999      -9999      4.0868     5.697      -9999      -9999      -9999     
2729.8     -9999      -9999      -9999      -9999      -9999      4.0999     5.454      -9999      -9999      -9999     
2730       -9999      -9999      -9999      -9999      -9999      4.113      5.37       -9999      -9999      -9999     
2730.2     -9999      -9999      -9999      -9999      -9999      4.113      5.8045     -9999      -9999      -9999     
2730.4     -9999      -9999      -9999      -9999      -9999      4.113      6.7792     -9999      -9999      -9999     
2730.6     -9999      -9999      -9999      -9999      -9999      4.1261     8.4942     -9999      -9999      -9999     
2730.8     -9999      -9999      -9999      -9999      -9999      4.113      11.4419    -9999      -9999      -9999     
2731       -9999      -9999      -9999      -9999      -9999      4.113      8.0387     -9999      -9999      -9999     
2731.2     -9999      -9999      -9999      -9999      -9999      4.1261     7.5311     -9999      -9999      -9999     
2731.4     -9999      -9999      -9999      -9999      -9999      4.1261     7.8855     -9999      -9999      -9999     
2731.6     -9999      -9999      -9999      -9999      -9999      4.1261     7.2979     -9999      -9999      -9999     
2731.8     -9999      -9999      -9999      -9999      -9999      -9999      7.0166     -9999      -9999      -9999     
