~Version
 VERS              .         2.0                           : CWLS LOG ASCII STANDARD - VERSION 2.0
 WRAP              .         NO                            : ONE LINE PER DEPTH STEP
 DLM               .         SPACE                         : DELIMITING CHARACTER(SPACE TAB OR COMMA)
~Well Information
#_______________________________________________________________________________
#
#PARAMETER_NAME    .UNIT     VALUE                         : DESCRIPTION
#_______________________________________________________________________________
STRT               .m        2531                          : First reference value
STOP               .m        2738                          : Last reference value
STEP               .m        0.2                           : Step increment
NULL               .         -9999                         : Missing value
COMP               .                                       : Company
WELL               .         502                           : Well name
FLD                .                                       : Field
LOC                .                                       : Location
CNTY               .                                       : County
STAT               .                                       : State
CTRY               .                                       : Country
SRVC               .                                       : Service Company
DATE               .                                       : Date
API                .                                       : API number
EREF               .m        139.4                         : 
X                  .m        230550                        : 
Y                  .m        242075                        : 
group              .         Pad5                          : 
Интер-р            .         Пузин                         : 
Куст               .         5                             : 
Статус             .         Не проверено                  : 
Тип                .         Эксплуатация                  : 
~Parameter Information Block
#_______________________________________________________________________________
#
#PARAMETER_NAME    .UNIT     VALUE                         : DESCRIPTION
#_______________________________________________________________________________
SET                .         LAS1                          : 
REAL_CREATION_DATE .         Ср апр 11 2012-13_17_18       : 
TLFamily_DEPTH     .         Measured Depth                : 
TLFamily_KS        .         Potential Resistivity         : 
TLFamily_KS1       .         Extra Shallow Resistivity     : 
TLFamily_KS2       .         Shallow Resistivity           : 
TLFamily_KS3       .         Medium Resistivity            : 
TLFamily_KS4       .         Deep Resistivity              : 
TLFamily_KS5       .         Extra Deep Resistivity        : 
TLFamily_LLD       .         Lateral Log Resistivity       : 
TLFamily_OKS3      .         Medium Resistivity Inverted   : 
TLFamily_RM        .         Mud Resistivity               : 
TLFamily_SP        .         Spontaneous Potential         : 
group              .         INI                           : 
~Curve Information
#_______________________________________________________________________________
#
#LOGNAME           .UNIT     LOG_ID                        : DESCRIPTION
#_______________________________________________________________________________
DEPTH              .m                                      : Measured Depth 
KS                 .ohm.m                                  : Potential Resistivity 
KS1                .ohm.m                                  : Extra Shallow Resistivity 
KS2                .ohm.m                                  : Shallow Resistivity 
KS3                .ohm.m                                  : Medium Resistivity 
KS4                .ohm.m                                  : Deep Resistivity 
KS5                .ohm.m                                  : Extra Deep Resistivity 
LLD                .ohm.m                                  : Lateral Log Resistivity 
OKS3               .ohm.m                                  : Medium Resistivity Inverted 
RM                 .ohm.m                                  : Mud Resistivity 
SP                 .mV                                     : Spontaneous Potential 
~Ascii
# ...
2584.6     6.744      5.826      8.3798     5.9012     5.2289     5.0422     4.8358     5.9828     0.838      146.4958  
2584.8     6.7169     6.162      8.6625     6.0112     5.2552     5.0291     5.2894     5.9828     0.843      147.1717  
2585       6.761      6.1756     8.6296     6.0953     5.2256     5.0291     4.7779     5.8791     0.834      147.8867  
2585.2     6.7372     6.1111     8.4916     6.0177     5.0974     5.0291     4.8452     5.7949     0.831      148.035   
2585.4     6.6625     6.1213     8.5836     5.9562     5.0776     4.9767     4.8078     5.756      0.827      148.0375  
2585.6     6.5674     6.0806     8.6033     5.9465     5.0645     4.9767     4.7047     5.7106     0.827      147.9208  
2585.8     6.479      6.0636     8.6723     5.9141     5.0382     4.9898     4.5363     5.7041     0.824      147.8875  
2586       6.4247     5.8769     8.4916     5.8138     5.0184     4.9898     4.5264     5.7171     0.824      147.8792  
2586.2     6.3975     5.8091     8.3996     5.7782     5.0053     4.9898     4.5612     5.7689     0.827      147.5608  
2586.4     6.4247     5.7514     8.2747     5.7459     4.9921     4.9833     4.5664     5.7689     0.824      146.9458  
2586.6     6.4926     5.7072     8.0906     5.6941     4.9855     4.9898     4.7413     5.7592     0.824      146.36    
2586.8     6.5334     5.7751     8.0841     5.6941     5.0053     5.0029     4.7993     5.7625     0.827      145.9867  
2587       6.513      5.9279     8.2418     5.762      5.0513     5.016      4.7766     5.7949     0.833      146.2492  
2587.2     6.4451     5.9855     8.3141     5.7847     5.0645     5.0422     4.5715     5.9309     0.831      146.7875  
2587.4     6.3363     5.9312     8.3601     5.7782     5.0513     5.0553     4.535      6.08       0.834      146.7808  
2587.6     6.282      5.843      8.3568     5.72       5.0118     5.0814     4.5577     6.2096     0.838      146.555   
2587.8     6.2752     5.7751     8.2549     5.6358     4.9329     5.1469     4.4941     6.3132     0.834      146.47    
2588       6.2888     5.6971     8.0742     5.5452     4.8079     5.2908     4.4393     6.4104     0.831      146.305   
2588.2     6.2888     5.6394     7.9132     5.4902     4.775      5.3432     4.5806     6.5271     0.827      145.9617  
2588.4     6.2854     5.6869     7.946      5.474      4.752      5.3432     4.5163     6.5562     0.824      145.7633  
2588.6     6.3159     5.6971     7.9329     5.4805     4.7356     5.3366     4.4674     6.4882     0.817      145.5917  
2588.8     6.4043     5.6326     7.8474     5.4126     4.6895     5.2908     4.4234     6.4623     0.824      145.3842  
2589       6.547      5.524      7.7225     5.3317     4.6106     5.2385     4.6827     6.3521     0.821      145.3292  
2589.2     6.8188     5.5308     7.6404     5.241      4.5316     5.173      4.8804     6.229      0.821      145.9158  
2589.4     7.0362     5.6801     7.7488     5.1957     4.479      5.1076     5.0874     6.0865     0.821      146.5725  
2589.6     7.2299     5.8634     7.9263     5.2346     4.4823     5.0814     5.3297     5.9569     0.817      146.5792  
2589.8     7.3624     6.0772     8.278      5.3511     4.5382     5.1076     5.3476     5.8856     0.811      146.4667  
2590       7.4236     6.4268     8.8794     5.5388     4.5974     5.1599     5.1335     5.9245     0.804      146.4933  
2590.2     7.5459     6.3046     8.9582     5.7264     4.7816     5.2385     4.8847     6.1513     0.8        146.2767  
2590.4     7.4032     6.3012     9.3986     6.0306     4.9526     5.2777     6.8301     6.1383     0.817      145.8233  
2590.6     7.2129     7.3703     10.7658    6.393      5.0579     5.2777     5.6686     5.986      0.816      145.5483  
2590.8     7.0328     7.3703     10.2071    6.4189     4.9526     5.2908     4.36       5.9115     0.811      145.425   
2591       6.5266     6.8476     9.6287     6.2474     4.8277     5.1992     4.3807     6.0087     0.821      145.2008  
2591.2     6.3431     6.067      9.1751     6.1536     4.7652     5.1338     4.3561     6.1059     0.831      145.3133  
2591.4     6.265      5.8226     9.0371     6.0824     4.7027     5.0814     4.387      6.1966     0.834      145.9583  
2591.6     6.2888     5.6869     8.7841     5.9788     4.6698     5.0291     4.4212     6.2873     0.834      146.7775  
2591.8     6.3431     5.6258     8.1038     5.8429     4.6467     4.9898     4.5796     6.3651     0.844      146.93    
2592       6.4349     5.6937     7.946      5.7653     4.6369     4.9636     4.5596     6.4364     0.841      146.65    
2592.2     6.547      5.7548     7.8803     5.6811     4.6237     4.8982     4.6408     6.4396     0.834      146.3767  
2592.4     6.7203     5.7412     7.8409     5.5452     4.5546     4.872      4.9009     6.391      0.831      146.1558  
2592.6     6.9207     5.8702     8.0216     5.5646     4.5711     4.859      4.807      6.3716     0.824      146.0625  
2592.8     7.0159     5.9177     8.1629     5.5711     4.6237     4.859      5.1968     6.3554     0.822      145.645   
2593       6.9853     6.1485     8.5639     5.6099     4.7487     4.8851     5.4803     6.242      0.824      145.2967  
2593.2     6.8732     6.5489     9.1259     5.7394     4.8408     4.8982     4.7988     6.1707     0.827      145.2625  
2593.4     6.7984     6.4811     9.1883     5.7782     4.8079     4.8982     4.6067     6.0638     0.831      145.815   
2593.6     6.7101     6.0263     8.7413     5.7523     4.7224     4.872      4.4868     6.0022     0.827      147.1567  
2593.8     6.778      5.9041     8.8399     5.6973     4.6566     4.8197     4.6928     5.918      0.838      147.89    
2594       6.8732     5.7208     8.5639     5.7459     4.65       4.7673     4.9149     5.8532     0.831      147.645   
2594.2     7.0057     5.8226     8.5967     5.7847     4.6139     4.7412     5.2442     5.7754     0.831      147.19    
2594.4     7.0498     6.1722     8.7118     5.8656     4.604      4.6888     4.9267     5.6782     0.827      147.0467  
2594.6     7.0702     6.1756     8.6362     5.8818     4.5777     4.6888     4.8919     5.5875     0.824      147.1733  
2594.8     6.9445     6.1892     8.6888     5.9012     4.5777     4.6757     4.849      5.5681     0.824      147.16    
2595       6.7916     6.1756     8.9845     5.9983     4.6237     4.6496     4.749      5.6523     0.824      146.975   
2595.2     6.6421     6.196      9.1554     6.0953     4.6632     4.6496     4.6355     5.7884     0.824      146.9083  
2595.4     6.4417     6.0534     9.0174     6.0889     4.6566     4.6299     4.5815     5.9309     0.821      146.8633  
2595.6     6.3092     5.9346     8.7775     5.9821     4.6106     4.558      4.4341     5.9957     0.821      146.9008  
2595.8     6.2004     5.7548     8.4193     5.8365     4.5382     4.4925     4.2594     6.1674     0.821      147.1533  
2596       6.1053     5.6665     8.1498     5.6747     4.4001     4.4075     4.1785     6.3651     0.817      147.04    
2596.2     6.1393     5.3712     7.67       5.474      4.308      4.3093     4.1282     6.5984     0.814      146.6375  
2596.4     6.2208     5.2117     7.3347     5.2928     4.2192     4.2439     4.4065     7.0682     0.814      146.375   
2596.6     6.3499     5.2864     7.3413     5.2152     4.1764     4.1784     4.5677     7.5768     0.814      146.3     
2596.8     6.4247     5.4697     7.3775     5.144      4.1567     4.1261     4.6372     8.1114     0.811      146.27    
2597       6.4654     5.6258     7.4399     5.0663     4.1139     4.0868     4.5451     8.6525     0.807      146.3925  
2597.2     6.6047     5.6054     7.4038     4.9433     4.0119     4.0476     4.5968     8.7756     0.807      146.4158  
2597.4     6.7372     5.4222     7.269      4.8042     3.9461     3.9691     5.2893     8.497      0.807      146.3975  
2597.6     6.8052     5.6529     7.6108     4.7298     3.8475     3.9167     5.1552     7.9462     0.811      146.5608  
2597.8     6.8867     5.8362     7.7291     4.6909     3.7291     3.8644     4.7814     7.8879     0.804      146.6883  
