~Version
 VERS              .         2.0                           : CWLS LOG ASCII STANDARD - VERSION 2.0
 WRAP              .         NO                            : ONE LINE PER DEPTH STEP
 DLM               .         SPACE                         : DELIMITING CHARACTER(SPACE TAB OR COMMA)
~Well Information
#_______________________________________________________________________________
#
#PARAMETER_NAME    .UNIT     VALUE                         : DESCRIPTION
#_______________________________________________________________________________
STRT               .m        2531                          : First reference value
STOP               .m        2738                          : Last reference value
STEP               .m        0.2                           : Step increment
NULL               .         -9999                         : Missing value
COMP               .                                       : Company
WELL               .         502                           : Well name
FLD                .                                       : Field
LOC                .                                       : Location
CNTY               .                                       : County
STAT               .                                       : State
CTRY               .                                       : Country
SRVC               .                                       : Service Company
DATE               .                                       : Date
API                .                                       : API number
EREF               .m        139.4                         : 
X                  .m        230550                        : 
Y                  .m        242075                        : 
group              .         Pad5                          : 
Интер-р            .         Пузин                         : 
Куст               .         5                             : 
Статус             .         Не проверено                  : 
Тип                .         Эксплуатация                  : 
~Parameter Information Block
#_______________________________________________________________________________
#
#PARAMETER_NAME    .UNIT     VALUE                         : DESCRIPTION
#_______________________________________________________________________________
SET                .         LAS1                          : 
REAL_CREATION_DATE .         Ср апр 11 2012-13_17_18       : 
TLFamily_DEPTH     .         Measured Depth                : 
TLFamily_KS        .         Potential Resistivity         : 
TLFamily_KS1       .         Extra Shallow Resistivity     : 
TLFamily_KS2       .         Shallow Resistivity           : 
TLFamily_KS3       .         Medium Resistivity            : 
TLFamily_KS4       .         Deep Resistivity              : 
TLFamily_KS5       .         Extra Deep Resistivity        : 
TLFamily_LLD       .         Lateral Log Resistivity       : 
TLFamily_OKS3      .         Medium Resistivity Inverted   : 
TLFamily_RM        .         Mud Resistivity               : 
TLFamily_SP        .         Spontaneous Potential         : 
group              .         INI                           : 
~Curve Information
#_______________________________________________________________________________
#
#LOGNAME           .UNIT     LOG_ID                        : DESCRIPTION
#_______________________________________________________________________________
DEPTH              .m                                      : Measured Depth 
KS                 .ohm.m                                  : Potential Resistivity 
KS1                .ohm.m                                  : Extra Shallow Resistivity 
KS2                .ohm.m                                  : Shallow Resistivity 
KS3                .ohm.m                                  : Medium Resistivity 
KS4                .ohm.m                                  : Deep Resistivity 
KS5                .ohm.m                                  : Extra Deep Resistivity 
LLD                .ohm.m                                  : Lateral Log Resistivity 
OKS3               .ohm.m                                  : Medium Resistivity Inverted 
RM                 .ohm.m                                  : Mud Resistivity 
SP                 .mV                                     : Spontaneous Potential 
~Ascii
# ...
2665       4.9297     5.1574     6.8023     4.3156     4.1764     4.7477     4.1011     4.1749     0.784      147.425   
2665.2     4.9365     5.0929     6.7793     4.1279     3.979      4.6496     3.9678     4.2008     0.773      147.1983  
2665.4     4.9433     4.6755     6.0136     3.746      3.7751     4.6234     3.4265     4.4341     0.772      147.085   
2665.6     5.052      4.4651     5.8953     3.759      3.9461     4.7543     3.4339     4.9395     0.763      147.27    
2665.8     5.1472     4.6008     6.3521     4.1117     4.229      4.872      3.5539     5.1793     0.763      147.4567  
2666       5.2627     5.1981     6.9404     4.4385     4.3869     4.9375     4.1696     5.095      0.77       147.4083  
2666.2     5.3171     5.4357     6.7958     4.6068     4.2356     4.859      4.6483     4.8618     0.77       147.2575  
2666.4     5.2287     5.6835     6.7103     4.4871     3.9593     4.6757     4.217      4.6998     0.79       147.0867  
2666.6     5.12       5.4086     6.5066     4.2185     3.5975     4.4533     3.976      4.3887     0.784      146.8783  
2666.8     5.0317     5.2185     6.4671     3.9726     3.3278     4.2308     3.7631     4.123      0.77       146.78    
2667       4.9569     4.9538     6.5329     3.8399     3.2291     4.1392     3.6488     4.2008     0.784      146.605   
2667.2     4.9501     4.7977     6.5789     3.8172     3.1469     4.0934     3.6072     4.6382     0.773      146.145   
2667.4     5.0758     4.7026     6.4211     3.8108     3.1173     4.0999     3.6391     5.4255     0.77       145.6425  
2667.6     5.2151     4.6992     6.316      3.7784     3.091      4.1654     3.7288     6.0087     0.767      145.685   
2667.8     5.2355     4.7298     6.1188     3.8949     3.1535     4.1654     3.6737     6.8414     0.753      145.8883  
2668       5.1981     5.0081     6.4014     4.0826     3.2554     4.113      3.8264     7.2334     0.76       146.245   
2668.2     5.3035     5.0115     6.1845     4.212      3.2686     4.1784     4.0489     7.5768     0.757      146.33    
2668.4     5.5889     4.6483     5.6652     4.0955     3.1732     4.2831     3.4723     8.578      0.76       146.0317  
2668.6     5.5515     4.2614     5.777      4.1214     3.4199     4.0868     3.2962     10.0392    0.773      145.8567  
2668.8     5.4258     5.8125     7.7554     4.5647     3.637      3.7859     5.5717     10.2725    0.799      145.4167  
2669       5.8641     5.7344     6.8681     4.3415     3.0712     3.4718     5.0216     8.4095     0.784      144.2583  
2669.2     6.3295     4.9198     5.2709     3.1247     2.1437     3.0399     3.4146     6.9094     0.787      142.6008  
2669.4     6.513      3.8745     4.6004     2.4743     1.7029     2.5819     3.2235     6.8057     0.767      140.6383  
2669.6     6.6013     4.0646     5.4483     2.7494     1.7391     2.3136     3.7088     7.7291     0.787      139.2767  
2669.8     7.2809     4.3972     6.7202     3.0341     1.9332     2.294      4.9773     8.3609     0.79       138.6292  
2670       7.8381     5.3475     7.5254     3.4192     2.0647     2.3463     5.4955     8.6201     0.778      137.6     
2670.2     8.1642     5.9584     7.6568     3.7331     2.1831     2.3529     5.9212     8.6654     0.773      135.685   
2670.4     8.3545     6.3826     7.716      4.0308     2.2423     2.3201     6.0498     8.497      0.763      133.6392  
2670.6     8.5312     6.3453     8.3897     4.3512     2.2752     2.2547     5.8295     7.8522     0.757      130.6933  
2670.8     8.786      6.2028     8.7479     4.7039     2.2983     2.2155     5.4479     7.7842     0.767      125.0933  
2671       8.9049     6.3657     9.8127     5.4061     2.3739     2.1369     5.7912     7.6546     0.777      116.8433  
2671.2     8.9729     7.6486     10.9367    6.1924     2.4857     2.0977     7.2093     7.444      0.79       108.4242  
2671.4     9.0272     7.988      10.6672    5.9465     2.4463     2.2024     7.2059     7.0844     0.78       104.2975  
2671.6     8.9049     7.7029     9.9146     5.4223     2.4989     2.3725     6.2339     7.0584     0.787      103.8825  
2671.8     8.7622     7.3703     9.6878     5.2863     2.739      2.7389     5.7586     7.4213     0.777      104.4575  
2672       8.8064     7.092      9.701      5.5582     3.4462     3.9298     5.6379     8.3609     0.78       105.6092  
2672.2     9.0612     6.6983     9.6024     6.6422     4.5908     5.5133     5.5735     9.7281     0.784      107.0933  
2672.4     9.5505     6.4064     9.6484     8.134      7.686      7.581      5.2475     12.7381    0.777      109.2433  
2672.6     10.6785    6.2095     10.6738    10.4509    12.1889    11.3368    5.3192     15.7674    0.767      112.2867  
2672.8     12.4112    6.9325     12.0639    12.5801    14.9255    14.229     6.4104     16.6487    0.763      115.9958  
2673       14.3886    8.2323     13.0071    12.962     17.0536    17.566     9.1914     16.4381    0.763      119.2042  
2673.2     16.1622    9.8343     13.8879    13.5768    19.2804    20.8508    13.7453    17.3809    0.773      121.5692  
2673.4     16.5155    10.8355    16.1818    14.3178    20.7737    22.4081    9.7379     17.9058    0.797      123.1258  
2673.6     16.0059    11.7621    19.8035    14.8324    21.7407    22.6567    12.8398    17.2772    0.79       124.4275  
2673.8     15.0953    13.7441    26.0345    14.1528    18.6028    20.9686    14.3041    14.8861    0.797      126.0158  
2674       13.8586    12.7667    26.0608    12.3925    14.465     17.8801    7.9176     12.5469    0.787      126.08    
2674.2     12.6491    12.787     26.7576    10.658     9.9588     14.6477    7.6574     9.8318     0.787      123.1783  
2674.4     11.9763    10.8932    23.2871    9.6419     7.8603     9.9758     6.2642     8.2378     0.777      119.7317  
2674.6     11.3172    9.6646     20.773     8.8038     5.7684     8.0652     5.7853     6.864      0.784      118.095   
2674.8     11.025     10.228     20.7368    9.3313     4.2389     6.2854     7.9575     5.9407     0.777      117.545   
2675       10.5595    9.7461     18.0485    10.1856    3.1436     4.3747     6.3228     5.5875     0.763      117.2033  
2675.2     10.2232    8.9383     15.8696    10.0496    2.4529     3.354      5.8047     5.4514     0.757      116.69    
2675.4     10.0465    8.7482     15.255     9.8749     1.92       2.6342     5.9823     4.9687     0.763      116.08    
2675.6     9.9684     8.8704     15.2485    9.9332     1.6108     2.0192     6.3942     4.635      0.787      115.5258  
2675.8     9.9446     8.6193     14.1081    9.9882     1.4003     1.8359     6.1339     4.3887     0.784      115.195   
2676       9.8359     8.5921     13.7236    9.959      1.2786     1.7182     6.1584     4.3272     0.777      114.4633  
2676.2     9.5844     8.6566     13.6578    9.9396     1.3016     1.5742     6.3517     4.5896     0.77       113.4958  
2676.4     9.1563     8.9587     14.1902    9.8846     1.4003     1.4957     6.6935     4.6544     0.773      111.8417  
2676.6     8.2764     9.3727     14.8015    9.7584     1.6634     1.3779     6.5996     4.6188     0.78       108.465   
2676.8     6.9751     9.0197     13.855     8.5385     2.0318     1.2732     7.0298     4.9525     0.77       104.9517  
2677       6.7033     6.7594     10.4437    7.1049     2.489      1.3125     5.2105     6.3165     0.757      104.0667  
2677.2     6.3329     5.5443     9.6418     7.2344     3.7488     1.3256     3.3929     8.4322     0.743      104.605   
2677.4     6.4926     6.0602     11.1437    7.6777     4.8277     1.3256     3.4647     9.1385     0.767      105.1483  
2677.6     6.8935     6.5557     9.9245     7.4609     5.3177     1.3125     6.3976     8.4581     0.773      104.8217  
2677.8     6.9105     7.8251     9.3198     6.2701     4.8671     1.2209     5.2241     7.3209     0.78       103.7267  
2678       6.8799     6.6304     7.4038     4.9466     4.4527     1.0638     5.0033     7.5055     0.777      103.1742  
2678.2     6.8935     5.8973     6.9338     4.1732     4.1172     1.0246     3.785      8.4548     0.775      103.2658  
