~Version
 VERS              .         2.0                           : CWLS LOG ASCII STANDARD - VERSION 2.0
 WRAP              .         NO                            : ONE LINE PER DEPTH STEP
 DLM               .         SPACE                         : DELIMITING CHARACTER(SPACE TAB OR COMMA)
~Well Information
#_______________________________________________________________________________
#
#PARAMETER_NAME    .UNIT     VALUE                         : DESCRIPTION
#_______________________________________________________________________________
STRT               .m        2531                          : First reference value
STOP               .m        2738                          : Last reference value
STEP               .m        0.2                           : Step increment
NULL               .         -9999                         : Missing value
COMP               .                                       : Company
WELL               .         502                           : Well name
FLD                .                                       : Field
LOC                .                                       : Location
CNTY               .                                       : County
STAT               .                                       : State
CTRY               .                                       : Country
SRVC               .                                       : Service Company
DATE               .                                       : Date
API                .                                       : API number
EREF               .m        139.4                         : 
X                  .m        230550                        : 
Y                  .m        242075                        : 
group              .         Pad5                          : 
Интер-р            .         Пузин                         : 
Куст               .         5                             : 
Статус             .         Не проверено                  : 
Тип                .         Эксплуатация                  : 
~Parameter Information Block
#_______________________________________________________________________________
#
#PARAMETER_NAME    .UNIT     VALUE                         : DESCRIPTION
#_______________________________________________________________________________
SET                .         LAS3                          : 
REAL_CREATION_DATE .         Ср апр 11 2012-13_17_18       : 
TLFamily_DEPTH     .         Measured Depth                : 
TLFamily_GR        .         Gamma Ray                     : 
TLFamily_TNPH      .         Neutron Porosity              : 
group              .         INI                           : 
~Curve Information
#_______________________________________________________________________________
#
#LOGNAME           .UNIT     LOG_ID                        : DESCRIPTION
#_______________________________________________________________________________
DEPTH              .m                                      : Measured Depth 
GR                 .gAPI                                   :  
TNPH               .v/v                                    : Neutron Porosity 
~Ascii
# ...
2628.2     158.58     0.261     
2628.4     158.71     0.306     
2628.6     146.64     0.319     
2628.8     138.46     0.274     
2629       135.4      0.237     
2629.2     144.85     0.244     
2629.4     143.99     0.257     
2629.6     155.33     0.29      
2629.8     152.58     0.308     
2630       153.75     0.303     
2630.2     147.03     0.317     
2630.4     153.58     0.273     
2630.6     157.57     0.254     
2630.8     169.54     0.273     
2631       181.1      0.246     
2631.2     142.84     0.255     
2631.4     128.52     0.245     
2631.6     134.48     0.274     
2631.8     129.41     0.229     
2632       120.47     0.219     
2632.2     116.13     0.254     
2632.4     114.61     0.27      
2632.6     113.8      0.249     
2632.8     114.11     0.28      
2633       116.62     0.252     
2633.2     111.71     0.233     
2633.4     109.37     0.234     
2633.6     111.04     0.246     
2633.8     120.83     0.295     
2634       122.65     0.302     
2634.2     122.05     0.236     
2634.4     121.39     0.19      
2634.6     126.75     0.206     
2634.8     123.78     0.213     
2635       120.75     0.254     
2635.2     116.94     0.239     
2635.4     117.56     0.27      
2635.6     123.58     0.275     
2635.8     124.39     0.285     
2636       126.21     0.276     
2636.2     137.13     0.288     
2636.4     139.06     0.3       
2636.6     139.64     0.315     
2636.8     132.3      0.237     
2637       121.85     0.215     
2637.2     109.96     0.227     
2637.4     115.54     0.256     
2637.6     128.2      0.258     
2637.8     136.19     0.237     
2638       132.01     0.235     
2638.2     114.14     0.207     
2638.4     99.37      0.221     
2638.6     97.78      0.201     
2638.8     99.02      0.221     
2639       102.52     0.275     
2639.2     118.2      0.259     
2639.4     141.84     0.254     
2639.6     140.19     0.276     
2639.8     139.48     0.287     
2640       135.59     0.271     
2640.2     127.63     0.241     
2640.4     115.33     0.251     
2640.6     108.75     0.244     
2640.8     109.23     0.242     
2641       113.11     0.25      
2641.2     124.11     0.262     
2641.4     130.32     0.332     
2641.6     150.9      0.323     
2641.8     151.97     0.333     
2642       142.22     0.326     
2642.2     142.6      0.284     
2642.4     145.01     0.277     
2642.6     148.59     0.321     
2642.8     146.94     0.256     
2643       139.29     0.3       
2643.2     143.72     0.377     
2643.4     151.52     0.312     
2643.6     152.18     0.264     
2643.8     150.43     0.322     
2644       157.46     0.308     
2644.2     169.29     0.335     
2644.4     178.33     0.38      
2644.6     195.42     0.378     
2644.8     196.5      0.334     
2645       171.03     0.271     
2645.2     142.81     0.232     
2645.4     122.4      0.265     
2645.6     120.47     0.293     
2645.8     124.64     0.313     
2646       135.17     0.337     
2646.2     133.43     0.343     
2646.4     123.94     0.29      
2646.6     118.3      0.258     
2646.8     122.85     0.271     
2647       132.06     0.263     
2647.2     130.29     0.267     
2647.4     126.46     0.261     
2647.6     128.01     0.243     
2647.8     133.47     0.224     
2648       143.78     0.25      
2648.2     145.66     0.26      
2648.4     138.11     0.318     
2648.6     129.75     0.252     
2648.8     121.61     0.223     
2649       119.28     0.24      
2649.2     114.31     0.253     
2649.4     119.89     0.213     
2649.6     124.12     0.248     
2649.8     127.08     0.297     
2650       126.48     0.314     
2650.2     127.42     0.294     
2650.4     131.14     0.274     
2650.6     122.21     0.242     
2650.8     117.2      0.297     
2651       116.97     0.312     
2651.2     120.83     0.316     
2651.4     114.27     0.297     
2651.6     111.77     0.277     
2651.8     121.09     0.256     
2652       115.95     0.28      
2652.2     115.22     0.253     
2652.4     115.08     0.257     
2652.6     113.57     0.293     
2652.8     114.86     0.29      
2653       109.23     0.237     
2653.2     93.64      0.217     
2653.4     65.08      0.198     
2653.6     57.3       0.199     
2653.8     91.28999   0.215     
2654       126.09     0.317     
2654.2     134.28     0.3       
2654.4     129.55     0.282     
2654.6     127.73     0.286     
2654.8     120.64     0.251     
2655       116.64     0.277     
2655.2     107.83     0.274     
2655.4     102.94     0.295     
2655.6     110.06     0.294     
2655.8     109.54     0.272     
2656       114.44     0.229     
2656.2     117.11     0.221     
2656.4     122.23     0.229     
2656.6     124.3      0.197     
2656.8     124.48     0.213     
2657       117.31     0.249     
2657.2     119.92     0.265     
2657.4     123.83     0.267     
2657.6     121.69     0.262     
2657.8     121.03     0.279     
2658       124.5      0.272     
2658.2     130.27     0.266     
2658.4     129.91     0.25      
2658.6     136.71     0.206     
2658.8     135.37     0.198     
2659       134.65     0.201     
2659.2     140.78     0.205     
2659.4     142.53     0.214     
2659.6     135.96     0.222     
2659.8     128.97     0.227     
2660       126.15     0.266     
2660.2     126.38     0.268     
2660.4     130.62     0.283     
2660.6     134.85     0.299     
2660.8     125.31     0.285     
2661       122.2      0.306     
2661.2     119.75     0.271     
2661.4     119.62     0.248     
2661.6     119.59     0.204     
2661.8     112.54     0.19      
2662       109.54     0.208     
2662.2     115.61     0.261     
2662.4     111.01     0.258     
2662.6     116.83     0.223     
2662.8     115.3      0.266     
2663       120.68     0.251     
2663.2     126.56     0.245     
2663.4     130.15     0.298     
2663.6     134.75     0.312     
2663.8     127.97     0.348     
2664       123.03     0.32      
2664.2     125.12     0.266     
2664.4     122.98     0.292     
2664.6     121.99     0.239     
2664.8     119.72     0.239     
2665       128.6      0.232     
2665.2     133.13     0.27      
2665.4     132.98     0.28      
2665.6     132.73     0.267     
2665.8     130.49     0.268     
2666       126.23     0.229     
2666.2     119.85     0.253     
2666.4     123.61     0.262     
2666.6     131.76     0.269     
2666.8     127.09     0.266     
2667       126.39     0.232     
2667.2     126.61     0.232     
2667.4     127.94     0.201     
2667.6     130.1      0.202     
2667.8     127.46     0.226     
2668       125.67     0.247     
2668.2     119.54     0.276     
2668.4     111.35     0.246     
2668.6     112.3      0.231     
2668.8     103.07     0.224     
2669       104.15     0.194     
2669.2     118.3      0.156     
2669.4     130.7      0.176     
2669.6     145.93     0.151     
2669.8     121.71     0.177     
2670       89.66      0.176     
2670.2     78.10001   0.161     
2670.4     68.64      0.156     
2670.6     64.7       0.157     
2670.8     65.77      0.154     
2671       61.48      0.165     
2671.2     51.69      0.179     
2671.4     44.76      0.178     
2671.6     41.99      0.19      
2671.8     39.55      0.163     
2672       39.93      0.151     
2672.2     42.17      0.135     
2672.4     43.52      0.125     
2672.6     39.65      0.117     
2672.8     36.6       0.125     
2673       32.16      0.102     
2673.2     30.04      0.108     
2673.4     33         0.109     
2673.6     32.51      0.11      
2673.8     33.75      0.122     
2674       39.04      0.151     
2674.2     41.74      0.161     
2674.4     42.42      0.168     
2674.6     39.73      0.165     
2674.8     40.21      0.151     
2675       41.25      0.183     
2675.2     50.37      0.178     
2675.4     49.65      0.173     
2675.6     48.81      0.165     
2675.8     45.94      0.182     
2676       45.13      0.19      
2676.2     46.51      0.196     
2676.4     44.72      0.214     
2676.6     39.34      0.224     
