~Version
 VERS              .         2.0                           : CWLS LOG ASCII STANDARD - VERSION 2.0
 WRAP              .         NO                            : ONE LINE PER DEPTH STEP
 DLM               .         SPACE                         : DELIMITING CHARACTER(SPACE TAB OR COMMA)
~Well Information
#_______________________________________________________________________________
#
#PARAMETER_NAME    .UNIT     VALUE                         : DESCRIPTION
#_______________________________________________________________________________
STRT               .m        2531                          : First reference value
STOP               .m        2738                          : Last reference value
STEP               .m        0.2                           : Step increment
NULL               .         -9999                         : Missing value
COMP               .                                       : Company
WELL               .         502                           : Well name
FLD                .                                       : Field
LOC                .                                       : Location
CNTY               .                                       : County
STAT               .                                       : State
CTRY               .                                       : Country
SRVC               .                                       : Service Company
DATE               .                                       : Date
API                .                                       : API number
EREF               .m        139.4                         : 
X                  .m        230550                        : 
Y                  .m        242075                        : 
group              .         Pad5                          : 
Интер-р            .         Пузин                         : 
Куст               .         5                             : 
Статус             .         Не проверено                  : 
Тип                .         Эксплуатация                  : 
~Parameter Information Block
#_______________________________________________________________________________
#
#PARAMETER_NAME    .UNIT     VALUE                         : DESCRIPTION
#_______________________________________________________________________________
SET                .         LAS1                          : 
REAL_CREATION_DATE .         Ср апр 11 2012-13_17_18       : 
TLFamily_DEPTH     .         Measured Depth                : 
TLFamily_KS        .         Potential Resistivity         : 
TLFamily_KS1       .         Extra Shallow Resistivity     : 
TLFamily_KS2       .         Shallow Resistivity           : 
TLFamily_KS3       .         Medium Resistivity            : 
TLFamily_KS4       .         Deep Resistivity              : 
TLFamily_KS5       .         Extra Deep Resistivity        : 
TLFamily_LLD       .         Lateral Log Resistivity       : 
TLFamily_OKS3      .         Medium Resistivity Inverted   : 
TLFamily_RM        .         Mud Resistivity               : 
TLFamily_SP        .         Spontaneous Potential         : 
group              .         INI                           : 
~Curve Information
#_______________________________________________________________________________
#
#LOGNAME           .UNIT     LOG_ID                        : DESCRIPTION
#_______________________________________________________________________________
DEPTH              .m                                      : Measured Depth 
KS                 .ohm.m                                  : Potential Resistivity 
KS1                .ohm.m                                  : Extra Shallow Resistivity 
KS2                .ohm.m                                  : Shallow Resistivity 
KS3                .ohm.m                                  : Medium Resistivity 
KS4                .ohm.m                                  : Deep Resistivity 
KS5                .ohm.m                                  : Extra Deep Resistivity 
LLD                .ohm.m                                  : Lateral Log Resistivity 
OKS3               .ohm.m                                  : Medium Resistivity Inverted 
RM                 .ohm.m                                  : Mud Resistivity 
SP                 .mV                                     : Spontaneous Potential 
~Ascii
# ...
2678.4     7.4236     5.7548     7.6897     3.9078     4.0514     1.0638     4.16       10.0392    0.767      104.3908  
2678.6     8.9525     5.6631     7.9033     3.9111     4.2093     1.1031     4.6543     10.9723    0.77       105.8933  
2678.8     10.3795    6.61       8.3141     4.1279     4.5711     1.1554     5.615      11.4583    0.765      106.9767  
2679       11.5415    8.0626     8.9582     4.3738     5.0382     1.247      7.9313     11.5717    0.76       107.4767  
2679.2     11.922     9.2505     10.0986    4.6748     5.3276     1.2994     8.5963     11.4648    0.757      107.8583  
2679.4     11.9356    9.9158     12.639     5.364      5.5447     1.3517     8.5671     11.4324    0.75       108.8583  
2679.6     11.9865    9.875      14.5846    6.2442     5.7486     1.4172     8.4398     11.7693    0.746      109.9     
2679.8     12.119     9.4813     15.6823    6.8978     5.8407     1.4564     7.9897     12.0739    0.76       110.015   
2680       12.3909    9.2641     16.0241    7.0143     5.8572     1.4826     7.5551     12.2715    0.777      109.1967  
2680.2     12.8733    9.298      16.2015    7.0338     5.7684     1.535      7.8838     12.2423    0.777      108.32    
2680.4     13.4373    9.5492     16.5269    7.2085     5.6368     1.5742     8.4357     12.0674    0.767      108.1308  
2680.6     13.7091    10.004     16.8523    7.8557     5.4        1.6396     9.0212     11.8276    0.77       108.1792  
2680.8     13.8009    10.4045    17.595     8.5935     5.1631     1.8229     9.1809     11.1958    0.773      107.8725  
2681       13.6684    10.6217    18.3541    9.3895     4.9197     2.0977     8.9254     10.726     0.77       107.7758  
2681.2     13.2674    10.7642    19.3368    9.849      4.6665     2.4641     8.5785     10.6742    0.765      107.8558  
2681.4     12.8903    11.0154    20.3096    9.9137     4.4658     3.0007     8.5409     11.4712    0.757      108.2242  
2681.6     12.7986    10.2585    18.6927    9.7261     4.4856     3.354      7.8604     12.2942    0.75       109.23    
2681.8     12.7646    9.4406     17.8513    9.396      4.4099     3.812      6.6244     13.953     0.773      110.3267  
2682       13.1417    9.5492     17.8448    9.383      4.308      4.5318     8.0173     16.3376    0.784      110.8558  
2682.2     13.3897    9.8479     17.4339    9.5351     4.1895     5.0814     8.2537     18.4371    0.78       111.81    
2682.4     13.383     10.2959    17.4241    9.8814     4.2849     6.1153     8.1562     22.1047    0.77       115.1217  
2682.6     13.0296    10.2416    17.4011    10.3409    4.9592     7.1491     8.515      25.0336    0.773      119.0833  
2682.8     12.7306    10.7846    19.0805    11.1369    6.0183     8.0128     7.9986     27.6645    0.784      123.7883  
2683       12.7238    10.3094    18.9753    11.5317    7.0018     8.9354     8.3889     30.0523    0.773      129.5267  
2683.2     13.7023    9.3184     16.6353    11.1175    7.1761     9.6879     6.7999     33.1983    0.763      132.1608  
2683.4     15.0546    7.6723     14.3809    10.3441    7.3242     9.9889     6.5154     35.5764    0.75       131.1983  
2683.6     16.4476    8.6396     16.379     10.2179    7.5972     10.1459    8.4702     36.5678    0.76       129.2967  
2683.8     18.6221    9.4711     16.7997    10.4865    7.7748     10.3946    13.2981    37.5787    0.767      126.9492  
2684       20.4975    8.2595     15.071     10.3409    8.005      10.7087    8.8994     40.5141    0.787      122.9183  
2684.2     22.6652    7.8115     15.4851    10.5027    8.6661     11.1013    7.9845     43.0931    0.8        117.165   
2684.4     26.8408    8.8365     19.0837    12.1821    9.3799     11.4415    10.8541    39.8596    0.78       113.1108  
2684.6     29.5555    12.0539    25.4627    15.2854    10.1397    11.5855    25.0923    33.2631    0.792      111.015   
2684.8     29.3245    15.7262    31.1285    18.1136    10.985     11.3107    45.7504    24.742     0.79       109.7617  
2685       26.62      19.2016    37.9577    21.0389    11.064     11.0097    50.3251    22.176     0.784      110.2608  
2685.2     25.261     18.2174    42.7855    22.9901    10.314     10.8134    28.4821    24.4504    0.773      111.7225  
2685.4     24.9824    13.8256    36.9981    22.1715    8.972      10.5255    10.8889    30.6517    0.753      113.2775  
2685.6     25.3731    10.4588    31.1219    21.822     8.6694     10.3946    7.9861     36.8918    0.763      114.7917  
2685.8     25.9745    12.0743    36.4065    26.2423    9.324      10.9966    12.6598    35.8486    0.79       116.345   
2686       26.09      15.6719    42.4733    30.436     10.3403    12.0566    48.0077    32.2587    0.804      118.9217  
2686.2     26.1409    17.1381    38.7464    32.52      10.8403    12.5015    39.8584    34.9284    0.777      121.9125  
2686.4     24.4319    13.7781    32.8243    34.1962    11.2909    12.9203    7.8407     34.896     0.787      125.0108  
2686.6     22.5429    15.0746    38.4244    39.6261    12.8533    13.0119    24.6109    30.8202    0.79       127.7125  
2686.8     18.4794    18.9844    47.2912    45.4734    13.2348    12.2267    30.9589    24.4764    0.8        129.36    
2687       19.4307    17.1856    41.0551    37.5422    12.1691    11.4677    17.4516    31.5135    0.797      131.035   
2687.2     20.1646    5.7615     15.4457    24.2878    9.0247     10.4077    3.5371     36.8789    0.757      133.1167  
2687.4     24.3776    6.067      17.848     17.447     8.6563     9.7533     14.1528    29.6732    0.76       135.01    
2687.6     31.2271    8.4563     22.1171    20.1619    10.1364    9.8057     50.4272    23.0378    0.784      136.6783  
2687.8     34.2646    13.0043    26.0805    24.2295    12.327     9.544      110.5413   17.6628    0.807      138.3833  
2688       34.1899    17.5454    30.8919    29.9377    13.7151    9.1121     80.9617    14.7371    0.787      140.7033  
2688.2     31.4854    18.8351    41.6122    32.9277    14.7215    8.6541     32.8425    12.7478    0.785      142.9283  
2688.4     26.5283    20.0162    52.8067    34.7657    16.478     7.581      25.4035    10.6742    0.8        144.135   
2688.6     21.2246    21.7301    62.6284    37.9272    17.0898    7.0052     39.9499    9.6957     0.79       144.6758  
2688.8     18.3299    16.8462    51.698     34.9663    15.113     6.7892     20.684     9.7411     0.768      144.8275  
2689       15.7341    13.4183    41.8357    29.9442    13.3927    7.3454     8.1174     10.2563    0.753      144.7475  
2689.2     13.614     11.0527    34.622     27.3166    13.4914    7.9867     7.1893     11.0824    0.763      145.0617  
2689.4     12.0783    10.0651    30.6947    35.3288    15.9616    8.2484     6.7648     13.1495    0.787      145.53    
2689.6     11.2051    10.6149    31.4374    38.6941    17.5766    8.3269     6.2627     13.0264    0.794      145.785   
2689.8     12.0443    8.4869     21.3941    35.0925    16.1425    8.2615     6.9953     10.7131    0.777      146.1058  
2690       13.1519    7.0241     14.2757    24.3913    12.2974    7.666      6.9114     9.1838     0.782      146.8225  
2690.2     13.3965    7.2617     12.7639    19.984     10.4456    7.3716     6.7883     9.9063     0.773      147.2075  
2690.4     13.4985    7.7674     12.9677    17.7156    11.0508    8.8373     7.6921     12.3266    0.757      146.87    
2690.6     13.5392    7.8658     14.7424    17.4146    14.5472    12.6324    7.066      15.8257    0.753      146.04    
2690.8     13.546     8.3953     17.8382    19.0261    19.9185    16.205     7.8507     22.2246    0.763      144.9917  
2691       13.281     9.1419     21.6044    22.851     26.3324    17.5399    8.7595     30.7683    0.76       143.6525  
2691.2     12.5743    11.7553    27.2439    26.2617    31.082     18.011     9.1429     33.0104    0.794      142.5542  
2691.4     12.5064    12.5427    25.2918    24.689     28.9243    16.8201    16.6298    28.5133    0.773      141.8658  
2691.6     12.255     10.8728    20.1321    19.6377    22.0038    14.1243    8.6838     20.258     0.787      142.0758  
