~Version
 VERS              .         2.0                           : CWLS LOG ASCII STANDARD - VERSION 2.0
 WRAP              .         NO                            : ONE LINE PER DEPTH STEP
 DLM               .         SPACE                         : DELIMITING CHARACTER(SPACE TAB OR COMMA)
~Well Information
#_______________________________________________________________________________
#
#PARAMETER_NAME    .UNIT     VALUE                         : DESCRIPTION
#_______________________________________________________________________________
STRT               .m        2531                          : First reference value
STOP               .m        2738                          : Last reference value
STEP               .m        0.2                           : Step increment
NULL               .         -9999                         : Missing value
COMP               .                                       : Company
WELL               .         502                           : Well name
FLD                .                                       : Field
LOC                .                                       : Location
CNTY               .                                       : County
STAT               .                                       : State
CTRY               .                                       : Country
SRVC               .                                       : Service Company
DATE               .                                       : Date
API                .                                       : API number
EREF               .m        139.4                         : 
X                  .m        230550                        : 
Y                  .m        242075                        : 
group              .         Pad5                          : 
Интер-р            .         Пузин                         : 
Куст               .         5                             : 
Статус             .         Не проверено                  : 
Тип                .         Эксплуатация                  : 
~Parameter Information Block
#_______________________________________________________________________________
#
#PARAMETER_NAME    .UNIT     VALUE                         : DESCRIPTION
#_______________________________________________________________________________
SET                .         LAS1                          : 
REAL_CREATION_DATE .         Ср апр 11 2012-13_17_18       : 
TLFamily_DEPTH     .         Measured Depth                : 
TLFamily_KS        .         Potential Resistivity         : 
TLFamily_KS1       .         Extra Shallow Resistivity     : 
TLFamily_KS2       .         Shallow Resistivity           : 
TLFamily_KS3       .         Medium Resistivity            : 
TLFamily_KS4       .         Deep Resistivity              : 
TLFamily_KS5       .         Extra Deep Resistivity        : 
TLFamily_LLD       .         Lateral Log Resistivity       : 
TLFamily_OKS3      .         Medium Resistivity Inverted   : 
TLFamily_RM        .         Mud Resistivity               : 
TLFamily_SP        .         Spontaneous Potential         : 
group              .         INI                           : 
~Curve Information
#_______________________________________________________________________________
#
#LOGNAME           .UNIT     LOG_ID                        : DESCRIPTION
#_______________________________________________________________________________
DEPTH              .m                                      : Measured Depth 
KS                 .ohm.m                                  : Potential Resistivity 
KS1                .ohm.m                                  : Extra Shallow Resistivity 
KS2                .ohm.m                                  : Shallow Resistivity 
KS3                .ohm.m                                  : Medium Resistivity 
KS4                .ohm.m                                  : Deep Resistivity 
KS5                .ohm.m                                  : Extra Deep Resistivity 
LLD                .ohm.m                                  : Lateral Log Resistivity 
OKS3               .ohm.m                                  : Medium Resistivity Inverted 
RM                 .ohm.m                                  : Mud Resistivity 
SP                 .mV                                     : Spontaneous Potential 
~Ascii
2531.0     1.4981     0          0.0652     -9999      0.016      39.7871    689.1415   23.0152    0.797      125.7233  
2531.2     4.8822     1.3121     0.0586     -9999      0          39.7871    151.4039   16.2858    0.8        132.4442  
2531.4     6.3159     4.4175     0.0652     -9999      0          39.5516    548.7884   13.5707    0.807      136.3683  
2531.6     7.308      5.5443     0.0652     -9999      0          0          151.6142   12.1711    0.811      138.695   
2531.8     7.9332     6.0127     1.9351     -9999      0          0          830.4026   11.549     0.814      140.0083  
2532       8.3817     6.0127     6.0793     -9999      0          0          125.8684   11.6916    0.807      140.7683  
2532.2     8.4632     6.9902     8.8597     -9999      0          0          80.6038    11.7628    0.814      141.2733  
2532.4     8.7011     7.9167     10.5193    -9999      0          0          142.4717   11.8957    0.807      142.1833  
2532.6     8.5787     7.7572     10.5029    -9999      0          0          184.8047   12.5469    0.811      143.1233  
2532.8     8.3409     7.6146     10.9038    -9999      0          0          0          13.6031    0.814      143.65    
2533       8.2322     7.282      11.0418    1.1314     0          0          0          15.1453    0.814      144.1517  
2533.2     8.2866     6.8612     11.0681    3.9014     0          0          1.7009     17.4327    0.817      144.1625  
2533.4     8.4972     6.7186     10.8381    5.0922     0          0          2.2096     19.7331    0.814      143.3408  
2533.6     9.102      6.6304     10.3977    5.7717     0          0          2.2529     22.5518    0.814      141.9267  
2533.8     10.0465    6.3555     9.8029     5.9594     0          0          2.7163     27.5025    0.814      139.4125  
2534       11.1269    6.3792     9.5498     6.0306     0          0          9.2681     30.0491    0.824      135.0692  
2534.2     12.5709    7.1802     10.286     6.2054     0          0          10.0698    30.1333    0.827      130.3583  
2534.4     14.5585    8.3206     11.4362    6.5872     0          0.3964     9.4678     28.549     0.824      127.2958  
2534.6     15.8972    9.3048     12.1921    6.7749     0          0.4095     9.0807     26.2713    0.824      125.495   
2534.8     17.4057    9.1284     12.8822    6.9431     0          0.4226     12.2056    24.8587    0.824      124.5267  
2535       20.3243    9.3863     14.6865    7.5191     0.6212     0.4357     14.6029    23.0054    0.821      124.3625  
2535.2     23.0729    10.1635    17.4307    8.3605     2.591      0.4357     16.9789    19.9469    0.821      124.8033  
2535.4     25.0367    11.2869    19.5603    9.4866     3.933      0.4357     19.76      17.8928    0.821      125.78    
2535.6     27.184     12.1218    22.1565    11.7097    5.5019     0.4357     22.0448    16.2599    0.821      126.285   
2535.8     28.3709    13.3255    27.8078    14.3813    6.788      0.4226     26.3219    14.342     0.821      126.3667  
2536       28.2509    15.2511    35.2628    17.8482    7.9392     0.4095     29.6616    11.7564    0.831      125.9617  
2536.2     25.2474    17.7219    43.2587    24.2554    9.3536     0.3899     24.6811    9.767      0.831      124.6683  
2536.4     21.0072    20.196     50.6236    29.284     10.1233    0.3702     18.5699    8.4386     0.827      123.3833  
2536.6     17.4125    21.2787    54.8681    32.0346    10.0377    0.3702     7.602      7.1556     0.833      121.54    
2536.8     14.5687    17.1449    47.4358    31.3324    8.9819     0.3572     6.0624     6.5595     0.827      119.35    
2537       12.0035    13.4183    35.0624    26.8895    7.0314     0.3572     6.1421     6.1318     0.827      117.7517  
2537.2     11.093     10.4724    28.243     24.4172    6.1631     0.3702     6.3543     5.918      0.827      117.1417  
2537.4     10.6581    9.6239     23.6486    21.9611    5.571      0.3702     6.3717     5.8921     0.827      117.7383  
2537.6     10.3489    9.298      19.5833    19.2332    5.2026     0.3702     6.3543     5.9633     0.824      119.2792  
2537.8     9.9786     9.1317     15.9058    17.57      5.2289     0.4226     6.7984     6.1189     0.824      121.6067  
2538       9.3942     9.5764     15.4785    16.2821    5.446      0.4619     6.1985     6.2484     0.827      125.0733  
2538.2     9.0782     9.5696     14.8607    14.3114    5.8374     0.4357     4.5102     6.5465     0.824      128.9275  
2538.4     8.9661     8.1034     12.5766    12.2112    5.9328     0.4291     5.2874     6.8802     0.827      130.8383  
2538.6     9.1427     7.0852     11.6334    10.8716    6.0315     0.4357     7.1271     7.1492     0.834      130.165   
2538.8     9.3194     7.669      12.0081    10.0011    6.3407     0.4095     7.6599     7.2204     0.834      129.9967  
2539       8.9831     8.8025     12.856     9.3572     6.959      0.3833     6.355      7.2042     0.841      132.4092  
2539.2     8.4157     9.0673     12.409     8.9171     7.3274     1.4172     5.0335     7.4407     0.841      136.9592  
2539.4     7.9128     8.2391     11.8897    8.4705     7.6333     2.6342     4.6294     7.7712     0.848      140.9142  
2539.6     7.5051     7.3228     11.5808    8.0013     8.005      3.4325     4.8263     8.2119     0.848      142.9242  
2539.8     7.3896     6.5999     11.1766    7.7004     8.1892     4.2308     4.9871     8.6395     0.851      144.0417  
2540       7.4507     6.3657     10.562     7.4674     8.2747     4.5972     5.1411     8.7886     0.854      144.1033  
2540.2     7.5425     6.3521     9.9902     7.2279     8.2024     4.8459     5.1221     8.9441     0.861      143.7608  
2540.4     7.7226     6.42       9.4874     6.9302     8.0182     5.0422     5.0022     9.0834     0.858      142.9783  
2540.6     8.0012     6.3114     9.208      6.7102     7.7024     5.173      5.0751     9.1644     0.851      141.7117  
2540.8     8.538      6.0534     8.9911     6.5484     7.2913     5.2254     5.4583     9.3912     0.851      140.1283  
2541       9.2787     6.1756     8.9648     6.4545     6.8275     5.2385     7.0709     9.6115     0.854      137.6542  
2541.2     9.9446     6.963      9.8456     6.5484     6.5907     5.2516     8.7138     9.2162     0.848      134.7342  
2541.4     10.3455    8.1373     10.9564    6.6584     6.3604     5.2777     8.7519     8.5553     0.851      133.2008  
2541.6     10.4067    9.22       11.8996    6.8105     6.0315     5.4151     6.5325     8.0628     0.851      133.7575  
2541.8     10.0125    8.9111     12.5536    6.982      5.8539     5.474      6.7795     7.9851     0.851      134.1625  
2542       9.9514     9.0537     13.7236    7.0985     5.742      5.5395     6.3956     8.0563     0.834      134.2092  
2542.2     10.2606    7.9473     12.9348    7.2473     5.548      5.6049     6.6898     8.0239     0.858      133.4883  
2542.4     10.1824    8.4597     13.5527    7.4674     5.5052     5.7488     8.1332     7.8393     0.848      133.135   
2542.6     10.2775    8.9994     13.8287    7.7327     5.5513     5.8797     6.7232     7.7064     0.851      134.2667  
2542.8     10.4168    9.0265     13.3029    7.9172     5.7026     6.1545     6.1239     7.849      0.848      135.8117  
2543       10.1145    8.0525     12.8264    8.4511     6.1762     6.4359     10.1562    8.1697     0.861      137.0483  
2543.2     9.5097     9.5153     14.9395    9.1371     6.4591     6.7042     7.3756     8.011      0.868      139.28    
2543.4     9.2175     9.7732     15.8597    9.5643     6.4229     6.8743     5.1789     7.7129     0.854      142.47    
2543.6     8.4225     8.9179     14.0259    9.0789     6.1631     6.9397     5.0843     7.4116     0.848      144.0908  
2543.8     7.8856     7.5332     12.409     8.5676     6.1104     6.9005     4.9473     7.1686     0.848      144.99    
2544       7.7497     6.6508     11.686     8.1922     6.0907     6.9528     5.013      7.1168     0.841      145.49    
2544.2     7.7497     6.3249     11.2982    7.9301     6.1335     7.0313     5.3777     7.1492     0.844      145.5575  
