~Version
 VERS              .         2.0                           : CWLS LOG ASCII STANDARD - VERSION 2.0
 WRAP              .         NO                            : ONE LINE PER DEPTH STEP
 DLM               .         SPACE                         : DELIMITING CHARACTER(SPACE TAB OR COMMA)
~Well Information
#_______________________________________________________________________________
#
#PARAMETER_NAME    .UNIT     VALUE                         : DESCRIPTION
#_______________________________________________________________________________
STRT               .m        2531                          : First reference value
STOP               .m        2738                          : Last reference value
STEP               .m        0.2                           : Step increment
NULL               .         -9999                         : Missing value
COMP               .                                       : Company
WELL               .         502                           : Well name
FLD                .                                       : Field
LOC                .                                       : Location
CNTY               .                                       : County
STAT               .                                       : State
CTRY               .                                       : Country
SRVC               .                                       : Service Company
DATE               .                                       : Date
API                .                                       : API number
EREF               .m        139.4                         : 
X                  .m        230550                        : 
Y                  .m        242075                        : 
group              .         Pad5                          : 
Интер-р            .         Пузин                         : 
Куст               .         5                             : 
Статус             .         Не проверено                  : 
Тип                .         Эксплуатация                  : 
~Parameter Information Block
#_______________________________________________________________________________
#
#PARAMETER_NAME    .UNIT     VALUE                         : DESCRIPTION
#_______________________________________________________________________________
SET                .         LAS1                          : 
REAL_CREATION_DATE .         Ср апр 11 2012-13_17_18       : 
TLFamily_DEPTH     .         Measured Depth                : 
TLFamily_KS        .         Potential Resistivity         : 
TLFamily_KS1       .         Extra Shallow Resistivity     : 
TLFamily_KS2       .         Shallow Resistivity           : 
TLFamily_KS3       .         Medium Resistivity            : 
TLFamily_KS4       .         Deep Resistivity              : 
TLFamily_KS5       .         Extra Deep Resistivity        : 
TLFamily_LLD       .         Lateral Log Resistivity       : 
TLFamily_OKS3      .         Medium Resistivity Inverted   : 
TLFamily_RM        .         Mud Resistivity               : 
TLFamily_SP        .         Spontaneous Potential         : 
group              .         INI                           : 
~Curve Information
#_______________________________________________________________________________
#
#LOGNAME           .UNIT     LOG_ID                        : DESCRIPTION
#_______________________________________________________________________________
DEPTH              .m                                      : Measured Depth 
KS                 .ohm.m                                  : Potential Resistivity 
KS1                .ohm.m                                  : Extra Shallow Resistivity 
KS2                .ohm.m                                  : Shallow Resistivity 
KS3                .ohm.m                                  : Medium Resistivity 
KS4                .ohm.m                                  : Deep Resistivity 
KS5                .ohm.m                                  : Extra Deep Resistivity 
LLD                .ohm.m                                  : Lateral Log Resistivity 
OKS3               .ohm.m                                  : Medium Resistivity Inverted 
RM                 .ohm.m                                  : Mud Resistivity 
SP                 .mV                                     : Spontaneous Potential 
~Ascii
# ...
2638.2     13.3014    11.2122    22.7152    20.6765    14.4518    10.1067    8.5851     9.8837     0.802      148.6975  
2638.4     12.5505    9.875      20.5528    17.6088    11.9389    9.243      6.7121     9.6698     0.79       148.5058  
2638.6     12.1666    8.2934     18.0748    15.7837    10.4259    8.7326     5.8718     10.6677    0.787      148.5392  
2638.8     12.2142    7.3906     16.3133    14.6479    10.2746    9.2037     6.2947     12.2197    0.795      148.9525  
2639       12.6253    7.4178     15.9321    14.8194    10.9357    10.1198    7.2829     14.2122    0.814      149.0358  
2639.2     13.1587    7.9914     16.0241    15.5281    12.0968    11.6051    8.008      15.1713    0.831      148.85    
2639.4     13.5664    8.9994     16.3921    16.4374    12.6888    12.9334    9.2339     15.4434    0.838      148.7483  
2639.6     13.7873    9.5424     16.4645    16.9551    12.9355    13.5223    10.0137    15.0352    0.831      148.7467  
2639.8     13.4985    10.3196    17.3288    17.1946    12.8664    13.2213    10.0344    14.5297    0.821      149.0042  
2640       12.8393    10.6828    18.3969    16.7286    12.5309    12.5015    9.4397     13.7748    0.814      149.3683  
2640.2     12.4316    10.7031    19.0081    15.2466    11.2514    11.6902    9.4355     12.683     0.811      149.3017  
2640.4     12.1258    9.0707     16.4217    12.8843    9.8075     10.7806    6.7078     12.9227    0.814      148.8867  
2640.6     11.9831    8.1509     15.0842    10.6451    9.1694     10.159     6.6932     14.4423    0.821      148.7817  
2640.8     11.9186    7.4314     14.394     10.2697    9.5213     10.0674    6.1702     16.7783    0.821      148.93    
2641       12.2753    7.8319     15.0907    10.5156    10.0904    10.905     7.4589     18.5149    0.824      148.7758  
2641.2     13.05      7.4178     14.0062    11.344     10.8699    11.6116    7.5436     20.799     0.807      148.3983  
2641.4     13.7499    8.1237     14.6766    12.0559    11.8139    12.122     8.6657     22.0594    0.817      148.4917  
2641.6     14.3954    9.22       15.6001    13.3891    12.3402    12.6193    10.8569    22.8499    0.814      148.9275  
2641.8     14.8915    9.6442     15.8072    13.6674    12.3303    12.9465    10.2643    23.1447    0.804      148.9483  
2642       15.3807    9.8071     16.1752    13.4474    12.156     13.1755    9.436      24.3986    0.794      148.8033  
2642.2     15.8224    9.4508     16.563     13.3276    12.2283    13.5485    9.1099     25.4807    0.804      148.915   
2642.4     16.2369    9.5967     18.0748    13.4733    12.5079    13.8625    9.4284     26.1449    0.79       149.0583  
2642.6     17.4941    9.6578     18.6664    13.4927    12.5967    14.3991    10.5054    24.5541    0.794      148.8667  
2642.8     18.5337    10.1262    19.3335    13.3988    12.5836    15.59      11.747     23.1123    0.794      148.7633  
2643       19.5054    10.4045    19.8955    14.2758    13.623     16.7809    11.5394    22.4417    0.794      148.8233  
2643.2     19.9267    11.3039    22.0087    16.0102    14.7347    17.5202    11.8915    21.8067    0.797      148.7508  
2643.4     20.6402    12.0064    24.3782    17.6023    15.2906    18.3774    16.8715    21.2105    0.807      148.72    
2643.6     21.4251    11.7417    24.5556    18.3336    15.2873    19.0972    12.7091    20.6208    0.821      148.8933  
2643.8     21.5576    11.9929    25.5284    18.9776    15.8333    19.9347    13.2417    20.0506    0.831      149.3792  
2644       21.6935    12.3322    27.2374    20.5276    16.7411    21.1256    13.8545    19.4059    0.834      149.505   
2644.2     21.7207    12.4069    28.2496    22.1585    18.5008    22.4343    13.7784    18.1844    0.827      149.2367  
2644.4     20.7286    13.6016    31.2501    25.5012    19.9843    23.5859    14.4705    14.3483    0.827      149.5942  
2644.6     19.6345    15.5701    34.921     29.6788    20.504     23.5074    17.9346    11.1278    0.824      149.9717  
2644.8     18.177     15.733     37.3136    29.9701    18.833     22.4866    19.152     9.9679     0.817      149.7117  
2645       16.9029    14.8879    33.7215    28.0156    16.4846    19.071     11.8896    9.8383     0.811      149.2442  
2645.2     15.4963    13.7102    28.4796    25.2132    13.6526    16.4799    10.1307    9.1547     0.817      149.02    
2645.4     14.6231    10.995     24.6411    22.5404    10.9653    13.8364    7.5377     8.4257     0.821      149.195   
2645.6     14.0353    9.5017     23.034     20.5858    10.268     11.821     6.8532     8.3609     0.821      149.0492  
2645.8     13.7975    9.8004     22.9979    20.1781    10.291     10.9966    8.0308     8.7432     0.821      148.7883  
2646       13.5257    10.1126    22.8533    20.7088    10.6561    10.4797    9.6871     8.7691     0.817      148.67    
2646.2     13.1859    10.7676    22.1171    21.0227    10.6166    9.9366     9.3316     8.3026     0.816      148.6133  
2646.4     12.5132    11.1104    20.6448    20.0293    10.1561    9.2953     7.711      7.2852     0.807      148.7292  
2646.6     10.9163    10.3298    19.7772    19.2332    9.3141     8.34       7.485      6.4234     0.79       148.8958  
2646.8     9.5776     9.1894     18.7518    18.0586    8.8339     7.28       6.482      5.8629     0.787      148.985   
2647       8.3477     8.5378     18.2588    17.0716    8.4491     6.5733     6.4695     5.3218     0.797      148.755   
2647.2     7.8551     8.0151     17.5687    15.6413    8.1629     5.6769     6.6873     5.0497     0.797      148.4817  
2647.4     7.8381     6.4675     15.4194    13.0235    7.6893     4.859      5.8933     4.4924     0.792      148.1808  
2647.6     7.8041     6.2503     10.4437    10.438     6.7518     4.2701     6.3736     3.6079     0.79       148.1442  
2647.8     7.5255     6.0365     9.8587     8.7553     5.5381     3.7597     4.4807     3.0992     0.804      148.0625  
2648       7.077      5.5647     10.4569    8.0434     5.1631     3.6157     3.9002     3.4459     0.804      147.6658  
2648.2     6.5844     5.4222     10.6409    7.9075     6.5841     3.7073     3.5662     4.9071     0.814      147.7642  
2648.4     6.1732     5.0861     10.6015    8.7391     8.0642     3.9036     4.0153     5.5681     0.817      148.085   
2648.6     6.0305     5.6462     10.0822    9.0141     8.2583     3.9036     4.8125     5.7268     0.8        148.1617  
2648.8     6.0102     5.7615     8.4324     6.3089     7.584      3.6746     4.6243     5.3866     0.794      147.8667  
2649       5.9354     5.0047     6.2699     5.9983     6.5907     3.4325     3.6        5.1145     0.797      147.0592  
2649.2     5.8641     4.5872     5.8361     5.9659     6.2223     3.21       3.4531     5.1533     0.8        147.1017  
2649.4     5.7112     4.3293     6.1648     5.9724     6.5051     3.197      3.5307     5.3089     0.807      147.8367  
2649.6     5.7791     4.7773     6.9141     5.9788     6.6301     3.2755     4.2242     5.3737     0.804      148.365   
2649.8     6.0034     4.7773     6.7958     5.5064     6.3209     3.3409     4.128      5.3607     0.8        148.6167  
2650       6.0577     4.8588     6.3324     5.021      6.1368     3.2886     4.3519     5.4061     0.79       148.65    
2650.2     6.2752     5.0149     6.0596     4.2411     5.9657     3.2362     4.5005     5.2894     0.787      148.5142  
2650.4     6.4824     4.7026     5.4023     3.7978     4.9691     3.2624     4.4279     5.581      0.777      148.2108  
2650.6     6.7101     4.7535     5.7375     3.6296     5.4592     3.9952     4.1799     6.3586     0.777      148.0075  
2650.8     6.8732     4.2886     5.5995     4.2217     9.7746     5.6834     4.1547     8.5909     0.782      147.9575  
2651       7.2401     4.6076     6.73       5.2152     11.9981    7.1229     4.2855     12.7737    0.811      148.3742  
2651.2     7.6546     4.8112     7.969      6.9593     11.4587    7.9539     5.0805     15.8516    0.804      148.8675  
2651.4     7.8517     7.0716     11.3902    8.4576     11.2942    8.6933     8.8006     15.3138    0.829      148.7975  
