~Version
 VERS              .         2.0                           : CWLS LOG ASCII STANDARD - VERSION 2.0
 WRAP              .         NO                            : ONE LINE PER DEPTH STEP
 DLM               .         SPACE                         : DELIMITING CHARACTER(SPACE TAB OR COMMA)
~Well Information
#_______________________________________________________________________________
#
#PARAMETER_NAME    .UNIT     VALUE                         : DESCRIPTION
#_______________________________________________________________________________
STRT               .m        2700                          : First reference value
STOP               .m        2908                          : Last reference value
STEP               .m        0.2                           : Step increment
NULL               .         -9999                         : Missing value
COMP               .                                       : Company
WELL               .         503                           : Well name
FLD                .                                       : Field
LOC                .                                       : Location
CNTY               .                                       : County
STAT               .                                       : State
CTRY               .                                       : Country
SRVC               .                                       : Service Company
DATE               .                                       : Date
API                .                                       : API number
EREF               .m        139.4                         : 
X                  .m        230550                        : 
Y                  .m        242075                        : 
group              .         Pad5                          : 
Интер-р            .         Ярышев                        : 
Куст               .         5                             : 
Статус             .         Не проверено                  : 
Тип                .         Разобраться                   : 
~Parameter Information Block
#_______________________________________________________________________________
#
#PARAMETER_NAME    .UNIT     VALUE                         : DESCRIPTION
#_______________________________________________________________________________
SET                .         LAS1                          : 
REAL_CREATION_DATE .         Ср апр 11 2012-13_17_18       : 
TLFamily_DEPTH     .         Measured Depth                : 
TLFamily_KS        .         Potential Resistivity         : 
TLFamily_KS1       .         Extra Shallow Resistivity     : 
TLFamily_KS2       .         Shallow Resistivity           : 
TLFamily_KS3       .         Medium Resistivity            : 
TLFamily_KS4       .         Deep Resistivity              : 
TLFamily_KS5       .         Extra Deep Resistivity        : 
TLFamily_LLD       .         Lateral Log Resistivity       : 
TLFamily_OKS3      .         Medium Resistivity Inverted   : 
TLFamily_RM        .         Mud Resistivity               : 
group              .         INI                           : 
~Curve Information
#_______________________________________________________________________________
#
#LOGNAME           .UNIT     LOG_ID                        : DESCRIPTION
#_______________________________________________________________________________
DEPTH              .m                                      : Measured Depth 
KS                 .ohm.m                                  : Potential Resistivity 
KS1                .ohm.m                                  : Extra Shallow Resistivity 
KS2                .ohm.m                                  : Shallow Resistivity 
KS3                .ohm.m                                  : Medium Resistivity 
KS4                .ohm.m                                  : Deep Resistivity 
KS5                .ohm.m                                  : Extra Deep Resistivity 
LLD                .ohm.m                                  : Lateral Log Resistivity 
OKS3               .ohm.m                                  : Medium Resistivity Inverted 
RM                 .ohm.m                                  : Mud Resistivity 
~Ascii
# ...
2773       6.3438     2.993      8.4662     11.9137    11.709     5.1244     4.5267     9.2474     0.22      
2773.2     6.3846     2.9794     8.2821     11.4021    11.5412    5.1244     4.6961     9.3966     0.222     
2773.4     6.4153     2.993      8.1244     10.9294    11.1924    5.1375     4.6758     9.5586     0.22      
2773.6     6.4322     3.0103     8.0783     10.5473    10.8699    5.1375     4.7393     9.7013     0.223     
2773.8     6.4661     3.0405     8.1704     10.0746    10.5474    5.1506     4.8385     9.7985     0.23      
2774       6.5069     3.0405     8.1638     9.8034     10.2052    5.1506     4.9659     9.7596     0.233     
2774.2     6.5273     3.0949     8.3512     9.5177     9.8169     5.1113     5.0616     9.5781     0.233     
2774.4     6.5205     3.1152     8.3413     9.3105     9.4155     5.0458     5.0727     9.3706     0.233     
2774.6     6.5341     3.1288     8.3742     9.0386     9.1136     5.0197     4.9841     9.1502     0.235     
2774.8     6.5035     3.0949     8.2821     8.8184     8.7179     4.9673     4.8966     9.1308     0.237     
2775       6.4797     3.1051     8.3479     8.7148     8.3428     4.928      4.8743     9.2215     0.237     
2775.2     6.4661     3.0745     8.2887     8.6695     8.073      4.9673     4.7987     9.335      0.233     
2775.4     6.5069     3.0066     8.0981     8.6308     7.8361     5.0066     4.8387     9.4484     0.23      
2775.6     6.5069     2.9591     8.111      8.6759     7.7242     5.0851     4.8301     9.6753     0.23      
2775.8     6.5681     3.0609     8.3347     8.8249     7.6386     5.1768     5.2248     9.9022     0.227     
2776       6.5681     2.9387     8.0455     9.0709     7.6026     5.216      4.5615     9.993      0.227     
2776.2     6.5341     3.2646     8.6963     9.33       7.5136     5.2291     6.3973     9.7985     0.23      
2776.4     6.558      3.2103     8.6831     9.4206     7.2701     5.216      6.631      9.5197     0.233     
2776.6     6.5069     3.1422     8.3807     9.0904     6.7765     5.1899     4.5376     9.3417     0.237     
2776.8     6.4457     3.1152     8.315      8.8573     6.4146     5.1113     4.7904     9.2799     0.24      
2777       6.4254     3.0473     8.2427     8.7018     6.1447     5.1113     4.7878     9.2928     0.237     
2777.2     6.4118     2.9862     8.1766     8.4622     5.9605     5.1113     4.5999     9.3771     0.23      
2777.4     6.4322     2.9183     7.9995     8.2939     5.8582     5.1113     4.6609     9.4355     0.227     
2777.6     6.4389     2.9183     7.8877     8.2291     5.8223     5.1375     4.7485     9.5327     0.227     
2777.8     6.4254     2.9658     7.9074     8.3068     5.8552     5.1899     4.8558     9.7207     0.23      
2778       6.4254     2.9862     7.9797     8.4363     5.967      5.2684     4.958      9.98       0.23      
2778.2     6.4457     2.9726     7.8811     8.5011     6.0723     5.3862     4.7057     10.2365    0.227     
2778.4     6.4865     2.9251     7.7825     8.5499     6.1908     5.5957     4.6294     10.6283    0.22      
2778.6     6.5613     2.9047     7.7694     8.5918     6.4343     5.8445     4.8519     10.9978    0.22      
2778.8     6.6836     2.9115     7.8023     8.6695     6.6711     6.0919     4.9138     11.3479    0.216     
2779       6.8535     2.9047     7.7957     8.7795     6.8686     6.4206     4.9639     11.6915    0.216     
2779.2     6.9619     2.898      7.776      8.9544     7.2635     6.8264     5.0246     12.0416    0.22      
2779.4     7.0846     2.9722     8.1441     9.2846     7.7637     7.2061     5.2171     12.1648    0.223     
2779.6     7.2205     3.1356     8.5188     9.576      8.1717     7.5727     6.4079     12.0994    0.22      
2779.8     7.3972     3.2103     8.6437     9.5954     8.3625     7.8739     6.2513     12.0481    0.223     
2780       7.4787     3.1695     8.6041     9.6602     8.6192     8.0441     5.1916     12.1972    0.227     
2780.2     7.6011     3.2239     8.9329     9.7509     8.8824     8.1615     5.6692     12.2685    0.233     
2780.4     7.7098     3.2307     9.0447     9.984      9.071      8.2012     6.0269     11.9962    0.233     
2780.6     7.7166     3.4819     9.7612     10.3272    9.2049     8.1226     7.304      11.5035    0.233     
2780.8     7.703      3.5871     10.011     10.5991    9.1457     7.9131     6.8822     10.933     0.233     
2781       7.6282     3.5498     9.965      10.6315    8.764      7.5858     5.7119     10.5704    0.233     
2781.2     7.438      3.4955     10.0767    10.6702    8.3625     7.1669     5.6725     10.3949    0.23      
2781.4     7.3156     3.5634     10.1847    10.6768    7.9216     6.8395     6.0519     10.1356    0.23      
2781.6     7.2409     3.3325     9.8138     10.5927    7.4938     6.5908     4.7199     10.1551    0.233     
2781.8     7.1321     3.2442     9.4917     10.5085    7.3491     6.486      4.7698     10.382     0.233     
2782       7.105      3.2646     9.5114     10.5732    7.2569     6.3551     5.3106     10.5505    0.233     
2782.2     7.1082     3.1967     9.2616     10.7351    7.224      6.3158     5.2521     10.7126    0.233     
2782.4     7.0778     3.2928     9.4325     10.9423    7.2174     6.2896     5.2472     10.8454    0.233     
2782.6     7.0642     3.2782     9.1564     11.1268    7.2701     6.198      4.9401     11.0108    0.23      
2782.8     7.071      3.2918     9.1367     11.0459    7.1779     6.1063     5.2067     11.2118    0.23      
2783       7.0846     3.2307     9.0283     10.9164    7.1385     5.9361     5.1369     11.3868    0.233     
2783.2     7.0982     3.2646     9.0775     10.6509    7.1089     5.8445     5.3919     11.51      0.237     
2783.4     7.1185     3.2442     9.0184     10.4178    7.1056     5.6219     5.3809     11.6137    0.233     
2783.6     7.1084     3.251      8.9921     10.1847    7.099      5.4124     5.4245     11.6721    0.233     
2783.8     7.0914     3.2815     9.0841     10.0293    7.1714     5.1768     5.6429     11.6332    0.233     
2784       7.0234     3.3053     9.2616     9.8674     7.0924     4.9542     5.5431     11.5522    0.237     
2784.2     6.9758     3.3053     8.9986     9.7568     6.9345     4.7447     5.5779     11.5878    0.237     
2784.4     6.9283     3.1763     8.8117     9.4659     6.7436     4.6007     4.7017     11.7045    0.23      
2784.6     6.969      3.0949     8.6765     9.1875     6.6448     4.5154     4.8948     12.1064    0.23      
2784.8     7.105      2.9319     8.2821     8.9738     6.5922     4.4959     4.649      12.9492    0.23      
2785       7.2068     2.898      8.0783     8.8896     6.5988     4.5745     4.8523     13.9216    0.227     
2785.2     7.4108     2.9047     8.0586     9.0839     6.8094     4.7185     5.5728     14.9071    0.223     
2785.4     7.6418     2.9387     8.2427     9.44       7.1319     4.9411     5.7479     15.6491    0.223     
2785.6     7.8661     3.1356     8.5977     9.695      7.5136     5.2291     6.4372     16.0934    0.22      
2785.8     8.07       3.1695     8.6601     10.107     7.8821     5.5172     6.3433     16.8973    0.216     
2786       8.2874     3.2714     9.0315     10.4308    8.3428     5.779      6.3242     17.766     0.22      
2786.2     8.4166     3.2918     9.209      10.8905    8.74       5.9885     6.3826     18.6801    0.223     
2786.4     8.5049     3.5362     10.0175    11.4798    9.3431     6.1325     7.3133     19.1534    0.223     
2786.6     8.6042     3.5837     10.4843    11.6352    9.5734     6.1325     7.1379     19.2117    0.223     
2786.8     8.7971     3.4504     9.9715     11.1301    9.1259     6.0671     6.2794     19.281     0.223     
2787       9.0214     3.2782     9.61       10.8453    8.7311     5.8707     5.6291     19.4905    0.23      
2787.2     9.3068     3.2918     9.7743     10.7481    8.6389     5.7005     6.8089     19.9702    0.23      
2787.4     9.6126     3.3053     9.8574     11.0071    8.6653     5.6807     6.8666     20.1906    0.233     
