~Version
 VERS              .         2.0                           : CWLS LOG ASCII STANDARD - VERSION 2.0
 WRAP              .         NO                            : ONE LINE PER DEPTH STEP
 DLM               .         SPACE                         : DELIMITING CHARACTER(SPACE TAB OR COMMA)
~Well Information
#_______________________________________________________________________________
#
#PARAMETER_NAME    .UNIT     VALUE                         : DESCRIPTION
#_______________________________________________________________________________
STRT               .m        2700                          : First reference value
STOP               .m        2908                          : Last reference value
STEP               .m        0.2                           : Step increment
NULL               .         -9999                         : Missing value
COMP               .                                       : Company
WELL               .         503                           : Well name
FLD                .                                       : Field
LOC                .                                       : Location
CNTY               .                                       : County
STAT               .                                       : State
CTRY               .                                       : Country
SRVC               .                                       : Service Company
DATE               .                                       : Date
API                .                                       : API number
EREF               .m        139.4                         : 
X                  .m        230550                        : 
Y                  .m        242075                        : 
group              .         Pad5                          : 
Интер-р            .         Ярышев                        : 
Куст               .         5                             : 
Статус             .         Не проверено                  : 
Тип                .         Разобраться                   : 
~Parameter Information Block
#_______________________________________________________________________________
#
#PARAMETER_NAME    .UNIT     VALUE                         : DESCRIPTION
#_______________________________________________________________________________
SET                .         LAS1                          : 
REAL_CREATION_DATE .         Ср апр 11 2012-13_17_18       : 
TLFamily_DEPTH     .         Measured Depth                : 
TLFamily_KS        .         Potential Resistivity         : 
TLFamily_KS1       .         Extra Shallow Resistivity     : 
TLFamily_KS2       .         Shallow Resistivity           : 
TLFamily_KS3       .         Medium Resistivity            : 
TLFamily_KS4       .         Deep Resistivity              : 
TLFamily_KS5       .         Extra Deep Resistivity        : 
TLFamily_LLD       .         Lateral Log Resistivity       : 
TLFamily_OKS3      .         Medium Resistivity Inverted   : 
TLFamily_RM        .         Mud Resistivity               : 
group              .         INI                           : 
~Curve Information
#_______________________________________________________________________________
#
#LOGNAME           .UNIT     LOG_ID                        : DESCRIPTION
#_______________________________________________________________________________
DEPTH              .m                                      : Measured Depth 
KS                 .ohm.m                                  : Potential Resistivity 
KS1                .ohm.m                                  : Extra Shallow Resistivity 
KS2                .ohm.m                                  : Shallow Resistivity 
KS3                .ohm.m                                  : Medium Resistivity 
KS4                .ohm.m                                  : Deep Resistivity 
KS5                .ohm.m                                  : Extra Deep Resistivity 
LLD                .ohm.m                                  : Lateral Log Resistivity 
OKS3               .ohm.m                                  : Medium Resistivity Inverted 
RM                 .ohm.m                                  : Mud Resistivity 
~Ascii
# ...
2802.2     14.7164    4.3578     15.5065    28.0893    25.585     10.4793    13.7598    26.0966    0.23      
2802.4     14.6756    4.3306     15.6774    27.4094    26.0852    10.584     13.8326    26.142     0.23      
2802.6     14.662     4.2216     15.283     26.5222    26.151     10.7542    11.4       26.4661    0.23      
2802.8     14.6348    4.1745     15.1384    26.0754    26.4142    10.9506    11.7369    26.6245    0.23      
2803       14.6348    4.188      15.283     26.0625    27.3027    11.1732    13.3805    26.4856    0.223     
2803.2     14.6892    4.2016     15.2096    26.0431    28.3622    11.4874    12.8952    26.0642    0.22      
2803.4     14.6892    4.2016     15.1384    26.1208    29.527     11.7622    13.9437    25.6493    0.216     
2803.6     14.662     4.2967     15.4079    26.3798    30.2746    12.0373    13.8562    25.189     0.216     
2803.8     14.6383    4.2763     15.3947    26.587     31.0012    12.3908    12.8918    24.599     0.216     
2804       14.6077    4.2899     15.4736    26.5417    31.192     12.7836    12.3218    23.9832    0.22      
2804.2     14.6212    4.2559     15.3356    26.2891    30.9354    13.2419    11.6236    23.5147    0.22      
2804.4     14.6688    4.1337     15.0003    26.1537    30.6787    13.831     11.4972    23.27      0.22      
2804.6     14.696     4.1201     15.2401    26.2956    31.1328    14.4726    14.7283    22.7255    0.223     
2804.8     14.7028    4.2967     15.5985    26.9949    32.1331    15.1665    16.6234    21.941     0.23      
2805       14.5669    4.5207     16.2559    28.0051    32.7287    15.5069    16.0883    21.014     0.233     
2805.2     14.3737    4.6837     16.8146    28.8145    33.2585    16.1746    14.8532    20.074     0.233     
2805.4     14.2203    4.6841     16.7949    28.7886    33.1137    16.7769    12.0146    19.5683    0.23      
2805.6     13.9756    4.5411     16.2887    28.1929    32.449     17.2875    10.4827    19.4808    0.233     
2805.8     13.6494    4.4189     16.3282    28.1765    32.3503    17.8636    11.8293    19.3738    0.233     
2806       13.2485    4.5207     16.8195    28.6203    33.0413    18.2825    15.9408    18.6607    0.233     
2806.2     12.7388    4.772      17.3076    29.5204    33.3967    18.3218    15.1433    17.4937    0.233     
2806.4     12.1951    4.9281     17.6495    29.4621    32.4003    18.1909    11.7975    16.5472    0.233     
2806.6     11.7398    4.5751     16.7686    28.0634    31.1328    17.6803    7.7427     16.4889    0.233     
2806.8     11.521     4.1337     15.2304    25.7387    28.2832    16.9864    6.6957     17.4548    0.233     
2807       11.3388    3.8367     13.6659    23.7443    25.9601    16.3972    7.0051     19.0432    0.23      
2807.2     11.2844    3.6448     13.0151    22.622     24.6374    16.2663    7.5948     20.2558    0.23      
2807.4     11.3728    3.5973     12.7982    22.2938    24.4465    16.5019    8.9588     20.8325    0.23      
2807.6     11.4883    3.7535     12.8314    22.1319    24.5781    16.9864    10.7932    21.2409    0.23      
2807.8     11.5155    3.9232     12.8639    22.0736    24.5256    17.3487    10.9874    21.2603    0.227     
2808       11.3864    4.0794     12.9888    21.9894    24.3939    17.4708    9.9909     21.2863    0.223     
2808.2     11.3051    4.1948     13.4424    21.4455    23.7094    17.2744    9.9241     21.4678    0.22      
2808.4     11.2505    3.9652     12.7982    20.0338    22.3472    16.9864    7.2231     22.343     0.216     
2808.6     11.2709    3.7263     11.9765    18.2984    20.7414    16.6852    6.9354     23.4451    0.216     
2808.8     11.332     3.4887     11.7727    17.6012    20.1162    16.5674    7.3722     25.189     0.216     
2809       11.5835    3.4751     11.6458    17.0811    20.1689    16.79      8.3977     27.0755    0.22      
2809.2     11.9233    3.4479     11.5097    17.0033    20.2378    17.1173    10.0489    28.236     0.23      
2809.4     12.3174    3.5973     11.7332    17.2559    20.3268    17.4708    11.2279    28.7935    0.233     
2809.6     12.7252    3.6448     11.6675    17.5667    20.2873    17.9421    10.2785    29.3121    0.237     
2809.8     12.9575    3.6448     11.6281    17.8193    20.2018    18.4397    10.1281    29.8373    0.237     
2810       13.2757    3.6652     11.9699    18.1819    20.4387    19.0157    12.0394    29.773     0.227     
2810.2     13.6902    3.7806     12.5484    18.4077    20.873     19.7882    12.7687    29.4677    0.227     
2810.4     14.1048    3.8146     12.8179    18.7323    21.2679    20.6392    11.6968    28.9167    0.23      
2810.6     14.4378    3.835      12.9234    19.1661    21.9457    21.2939    12.4462    28.411     0.233     
2810.8     14.6756    4.1201     13.771     20.0857    22.3796    21.595     14.6007    27.082     0.233     
2811       14.9101    4.2967     14.7702    21.1476    22.7223    22.0925    18.5081    25.578     0.237     
2811.2     15.0358    4.2559     14.7571    21.847     22.7552    22.5115    13.6381    24.5472    0.237     
2811.4     15.1038    4.2695     15.0529    22.6564    22.9395    22.7733    13.1401    23.8859    0.233     
2811.6     15.1174    4.3171     15.684     23.8738    23.795     23.2709    14.5971    23.3188    0.23      
2811.8     15.0834    4.4325     16.2098    24.7465    25.1441    23.8993    15.1722    22.4532    0.227     
2812       14.8251    4.5547     16.6371    26.3409    26.6446    24.3314    14.7171    21.1761    0.223     
2812.2     14.3766    4.9553     17.9453    28.6786    27.5561    24.3314    19.8003    19.4062    0.22      
2812.4     13.8737    5.1726     18.9313    30.3039    28.099     24.0564    18.8358    17.3641    0.216     
2812.6     13.5041    4.9689     18.596     30.7054    27.7765    22.9697    11.1538    15.7239    0.216     
2812.8     12.9902    4.9858     18.2476    29.8959    26.4208    21.3855    10.2563    14.4792    0.22      
2813       12.5281    4.6294     16.7554    28.8113    24.8545    19.8013    9.0773     13.9044    0.22      
2813.2     12.1747    4.2356     15.7102    27.7461    23.7226    18.5051    7.4622     13.3187    0.227     
2813.4     11.8485    4.0794     15.3821    26.8266    23.7555    17.4184    8.0849     12.826     0.23      
2813.6     11.5631    4.1813     15.4539    26.8719    24.3741    17.0387    10.7983    12.0805    0.23      
2813.8     11.2301    4.3103     15.4605    27.2799    24.8109    16.4365    10.7338    11.1405    0.233     
2814       10.882     4.4528     15.467     27.241     25.1507    15.7688    9.9324     10.1421    0.233     
2814.2     10.6049    4.3613     15.0595    26.6906    25.1441    14.9046    9.5769     9.3317     0.233     
2814.4     10.1631    4.3442     14.7571    25.5185    24.5386    14.0274    8.1137     8.8228     0.233     
2814.6     9.7078     4.1677     14.2181    24.8174    23.9661    13.0193    7.1959     8.5473     0.23      
2814.8     9.1845     4.1269     14.1447    23.7313    23.5317    12.129     7.3149     8.0676     0.23      
2815       8.634      4.0794     13.8762    22.7147    23.2488    11.3883    7.4545     7.6526     0.23      
2815.2     8.0768     4.0794     13.6527    21.4584    22.6236    10.6757    6.6009     7.121      0.233     
2815.4     7.6889     3.7739     12.601     19.5741    21.0573    9.7723     6.3193     6.758      0.237     
2815.6     7.4176     3.4748     11.2534    17.4955    18.8658    8.9606     4.3809     7.0173     0.23      
2815.8     6.9894     3.2918     10.4448    16.2587    17.5694    8.175      3.806      7.7045     0.227     
2816       6.6156     3.1763     10.1687    15.5859    16.8389    7.5596     5.0131     8.0402     0.223     
2816.2     6.4254     3.1695     9.8913     15.0089    15.6214    7.1145     5.0931     8.0935     0.216     
2816.4     6.3166     3.0202     9.117      13.5843    13.9695    6.8152     3.9164     7.9833     0.216     
2816.6     6.2283     2.7961     7.9732     11.9137    13.0367    6.5253     3.6283     8.3982     0.213     
