~Version
 VERS              .         2.0                           : CWLS LOG ASCII STANDARD - VERSION 2.0
 WRAP              .         NO                            : ONE LINE PER DEPTH STEP
 DLM               .         SPACE                         : DELIMITING CHARACTER(SPACE TAB OR COMMA)
~Well Information
#_______________________________________________________________________________
#
#PARAMETER_NAME    .UNIT     VALUE                         : DESCRIPTION
#_______________________________________________________________________________
STRT               .m        2700                          : First reference value
STOP               .m        2908                          : Last reference value
STEP               .m        0.2                           : Step increment
NULL               .         -9999                         : Missing value
COMP               .                                       : Company
WELL               .         503                           : Well name
FLD                .                                       : Field
LOC                .                                       : Location
CNTY               .                                       : County
STAT               .                                       : State
CTRY               .                                       : Country
SRVC               .                                       : Service Company
DATE               .                                       : Date
API                .                                       : API number
EREF               .m        139.4                         : 
X                  .m        230550                        : 
Y                  .m        242075                        : 
group              .         Pad5                          : 
Интер-р            .         Ярышев                        : 
Куст               .         5                             : 
Статус             .         Не проверено                  : 
Тип                .         Разобраться                   : 
~Parameter Information Block
#_______________________________________________________________________________
#
#PARAMETER_NAME    .UNIT     VALUE                         : DESCRIPTION
#_______________________________________________________________________________
SET                .         LAS3                          : 
REAL_CREATION_DATE .         Ср апр 11 2012-13_17_18       : 
TLFamily_DEPTH     .         Measured Depth                : 
TLFamily_GR        .         Gamma Ray                     : 
TLFamily_TNPH      .         Neutron Porosity              : 
group              .         INI                           : 
~Curve Information
#_______________________________________________________________________________
#
#LOGNAME           .UNIT     LOG_ID                        : DESCRIPTION
#_______________________________________________________________________________
DEPTH              .m                                      : Measured Depth 
GR                 .gAPI                                   :  
TNPH               .v/v                                    : Neutron Porosity 
~Ascii
2700.0     48.08      0.282     
2700.2     50.07      0.32      
2700.4     43.24      0.312     
2700.6     33.34      0.295     
2700.8     21.05      0.258     
2701       11.85      0.176     
2701.2     12.01      0.165     
2701.4     19.8       0.21      
2701.6     34.99      0.269     
2701.8     42.31      0.254     
2702       47.9       0.275     
2702.2     51.24      0.248     
2702.4     51.54      0.249     
2702.6     52.15      0.238     
2702.8     46.34      0.242     
2703       42.56      0.26      
2703.2     47.72      0.265     
2703.4     48.25      0.24      
2703.6     50.2       0.243     
2703.8     46.32      0.225     
2704       47.24      0.264     
2704.2     48.17      0.254     
2704.4     49.21      0.301     
2704.6     50.75      0.313     
2704.8     49.14      0.308     
2705       49.86      0.296     
2705.2     48.16      0.268     
2705.4     47.68      0.228     
2705.6     48.23      0.187     
2705.8     51.56      0.186     
2706       50.27      0.218     
2706.2     50.22      0.239     
2706.4     46.94      0.249     
2706.6     47.76      0.265     
2706.8     49.29      0.232     
2707       42.95      0.225     
2707.2     45.48      0.221     
2707.4     46.34      0.236     
2707.6     51.66      0.229     
2707.8     49.53      0.225     
2708       46.57      0.222     
2708.2     48.87      0.225     
2708.4     48.31      0.258     
2708.6     45.09      0.248     
2708.8     47.61      0.266     
2709       48.76      0.267     
2709.2     48.57      0.268     
2709.4     52.25      0.286     
2709.6     52.07      0.267     
2709.8     50.2       0.251     
2710       46.45      0.261     
2710.2     45.94      0.238     
2710.4     45.04      0.243     
2710.6     43.94      0.29      
2710.8     44.11      0.272     
2711       41.87      0.278     
2711.2     36.16      0.265     
2711.4     31.83      0.257     
2711.6     31.6       0.249     
2711.8     30.34      0.221     
2712       34.53      0.237     
2712.2     39.31      0.329     
2712.4     41.11      0.3       
2712.6     33.19      0.251     
2712.8     26.95      0.238     
2713       18.59      0.255     
2713.2     15.61      0.299     
2713.4     16.97      0.3       
2713.6     24.44      0.233     
2713.8     36.42      0.243     
2714       45.38      0.23      
2714.2     45.56      0.215     
2714.4     48.17      0.239     
2714.6     51.45      0.22      
2714.8     51         0.231     
2715       50.33      0.259     
2715.2     49.29      0.335     
2715.4     50.14      0.343     
2715.6     50.45      0.336     
2715.8     49.86      0.333     
2716       45.93      0.268     
2716.2     33.16      0.273     
2716.4     27.63      0.296     
2716.6     33.93      0.341     
2716.8     41.29      0.322     
2717       45.28      0.278     
2717.2     48.26      0.276     
2717.4     52.53      0.294     
2717.6     49.31      0.266     
2717.8     49.83      0.248     
2718       48.82      0.23      
2718.2     49.82      0.231     
2718.4     41.03      0.209     
2718.6     36.47      0.215     
2718.8     33.57      0.225     
2719       33.99      0.245     
2719.2     33.38      0.259     
2719.4     33.82      0.24      
2719.6     36.33      0.263     
2719.8     35.28      0.2       
2720       36.86      0.213     
2720.2     35.06      0.224     
2720.4     33.06      0.223     
2720.6     33.78      0.224     
2720.8     33.21      0.247     
2721       31.55      0.271     
2721.2     32.02      0.231     
2721.4     36.2       0.237     
2721.6     34.78      0.248     
2721.8     30.91      0.205     
2722       28.99      0.216     
2722.2     27.85      0.218     
2722.4     30.89      0.223     
2722.6     34.76      0.206     
2722.8     35.02      0.185     
2723       31.85      0.199     
2723.2     35.85      0.219     
2723.4     39.54      0.212     
2723.6     37.48      0.233     
2723.8     37.45      0.222     
2724       41.36      0.226     
2724.2     42.72      0.235     
2724.4     33.89      0.244     
2724.6     27.63      0.241     
2724.8     26.53      0.251     
2725       26.11      0.3       
2725.2     26.35      0.393     
2725.4     22.43      0.381     
2725.6     22.01      0.32      
2725.8     36.08      0.256     
2726       60.34      0.212     
2726.2     87.29      0.203     
2726.4     94.44      0.21      
2726.6     95.42      0.204     
2726.8     92.03      0.228     
2727       93.5       0.214     
2727.2     99.54001   0.211     
2727.4     97.81999   0.202     
2727.6     97.57      0.209     
2727.8     91.27      0.215     
2728       70.71999   0.195     
2728.2     59.71      0.214     
2728.4     57.21      0.233     
2728.6     62.56      0.273     
2728.8     68.66      0.232     
2729       69.72      0.226     
2729.2     62.87      0.222     
2729.4     62.3       0.201     
2729.6     60.64      0.21      
2729.8     60.79      0.209     
2730       63.79      0.206     
2730.2     65         0.229     
2730.4     67.04001   0.227     
2730.6     65.13      0.253     
2730.8     66.12      0.248     
2731       63.97      0.235     
2731.2     75.02      0.224     
2731.4     82.28      0.245     
2731.6     80.43999   0.242     
2731.8     69.88      0.203     
2732       61.27      0.211     
2732.2     67.45      0.246     
2732.4     74.39      0.294     
2732.6     80.3       0.291     
2732.8     88.41      0.267     
2733       96.59      0.297     
2733.2     104.3      0.301     
2733.4     104.18     0.272     
2733.6     103.22     0.239     
2733.8     101.96     0.252     
2734       99.63      0.233     
2734.2     94.12      0.237     
2734.4     94.42001   0.247     
2734.6     93.61      0.238     
2734.8     105.83     0.226     
2735       100.9      0.256     
2735.2     106.63     0.256     
2735.4     107.46     0.246     
2735.6     106.03     0.232     
2735.8     107.78     0.206     
2736       105.41     0.226     
2736.2     98.8       0.251     
2736.4     98.4       0.247     
2736.6     100.07     0.218     
2736.8     91.65      0.179     
2737       81.25      0.19      
2737.2     88.35      0.198     
2737.4     94.87      0.209     
2737.6     95.15      0.228     
2737.8     91.75      0.239     
2738       94.8       0.254     
2738.2     95.29      0.247     
2738.4     99.29      0.244     
2738.6     96.61      0.177     
2738.8     93.24001   0.18      
2739       88.45      0.182     
2739.2     80.42      0.218     
2739.4     92.53999   0.219     
2739.6     97.17      0.228     
2739.8     99.75      0.238     
2740       99.88      0.231     
2740.2     94.1       0.222     
2740.4     85.89      0.2       
2740.6     87.02      0.214     
2740.8     92.74001   0.207     
2741       96.75      0.227     
2741.2     100.94     0.263     
2741.4     100.63     0.287     
2741.6     98.17001   0.286     
2741.8     96.70999   0.31      
2742       95.16      0.244     
2742.2     94.69      0.231     
2742.4     92.95      0.233     
2742.6     93.24001   0.258     
2742.8     95.59      0.245     
2743       95.79001   0.264     
2743.2     90.95      0.266     
2743.4     94.22      0.27      
2743.6     98.81      0.245     
2743.8     100.98     0.256     
2744       102.44     0.252     
2744.2     102.05     0.242     
2744.4     101.63     0.256     
2744.6     100.79     0.246     
2744.8     98.24001   0.232     
2745       96.13      0.246     
2745.2     100.77     0.251     
2745.4     98.00999   0.239     
2745.6     94.3       0.241     
2745.8     94.96001   0.23      
2746       96.52      0.231     
2746.2     91.75999   0.259     
2746.4     89.51      0.252     
2746.6     92.81999   0.261     
2746.8     90.35      0.234     
2747       96.05      0.236     
2747.2     94.09      0.257     
2747.4     98.17001   0.262     
2747.6     94.75999   0.251     
2747.8     89.23      0.287     
2748       83.44      0.285     
2748.2     84.37      0.286     
2748.4     86.75999   0.272     
