~Version
 VERS              .         2.0                           : CWLS LOG ASCII STANDARD - VERSION 2.0
 WRAP              .         NO                            : ONE LINE PER DEPTH STEP
 DLM               .         SPACE                         : DELIMITING CHARACTER(SPACE TAB OR COMMA)
~Well Information
#_______________________________________________________________________________
#
#PARAMETER_NAME    .UNIT     VALUE                         : DESCRIPTION
#_______________________________________________________________________________
STRT               .m        2700                          : First reference value
STOP               .m        2908                          : Last reference value
STEP               .m        0.2                           : Step increment
NULL               .         -9999                         : Missing value
COMP               .                                       : Company
WELL               .         503                           : Well name
FLD                .                                       : Field
LOC                .                                       : Location
CNTY               .                                       : County
STAT               .                                       : State
CTRY               .                                       : Country
SRVC               .                                       : Service Company
DATE               .                                       : Date
API                .                                       : API number
EREF               .m        139.4                         : 
X                  .m        230550                        : 
Y                  .m        242075                        : 
group              .         Pad5                          : 
Интер-р            .         Ярышев                        : 
Куст               .         5                             : 
Статус             .         Не проверено                  : 
Тип                .         Разобраться                   : 
~Parameter Information Block
#_______________________________________________________________________________
#
#PARAMETER_NAME    .UNIT     VALUE                         : DESCRIPTION
#_______________________________________________________________________________
SET                .         LAS1                          : 
REAL_CREATION_DATE .         Ср апр 11 2012-13_17_18       : 
TLFamily_DEPTH     .         Measured Depth                : 
TLFamily_KS        .         Potential Resistivity         : 
TLFamily_KS1       .         Extra Shallow Resistivity     : 
TLFamily_KS2       .         Shallow Resistivity           : 
TLFamily_KS3       .         Medium Resistivity            : 
TLFamily_KS4       .         Deep Resistivity              : 
TLFamily_KS5       .         Extra Deep Resistivity        : 
TLFamily_LLD       .         Lateral Log Resistivity       : 
TLFamily_OKS3      .         Medium Resistivity Inverted   : 
TLFamily_RM        .         Mud Resistivity               : 
group              .         INI                           : 
~Curve Information
#_______________________________________________________________________________
#
#LOGNAME           .UNIT     LOG_ID                        : DESCRIPTION
#_______________________________________________________________________________
DEPTH              .m                                      : Measured Depth 
KS                 .ohm.m                                  : Potential Resistivity 
KS1                .ohm.m                                  : Extra Shallow Resistivity 
KS2                .ohm.m                                  : Shallow Resistivity 
KS3                .ohm.m                                  : Medium Resistivity 
KS4                .ohm.m                                  : Deep Resistivity 
KS5                .ohm.m                                  : Extra Deep Resistivity 
LLD                .ohm.m                                  : Lateral Log Resistivity 
OKS3               .ohm.m                                  : Medium Resistivity Inverted 
RM                 .ohm.m                                  : Mud Resistivity 
~Ascii
# ...
2831.4     5.4535     2.6603     6.9871     6.9211     5.5327     5.0458     4.006      7.9703     0.223     
2831.6     5.4774     2.864      7.4867     6.9858     5.5788     4.9804     4.8915     7.8536     0.22      
2831.8     5.4943     2.9113     7.4473     7.0117     5.4932     4.8756     4.7316     7.7175     0.21      
2832       5.4671     2.8844     7.1712     6.9405     5.2826     4.7316     4.1066     7.8369     0.213     
2832.2     5.3856     2.8844     7.2041     6.8952     5.0852     4.5745     4.0986     8.0416     0.216     
2832.4     5.3516     2.8029     7.1213     6.811      4.8878     4.4567     4.0098     8.7612     0.223     
2832.6     5.2768     2.7214     7.0463     6.7268     4.7167     4.4174     3.8879     9.8504     0.227     
2832.8     5.2701     2.7893     7.2238     6.824      4.6307     4.3257     3.9646     10.8098    0.232     
2833       5.372      2.6535     6.8294     6.7139     4.6245     4.3388     4.035      11.3479    0.227     
2833.2     5.3992     2.6841     6.6979     6.5002     4.6048     4.3126     4.0658     12.3268    0.22      
2833.4     5.3924     2.6807     6.7571     6.5714     4.4995     4.2603     4.2109     13.1956    0.223     
2833.6     5.3652     2.8233     6.9477     6.6556     4.4008     4.1948     4.6089     13.5618    0.227     
2833.8     5.4128     2.7961     6.8458     6.6038     4.1573     4.077      4.1461     14.2069    0.223     
2834       5.5623     2.6128     6.5533     6.1635     3.7887     3.9525     3.96       14.7126    0.22      
2834.2     5.8205     2.3276     5.9551     5.5353     3.588      4.0115     3.9856     14.9395    0.21      
2834.4     6.2283     2.2597     5.5344     5.0432     3.4597     4.4043     4.027      16.0999    0.21      
2834.6     6.5704     1.893      5.0019     5.0497     3.9138     5.0066     2.983      20.2814    0.21      
2834.8     7.0574     1.7336     5.0085     5.639      4.9141     5.779      5.0974     24.3008    0.213     
2835       7.8457     1.9677     6.2706     6.7301     5.9078     6.5908     28.8006    25.1818    0.223     
2835.2     8.9738     2.6807     7.5459     7.4262     6.4935     7.2585     28.8006    24.0869    0.23      
2835.4     9.8505     2.9047     7.3922     8.3327     7.0595     7.4025     10.3252    23.0107    0.213     
2835.6     10.1155    3.3189     8.1046     9.2587     7.5519     7.3763     8.0315     22.2976    0.223     
2835.8     10.4282    3.7263     9.8664     10.2689    7.7834     7.2978     23.728     20.6315    0.218     
2836       10.4757    3.7603     10.7406    10.8646    7.8229     7.0621     9.9316     19.0432    0.213     
2836.2     10.3194    4.0149     12.4169    11.4992    7.79       6.5515     8.999      17.779     0.22      
2836.4     10.0544    3.9843     12.7456    12.1532    7.7505     6.054      12.8722    16.544     0.213     
2836.6     9.9185     4.1201     13.186     12.2212    7.4214     5.5957     7.9234     15.7304    0.213     
2836.8     9.5447     3.9368     12.4498    12.1921    7.0068     5.1506     6.9399     15.6785    0.21      
2837       9.3204     3.6041     11.8318    12.354     6.7765     4.9131     6.1879     16.5408    0.216     
2837.2     9.2457     3.3189     10.8655    13.1569    6.6712     4.7578     6.3138     18.1745    0.216     
2837.4     9.2761     3.2103     10.5566    13.7527    6.7436     4.7185     6.7186     20.1712    0.223     
2837.6     9.3408     3.2001     10.149     14.1024    7.0792     4.8364     7.3191     22.4013    0.213     
2837.8     9.5583     3.1628     9.702      14.7887    7.6584     5.0197     7.2108     24.8389    0.216     
2838       9.7486     3.1424     9.9124     15.5367    8.4152     5.1113     11.0504    25.9478    0.22      
2838.2     9.9321     3.4004     10.4379    15.8896    9.0272     5.1768     10.5475    26.7449    0.223     
2838.4     10.1699    3.4819     10.4383    15.8507    9.2246     5.2029     9.3266     26.33      0.216     
2838.6     10.3738    3.4004     10.1819    15.2485    9.1918     5.1899     8.8275     26.1355    0.206     
2838.8     10.5029    3.2986     9.9518     14.4326    9.3431     5.1506     8.3297     26.2328    0.206     
2839       10.6218    3.251      10.1359    13.7462    9.988      5.2553     8.2067     26.6801    0.21      
2839.2     10.8699    3.1526     9.8006     13.1893    11.0805    5.5172     8.3283     27.7368    0.216     
2839.4     11.1961    3.0677     9.5705     12.8883    12.0874    5.9492     8.1779     29.5742    0.22      
2839.6     11.631     3.0066     9.3339     12.872     13.1272    6.7217     8.7512     31.2052    0.22      
2839.8     12.297     2.8572     9.0447     13.3318    15.062     7.5073     8.8346     34.9977    0.216     
2840       13.1737    2.7893     9.3668     14.4909    17.2864    7.9524     14.1953    39.0884    0.216     
2840.2     14.2475    2.9115     9.9715     16.1551    18.7079    8.882      14.1953    39.5617    0.218     
2840.4     15.211     3.3732     10.9576    18.3761    20.6953    9.7461     42.9162    36.6638    0.213     
2840.6     15.6135    3.9728     12.739     21.0375    22.9329    10.2698    72.7922    33.5001    0.21      
2840.8     15.6067    4.4121     15.0397    23.8997    24.973     10.4662    72.7922    31.4969    0.21      
2841       15.1853    5.1794     17.7809    25.0944    25.7101    10.3746    46.5331    30.2781    0.213     
2841.2     14.7844    5.0164     17.8508    25.6157    24.565     10.1258    17.2871    28.0998    0.213     
2841.4     14.4649    4.514      17.2748    24.353     22.807     9.8901     12.2214    25.9605    0.22      
2841.6     14.1999    4.1677     16.269     23.2845    21.8799    9.2617     12.2132    24.612     0.22      
2841.8     13.9417    4.0319     15.684     22.9931    21.1231    8.7773     12.535     24.0221    0.223     
2842       13.7947    3.9164     15.0069    23.3298    20.9323    8.5547     12.0676    23.8276    0.223     
2842.2     13.6426    3.8961     14.5796    24.1652    21.0639    8.4238     12.6686    23.5747    0.223     
2842.4     13.5067    3.8146     14.0603    25.077     21.2679    8.3845     12.7127    23.3544    0.227     
2842.6     13.4116    3.7331     13.4818    25.3761    21.2613    8.3976     12.2549    23.108     0.22      
2842.8     13.3504    3.672      13.2272    25.3761    21.235     8.4431     12.3404    22.9524    0.21      
2843       13.3028    3.5973     12.9691    25.2207    21.3501    8.5285     12.2135    22.9005    0.21      
2843.2     13.2757    3.5634     12.831     25.0523    21.7286    8.882      12.4755    22.907     0.216     
2843.4     13.2858    3.4887     12.6667    24.871     22.2945    9.6545     12.6141    22.706     0.22      
2843.6     13.3096    3.5089     12.6273    24.5472    22.9197    10.4924    13.4505    22.2846    0.223     
2843.8     13.33      3.509      12.5418    24.2817    23.8608    11.1732    13.1824    21.8452    0.22      
2844       13.3504    3.5566     12.5747    24.0994    25.0849    11.8409    12.8845    21.5586    0.227     
2844.2     13.3232    3.5362     12.4633    23.9385    26.9341    12.5087    12.5347    21.2798    0.22      
2844.4     13.2621    3.5634     12.4958    23.8932    28.9672    12.7574    12.4369    21.1501    0.213     
2844.6     13.2689    3.5634     12.7127    23.822     30.093     13.124     12.602     20.7611    0.21      
2844.8     13.3062    3.4411     12.3051    23.4917    31.1262    13.5299    11.8661    20.5018    0.21      
2845       13.3232    3.4615     12.2854    23.278     31.8501    13.7001    12.7684    20.437     0.216     
2845.2     13.3844    3.4751     12.2591    23.1809    32.4424    13.8703    12.9126    20.2231    0.22      
2845.4     13.4795    3.4411     12.0356    23.1357    32.9163    14.1322    12.4773    20.1129    0.223     
2845.6     13.5067    3.4819     12.2294    23.1809    33.3901    14.4595    13.4028    19.9702    0.22      
2845.8     13.4863    3.5498     12.3906    23.55      34.0087    14.669     13.6662    19.8795    0.227     
