~Version
 VERS              .         2.0                           : CWLS LOG ASCII STANDARD - VERSION 2.0
 WRAP              .         NO                            : ONE LINE PER DEPTH STEP
 DLM               .         SPACE                         : DELIMITING CHARACTER(SPACE TAB OR COMMA)
~Well Information
#_______________________________________________________________________________
#
#PARAMETER_NAME    .UNIT     VALUE                         : DESCRIPTION
#_______________________________________________________________________________
STRT               .m        2700                          : First reference value
STOP               .m        2908                          : Last reference value
STEP               .m        0.2                           : Step increment
NULL               .         -9999                         : Missing value
COMP               .                                       : Company
WELL               .         503                           : Well name
FLD                .                                       : Field
LOC                .                                       : Location
CNTY               .                                       : County
STAT               .                                       : State
CTRY               .                                       : Country
SRVC               .                                       : Service Company
DATE               .                                       : Date
API                .                                       : API number
EREF               .m        139.4                         : 
X                  .m        230550                        : 
Y                  .m        242075                        : 
group              .         Pad5                          : 
Интер-р            .         Ярышев                        : 
Куст               .         5                             : 
Статус             .         Не проверено                  : 
Тип                .         Разобраться                   : 
~Parameter Information Block
#_______________________________________________________________________________
#
#PARAMETER_NAME    .UNIT     VALUE                         : DESCRIPTION
#_______________________________________________________________________________
SET                .         LAS1                          : 
REAL_CREATION_DATE .         Ср апр 11 2012-13_17_18       : 
TLFamily_DEPTH     .         Measured Depth                : 
TLFamily_KS        .         Potential Resistivity         : 
TLFamily_KS1       .         Extra Shallow Resistivity     : 
TLFamily_KS2       .         Shallow Resistivity           : 
TLFamily_KS3       .         Medium Resistivity            : 
TLFamily_KS4       .         Deep Resistivity              : 
TLFamily_KS5       .         Extra Deep Resistivity        : 
TLFamily_LLD       .         Lateral Log Resistivity       : 
TLFamily_OKS3      .         Medium Resistivity Inverted   : 
TLFamily_RM        .         Mud Resistivity               : 
group              .         INI                           : 
~Curve Information
#_______________________________________________________________________________
#
#LOGNAME           .UNIT     LOG_ID                        : DESCRIPTION
#_______________________________________________________________________________
DEPTH              .m                                      : Measured Depth 
KS                 .ohm.m                                  : Potential Resistivity 
KS1                .ohm.m                                  : Extra Shallow Resistivity 
KS2                .ohm.m                                  : Shallow Resistivity 
KS3                .ohm.m                                  : Medium Resistivity 
KS4                .ohm.m                                  : Deep Resistivity 
KS5                .ohm.m                                  : Extra Deep Resistivity 
LLD                .ohm.m                                  : Lateral Log Resistivity 
OKS3               .ohm.m                                  : Medium Resistivity Inverted 
RM                 .ohm.m                                  : Mud Resistivity 
~Ascii
# ...
2860.6     5.5895     2.8436     6.9608     6.5131     4.5061     5.3339     4.2533     10.0578    0.223     
2860.8     5.6404     2.7554     6.7899     6.4613     4.7298     5.91       3.7886     10.92      0.21      
2861       5.7933     2.6433     6.5336     6.5261     5.2497     6.5122     3.7338     12.1259    0.22      
2861.2     6.0788     2.5041     6.481      6.7851     5.9341     7.1669     4.1927     12.4495    0.227     
2861.4     6.5477     2.6196     6.8951     7.023      6.454      7.8477     6.8237     12.3268    0.22      
2861.6     7.0778     2.8368     7.0594     7.3679     7.0068     8.6856     5.5777     12.4371    0.213     
2861.8     7.302      2.7961     6.9608     7.7176     7.3525     8.8296     5.7019     12.8455    0.213     
2862       7.5603     3.1288     8.2493     8.2745     7.7637     8.9998     7.2193     12.6121    0.22      
2862.2     7.6935     3.2578     8.8409     8.6112     7.7966     8.9736     8.2931     11.7434    0.223     
2862.4     7.7913     3.2134     8.9132     8.6371     7.4873     8.6725     6.5689     10.9395    0.223     
2862.6     7.7166     3.2918     9.4325     8.8605     7.2898     8.1488     6.1574     10.5871    0.223     
2862.8     7.5263     3.4819     10.241     9.1292     7.1121     7.6513     7.4864     10.1162    0.21      
2863       7.2341     3.5498     10.392     9.5631     6.8028     7.254      7.4864     9.6818     0.22      
2863.2     6.8739     3.6041     10.6618    9.8739     6.3167     6.8264     5.9212     9.7013     0.22      
2863.4     6.6224     3.2782     9.9452     9.8739     5.921      6.3158     4.6172     10.3106    0.223     
2863.6     6.5477     3.027      9.1498     9.4918     5.4077     6.1194     3.9464     11.1599    0.223     
2863.8     6.558      2.7893     8.4793     9.058      5.0391     5.8707     3.9763     12.3333    0.216     
2864       6.6564     2.6937     7.7562     8.9155     4.8878     5.8052     4.0248     14.4338    0.21      
2864.2     6.8331     2.606      7.467      9.1829     5.0128     5.8838     4.3478     15.4652    0.22      
2864.4     7.0778     2.864      7.7531     9.5307     5.23       6.2896     6.4102     16.4694    0.216     
2864.6     7.3768     2.9862     7.6576     9.576      5.3451     6.4075     5.6731     18.168     0.22      
2864.8     7.6622     2.7757     7.158      9.2199     5.4406     6.6431     4.2815     20.625     0.21      
2865       8.1231     2.6875     7.2698     8.9738     5.7104     6.9443     4.9174     22.531     0.213     
2865.2     8.5389     2.6601     7.3092     8.6565     6.0855     7.2585     5.946      23.3867    0.227     
2865.4     9.1981     2.7282     7.4999     8.4299     6.3948     7.5465     6.7957     24.0674    0.22      
2865.6     9.769      2.8912     7.914      8.5054     6.9081     7.7953     7.8517     24.4618    0.223     
2865.8     10.2719    3.1152     8.5534     8.7018     7.4675     8.0572     9.5456     25.2473    0.21      
2866       10.7       3.2782     9.0447     9.1422     8.0795     8.3061     9.6757     26.3494    0.223     
2866.2     11.0058    3.4208     9.8138     9.7185     8.4436     8.594      9.6697     27.4321    0.223     
2866.4     11.2165    3.543      10.5106    10.5732    8.9417     9.1308     9.6455     28.8259    0.227     
2866.6     11.3351    3.6381     11.1219    11.3891    9.4681     9.9032     9.373      30.492     0.22      
2866.8     11.5155    3.6516     11.4177    12.0561    9.9354     10.9375    8.6418     33.6816    0.213     
2867       11.8009    3.6041     11.3717    12.7053    10.4158    12.3516    8.4599     35.6946    0.227     
2867.2     12.3922    3.4819     11.1716    13.6167    11.3635    15.2974    8.4776     40.6703    0.227     
2867.4     13.0242    3.3325     10.9313    14.3549    12.4428    17.1394    8.5593     44.1581    0.216     
2867.6     13.9009    3.2782     10.7143    15.2356    13.4562    18.8979    10.1367    46.3882    0.22      
2867.8     15.1106    3.0677     10.7275    15.8378    14.5421    21.0582    10.0499    45.8955    0.227     
2868       15.8017    2.9862     10.0636    17.0681    16.0689    22.5246    23.2315    43.6848    0.206     
2868.2     16.8163    3.4506     12.2394    19.0302    17.4377    22.8912    56.0532    39.7886    0.223     
2868.4     17.5027    3.9029     13.8631    21.0601    18.8329    21.0713    67.0921    36.5017    0.21      
2868.6     18.2163    4.3917     15.5854    21.1994    17.26      20.2988    34.3641    32.9556    0.223     
2868.8     18.8279    3.4004     12.1557    20.2411    17.4509    18.3807    19.3471    25.3965    0.2       
2869       18.6172    3.2128     10.517     21.0787    17.5184    17.7065    32.4504    24.104     0.203     
2869.2     18.4338    5.0572     19.1745    21.7304    17.9313    16.6198    28.2557    21.1631    0.22      
2869.4     17.8629    3.0066     13.4029    24.7285    20.2083    16.8816    20.0178    19.7174    0.2       
2869.6     17.3124    5.1115     20.4564    29.0477    22.8671    17.1173    26.9276    18.2134    0.223     
2869.8     15.7834    5.4272     23.9666    37.3103    28.8624    16.5936    26.5736    18.4662    0.22      
2870       14.5125    5.3831     22.6125    39.6997    29.4678    15.8473    12.1175    15.8082    0.213     
2870.2     13.6698    4.6973     19.5656    38.709     26.9473    14.1976    8.6615     13.8439    0.22      
2870.4     13.2009    4.0115     17.3471    35.7174    25.035     13.3728    7.5057     13.2604    0.22      
2870.6     12.6912    3.7535     14.9346    33.6387    24.328     11.985     10.0731    13.6105    0.223     
2870.8     12.2427    3.8757     14.928     32.7646    24.4004    11.1601    8.9739     14.1615    0.213     
2871       12.036     3.706      13.9222    31.9551    25.1573    11.0816    6.9176     15.4127    0.223     
2871.2     11.6922    3.6314     13.8236    31.8968    27.4869    11.3696    8.2074     17.2993    0.223     
2871.4     11.2165    3.7127     15.0463    34.895     32.9492    11.6446    12.9306    18.788     0.22      
2871.6     10.7476    4.093      16.808     36.7275    39.188     11.6838    15.5658    19.2052    0.213     
2871.8     10.2107    4.5207     17.2542    37.9643    43.0839    11.3452    11.412     18.6412    0.223     
2872       9.6534     4.6701     17.1762    36.5721    43.5085    10.7281    8.6493     16.7093    0.227     
2872.2     9.2049     4.2831     15.5591    32.1429    42.0244    9.4843     5.8698     14.5764    0.213     
2872.4     8.8515     3.7739     13.6724    26.9755    38.0758    8.2928     6.5411     12.6899    0.21      
2872.6     8.6204     3.6381     12.9625    23.427     34.8248    7.2061     6.7991     11.4776    0.227     
2872.8     8.1855     3.5905     12.4235    20.889     31.4948    6.1194     6.8298     10.382     0.223     
2873       7.7234     3.6041     11.9107    19.3734    27.4343    5.5695     6.9049     9.5813     0.21      
2873.2     7.3292     3.6516     11.753     17.9488    24.1504    5.3339     6.4203     8.8001     0.22      
2873.4     7.0914     3.4955     11.1153    16.2263    21.7713    4.9149     4.5586     8.262      0.223     
2873.6     6.8739     2.9794     9.4062     14.3937    17.8194    4.5221     5.1346     8.2102     0.216     
2873.8     6.7349     2.898      9.0184     13.3382    15.187     4.1163     6.0859     8.3269     0.21      
2874       6.67       2.9486     8.9461     12.8914    13.7655    3.8282     5.3621     8.3139     0.223     
2874.2     6.5749     2.993      8.716      12.2957    12.3638    3.6711     4.4416     8.5343     0.223     
2874.4     6.5273     2.9794     8.1309     11.8133    11.041     3.5664     5.4029     8.9377     0.22      
2874.6     6.5817     2.6807     7.6181     11.3373    10.2579    3.5206     7.1344     9.6818     0.213     
2874.8     6.7244     2.701      7.7891     11.2726    10.1197    3.5009     8.6433     9.8439     0.223     
2875       6.8127     3.0405     8.361      11.4668    10.1197    3.5009     5.2238     9.2734     0.22      
