~Version
 VERS              .         2.0                           : CWLS LOG ASCII STANDARD - VERSION 2.0
 WRAP              .         NO                            : ONE LINE PER DEPTH STEP
 DLM               .         SPACE                         : DELIMITING CHARACTER(SPACE TAB OR COMMA)
~Well Information
#_______________________________________________________________________________
#
#PARAMETER_NAME    .UNIT     VALUE                         : DESCRIPTION
#_______________________________________________________________________________
STRT               .m        2700                          : First reference value
STOP               .m        2908                          : Last reference value
STEP               .m        0.2                           : Step increment
NULL               .         -9999                         : Missing value
COMP               .                                       : Company
WELL               .         503                           : Well name
FLD                .                                       : Field
LOC                .                                       : Location
CNTY               .                                       : County
STAT               .                                       : State
CTRY               .                                       : Country
SRVC               .                                       : Service Company
DATE               .                                       : Date
API                .                                       : API number
EREF               .m        139.4                         : 
X                  .m        230550                        : 
Y                  .m        242075                        : 
group              .         Pad5                          : 
Интер-р            .         Ярышев                        : 
Куст               .         5                             : 
Статус             .         Не проверено                  : 
Тип                .         Разобраться                   : 
~Parameter Information Block
#_______________________________________________________________________________
#
#PARAMETER_NAME    .UNIT     VALUE                         : DESCRIPTION
#_______________________________________________________________________________
SET                .         LAS1                          : 
REAL_CREATION_DATE .         Ср апр 11 2012-13_17_18       : 
TLFamily_DEPTH     .         Measured Depth                : 
TLFamily_KS        .         Potential Resistivity         : 
TLFamily_KS1       .         Extra Shallow Resistivity     : 
TLFamily_KS2       .         Shallow Resistivity           : 
TLFamily_KS3       .         Medium Resistivity            : 
TLFamily_KS4       .         Deep Resistivity              : 
TLFamily_KS5       .         Extra Deep Resistivity        : 
TLFamily_LLD       .         Lateral Log Resistivity       : 
TLFamily_OKS3      .         Medium Resistivity Inverted   : 
TLFamily_RM        .         Mud Resistivity               : 
group              .         INI                           : 
~Curve Information
#_______________________________________________________________________________
#
#LOGNAME           .UNIT     LOG_ID                        : DESCRIPTION
#_______________________________________________________________________________
DEPTH              .m                                      : Measured Depth 
KS                 .ohm.m                                  : Potential Resistivity 
KS1                .ohm.m                                  : Extra Shallow Resistivity 
KS2                .ohm.m                                  : Shallow Resistivity 
KS3                .ohm.m                                  : Medium Resistivity 
KS4                .ohm.m                                  : Deep Resistivity 
KS5                .ohm.m                                  : Extra Deep Resistivity 
LLD                .ohm.m                                  : Lateral Log Resistivity 
OKS3               .ohm.m                                  : Medium Resistivity Inverted 
RM                 .ohm.m                                  : Mud Resistivity 
~Ascii
# ...
2758.4     6.8535     3.3393     10.118     12.1727    8.7706     5.8183     5.0238     10.2977    0.237     
2758.6     6.7312     3.2442     9.7546     11.8878    8.6984     5.8052     5.0032     10.4144    0.23      
2758.8     6.6836     3.1424     9.2682     11.5769    8.5731     5.7659     4.8081     10.4662    0.23      
2759       6.67       3.0881     8.8277     11.1949    8.4283     5.7659     4.6724     10.5635    0.233     
2759.2     6.6564     3.0402     8.5188     10.897     8.3362     5.7921     4.694      10.745     0.233     
2759.4     6.6904     3.0066     8.3873     10.5797    8.2836     5.7921     4.8806     10.8553    0.233     
2759.6     6.772      2.993      8.269      10.3714    8.2177     5.7921     5.1575     10.9978    0.233     
2759.8     6.9079     2.9998     8.2825     10.0746    8.1519     5.8183     5.0872     11.1664    0.233     
2760       7.1321     3.0066     8.2361     9.7703     8.096      5.8379     5.0227     11.4776    0.23      
2760.2     7.3836     2.864      7.9469     9.4659     8.0664     5.8576     5.0483     11.9444    0.233     
2760.4     7.492      3.0677     8.1046     9.4724     8.1454     5.8969     9.1818     11.6915    0.233     
2760.6     7.6078     3.2844     8.9724     9.8804     8.3954     5.923      8.0016     11.0043    0.233     
2760.8     7.6011     3.5158     9.4982     10.2041    8.5402     5.9492     6.486      10.6762    0.233     
2761       7.4108     3.6177     9.7743     10.292     8.56       5.923      5.6085     10.5635    0.237     
2761.2     7.2069     3.5498     9.8727     10.3013    8.4612     5.8707     5.5509     10.6348    0.243     
2761.4     7.0642     3.4208     9.9321     10.2559    8.2507     5.8445     5.4125     10.7061    0.237     
2761.6     6.9826     3.2986     9.7678     10.1459    8.0752     5.7921     5.144      10.6996    0.237     
2761.8     6.9554     3.1628     9.3076     9.9969     7.8163     5.7267     4.9693     10.7774    0.233     
2762       6.969      3.0779     8.9263     9.848      7.5465     5.7136     5.1991     10.8098    0.233     
2762.2     7.071      3.0337     8.5516     9.8221     7.3885     5.7921     5.2854     10.8034    0.233     
2762.4     7.1933     2.9591     8.4333     9.9768     7.4609     5.8576     5.8299     10.7839    0.233     
2762.6     7.2341     3.122      8.8084     10.4373    7.6584     5.9492     6.3474     10.6218    0.233     
2762.8     7.2884     3.2782     9.071      10.7869    7.7637     6.0209     6.1635     10.369     0.233     
2763       7.3224     3.251      8.9921     10.638     7.7007     6.0933     5.7118     10.1226    0.233     
2763.2     7.3224     3.2171     9.0249     10.4502    7.6781     6.198      5.7238     10.0578    0.233     
2763.4     7.3224     3.2205     9.0972     10.4632    7.8492     6.3289     5.7906     10.1421    0.23      
2763.6     7.2545     3.2103     9.4785     10.7869    8.2638     6.3944     6.2127     10.2782    0.227     
2763.8     7.1593     3.4072     9.8401     10.991     8.5139     6.4337     5.768      10.2064    0.223     
2764       7.0846     3.3461     9.5768     11.0395    8.3428     6.3813     5.3164     10.006     0.223     
2764.2     6.9826     3.3053     9.4982     10.8323    8.1783     6.1718     5.2848     9.8828     0.223     
2764.4     6.8603     3.2646     9.4062     10.7027    8.1061     6.054      5.2769     9.9476     0.223     
2764.6     6.738      3.2171     9.2156     10.6121    8.0466     5.8707     5.3216     9.8374     0.22      
2764.8     6.67       3.251      9.3076     10.5085    7.9348     5.7267     5.3269     9.805      0.22      
2765       6.5817     3.1764     8.9724     10.2818    7.7242     5.5434     4.6806     10.0124    0.22      
2765.2     6.5205     3.1084     8.5845     9.9314     7.4083     5.4517     4.4964     10.271     0.22      
2765.4     6.5341     2.9523     8.1901     9.6926     7.1385     5.3601     4.9293     10.7126    0.22      
2765.6     6.6021     2.9115     8.1506     9.4077     6.9937     5.3208     5.0302     11.3868    0.223     
2765.8     6.6972     2.9319     8.0586     9.3041     6.9542     5.3144     4.9738     12.2231    0.23      
2766       6.8535     2.9455     7.9732     9.2328     6.9279     5.347      4.9738     13.5132    0.23      
2766.2     7.0412     2.9115     7.8154     9.0774     6.9213     5.4386     4.9599     15.1275    0.233     
2766.4     7.1797     2.8508     7.6708     9.1227     7.0858     5.5303     5.3322     16.7288    0.233     
2766.6     7.2613     2.9862     8.4005     9.5501     7.4675     5.5303     7.1307     17.1469    0.237     
2766.8     7.3564     3.414      9.1367     9.7346     7.5596     5.5172     8.9577     16.9881    0.233     
2767       7.404      3.3529     8.8073     9.589      7.2438     5.4124     5.151      16.7093    0.233     
2767.2     7.3292     3.2782     8.7554     9.1357     6.9669     5.2935     5.162      17.0853    0.233     
2767.4     7.3972     3.1084     8.6568     8.799      6.8028     5.2291     4.8504     18.0772    0.233     
2767.6     7.5938     2.8912     8.3479     8.4687     6.5988     5.3077     4.5971     19.4257    0.233     
2767.8     7.8389     2.698      7.8746     8.1579     6.533      5.5957     4.4601     21.3316    0.233     
2768       8.5457     2.5381     7.0923     7.8859     6.7173     6.0671     4.9106     23.4112    0.233     
2768.2     9.5855     2.2122     6.481      8.0009     7.2372     6.7086     5.6557     24.5602    0.23      
2768.4     10.8427    2.348      7.1304     8.4493     8.1125     7.3109     15.4386    24.6315    0.227     
2768.6     12.0728    2.9047     7.9074     9.9386     9.1128     7.7213     35.5328    22.6477    0.233     
2768.8     12.689     3.8711     10.0525    12.179     9.821      8.0441     62.6041    19.3718    0.235     
2769       12.6266    4.6158     12.1342    14.1671    10.5869    8.175      38.2574    16.5537    0.237     
2769.2     12.3106    5.3729     15.2238    15.6759    11.1002    8.1226     25.9536    14.0643    0.243     
2769.4     11.8077    5.193      15.7037    16.0644    10.962     7.9655     7.775      12.9346    0.237     
2769.6     11.1145    4.5479     15.73      15.9345    10.6198    7.6513     8.4666     12.45      0.24      
2769.8     10.5165    4.5886     16.5944    16.2328    10.6527    7.2061     9.8095     11.7823    0.237     
2770       10.1631    4.2899     15.9009    16.8544    10.475     6.9966     6.6186     11.1405    0.237     
2770.2     9.8437     3.9436     14.389     17.0875    10.34      6.8919     6.1697     10.8358    0.23      
2770.4     9.5787     3.8553     13.4621    17.8257    10.3434    6.6693     6.2196     10.5505    0.233     
2770.6     9.4872     3.7263     12.8705    19.1014    10.6264    6.5908     6.6482     10.2912    0.23      
2770.8     9.3204     3.7092     12.5878    19.9043    11.0739    6.6693     6.7447     9.9671     0.233     
2771       9.0962     3.8214     12.5812    20.5033    11.6925    6.7086     7.8562     9.7322     0.23      
2771.2     8.6748     3.8621     12.8376    20.9857    12.3111    6.6824     7.8951     9.3577     0.23      
2771.4     8.0972     4.3374     13.6933    21.1411    12.7192    6.4991     9.247      8.6381     0.23      
2771.6     7.6282     4.1813     13.4358    20.1504    12.4043    6.3682     6.0512     8.1324     0.227     
2771.8     7.1253     3.7535     12.1342    17.9552    11.936     6.0409     4.8779     8.0546     0.223     
2772       6.8915     3.3868     11.1285    16.0644    11.2779    5.635      4.353      8.1907     0.22      
2772.2     6.6836     3.2513     10.3659    14.6074    11.0871    5.3601     4.3848     8.3009     0.22      
2772.4     6.5341     3.1492     9.702      13.5325    11.1989    5.2291     4.5847     8.4111     0.22      
2772.6     6.4186     3.0677     9.0381     13.0321    11.5346    5.1506     4.3588     8.6769     0.22      
2772.8     6.3506     3.0337     8.7595     12.4576    11.7452    5.1244     4.3962     9.027      0.22      
