~Version
 VERS              .         2.0                           : CWLS LOG ASCII STANDARD - VERSION 2.0
 WRAP              .         NO                            : ONE LINE PER DEPTH STEP
 DLM               .         SPACE                         : DELIMITING CHARACTER(SPACE TAB OR COMMA)
~Well Information
#_______________________________________________________________________________
#
#PARAMETER_NAME    .UNIT     VALUE                         : DESCRIPTION
#_______________________________________________________________________________
STRT               .m        2700                          : First reference value
STOP               .m        2908                          : Last reference value
STEP               .m        0.2                           : Step increment
NULL               .         -9999                         : Missing value
COMP               .                                       : Company
WELL               .         503                           : Well name
FLD                .                                       : Field
LOC                .                                       : Location
CNTY               .                                       : County
STAT               .                                       : State
CTRY               .                                       : Country
SRVC               .                                       : Service Company
DATE               .                                       : Date
API                .                                       : API number
EREF               .m        139.4                         : 
X                  .m        230550                        : 
Y                  .m        242075                        : 
group              .         Pad5                          : 
Интер-р            .         Ярышев                        : 
Куст               .         5                             : 
Статус             .         Не проверено                  : 
Тип                .         Разобраться                   : 
~Parameter Information Block
#_______________________________________________________________________________
#
#PARAMETER_NAME    .UNIT     VALUE                         : DESCRIPTION
#_______________________________________________________________________________
SET                .         LAS1                          : 
REAL_CREATION_DATE .         Ср апр 11 2012-13_17_18       : 
TLFamily_DEPTH     .         Measured Depth                : 
TLFamily_KS        .         Potential Resistivity         : 
TLFamily_KS1       .         Extra Shallow Resistivity     : 
TLFamily_KS2       .         Shallow Resistivity           : 
TLFamily_KS3       .         Medium Resistivity            : 
TLFamily_KS4       .         Deep Resistivity              : 
TLFamily_KS5       .         Extra Deep Resistivity        : 
TLFamily_LLD       .         Lateral Log Resistivity       : 
TLFamily_OKS3      .         Medium Resistivity Inverted   : 
TLFamily_RM        .         Mud Resistivity               : 
group              .         INI                           : 
~Curve Information
#_______________________________________________________________________________
#
#LOGNAME           .UNIT     LOG_ID                        : DESCRIPTION
#_______________________________________________________________________________
DEPTH              .m                                      : Measured Depth 
KS                 .ohm.m                                  : Potential Resistivity 
KS1                .ohm.m                                  : Extra Shallow Resistivity 
KS2                .ohm.m                                  : Shallow Resistivity 
KS3                .ohm.m                                  : Medium Resistivity 
KS4                .ohm.m                                  : Deep Resistivity 
KS5                .ohm.m                                  : Extra Deep Resistivity 
LLD                .ohm.m                                  : Lateral Log Resistivity 
OKS3               .ohm.m                                  : Medium Resistivity Inverted 
RM                 .ohm.m                                  : Mud Resistivity 
~Ascii
# ...
2816.8     6.1807     2.6603     7.2698     10.8193    12.1861    6.2111     3.8158     8.9687     0.213     
2817       6.2045     2.701      7.3487     10.1264    11.5017    6.0802     4.1989     9.5327     0.213     
2817.2     6.2894     2.701      7.1383     9.4789     10.916     6.1063     4.211      9.9476     0.22      
2817.4     6.3506     2.735      6.9345     8.8887     10.2776    6.3027     4.6216     10.2036    0.223     
2817.6     6.5001     2.6875     6.5993     8.4363     9.8433     6.8395     4.4906     10.5894    0.223     
2817.8     6.6496     2.6399     6.5861     7.8859     9.9815     7.8739     4.2784     11.5035    0.223     
2818       6.8195     2.5449     6.573      7.9118     10.8523    8.8582     4.6874     12.7677    0.227     
2818.2     7.0098     2.6128     7.0069     8.7795     11.936     9.8247     5.2951     13.805     0.23      
2818.4     7.1636     2.9319     8.0652     9.7573     13.4299    11.0423    7.6627     13.4225    0.23      
2818.6     7.3428     3.1655     8.453      9.971      13.6471    12.0111    6.0771     11.9962    0.23      
2818.8     7.6418     3.156      8.3084     9.4724     12.6204    12.6003    6.1273     10.7322    0.227     
2819       7.771      3.1763     8.1638     9.2749     11.8636    13.0717    5.6524     10.2264    0.23      
2819.2     7.8797     3.1016     8.2727     9.1227     11.5806    14.2107    5.7356     9.8504     0.23      
2819.4     7.9612     3.0405     8.361      9.2976     11.9434    15.0879    6.2837     9.9411     0.223     
2819.6     8.0156     3.1831     9.0447     9.8804     12.4493    17.5624    6.6093     10.181     0.227     
2819.8     8.1107     3.2035     9.4522     10.8064    13.8379    20.9535    5.8586     10.8358    0.223     
2820       8.1175     3.183      9.8992     12.3281    16.1347    23.6898    7.7871     11.5424    0.216     
2820.2     7.8797     3.5226     11.9765    14.0311    17.6417    25.3919    16.5179    11.1145    0.216     
2820.4     7.7098     4.0455     12.1079    14.9882    16.7928    25.3657    9.2289     10.2823    0.216     
2820.6     7.2613     4.0522     12.0912    15.1837    14.654     23.1268    6.0912     8.9752     0.22      
2820.8     6.7176     4.0658     12.2131    15.0154    12.6797    20.6802    5.8992     7.8471     0.223     
2821       6.2283     3.672      11.2271    14.0505    11.4523    18.3611    4.2157     7.1016     0.227     
2821.2     5.8545     3.4276     10.8327    12.5029    9.738      15.3367    4.0847     6.7191     0.227     
2821.4     5.6734     3.0134     9.4391     11.1431    8.1519     12.6658    3.4196     6.6219     0.22      
2821.6     5.4739     2.9348     8.7554     10.1135    7.0068     10.3615    3.4829     6.7256     0.223     
2821.8     5.372      2.8029     7.9009     9.4985     6.204      8.6725     3.3506     6.898      0.227     
2822       5.3244     2.5992     7.2895     9.181      5.7235     7.4418     4.1244     7.0821     0.227     
2822.2     5.2701     2.7689     7.3988     8.9609     5.4866     6.4337     4.6485     7.0303     0.23      
2822.4     5.2565     2.7961     7.2172     8.9997     5.3505     6.054      3.9388     6.9525     0.23      
2822.6     5.1953     2.7757     6.928      8.5464     5.1905     5.3732     3.6889     6.8228     0.23      
2822.8     5.1442     2.6535     6.573      7.9831     5.0984     4.7709     3.6447     6.9784     0.22      
2823       5.1069     2.6502     6.6585     7.5622     4.9733     4.3126     3.5819     7.2637     0.227     
2823.2     5.1069     2.6196     6.6059     7.1348     4.8614     3.9984     3.5235     7.5393     0.223     
2823.4     5.2089     2.4838     6.3232     6.9069     4.8285     3.7497     3.6251     7.7045     0.22      
2823.6     5.338      2.5177     6.3401     6.7204     4.9075     3.5533     4.1471     7.8731     0.213     
2823.8     5.5011     2.5652     6.3495     6.6297     5.0621     3.4878     4.1192     7.9768     0.213     
2824       5.637      2.6128     6.3364     6.6297     5.2036     3.3831     4.6989     8.0287     0.216     
2824.2     5.7324     2.7078     6.5467     6.7851     5.5656     3.2783     4.7216     8.1583     0.213     
2824.4     5.7797     2.8065     6.8688     7.0053     6.0855     3.2129     4.6986     8.1518     0.223     
2824.6     5.7933     2.8708     7.2041     7.0959     6.5067     3.1343     4.954      8.0449     0.227     
2824.8     5.7729     2.9183     7.4013     7.1607     6.6646     3.0688     4.6879     7.9509     0.23      
2825       5.7186     2.9658     7.5524     7.1283     6.6186     3.0034     4.3959     7.8342     0.227     
2825.2     5.6846     2.8844     7.4933     7.083      6.5264     2.9576     4.0948     7.912      0.223     
2825.4     5.6302     2.8436     7.4473     7.1283     6.4702     2.9248     4.1904     7.9638     0.23      
2825.6     5.6234     2.8572     7.5327     7.2578     6.3882     2.9117     4.4817     7.9768     0.233     
2825.8     5.6234     2.8708     7.4999     7.3614     6.2171     2.9117     4.3336     7.8795     0.227     
2826       5.6574     2.8402     7.3158     7.3614     6.0723     2.9117     3.9788     7.8795     0.227     
2826.2     5.7458     2.7554     7.066      7.2285     5.8617     2.9379     4.0345     7.8303     0.223     
2826.4     5.8681     2.5652     6.7505     7.2319     5.8552     3.0165     4.3554     7.7564     0.213     
2826.6     5.8885     2.7757     7.3129     7.4327     5.9605     3.1081     5.1312     7.6202     0.213     
2826.8     5.8273     2.9794     7.7234     7.8665     6.0454     3.1736     4.963      7.51       0.213     
2827       5.7865     2.9591     7.7628     7.8924     5.921      3.3831     4.559      7.2377     0.213     
2827.2     5.7424     2.9251     7.7168     7.7694     5.7038     3.5009     4.3372     7.1146     0.22      
2827.4     5.637      2.9013     7.776      7.737      5.638      3.5664     4.2199     7.1275     0.216     
2827.6     5.5555     2.9319     7.6774     7.7499     5.6117     3.658      4.136      7.2215     0.227     
2827.8     5.4807     2.8301     7.5656     7.7208     5.5524     3.7628     4.0506     7.2637     0.23      
2828       5.3992     2.864      7.6412     7.737      5.5393     3.8675     4.4403     7.1988     0.23      
2828.2     5.3856     2.8776     7.5656     7.6658     5.4108     3.9461     4.2443     7.0757     0.223     
2828.4     5.3108     2.735      7.0266     7.5039     5.3484     4.1163     3.8859     7.0627     0.223     
2828.6     5.2225     2.7961     7.1975     7.4197     5.2695     4.3781     3.8841     7.1016     0.23      
2828.8     5.1918     2.7078     7.066      7.4327     5.3353     4.6661     3.8357     7.2183     0.23      
2829       5.1613     2.7286     7.158      7.3161     5.2958     4.8494     4.1901     7.1535     0.227     
2829.2     5.2089     2.735      6.8557     7.1672     5.1049     4.9542     3.9614     6.9965     0.216     
2829.4     5.2429     2.5652     6.527      6.9017     4.947      5.0197     3.5018     6.9655     0.21      
2829.6     5.2293     2.6399     6.6188     6.7268     5.0457     5.0197     3.5656     7.1794     0.213     
2829.8     5.2361     2.5449     6.5401     6.7916     5.1445     5.0589     4.1535     7.4517     0.22      
2830       5.3584     2.6399     6.8228     6.8499     5.2563     5.1768     4.0745     7.5619     0.223     
2830.2     5.4433     2.6128     6.7242     6.8822     5.3418     5.2684     3.825      7.7693     0.223     
2830.4     5.5147     2.5856     6.5533     6.9923     5.5261     5.2684     4.0503     7.7629     0.23      
2830.6     5.5283     2.8029     7.2041     7.1477     5.6775     5.2422     5.8233     7.4971     0.227     
2830.8     5.5419     2.9998     7.3421     7.2062     5.6446     5.216      4.8013     7.309      0.223     
2831       5.4467     2.9591     7.2336     7.0895     5.5327     5.1375     3.5628     7.3933     0.23      
2831.2     5.4264     2.7554     7.0332     6.9276     5.5031     5.1113     3.6428     7.7823     0.227     
