~Version
 VERS              .         2.0                           : CWLS LOG ASCII STANDARD - VERSION 2.0
 WRAP              .         NO                            : ONE LINE PER DEPTH STEP
 DLM               .         SPACE                         : DELIMITING CHARACTER(SPACE TAB OR COMMA)
~Well Information
#_______________________________________________________________________________
#
#PARAMETER_NAME    .UNIT     VALUE                         : DESCRIPTION
#_______________________________________________________________________________
STRT               .m        2700                          : First reference value
STOP               .m        2908                          : Last reference value
STEP               .m        0.2                           : Step increment
NULL               .         -9999                         : Missing value
COMP               .                                       : Company
WELL               .         503                           : Well name
FLD                .                                       : Field
LOC                .                                       : Location
CNTY               .                                       : County
STAT               .                                       : State
CTRY               .                                       : Country
SRVC               .                                       : Service Company
DATE               .                                       : Date
API                .                                       : API number
EREF               .m        139.4                         : 
X                  .m        230550                        : 
Y                  .m        242075                        : 
group              .         Pad5                          : 
Интер-р            .         Ярышев                        : 
Куст               .         5                             : 
Статус             .         Не проверено                  : 
Тип                .         Разобраться                   : 
~Parameter Information Block
#_______________________________________________________________________________
#
#PARAMETER_NAME    .UNIT     VALUE                         : DESCRIPTION
#_______________________________________________________________________________
SET                .         LAS1                          : 
REAL_CREATION_DATE .         Ср апр 11 2012-13_17_18       : 
TLFamily_DEPTH     .         Measured Depth                : 
TLFamily_KS        .         Potential Resistivity         : 
TLFamily_KS1       .         Extra Shallow Resistivity     : 
TLFamily_KS2       .         Shallow Resistivity           : 
TLFamily_KS3       .         Medium Resistivity            : 
TLFamily_KS4       .         Deep Resistivity              : 
TLFamily_KS5       .         Extra Deep Resistivity        : 
TLFamily_LLD       .         Lateral Log Resistivity       : 
TLFamily_OKS3      .         Medium Resistivity Inverted   : 
TLFamily_RM        .         Mud Resistivity               : 
group              .         INI                           : 
~Curve Information
#_______________________________________________________________________________
#
#LOGNAME           .UNIT     LOG_ID                        : DESCRIPTION
#_______________________________________________________________________________
DEPTH              .m                                      : Measured Depth 
KS                 .ohm.m                                  : Potential Resistivity 
KS1                .ohm.m                                  : Extra Shallow Resistivity 
KS2                .ohm.m                                  : Shallow Resistivity 
KS3                .ohm.m                                  : Medium Resistivity 
KS4                .ohm.m                                  : Deep Resistivity 
KS5                .ohm.m                                  : Extra Deep Resistivity 
LLD                .ohm.m                                  : Lateral Log Resistivity 
OKS3               .ohm.m                                  : Medium Resistivity Inverted 
RM                 .ohm.m                                  : Mud Resistivity 
~Ascii
# ...
2787.6     9.9389     3.4208     10.1359    11.3373    8.6915     5.7136     8.7182     19.9508    0.237     
2787.8     10.2447    3.4683     10.2542    11.7582    8.7311     5.7921     8.6069     19.6915    0.237     
2788       10.3398    3.6177     10.6486    12.3346    8.889      5.8838     8.0806     19.7044    0.237     
2788.2     10.435     3.7263     11.3454    13.0663    9.0733     5.9885     9.0232     19.5099    0.237     
2788.4     10.5913    3.7806     11.6018    13.6555    9.1457     6.0802     9.3282     19.2829    0.233     
2788.6     10.6796    3.7671     11.845     13.9749    9.1654     6.1849     8.6196     19.0691    0.233     
2788.8     10.7204    3.8214     12.029     14.4585    9.3365     6.2765     8.2884     18.9135    0.233     
2789       10.7883    3.8418     12.2       14.9765    9.4845     6.3289     8.6109     18.7579    0.233     
2789.2     10.8427    3.835      12.2526    15.4104    9.6853     6.4337     8.3431     18.5116    0.233     
2789.4     10.8769    3.8757     12.4235    15.9155    10.0078    6.5122     8.7335     18.2393    0.233     
2789.6     10.9039    3.8895     12.5221    16.4594    10.3961    6.5515     8.9926     17.967     0.233     
2789.8     10.9175    3.9097     12.6141    16.9451    10.8567    6.5646     8.9416     17.8377    0.237     
2790       10.9039    3.9572     12.739     17.1069    11.2977    6.617      8.9922     17.7077    0.237     
2790.2     10.8631    3.9232     12.7027    17.3271    11.8241    6.6693     8.3868     17.6947    0.237     
2790.4     10.8155    3.9232     12.7784    17.6379    12.5151    6.7157     8.4897     17.8309    0.233     
2790.6     10.7748    3.9708     12.9494    17.9617    12.9357    6.761      9.148      17.9216    0.23      
2790.8     10.7068    3.9843     13.0282    18.1883    13.4694    6.8657     9.0189     17.8957    0.23      
2791       10.6388    4.0217     13.094     18.3373    13.9432    6.9705     8.9236     17.9994    0.223     
2791.2     10.5029    4.0115     13.0217    18.415     14.3776    7.0621     8.5004     18.3756    0.22      
2791.4     10.3602    4.0047     13.0085    18.3758    14.7395    7.2323     7.9111     18.8357    0.22      
2791.6     10.2922    3.8825     12.6995    18.2596    15.0752    7.5334     7.1503     19.685     0.22      
2791.8     10.3058    3.7467     12.4761    17.9682    15.5687    7.7355     7.1839     20.8519    0.22      
2792       10.3194    3.6992     12.1868    18.0459    15.9667    7.8739     7.0065     22.1226    0.221     
2792.2     10.4516    3.8146     12.5681    18.1106    16.3519    8.0048     7.7848     22.4662    0.223     
2792.4     10.6117    3.6652     11.9107    17.761     16.2992    8.0048     8.7765     22.1744    0.223     
2792.6     10.8359    3.6924     11.7924    17.1782    15.7333    7.8346     8.5526     21.8471    0.227     
2792.8     10.999     3.7399     11.8581    17.013     15.4766    7.5596     8.8392     21.7141    0.23      
2793       11.1485    3.8214     12.0518    16.9321    15.3252    7.4025     9.0171     21.5326    0.23      
2793.2     11.2641    3.8214     12.1277    16.7638    15.1673    7.3371     8.9898     21.5974    0.233     
2793.4     11.3524    3.8485     12.3183    16.6213    15.1144    7.324      8.8816     21.8892    0.233     
2793.6     11.4204    3.8893     12.5549    16.7702    15.187     7.3502     9.3425     22.0253    0.233     
2793.8     11.4714    3.9436     12.8573    17.0551    15.2923    7.4287     9.6419     22.0318    0.233     
2794       11.5563    3.9606     12.9625    17.3077    15.3055    7.5465     9.5028     22.1031    0.237     
2794.2     11.6378    3.9368     12.9231    17.621     15.266     7.7037     9.2216     22.2204    0.233     
2794.4     11.7058    3.9436     13.048     17.9423    15.2989    7.8477     9.1194     22.4791    0.23      
2794.6     11.7738    3.9776     13.1499    18.4603    15.4108    8.0179     9.7009     22.7773    0.23      
2794.8     11.8281    4.0387     13.3569    18.8747    15.4766    8.1302     9.5989     22.6931    0.23      
2795       11.9097    4.0183     13.3832    19.1273    15.5029    8.2143     10.3152    22.2976    0.23      
2795.2     11.9402    4.0251     13.3701    19.0884    15.3055    8.2666     9.9139     21.9475    0.23      
2795.4     11.9776    4.0183     13.324     19.0172    15.0686    8.2928     9.6504     21.7595    0.237     
2795.6     11.9504    3.9911     13.324     19.2762    15.187     8.2928     10.0486    21.6953    0.237     
2795.8     11.8553    4.1541     13.9946    19.5289    15.5227    8.319      10.1495    21.8503    0.24      
2796       11.7806    4.1541     13.9289    19.8525    15.7793    8.4107     10.5093    22.3819    0.237     
2796.2     11.7466    4.0455     13.7119    19.6842    15.8547    8.5088     8.938      23.1598    0.23      
2796.4     11.8213    3.8553     13.1663    19.328     15.9965    8.607      8.7295     24.5861    0.232     
2796.6     11.9032    3.7603     12.877     19.2633    16.3848    8.8296     8.2984     26.5439    0.233     
2796.8     11.964     3.8114     13.0282    19.7748    17.2074    9.2093     8.7718     28.3332    0.23      
2797       12.1136    3.8893     13.3832    20.6296    18.2077    9.5497     11.4128    29.8563    0.23      
2797.2     12.1951    4.0455     13.8171    21.1247    19.0632    9.7199     11.2022    30.8421    0.227     
2797.4     12.2902    4.0998     13.7969    21.4066    19.2409    9.6414     10.7338    31.458     0.227     
2797.6     12.4601    4.0319     13.6199    20.9793    18.5763    9.4561     10.707     30.9912    0.223     
2797.8     12.6776    3.9164     13.3898    19.9367    17.9376    9.2224     10.0587    30.4078    0.216     
2798       12.8233    3.706      12.6207    19.2438    17.4312    8.8165     9.3696     30.3559    0.216     
2798.2     12.9359    3.9099     13.186     18.8942    17.1745    8.5547     9.7654     30.5569    0.22      
2798.4     13.2009    3.835      12.9099    18.6999    17.1482    8.4499     11.9608    31.2441    0.22      
2798.6     13.6019    3.6924     12.3643    18.1253    16.7731    8.5678     9.0681     32.0609    0.223     
2798.8     14.1795    3.4547     11.809     17.8322    16.648     8.8034     9.0571     33.6687    0.223     
2799       15.0494    3.3257     11.6807    17.6444    16.9705    9.1962     9.6916     35.4061    0.227     
2799.2     16.0008    3.1899     11.2731    18.3179    17.5986    9.4712     10.967     35.9118    0.23      
2799.4     16.762     3.7331     12.739     20.39      19.1291    10.152     16.7938    33.8697    0.233     
2799.6     17.0417    4.5343     14.9214    23.9903    21.7088    10.8066    163.5847   30.2587    0.233     
2799.8     16.9387    5.1113     17.6889    27.3317    24.1504    11.2387    163.5847   27.2246    0.237     
2800       16.4969    5.5257     19.214     28.9431    25.4139    11.4874    162.5743   26.1212    0.233     
2800.2     15.9125    5.3084     19.1088    29.0088    25.1112    11.4743    16.4413    25.565     0.233     
2800.4     15.3348    4.9485     18.9245    28.5102    24.4531    11.2649    11.4781    25.8892    0.233     
2800.6     14.961     4.7041     18.7341    28.1087    24.1036    11.1208    11.4908    26.1939    0.23      
2800.8     14.7776    4.4868     17.9518    27.8044    23.9069    10.8721    11.6794    26.4208    0.233     
2801       14.7368    4.2559     16.716     27.3835    23.5647    10.6495    11.2343    26.7319    0.23      
2801.2     14.696     4.1405     15.7497    27.4029    23.4659    10.4662    10.5406    26.9718    0.227     
2801.4     14.7028    4.188      15.513     28.0828    23.8937    10.3484    12.0456    26.907     0.233     
2801.6     14.7708    4.1948     15.3158    28.5086    24.4399    10.3091    12.9787    26.7384    0.233     
2801.8     14.8115    4.2016     15.1712    28.5685    24.7624    10.3615    13.1791    26.4921    0.237     
2802       14.7776    4.2627     15.1844    28.3807    25.1689    10.4204    13.6341    26.2846    0.233     
