~Version
 VERS              .         2.0                           : CWLS LOG ASCII STANDARD - VERSION 2.0
 WRAP              .         NO                            : ONE LINE PER DEPTH STEP
 DLM               .         SPACE                         : DELIMITING CHARACTER(SPACE TAB OR COMMA)
~Well Information
#_______________________________________________________________________________
#
#PARAMETER_NAME    .UNIT     VALUE                         : DESCRIPTION
#_______________________________________________________________________________
STRT               .m        2700                          : First reference value
STOP               .m        2908                          : Last reference value
STEP               .m        0.2                           : Step increment
NULL               .         -9999                         : Missing value
COMP               .                                       : Company
WELL               .         503                           : Well name
FLD                .                                       : Field
LOC                .                                       : Location
CNTY               .                                       : County
STAT               .                                       : State
CTRY               .                                       : Country
SRVC               .                                       : Service Company
DATE               .                                       : Date
API                .                                       : API number
EREF               .m        139.4                         : 
X                  .m        230550                        : 
Y                  .m        242075                        : 
group              .         Pad5                          : 
Интер-р            .         Ярышев                        : 
Куст               .         5                             : 
Статус             .         Не проверено                  : 
Тип                .         Разобраться                   : 
~Parameter Information Block
#_______________________________________________________________________________
#
#PARAMETER_NAME    .UNIT     VALUE                         : DESCRIPTION
#_______________________________________________________________________________
SET                .         LAS3                          : 
REAL_CREATION_DATE .         Ср апр 11 2012-13_17_18       : 
TLFamily_DEPTH     .         Measured Depth                : 
TLFamily_GR        .         Gamma Ray                     : 
TLFamily_TNPH      .         Neutron Porosity              : 
group              .         INI                           : 
~Curve Information
#_______________________________________________________________________________
#
#LOGNAME           .UNIT     LOG_ID                        : DESCRIPTION
#_______________________________________________________________________________
DEPTH              .m                                      : Measured Depth 
GR                 .gAPI                                   :  
TNPH               .v/v                                    : Neutron Porosity 
~Ascii
# ...
2845.8     27.07      0.193     
2846       23.49      0.178     
2846.2     23.82      0.181     
2846.4     22.79      0.205     
2846.6     25.16      0.192     
2846.8     24.45      0.202     
2847       25.53      0.2       
2847.2     27.61      0.224     
2847.4     32.04      0.246     
2847.6     33.91      0.246     
2847.8     32.65      0.235     
2848       33.92      0.235     
2848.2     34.58      0.24      
2848.4     41.61      0.217     
2848.6     52.74      0.206     
2848.8     64.68001   0.189     
2849       69.14      0.169     
2849.2     53.65      0.15      
2849.4     49.9       0.127     
2849.6     42.41      0.136     
2849.8     35.72      0.154     
2850       25.48      0.156     
2850.2     28.37      0.183     
2850.4     39.56      0.203     
2850.6     54.76      0.227     
2850.8     75.12      0.296     
2851       96.25      0.289     
2851.2     109.99     0.264     
2851.4     113.15     0.248     
2851.6     111.58     0.282     
2851.8     96.19      0.264     
2852       66.55      0.191     
2852.2     61.42      0.188     
2852.4     65.9       0.193     
2852.6     69.41      0.202     
2852.8     64.98      0.212     
2853       64.18999   0.226     
2853.2     61.82      0.226     
2853.4     63.19      0.223     
2853.6     63.92      0.238     
2853.8     66.8       0.253     
2854       66.55      0.231     
2854.2     66.6       0.263     
2854.4     67.49      0.237     
2854.6     60.33      0.23      
2854.8     52.53      0.231     
2855       48.33      0.207     
2855.2     48.48      0.19      
2855.4     50.38      0.193     
2855.6     54.08      0.199     
2855.8     51.98      0.231     
2856       51.08      0.218     
2856.2     51.77      0.216     
2856.4     53.35      0.236     
2856.6     49.06      0.229     
2856.8     46.64      0.224     
2857       45.47      0.242     
2857.2     46.61      0.217     
2857.4     41.58      0.219     
2857.6     42.8       0.209     
2857.8     46.94      0.212     
2858       45.31      0.188     
2858.2     44.11      0.181     
2858.4     43.48      0.173     
2858.6     46.72      0.193     
2858.8     46.24      0.208     
2859       47.34      0.206     
2859.2     47.43      0.195     
2859.4     49.69      0.186     
2859.6     46.5       0.201     
2859.8     46.33      0.187     
2860       48.55      0.2       
2860.2     50.71      0.208     
2860.4     51.64      0.198     
2860.6     48.99      0.201     
2860.8     50.2       0.207     
2861       56.63      0.22      
2861.2     65.37      0.214     
2861.4     74.08      0.218     
2861.6     76.28999   0.246     
2861.8     79.95      0.234     
2862       90.95      0.225     
2862.2     97.41      0.244     
2862.4     93.13      0.255     
2862.6     91.75      0.229     
2862.8     88.59      0.225     
2863       80.02      0.228     
2863.2     71.26      0.224     
2863.4     63.26      0.252     
2863.6     62.65      0.247     
2863.8     65.71999   0.261     
2864       66.35001   0.275     
2864.2     68.29001   0.289     
2864.4     75.07      0.269     
2864.6     64.02      0.242     
2864.8     65.17      0.247     
2865       73.85001   0.243     
2865.2     82.01      0.268     
2865.4     88.14      0.29      
2865.6     96.7       0.282     
2865.8     99.7       0.286     
2866       102.35     0.291     
2866.2     102.7      0.242     
2866.4     97.33      0.263     
2866.6     99.28001   0.268     
2866.8     98.23      0.248     
2867       94.7       0.248     
2867.2     87.02      0.263     
2867.4     79.69      0.247     
2867.6     70.96      0.272     
2867.8     43.8       0.331     
2868       25.09      0.417     
2868.2     9.590001   0.482     
2868.4     9.679999   0.481     
2868.6     12.9       0.493     
2868.8     26.51      0.356     
2869       39.03      0.319     
2869.2     49         0.344     
2869.4     66.17      0.32      
2869.6     77.24      0.309     
2869.8     72.71      0.251     
2870       72.15      0.219     
2870.2     59.32      0.205     
2870.4     53.97      0.211     
2870.6     55.83      0.219     
2870.8     57.54      0.236     
2871       59.28      0.234     
2871.2     70.10001   0.237     
2871.4     77.95999   0.347     
2871.6     79.69      0.41      
2871.8     82.8       0.293     
2872       87.78      0.27      
2872.2     83.76      0.266     
2872.4     86.46      0.264     
2872.6     96.78001   0.27      
2872.8     94.96001   0.272     
2873       95.61      0.284     
2873.2     86.21001   0.254     
2873.4     75.97      0.227     
2873.6     67.25      0.196     
2873.8     73.12      0.18      
2874       69.25      0.185     
2874.2     70.16      0.196     
2874.4     70.14      0.197     
2874.6     76.28      0.219     
2874.8     87.22      0.24      
2875       78         0.209     
2875.2     64.66      0.193     
2875.4     58.39      0.181     
2875.6     65.17      0.189     
2875.8     71.35001   0.212     
2876       76.93      0.246     
2876.2     78.7       0.25      
2876.4     68.18      0.228     
2876.6     65.66      0.222     
2876.8     70.61      0.214     
2877       69.20999   0.215     
2877.2     71.86      0.243     
2877.4     76.02      0.254     
2877.6     75.69      0.291     
2877.8     76.19      0.315     
2878       82.9       0.335     
2878.2     90.13      0.341     
2878.4     91.09      0.352     
2878.6     87.19      0.336     
2878.8     85.66      0.28      
2879       86.96999   0.251     
2879.2     83.19      0.253     
2879.4     77.91      0.261     
2879.6     76.98      0.25      
2879.8     85.45      0.236     
2880       85.02      0.211     
2880.2     77.77      0.182     
2880.4     68.53      0.159     
2880.6     58.55      0.144     
2880.8     47.58      0.128     
2881       53.07      0.13      
2881.2     64.75      0.179     
2881.4     73.19      0.235     
2881.6     78.06      0.274     
2881.8     84.93      0.264     
2882       85.12      0.24      
2882.2     87.69      0.262     
2882.4     90.33      0.283     
2882.6     96.03      0.289     
2882.8     97.53      0.295     
2883       78.00999   0.275     
2883.2     58.97      0.258     
2883.4     53.47      0.227     
2883.6     53.03      0.226     
2883.8     54.14      0.197     
2884       60.5       0.161     
2884.2     59.96      0.168     
2884.4     58.78      0.164     
2884.6     63.09      0.195     
2884.8     67.72      0.205     
2885       79.32      0.224     
2885.2     89.29      0.27      
2885.4     101.78     0.277     
2885.6     103.32     0.255     
2885.8     96.21001   0.235     
2886       96.55      0.228     
2886.2     100.53     0.262     
2886.4     90.06      0.301     
2886.6     80.43999   0.29      
2886.8     76.46      0.265     
2887       85.94      0.281     
2887.2     101.66     0.232     
2887.4     103.24     0.234     
2887.6     90.62      0.271     
2887.8     76.75999   0.307     
2888       62.93      0.275     
2888.2     64.8       0.257     
2888.4     63.83      0.251     
2888.6     59.37      0.235     
2888.8     59.41      0.234     
2889       60.17      0.257     
2889.2     62.08      0.268     
2889.4     65.92      0.254     
2889.6     69.93      0.236     
2889.8     73.9       0.266     
2890       71.65      0.224     
2890.2     71.99001   0.227     
2890.4     75.39      0.261     
2890.6     74.31      0.272     
2890.8     76.47      0.285     
2891       71.78001   0.27      
2891.2     67.3       0.276     
2891.4     57.62      0.275     
2891.6     43.1       0.328     
2891.8     28.77      0.415     
2892       29.64      0.424     
2892.2     34.66      0.367     
2892.4     55.31      0.306     
2892.6     74.55      0.23      
2892.8     79.67      0.185     
2893       63.44      0.182     
2893.2     45.4       0.196     
2893.4     38.83      0.196     
2893.6     39.48      0.185     
2893.8     33.8       0.17      
2894       38.21      0.177     
2894.2     39.72      0.207     
