~Version
 VERS              .         2.0                           : CWLS LOG ASCII STANDARD - VERSION 2.0
 WRAP              .         NO                            : ONE LINE PER DEPTH STEP
 DLM               .         SPACE                         : DELIMITING CHARACTER(SPACE TAB OR COMMA)
~Well Information
#_______________________________________________________________________________
#
#PARAMETER_NAME    .UNIT     VALUE                         : DESCRIPTION
#_______________________________________________________________________________
STRT               .m        2700                          : First reference value
STOP               .m        2908                          : Last reference value
STEP               .m        0.2                           : Step increment
NULL               .         -9999                         : Missing value
COMP               .                                       : Company
WELL               .         503                           : Well name
FLD                .                                       : Field
LOC                .                                       : Location
CNTY               .                                       : County
STAT               .                                       : State
CTRY               .                                       : Country
SRVC               .                                       : Service Company
DATE               .                                       : Date
API                .                                       : API number
EREF               .m        139.4                         : 
X                  .m        230550                        : 
Y                  .m        242075                        : 
group              .         Pad5                          : 
Интер-р            .         Ярышев                        : 
Куст               .         5                             : 
Статус             .         Не проверено                  : 
Тип                .         Разобраться                   : 
~Parameter Information Block
#_______________________________________________________________________________
#
#PARAMETER_NAME    .UNIT     VALUE                         : DESCRIPTION
#_______________________________________________________________________________
SET                .         LAS1                          : 
REAL_CREATION_DATE .         Ср апр 11 2012-13_17_18       : 
TLFamily_DEPTH     .         Measured Depth                : 
TLFamily_KS        .         Potential Resistivity         : 
TLFamily_KS1       .         Extra Shallow Resistivity     : 
TLFamily_KS2       .         Shallow Resistivity           : 
TLFamily_KS3       .         Medium Resistivity            : 
TLFamily_KS4       .         Deep Resistivity              : 
TLFamily_KS5       .         Extra Deep Resistivity        : 
TLFamily_LLD       .         Lateral Log Resistivity       : 
TLFamily_OKS3      .         Medium Resistivity Inverted   : 
TLFamily_RM        .         Mud Resistivity               : 
group              .         INI                           : 
~Curve Information
#_______________________________________________________________________________
#
#LOGNAME           .UNIT     LOG_ID                        : DESCRIPTION
#_______________________________________________________________________________
DEPTH              .m                                      : Measured Depth 
KS                 .ohm.m                                  : Potential Resistivity 
KS1                .ohm.m                                  : Extra Shallow Resistivity 
KS2                .ohm.m                                  : Shallow Resistivity 
KS3                .ohm.m                                  : Medium Resistivity 
KS4                .ohm.m                                  : Deep Resistivity 
KS5                .ohm.m                                  : Extra Deep Resistivity 
LLD                .ohm.m                                  : Lateral Log Resistivity 
OKS3               .ohm.m                                  : Medium Resistivity Inverted 
RM                 .ohm.m                                  : Mud Resistivity 
~Ascii
# ...
2875.2     6.7448     3.4004     8.762      11.1431    9.7511     3.5009     4.3577     9.053      0.211     
2875.4     6.6768     3.0881     8.0455     10.1718    9.1588     3.4878     4.764      9.7207     0.223     
2875.6     6.738      2.735      7.4867     8.9803     8.9548     3.5795     5.323      11.2183    0.223     
2875.8     7.003      2.5517     7.3224     8.6599     9.7051     3.9068     7.8017     12.2048    0.21      
2876       7.2205     2.7282     7.7694     8.9155     10.8502    4.265      8.0146     12.7871    0.223     
2876.2     7.336      3.027      8.0323     9.5631     11.9459    4.7054     6.3819     13.1891    0.216     
2876.4     7.404      3.251      8.5845     9.9904     12.4033    5.216      5.7615     13.8374    0.21      
2876.6     7.4855     3.1152     8.4728     10.1653    12.548     5.5565     6.9059     14.181     0.22      
2876.8     7.5878     3.1152     8.6634     10.0423    11.7781    5.5957     5.8882     13.8309    0.22      
2877       7.8185     3.1425     8.6042     9.6084     10.6132    5.4124     5.8117     13.3511    0.216     
2877.2     8.1107     2.9862     7.9732     8.8572     9.4879     4.9935     7.6103     13.0011    0.22      
2877.4     8.3962     2.8504     7.8351     8.4784     8.7903     4.8756     7.8646     12.8325    0.223     
2877.6     8.6544     2.9387     8.0264     8.4169     8.5139     4.8494     8.0723     12.826     0.21      
2877.8     8.8379     3.0541     8.361      8.7342     8.4646     4.7971     8.1475     13.0011    0.223     
2878       8.9195     3.1899     8.8277     9.2976     8.5139     5.0066     8.45       13.39      0.221     
2878.2     8.906      3.3121     9.3405     10.0487    8.6587     5.2291     8.0446     13.8892    0.213     
2878.4     8.8583     3.4208     10.0438    10.8776    8.7574     5.4648     8.092      14.4014    0.223     
2878.6     8.7428     3.4683     10.3397    11.406     8.7311     5.5565     7.2227     14.4468    0.223     
2878.8     8.6408     3.4072     10.1622    11.6223    8.6389     5.7267     7.1264     14.2659    0.213     
2879       8.5389     3.3868     10.172     11.7       8.4152     5.8445     6.6274     13.6558    0.223     
2879.2     8.3554     3.251      9.8072     11.7323    8.3        6.1325     6.1221     13.0076    0.216     
2879.4     8.2671     3.4004     10.0899    11.4992    8.1519     6.905      5.5276     13.0465    0.22      
2879.6     8.2874     2.9183     8.808      11.0783    8.2243     8.319      6.5447     13.6364    0.223     
2879.8     8.3893     2.7757     8.315      10.5797    8.606      10.7412    6.5586     14.6024    0.223     
2880       8.5049     2.7757     8.1507     10.7351    9.7116     14.3024    6.3309     15.9897    0.21      
2880.2     8.8379     2.7418     7.9534     11.022     11.5083    19.5787    6.7023     17.3091    0.22      
2880.4     9.2729     2.6399     7.9337     11.7129    14.4434    23.7291    9.7051     18.5116    0.223     
2880.6     9.7486     2.5585     8.1735     13.4937    17.8658    27.6307    18.6929    20.1907    0.206     
2880.8     10.1223    3.0405     9.5443     15.9802    20.182     31.7156    75.5925    18.7839    0.227     
2881       10.2243    3.7874     11.5755    18.5834    22.9724    33.2344    14.3395    16.0545    0.223     
2881.2     10.1365    4.652      13.9178    19.5244    23.3344    32.0168    7.4809     12.9882    0.213     
2881.4     9.9524     4.3413     13.0151    18.5056    21.5377    29.2019    6.5265     11.0627    0.223     
2881.6     9.5583     4.188      12.6864    16.4206    18.5499    25.8239    6.6052     9.7077     0.223     
2881.8     9.2457     3.6992     12.0422    15.4303    16.444     23.3887    7.032      9.1891     0.206     
2882       9.0146     3.3868     11.5565    14.3031    15.266     22.7733    8.4412     9.3058     0.22      
2882.2     8.7428     3.2986     11.3783    14.1024    15.0982    22.7864    7.6388     10.1097    0.223     
2882.4     8.2467     3.4955     11.5689    14.9377    15.5951    25.1693    5.4091     11.0367    0.213     
2882.6     7.6486     3.7399     12.1474    16.6472    17.0626    28.377     6.8256     12.4695    0.223     
2882.8     7.0827     3.7535     12.4761    19.9885    20.2544    29.2673    4.8364     15.2506    0.213     
2883       6.3982     4.1385     14.8294    22.5463    21.5377    28.4818    4.4111     17.215     0.21      
2883.2     6.1535     3.5973     12.384     21.9194    18.6618    25.8632    4.0947     16.8228    0.216     
2883.4     6.0992     3.0202     9.9321     19.3475    14.1801    19.8929    4.5241     13.9476    0.22      
2883.6     6.0312     2.8029     8.9993     16.0126    11.4293    16.7769    4.4896     12.3009    0.206     
2883.8     6.0312     2.735      8.0126     13.2994    9.9854     12.5741    4.461      11.5424    0.213     
2884       6.072      2.5449     7.0792     11.0265    8.402      9.7985     4.448      11.0692    0.213     
2884.2     6.1739     2.5245     6.6716     9.2976     7.1253     7.7953     4.6453     10.8811    0.21      
2884.4     6.2826     2.5313     6.435      8.0608     6.2698     6.4206     5.4322     11.1567    0.218     
2884.6     6.4593     2.4634     6.1917     7.2772     5.8025     5.5565     5.8005     11.7434    0.223     
2884.8     6.8059     2.4091     6.1326     7.0274     5.7696     5.1113     7.5911     12.6315    0.206     
2885       7.1729     2.4091     6.3035     7.1413     6.2105     4.9804     9.5446     13.805     0.22      
2885.2     7.5671     2.4838     6.5336     8.0025     6.7524     4.8102     8.8991     14.4662    0.223     
2885.4     7.9409     2.7689     7.2106     8.8896     7.0727     4.6792     8.5593     14.1161    0.206     
2885.6     8.3146     2.9183     7.7628     9.2587     7.2767     4.5352     8.411      13.1891    0.216     
2885.8     8.6204     3.1084     8.2624     9.3494     7.1187     4.3781     8.7383     12.1972    0.223     
2886       8.7903     3.2137     8.5845     9.4141     6.9871     4.2603     8.6489     10.7223    0.21      
2886.2     8.8583     3.2442     9.0315     9.6537     7.0134     4.1817     7.3557     9.9735     0.22      
2886.4     8.8107     3.414      9.7678     9.9904     7.2898     4.1944     5.7937     9.6721     0.213     
2886.6     8.7496     3.4989     10.2476    10.2689    7.5596     4.2996     5.6683     9.4549     0.22      
2886.8     8.702      3.3393     9.9715     10.5603    7.8997     4.6138     6.4912     9.4808     0.22      
2887       8.6204     3.2171     9.7349     11.0848    9.1128     5.0589     8.8541     10.4144    0.21      
2887.2     8.5865     3.0066     9.587      12.3022    11.9229    5.4517     8.5528     11.6526    0.22      
2887.4     8.5525     3.0609     10.103     13.6814    14.5618    5.7921     8.9296     12.6283    0.206     
2887.6     8.634      3.2986     10.7078    14.9183    15.5885    6.0016     8.9346     13.0918    0.218     
2887.8     8.6136     3.4208     10.6289    15.7503    15.9307    5.779      4.4169     12.8584    0.216     
2888       8.2263     3.7161     10.997     16.4011    15.9899    5.4651     4.1847     12.3398    0.213     
2888.2     8.0292     4.1134     11.6872    16.032     14.6211    5.1637     6.5507     11.7174    0.22      
2888.4     7.9578     3.3393     9.6034     13.6814    12.14      4.8102     6.1696     11.3803    0.21      
2888.6     7.8389     2.9387     8.9789     11.6741    10.1032    4.365      5.1859     11.134     0.22      
2888.8     7.8117     2.9794     9.117      11.0168    9.1588     4.1817     4.7609     11.2442    0.206     
2889       7.7268     3.1831     9.2287     10.4437    8.5534     4.2603     5.1088     11.6008    0.216     
2889.2     7.6011     3.1186     8.7488     9.8286     7.915      4.5352     5.0845     11.7888    0.211     
2889.4     7.5603     2.9047     7.868      8.9576     7.3885     5.072      5.9216     11.7952    0.216     
2889.6     7.6214     2.752      7.5788     8.6306     7.2306     5.3601     6.337      11.8082    0.216     
