~Version
 VERS              .         2.0                           : CWLS LOG ASCII STANDARD - VERSION 2.0
 WRAP              .         NO                            : ONE LINE PER DEPTH STEP
 DLM               .         SPACE                         : DELIMITING CHARACTER(SPACE TAB OR COMMA)
~Well Information
#_______________________________________________________________________________
#
#PARAMETER_NAME    .UNIT     VALUE                         : DESCRIPTION
#_______________________________________________________________________________
STRT               .m        2700                          : First reference value
STOP               .m        2908                          : Last reference value
STEP               .m        0.2                           : Step increment
NULL               .         -9999                         : Missing value
COMP               .                                       : Company
WELL               .         503                           : Well name
FLD                .                                       : Field
LOC                .                                       : Location
CNTY               .                                       : County
STAT               .                                       : State
CTRY               .                                       : Country
SRVC               .                                       : Service Company
DATE               .                                       : Date
API                .                                       : API number
EREF               .m        139.4                         : 
X                  .m        230550                        : 
Y                  .m        242075                        : 
group              .         Pad5                          : 
Интер-р            .         Ярышев                        : 
Куст               .         5                             : 
Статус             .         Не проверено                  : 
Тип                .         Разобраться                   : 
~Parameter Information Block
#_______________________________________________________________________________
#
#PARAMETER_NAME    .UNIT     VALUE                         : DESCRIPTION
#_______________________________________________________________________________
SET                .         LAS3                          : 
REAL_CREATION_DATE .         Ср апр 11 2012-13_17_18       : 
TLFamily_DEPTH     .         Measured Depth                : 
TLFamily_GR        .         Gamma Ray                     : 
TLFamily_TNPH      .         Neutron Porosity              : 
group              .         INI                           : 
~Curve Information
#_______________________________________________________________________________
#
#LOGNAME           .UNIT     LOG_ID                        : DESCRIPTION
#_______________________________________________________________________________
DEPTH              .m                                      : Measured Depth 
GR                 .gAPI                                   :  
TNPH               .v/v                                    : Neutron Porosity 
~Ascii
# ...
2797.2     156.77     0.343     
2797.4     141.45     0.351     
2797.6     125.45     0.305     
2797.8     120.75     0.296     
2798       111.78     0.272     
2798.2     117.54     0.276     
2798.4     136.04     0.319     
2798.6     141.99     0.318     
2798.8     130.86     0.311     
2799       115.23     0.277     
2799.2     89.7       0.267     
2799.4     79.18999   0.225     
2799.6     91.13      0.24      
2799.8     98.5       0.247     
2800       126.41     0.258     
2800.2     158.99     0.304     
2800.4     152.62     0.321     
2800.6     142.72     0.317     
2800.8     140.54     0.27      
2801       125.72     0.284     
2801.2     122.46     0.267     
2801.4     124.99     0.254     
2801.6     120.98     0.292     
2801.8     116.28     0.291     
2802       116.93     0.279     
2802.2     114.31     0.237     
2802.4     116.29     0.231     
2802.6     123.46     0.24      
2802.8     120.28     0.245     
2803       113.55     0.321     
2803.2     118.21     0.328     
2803.4     124.7      0.346     
2803.6     127.34     0.308     
2803.8     120.59     0.29      
2804       123.61     0.335     
2804.2     130.73     0.307     
2804.4     139.83     0.335     
2804.6     136.46     0.339     
2804.8     141.58     0.351     
2805       141.37     0.334     
2805.2     136.43     0.309     
2805.4     127.59     0.291     
2805.6     114.36     0.325     
2805.8     119.3      0.329     
2806       121.77     0.31      
2806.2     131.06     0.339     
2806.4     127.33     0.29      
2806.6     117.74     0.305     
2806.8     107.1      0.286     
2807       104.13     0.282     
2807.2     99.45      0.292     
2807.4     101.49     0.278     
2807.6     116.34     0.328     
2807.8     130.04     0.309     
2808       132.88     0.288     
2808.2     127.19     0.278     
2808.4     114.81     0.332     
2808.6     110.78     0.295     
2808.8     109.73     0.273     
2809       118.11     0.308     
2809.2     127.78     0.357     
2809.4     135.91     0.37      
2809.6     144.07     0.346     
2809.8     144.2      0.326     
2810       144.54     0.3       
2810.2     142.95     0.286     
2810.4     140.59     0.291     
2810.6     132.42     0.306     
2810.8     142.8      0.35      
2811       152.1      0.344     
2811.2     146.4      0.319     
2811.4     129.15     0.281     
2811.6     143.97     0.271     
2811.8     155.46     0.303     
2812       168.24     0.303     
2812.2     192.67     0.352     
2812.4     203.92     0.331     
2812.6     178.82     0.273     
2812.8     149.23     0.275     
2813       131.57     0.288     
2813.2     121.29     0.326     
2813.4     120.4      0.327     
2813.6     130.26     0.351     
2813.8     140.62     0.356     
2814       131.91     0.337     
2814.2     116.84     0.328     
2814.4     115.35     0.29      
2814.6     112.7      0.302     
2814.8     115.38     0.306     
2815       117.69     0.292     
2815.2     120.02     0.28      
2815.4     128.09     0.238     
2815.6     134.83     0.241     
2815.8     140.92     0.239     
2816       143.22     0.284     
2816.2     135.03     0.277     
2816.4     123.11     0.262     
2816.6     122.15     0.267     
2816.8     122.42     0.298     
2817       122.52     0.276     
2817.2     122.12     0.296     
2817.4     122.69     0.301     
2817.6     118.58     0.304     
2817.8     119.66     0.308     
2818       126.23     0.312     
2818.2     127.93     0.332     
2818.4     123.91     0.349     
2818.6     117.67     0.305     
2818.8     120.26     0.295     
2819       119.78     0.271     
2819.2     119.41     0.291     
2819.4     121.03     0.35      
2819.6     121.19     0.334     
2819.8     120.55     0.32      
2820       111.05     0.283     
2820.2     106.64     0.309     
2820.4     102.64     0.282     
2820.6     114.97     0.306     
2820.8     132.31     0.322     
2821       128.42     0.306     
2821.2     125.35     0.291     
2821.4     127.32     0.297     
2821.6     122.69     0.279     
2821.8     122.6      0.287     
2822       126.63     0.295     
2822.2     119.58     0.298     
2822.4     119.4      0.29      
2822.6     118.86     0.295     
2822.8     113.76     0.353     
2823       108.75     0.31      
2823.2     110.43     0.273     
2823.4     110.02     0.281     
2823.6     116.21     0.301     
2823.8     118.22     0.295     
2824       116.88     0.284     
2824.2     122.85     0.269     
2824.4     124.66     0.271     
2824.6     129.31     0.288     
2824.8     128.96     0.314     
2825       133.75     0.295     
2825.2     127.77     0.337     
2825.4     123.99     0.319     
2825.6     129.59     0.296     
2825.8     129.36     0.34      
2826       128.6      0.357     
2826.2     132.25     0.352     
2826.4     130.1      0.335     
2826.6     130.76     0.316     
2826.8     124.9      0.334     
2827       125.25     0.325     
2827.2     120.91     0.3       
2827.4     113.53     0.34      
2827.6     112.25     0.327     
2827.8     119.13     0.316     
2828       119.06     0.232     
2828.2     117.04     0.248     
2828.4     108.5      0.281     
2828.6     108.14     0.261     
2828.8     108.11     0.273     
2829       103.66     0.269     
2829.2     106.79     0.266     
2829.4     106.84     0.294     
2829.6     105.54     0.275     
2829.8     106.32     0.283     
2830       109.85     0.315     
2830.2     106.81     0.38      
2830.4     105.09     0.4       
2830.6     105.47     0.401     
2830.8     110.42     0.346     
2831       119.98     0.318     
2831.2     116.16     0.334     
2831.4     116.26     0.374     
2831.6     117.13     0.398     
2831.8     118.11     0.411     
2832       124.08     0.328     
2832.2     126.52     0.287     
2832.4     128.43     0.285     
2832.6     126.34     0.29      
2832.8     127.61     0.271     
2833       128.91     0.312     
2833.2     134.41     0.333     
2833.4     135.44     0.284     
2833.6     129.09     0.273     
2833.8     134.1      0.248     
2834       133.91     0.243     
2834.2     137.85     0.21      
2834.4     153.37     0.184     
2834.6     175.3      0.176     
2834.8     159.05     0.158     
2835       90.37      0.14      
2835.2     53.63      0.12      
2835.4     51.94      0.124     
2835.6     59.2       0.136     
2835.8     50.9       0.143     
2836       46.88      0.146     
2836.2     47.98      0.165     
2836.4     41.61      0.175     
2836.6     40.83      0.171     
2836.8     44.99      0.176     
2837       47.94      0.206     
2837.2     48.35      0.214     
2837.4     44.16      0.199     
2837.6     42.86      0.173     
2837.8     38.96      0.183     
2838       39.71      0.188     
2838.2     36.49      0.2       
2838.4     41.16      0.201     
2838.6     49.18      0.213     
2838.8     49.17      0.208     
2839       43.23      0.197     
2839.2     38.33      0.197     
2839.4     37.25      0.182     
2839.6     40.88      0.168     
2839.8     46.47      0.161     
2840       44.52      0.167     
2840.2     36.43      0.156     
2840.4     24.67      0.117     
2840.6     20.27      0.092     
2840.8     23.03      0.086     
2841       28.22      0.112     
2841.2     31.89      0.135     
2841.4     32.32      0.177     
2841.6     34         0.222     
2841.8     33.65      0.223     
2842       33.7       0.198     
2842.2     36.78      0.194     
2842.4     39.35      0.189     
2842.6     36.54      0.177     
2842.8     34.29      0.194     
2843       29.47      0.198     
2843.2     25.07      0.206     
2843.4     26.38      0.197     
2843.6     25.11      0.208     
2843.8     25         0.199     
2844       28.52      0.189     
2844.2     29.39      0.218     
2844.4     28.91      0.221     
2844.6     26.35      0.215     
2844.8     25.77      0.219     
2845       26.89      0.208     
2845.2     28.83      0.191     
2845.4     29.61      0.181     
2845.6     27.38      0.195     
