~Version
 VERS              .         2.0                           : CWLS LOG ASCII STANDARD - VERSION 2.0
 WRAP              .         NO                            : ONE LINE PER DEPTH STEP
 DLM               .         SPACE                         : DELIMITING CHARACTER(SPACE TAB OR COMMA)
~Well Information
#_______________________________________________________________________________
#
#PARAMETER_NAME    .UNIT     VALUE                         : DESCRIPTION
#_______________________________________________________________________________
STRT               .m        2700                          : First reference value
STOP               .m        2908                          : Last reference value
STEP               .m        0.2                           : Step increment
NULL               .         -9999                         : Missing value
COMP               .                                       : Company
WELL               .         503                           : Well name
FLD                .                                       : Field
LOC                .                                       : Location
CNTY               .                                       : County
STAT               .                                       : State
CTRY               .                                       : Country
SRVC               .                                       : Service Company
DATE               .                                       : Date
API                .                                       : API number
EREF               .m        139.4                         : 
X                  .m        230550                        : 
Y                  .m        242075                        : 
group              .         Pad5                          : 
Интер-р            .         Ярышев                        : 
Куст               .         5                             : 
Статус             .         Не проверено                  : 
Тип                .         Разобраться                   : 
~Parameter Information Block
#_______________________________________________________________________________
#
#PARAMETER_NAME    .UNIT     VALUE                         : DESCRIPTION
#_______________________________________________________________________________
SET                .         LAS1                          : 
REAL_CREATION_DATE .         Ср апр 11 2012-13_17_18       : 
TLFamily_DEPTH     .         Measured Depth                : 
TLFamily_KS        .         Potential Resistivity         : 
TLFamily_KS1       .         Extra Shallow Resistivity     : 
TLFamily_KS2       .         Shallow Resistivity           : 
TLFamily_KS3       .         Medium Resistivity            : 
TLFamily_KS4       .         Deep Resistivity              : 
TLFamily_KS5       .         Extra Deep Resistivity        : 
TLFamily_LLD       .         Lateral Log Resistivity       : 
TLFamily_OKS3      .         Medium Resistivity Inverted   : 
TLFamily_RM        .         Mud Resistivity               : 
group              .         INI                           : 
~Curve Information
#_______________________________________________________________________________
#
#LOGNAME           .UNIT     LOG_ID                        : DESCRIPTION
#_______________________________________________________________________________
DEPTH              .m                                      : Measured Depth 
KS                 .ohm.m                                  : Potential Resistivity 
KS1                .ohm.m                                  : Extra Shallow Resistivity 
KS2                .ohm.m                                  : Shallow Resistivity 
KS3                .ohm.m                                  : Medium Resistivity 
KS4                .ohm.m                                  : Deep Resistivity 
KS5                .ohm.m                                  : Extra Deep Resistivity 
LLD                .ohm.m                                  : Lateral Log Resistivity 
OKS3               .ohm.m                                  : Medium Resistivity Inverted 
RM                 .ohm.m                                  : Mud Resistivity 
~Ascii
# ...
2743.8     6.6021     3.0745     8.3939     9.6013     7.8624     3.6056     5.3008     9.4419     0.223     
2744       6.5953     3.0813     8.4103     9.4983     7.7834     3.5795     5.2132     9.4225     0.223     
2744.2     6.5817     3.0473     8.3544     9.3947     7.79       3.6056     5.1229     9.4808     0.227     
2744.4     6.5681     3.0609     8.3676     9.3105     7.8755     3.6381     5.1073     9.5521     0.227     
2744.6     6.5749     3.0405     8.315      9.2652     7.9611     3.6842     5.1461     9.6105     0.227     
2744.8     6.5749     3.0541     8.3479     9.2522     8.0466     3.8151     5.3162     9.6299     0.227     
2745       6.5817     3.0677     8.3479     9.2976     8.119      3.9722     5.3813     9.5907     0.23      
2745.2     6.5817     3.0881     8.3479     9.3073     8.0335     4.1817     5.2109     9.5651     0.23      
2745.4     6.5817     3.0677     8.315      9.2976     7.9084     4.365      5.2469     9.5327     0.233     
2745.6     6.5817     3.0745     8.3281     9.2717     7.79       4.4698     5.3486     9.4938     0.233     
2745.8     6.6021     3.0541     8.269      9.2004     7.6809     4.5614     5.2073     9.4744     0.233     
2746       6.5851     3.0473     8.2821     9.1422     7.6123     4.6007     5.2413     9.5521     0.233     
2746.2     6.5681     3.0711     8.3479     9.194      7.586      4.6661     5.3105     9.591      0.237     
2746.4     6.5477     3.0677     8.3939     9.2263     7.5662     4.784      5.3214     9.5748     0.237     
2746.6     6.5273     3.0745     8.4136     9.2458     7.5267     4.9411     5.3708     9.5132     0.24      
2746.8     6.4797     3.0813     8.4005     9.2976     7.5267     5.1244     5.1424     9.429      0.237     
2747       6.4322     3.0813     8.4202     9.3364     7.5202     5.347      5.168      9.4679     0.24      
2747.2     6.4254     3.0813     8.4399     9.33       7.4938     5.5695     5.1121     9.5781     0.237     
2747.4     6.4289     3.027      8.2493     9.2393     7.4214     5.8183     4.7677     9.805      0.237     
2747.6     6.4525     2.9622     8.0586     9.0968     7.2898     5.9885     4.7546     10.0448    0.237     
2747.8     6.5069     2.9319     8.0521     8.9932     7.1648     6.0802     5.1956     10.1031    0.237     
2748       6.6021     2.9591     8.0389     8.9835     7.099      6.1587     5.5614     10.1421    0.233     
2748.2     6.6156     3.0473     8.2112     9.0386     7.1319     6.1456     5.6291     10.2653    0.237     
2748.4     6.5817     3.1695     8.3939     9.1745     7.1319     6.1849     5.5325     10.3625    0.233     
2748.6     6.5137     3.1424     8.4136     9.2522     7.1615     6.2504     5.0857     10.5051    0.232     
2748.8     6.4321     3.1899     8.6437     9.2522     7.1648     6.2635     5.0563     10.6931    0.233     
2749       6.405      3.1661     8.624      9.1422     7.0727     6.2635     4.7654     10.8811    0.237     
2749.2     6.4525     3.0609     8.2558     8.8767     6.895      6.2635     4.748      10.9395    0.237     
2749.4     6.5613     2.9591     7.9797     8.7048     6.7699     6.1849     5.031      10.9914    0.237     
2749.6     6.704      2.9591     7.9437     8.6565     6.7304     6.1063     5.4595     10.946     0.24      
2749.8     6.9418     2.9455     8.006      8.6112     6.7041     6.0409     5.3377     10.7774    0.237     
2750       7.1593     2.9319     7.7431     8.5659     6.6482     6.0671     5.4253     10.6931    0.233     
2750.2     7.3155     2.9658     7.8877     8.65       6.6844     6.0802     5.5332     10.6153    0.237     
2750.4     7.336      3.0834     8.1572     8.9414     7.02       6.1194     6.1444     10.5311    0.24      
2750.6     7.3224     3.38       9.3076     9.4077     7.3425     6.1325     7.8982     10.2134    0.243     
2750.8     7.2952     3.4683     9.5705     9.8319     7.4346     6.1194     6.655      9.9541     0.24      
2751       7.1865     3.4683     9.518      9.9257     7.3885     6.0409     5.718      9.5068     0.24      
2751.2     7.0166     3.4004     9.5705     10.0228    7.3227     5.923      5.6516     9.3706     0.24      
2751.4     6.8467     3.3461     9.6034     10.0876    7.2864     5.851      5.4194     9.3901     0.237     
2751.6     6.6972     3.2374     9.4588     10.1847    7.2701     5.8052     5.1404     9.5392     0.237     
2751.8     6.6055     3.1831     9.3207     10.2106    7.2503     5.7136     5.0423     9.7985     0.237     
2752       6.5545     3.1594     9.0512     10.1394    7.1911     5.6481     4.8884     9.9923     0.237     
2752.2     6.5273     3.0337     8.6502     10.0487    7.1516     5.5826     5.1914     10.168     0.233     
2752.4     6.5273     3.0541     8.5582     10.0617    7.145      5.5041     5.2174     10.3755    0.233     
2752.6     6.5409     3.0473     8.4465     10.0034    7.1121     5.4648     5.0956     10.5765    0.23      
2752.8     6.5749     3.0541     8.3347     9.9127     7.0496     5.4124     5.0313     10.7515    0.23      
2753       6.5885     3.0405     8.2098     9.7509     7.0266     5.3862     5.109      10.9914    0.23      
2753.2     6.6088     3.0609     8.2558     9.5113     7.02       5.347      5.0657     11.3025    0.227     
2753.4     6.6768     3.0032     8.0915     9.2522     7.0068     5.3339     5.0906     11.5813    0.227     
2753.6     6.772      2.993      8.1507     9.045      7.0134     5.3208     5.3666     11.7271    0.223     
2753.8     6.8671     3.0202     8.1507     8.9835     7.0727     5.3077     5.3906     11.9444    0.223     
2754       6.9622     3.0473     8.2098     8.9091     7.1056     5.3077     5.703      12.1324    0.22      
2754.2     7.0574     3.0541     8.1901     8.9155     7.1448     5.3077     5.5911     12.3917    0.22      
2754.4     7.1253     3.1084     8.3939     8.9803     7.2043     5.3208     5.623      12.651     0.22      
2754.6     7.1863     3.0813     8.4596     9.058      7.2438     5.3339     5.6435     12.8325    0.22      
2754.8     7.2884     3.0576     8.4333     9.1422     7.2898     5.347      5.8424     12.826     0.22      
2755       7.37       3.1152     8.7226     9.2782     7.3162     5.3601     6.1705     12.7058    0.223     
2755.2     7.4583     3.1763     8.7883     9.3915     7.3162     5.3601     5.8432     12.6445    0.223     
2755.4     7.5535     3.156      8.7686     9.4724     7.2701     5.3732     5.783      12.5732    0.23      
2755.6     7.6622     3.1152     8.7291     9.5954     7.2635     5.3862     6.0946     12.4046    0.23      
2755.8     7.7913     3.1831     8.9395     9.7703     7.2635     5.3993     6.2923     12.1064    0.232     
2756       7.9272     3.1899     8.9724     9.9581     7.3096     5.4517     6.1724     11.8536    0.233     
2756.2     8.0292     3.1594     8.9461     10.1005    7.3885     5.5565     6.1975     11.7174    0.233     
2756.4     8.1787     3.156      9.0841     10.4502    7.6452     5.7005     6.5563     11.6067    0.233     
2756.6     8.2739     3.3121     9.6626     10.7985    8.0664     5.8707     7.4149     11.4711    0.233     
2756.8     8.3554     3.4411     10.0274    11.3503    8.4876     5.9885     7.5023     11.2118    0.233     
2757       8.2874     3.6041     10.2148    11.9007    8.7574     6.0802     8.2351     10.7774    0.243     
2757.2     8.1787     3.7195     10.7735    12.2957    8.8726     6.1063     7.3475     10.2523    0.237     
2757.4     7.9884     3.7195     10.8458    12.4576    8.9219     6.1063     6.9309     9.7661     0.237     
2757.6     7.8175     3.7127     10.8853    12.5741    8.9877     6.0409     6.331      9.604      0.233     
2757.8     7.5399     3.7537     11.1613    12.6907    9.0535     6.0147     6.2451     9.6297     0.233     
2758       7.2681     3.6448     10.8524    12.6681    9.0404     5.9361     5.2775     9.7272     0.233     
2758.2     7.0302     3.4751     10.3922    12.477     8.9153     5.8707     5.2144     10.0384    0.233     
