~Version
 VERS              .         2.0                           : CWLS LOG ASCII STANDARD - VERSION 2.0
 WRAP              .         NO                            : ONE LINE PER DEPTH STEP
 DLM               .         SPACE                         : DELIMITING CHARACTER(SPACE TAB OR COMMA)
~Well Information
#_______________________________________________________________________________
#
#PARAMETER_NAME    .UNIT     VALUE                         : DESCRIPTION
#_______________________________________________________________________________
STRT               .m        2700                          : First reference value
STOP               .m        2908                          : Last reference value
STEP               .m        0.2                           : Step increment
NULL               .         -9999                         : Missing value
COMP               .                                       : Company
WELL               .         503                           : Well name
FLD                .                                       : Field
LOC                .                                       : Location
CNTY               .                                       : County
STAT               .                                       : State
CTRY               .                                       : Country
SRVC               .                                       : Service Company
DATE               .                                       : Date
API                .                                       : API number
EREF               .m        139.4                         : 
X                  .m        230550                        : 
Y                  .m        242075                        : 
group              .         Pad5                          : 
Интер-р            .         Ярышев                        : 
Куст               .         5                             : 
Статус             .         Не проверено                  : 
Тип                .         Разобраться                   : 
~Parameter Information Block
#_______________________________________________________________________________
#
#PARAMETER_NAME    .UNIT     VALUE                         : DESCRIPTION
#_______________________________________________________________________________
SET                .         LAS1                          : 
REAL_CREATION_DATE .         Ср апр 11 2012-13_17_18       : 
TLFamily_DEPTH     .         Measured Depth                : 
TLFamily_KS        .         Potential Resistivity         : 
TLFamily_KS1       .         Extra Shallow Resistivity     : 
TLFamily_KS2       .         Shallow Resistivity           : 
TLFamily_KS3       .         Medium Resistivity            : 
TLFamily_KS4       .         Deep Resistivity              : 
TLFamily_KS5       .         Extra Deep Resistivity        : 
TLFamily_LLD       .         Lateral Log Resistivity       : 
TLFamily_OKS3      .         Medium Resistivity Inverted   : 
TLFamily_RM        .         Mud Resistivity               : 
group              .         INI                           : 
~Curve Information
#_______________________________________________________________________________
#
#LOGNAME           .UNIT     LOG_ID                        : DESCRIPTION
#_______________________________________________________________________________
DEPTH              .m                                      : Measured Depth 
KS                 .ohm.m                                  : Potential Resistivity 
KS1                .ohm.m                                  : Extra Shallow Resistivity 
KS2                .ohm.m                                  : Shallow Resistivity 
KS3                .ohm.m                                  : Medium Resistivity 
KS4                .ohm.m                                  : Deep Resistivity 
KS5                .ohm.m                                  : Extra Deep Resistivity 
LLD                .ohm.m                                  : Lateral Log Resistivity 
OKS3               .ohm.m                                  : Medium Resistivity Inverted 
RM                 .ohm.m                                  : Mud Resistivity 
~Ascii
# ...
2729.2     6.1399     3.1695     9.2287     8.8702     0          -9999      3.0856     9.027      0.24      
2729.4     6.0244     2.9658     8.4333     8.8702     0          -9999      4.1475     9.3317     0.24      
2729.6     5.9496     2.9251     8.1244     8.9479     0          -9999      4.3122     9.6429     0.237     
2729.8     5.9632     2.8504     7.7628     9.0256     0          -9999      4.6113     9.9541     0.23      
2730       6.004      2.7757     7.329      9.0515     0.3807     -9999      4.2809     10.1875    0.237     
2730.2     6.0108     2.8301     7.3158     9.1486     2.0316     -9999      4.4188     10.4273    0.232     
2730.4     6.089      2.8233     7.1909     9.0321     3.1833     -9999      4.9366     10.4273    0.233     
2730.6     6.1263     2.8774     7.1712     8.6889     3.9335     -9999      4.8073     10.6153    0.233     
2730.8     6.2758     2.7961     6.9214     8.3586     4.5258     -9999      4.5481     10.946     0.23      
2731       6.4661     2.6603     6.7768     8.1449     5.0523     -9999      4.4368     11.1599    0.227     
2731.2     6.7244     2.6739     6.9942     8.1449     5.6512     -9999      5.1635     11.1858    0.233     
2731.4     6.9486     2.8504     7.2041     8.2356     6.25       -9999      5.6301     11.2312    0.23      
2731.6     7.1797     2.864      7.4473     8.2615     6.7239     -9999      5.4548     11.3414    0.227     
2731.8     7.3224     2.8708     7.4407     8.4622     7.224      -9999      5.7052     11.2572    0.223     
2732       7.4176     3.2171     8.4267     8.8572     7.8426     -9999      7.3324     10.9914    0.227     
2732.2     7.438      3.2986     8.762      9.1875     8.3165     -9999      8.0724     10.5311    0.227     
2732.4     7.3496     3.2986     8.9263     9.3789     8.5007     -9999      6.5096     10.3236    0.223     
2732.6     7.2205     3.3257     9.3207     9.5501     8.6389     -9999      6.0172     10.3366    0.223     
2732.8     7.1389     3.2986     9.2682     9.7055     8.6521     -9999      5.9388     10.3042    0.22      
2733       7.0438     3.1288     9.2221     9.8286     8.56       -9999      5.4487     10.6089    0.227     
2733.2     6.9826     3.122      9.1564     10.0552    8.5402     -9999      5.3055     10.933     0.223     
2733.4     7.071      2.9998     8.8146     10.0358    8.3099     -9999      5.1518     11.1858    0.223     
2733.6     7.2001     2.9523     8.4925     9.984      8.1125     -9999      5.3588     11.299     0.227     
2733.8     7.3292     2.9183     8.1901     9.9127     8.0401     -9999      5.327      11.4711    0.227     
2734       7.4583     2.9183     8.1178     10.12      8.2375     -9999      5.4176     12.0805    0.227     
2734.2     7.4787     3.0609     8.9461     10.5344    8.5271     -9999      5.7059     12.1259    0.227     
2734.4     7.5671     3.3732     9.209      10.8258    8.6718     1.7072     9.376      11.7174    0.227     
2734.6     7.5399     3.3732     9.1696     10.7481    8.5994     2.6368     5.741      11.2377    0.227     
2734.8     7.4244     3.3732     9.2156     10.4114    8.3559     3.2652     5.7157     11.0497    0.227     
2735       7.37       3.2171     9.0381     10.1135    8.1322     3.7628     5.5384     11.0951    0.23      
2735.2     7.3292     3.1492     9.0775     9.835      8.0072     4.1686     5.3068     11.1832    0.233     
2735.4     7.3292     3.1016     8.9921     9.8027     7.9743     4.5483     5.603      11.2961    0.237     
2735.6     7.3564     3.0949     8.7883     9.8027     7.9874     4.9673     5.5523     11.5359    0.237     
2735.8     7.4108     3.0745     8.6502     9.8027     8.0861     5.4648     5.5515     12.0351    0.237     
2736       7.5195     3.0134     8.4333     9.8286     8.2901     6.1063     5.4138     12.8779    0.237     
2736.2     7.6143     2.9523     8.315      9.9904     8.6982     7.1014     5.2577     14.1745    0.237     
2736.4     7.8389     2.9252     8.3479     10.5862    9.5405     8.175      5.4505     15.5359    0.24      
2736.6     8.0088     2.9319     8.7423     11.5834    10.6527    9.1046     6.3091     15.7369    0.243     
2736.8     8.0836     3.4751     10.1885    12.6324    11.6596    9.6806     9.5053     14.6283    0.24      
2737       8.1651     3.7874     10.7198    12.9756    11.2713    9.8509     10.3043    12.8844    0.24      
2737.2     8.0632     3.5566     10.1622    12.3928    10.1262    9.445      6.9806     11.8795    0.237     
2737.4     7.9476     3.4004     9.748      11.5446    9.5076     8.8427     5.6696     11.5619    0.237     
2737.6     7.924      3.2782     9.8203     11.0265    9.1457     8.4499     5.9445     11.6332    0.24      
2737.8     7.9273     3.1965     9.6823     10.6898    8.9417     8.3976     5.6712     11.9184    0.24      
2738       7.9409     3.1695     9.3799     10.4696    8.8824     8.6725     5.7844     12.1744    0.237     
2738.2     7.9952     3.156      9.2221     10.4695    9.1391     9.3926     5.7689     12.638     0.237     
2738.4     8.1107     3.1084     9.2945     10.8387    9.8564     10.4662    5.6473     13.3187    0.237     
2738.6     8.0904     3.0881     9.5903     12.1921    11.2911    11.2518    6.2919     14.2717    0.237     
2738.8     7.9137     3.7195     11.0167    14.5427    12.7126    11.5136    6.8727     14.1615    0.237     
2739       7.9239     3.8825     11.9239    15.4816    12.9692    11.6446    13.9777    12.839     0.237     
2739.2     7.8865     3.6992     10.7932    13.9728    11.7912    11.0423    6.127      11.4905    0.24      
2739.4     7.7438     3.509      10.1622    12.7037    10.3368    9.5628     5.4067     11.064     0.24      
2739.6     7.6826     3.2986     9.7875     11.9374    9.3497     8.463      5.3321     10.8098    0.24      
2739.8     7.6758     3.1899     9.6889     11.6741    8.7311     7.9131     5.208      10.9849    0.24      
2740       7.6418     3.1763     9.656      11.5575    8.56       7.5073     5.8879     11.322     0.24      
2740.2     7.6146     3.3325     9.9715     11.7582    8.6485     7.324      6.3785     11.3868    0.243     
2740.4     7.5705     3.4547     10.1819    12.218     8.9088     7.0621     6.769      11.1729    0.243     
2740.6     7.5195     3.5871     10.4908    12.3993    9.0338     6.761      6.6171     10.6931    0.243     
2740.8     7.4651     3.5566     9.8598     12.2892    8.8824     6.3682     6.4504     10.2847    0.24      
2741       7.336      3.414      9.9058     12.1662    8.5863     5.8576     5.4191     9.7985     0.24      
2741.2     7.1185     3.4072     9.8467     12.1079    8.2507     5.2553     5.4531     9.5327     0.237     
2741.4     6.9758     3.3121     9.7743     11.6482    7.7966     4.8102     5.4039     9.3382     0.237     
2741.6     6.8875     3.2646     9.656      11.1625    7.4333     4.5221     5.267      9.241      0.235     
2741.8     6.8261     3.1492     9.2287     10.6963    7.2635     4.2865     4.8987     9.2669     0.237     
2742       6.7855     3.1251     8.8935     10.3984    7.1056     4.1163     5.3576     9.228      0.23      
2742.2     6.7584     3.1084     8.7686     10.3077    6.9739     3.9722     5.3628     9.1891     0.23      
2742.4     6.6972     3.1016     8.7357     10.3563    7.0003     3.8675     5.389      9.2993     0.223     
2742.6     6.6564     3.1084     8.5604     10.3466    7.1385     3.802      5.125      9.4225     0.227     
2742.8     6.6224     3.0541     8.4596     10.3142    7.3227     3.7497     5.1912     9.5586     0.223     
2743       6.6428     3.0541     8.4991     10.23      7.5958     3.7235     5.4059     9.5262     0.223     
2743.2     6.6428     3.0405     8.4399     10.0617    7.8953     3.6842     5.3848     9.4549     0.223     
2743.4     6.6428     3.0847     8.4925     9.9127     7.9479     3.6449     5.4011     9.3966     0.227     
2743.6     6.6224     3.122      8.3807     9.7638     7.9216     3.6318     5.1748     9.416      0.223     
