~Version
 VERS              .         2.0                           : CWLS LOG ASCII STANDARD - VERSION 2.0
 WRAP              .         NO                            : ONE LINE PER DEPTH STEP
 DLM               .         SPACE                         : DELIMITING CHARACTER(SPACE TAB OR COMMA)
~Well Information
#_______________________________________________________________________________
#
#PARAMETER_NAME    .UNIT     VALUE                         : DESCRIPTION
#_______________________________________________________________________________
STRT               .m        2700                          : First reference value
STOP               .m        2908                          : Last reference value
STEP               .m        0.2                           : Step increment
NULL               .         -9999                         : Missing value
COMP               .                                       : Company
WELL               .         503                           : Well name
FLD                .                                       : Field
LOC                .                                       : Location
CNTY               .                                       : County
STAT               .                                       : State
CTRY               .                                       : Country
SRVC               .                                       : Service Company
DATE               .                                       : Date
API                .                                       : API number
EREF               .m        139.4                         : 
X                  .m        230550                        : 
Y                  .m        242075                        : 
group              .         Pad5                          : 
Интер-р            .         Ярышев                        : 
Куст               .         5                             : 
Статус             .         Не проверено                  : 
Тип                .         Разобраться                   : 
~Parameter Information Block
#_______________________________________________________________________________
#
#PARAMETER_NAME    .UNIT     VALUE                         : DESCRIPTION
#_______________________________________________________________________________
SET                .         LAS1                          : 
REAL_CREATION_DATE .         Ср апр 11 2012-13_17_18       : 
TLFamily_DEPTH     .         Measured Depth                : 
TLFamily_KS        .         Potential Resistivity         : 
TLFamily_KS1       .         Extra Shallow Resistivity     : 
TLFamily_KS2       .         Shallow Resistivity           : 
TLFamily_KS3       .         Medium Resistivity            : 
TLFamily_KS4       .         Deep Resistivity              : 
TLFamily_KS5       .         Extra Deep Resistivity        : 
TLFamily_LLD       .         Lateral Log Resistivity       : 
TLFamily_OKS3      .         Medium Resistivity Inverted   : 
TLFamily_RM        .         Mud Resistivity               : 
group              .         INI                           : 
~Curve Information
#_______________________________________________________________________________
#
#LOGNAME           .UNIT     LOG_ID                        : DESCRIPTION
#_______________________________________________________________________________
DEPTH              .m                                      : Measured Depth 
KS                 .ohm.m                                  : Potential Resistivity 
KS1                .ohm.m                                  : Extra Shallow Resistivity 
KS2                .ohm.m                                  : Shallow Resistivity 
KS3                .ohm.m                                  : Medium Resistivity 
KS4                .ohm.m                                  : Deep Resistivity 
KS5                .ohm.m                                  : Extra Deep Resistivity 
LLD                .ohm.m                                  : Lateral Log Resistivity 
OKS3               .ohm.m                                  : Medium Resistivity Inverted 
RM                 .ohm.m                                  : Mud Resistivity 
~Ascii
# ...
2846       13.4116    3.6381     12.6535    23.8867    34.2438    15.2581    13.4522    19.685     0.223     
2846.2     13.2485    3.6448     12.7521    24.1846    34.5813    15.8997    13.58      19.5294    0.216     
2846.4     13.1015    3.7535     13.0677    24.4112    34.8182    16.6983    12.2893    19.5424    0.21      
2846.6     12.8135    3.808      13.3635    24.7739    35.3183    17.5101    11.3856    20.0804    0.213     
2846.8     12.5757    3.9164     13.4884    24.1817    34.5418    18.492     6.3452     21.2754    0.223     
2847       12.4873    3.3393     11.5426    23.4529    33.3967    19.2645    8.6927     23.3867    0.227     
2847.2     12.4737    3.1695     11.5665    22.365     33.015     19.9584    10.5913    26.0188    0.223     
2847.4     12.7116    3.251      11.8384    22.4168    33.372     20.4952    11.2505    26.9848    0.227     
2847.6     12.9902    3.3189     11.5229    22.4751    33.6994    21.4641    12.0681    27.0172    0.223     
2847.8     13.1975    3.4208     11.5755    22.3909    33.6138    22.3937    12.7401    25.8308    0.213     
2848       13.3368    3.4921     11.5821    22.242     33.2782    23.3494    13.0469    23.7952    0.213     
2848.2     13.4931    3.5769     12.1342    22.0283    32.936     24.2004    11.5926    22.4616    0.22      
2848.4     13.6766    3.5769     12.0619    21.6991    31.8633    25.3133    11.6187    21.6558    0.227     
2848.6     13.962     3.4208     11.7168    20.6749    30.0733    27.4343    11.9036    20.1388    0.227     
2848.8     14.3086    3.2578     11.4835    19.723     29.55      28.4948    11.4194    18.6283    0.22      
2849       14.5329    3.4276     11.753     19.7619    29.9022    31.0479    13.4028    17.7401    0.222     
2849.2     14.6698    3.6041     12.5615    21.0893    31.837     34.7401    16.4824    16.6121    0.22      
2849.4     14.8047    3.7102     13.3503    23.1291    34.4496    39.388     24.0946    15.1664    0.213     
2849.6     14.8478    3.9097     15.0575    26.6824    38.199     43.6431    62.1894    13.2472    0.213     
2849.8     14.5193    4.48       17.1696    29.5916    41.1754    46.8246    88.9999    11.9449    0.227     
2850       13.6766    5.1658     18.8242    32.1947    43.5183    48.1339    21.2549    9.9735     0.216     
2850.2     12.6097    5.8516     20.8245    34.0791    42.6956    47.7089    7.5598     8.3593     0.223     
2850.4     11.4272    5.2269     19.3849    33.3797    40.8344    46.9948    7.7346     7.6462     0.23      
2850.6     10.4146    4.7856     18.7078    30.9968    37.6151    45.7772    6.2124     7.6462     0.227     
2850.8     9.8815     4.3035     17.1367    29.5463    35.6605    45.3713    7.069      8.1        0.213     
2851       9.1845     4.1463     16.1244    28.7304    35.0485    48.147     6.9105     8.6316     0.213     
2851.2     8.2874     4.0115     15.9009    29.4744    37.3255    50.6215    5.2624     9.4964     0.213     
2851.4     7.4583     4.3646     16.269     30.3233    40.1488    51.2761    3.4213     10.4598    0.227     
2851.6     6.8875     3.8689     14.7968    29.7535    38.8787    50.6394    5.3142     11.4387    0.22      
2851.8     6.4933     3.4479     12.6996    26.6388    34.6931    48.5267    4.6651     10.92      0.216     
2852       6.3234     3.4955     12.1474    23.7766    31.7646    41.941     4.3891     9.5392     0.221     
2852.2     6.0984     3.3732     10.6946    20.4548    26.9802    33.9414    3.9713     8.5667     0.216     
2852.4     5.9632     3.2737     9.4719     16.8415    22.1037    27.0939    3.7753     7.9184     0.21      
2852.6     5.8001     3.122      8.5451     13.7851    18.1287    21.2153    3.6412     7.6502     0.216     
2852.8     5.671      2.9455     8.0521     12.2024    15.0488    16.7769    3.8004     7.4841     0.22      
2853       5.5827     2.8776     7.7513     10.5409    12.6007    13.6739    3.7122     7.3998     0.22      
2853.2     5.5759     2.7622     7.2501     8.7277     10.555     11.2518    3.9584     7.4841     0.227     
2853.4     5.6302     2.7757     7.0857     7.9507     9.4221     9.445      4.0674     7.5424     0.215     
2853.6     5.7155     2.7146     6.8359     7.5881     8.4744     8.1488     4.0184     7.6526     0.21      
2853.8     5.7594     2.7694     6.8557     7.7111     7.8624     7.1799     4.8039     7.6656     0.213     
2854       5.8341     2.8301     7.0989     7.8471     7.4609     6.486      4.5515     7.6268     0.22      
2854.2     5.8953     2.898      7.1843     7.86       7.0068     6.0147     4.6274     7.5684     0.223     
2854.4     5.9225     2.898      7.2503     7.8147     6.6383     5.6088     4.6274     7.6332     0.223     
2854.6     5.9089     2.9523     7.375      7.8471     6.4238     5.4255     5.119      7.6267     0.22      
2854.8     5.8953     3.027      7.7037     7.8795     6.3093     5.0982     5.0105     7.3155     0.213     
2855       5.875      3.0881     7.868      7.8212     6.0987     4.8102     4.7418     6.9136     0.21      
2855.2     5.8273     3.0543     7.7628     7.737      5.9868     4.5352     4.427      6.758      0.22      
2855.4     5.7254     3.0202     7.8088     7.6787     5.9736     4.3126     4.3449     6.7872     0.223     
2855.6     5.6506     2.993      7.7628     7.6816     6.1645     4.1555     4.3617     6.8293     0.223     
2855.8     5.6098     2.9115     7.6545     7.6399     6.5001     3.9984     4.4844     6.8617     0.213     
2856       5.5691     2.9251     7.5656     7.6528     6.6483     3.9591     4.3877     6.9071     0.21      
2856.2     5.5555     2.9455     7.5459     7.6463     6.6449     3.9461     4.0253     7.0368     0.213     
2856.4     5.5555     2.8436     7.2895     7.5881     6.612      4.0377     4.0538     7.2831     0.223     
2856.6     5.5419     2.8267     7.2501     7.7888     6.8357     4.1163     4.115      7.7823     0.22      
2856.8     5.4603     2.8912     7.8351     8.1476     7.1582     4.1293     4.9829     8.0615     0.223     
2857       5.4399     3.0745     7.8023     8.2874     7.0266     4.1032     4.6667     8.0546     0.216     
2857.2     5.5283     2.9794     7.4781     7.9507     6.3224     3.9853     4.1563     7.7045     0.21      
2857.4     5.5691     2.864      7.1055     7.3096     5.7696     3.8675     4.0811     7.4063     0.22      
2857.6     5.5691     2.8572     7.02       6.9535     5.5612     3.6711     4.3469     7.2637     0.221     
2857.8     5.5555     2.9115     7.1712     6.7916     5.3484     3.5664     4.2692     7.2118     0.223     
2858       5.5487     2.8912     7.2041     6.6556     5.1378     3.5402     4.1664     7.1988     0.223     
2858.2     5.5215     2.8844     7.2041     6.5326     4.9602     3.5009     4.2978     7.2086     0.22      
2858.4     5.5079     2.8844     7.1843     6.5035     4.8878     3.4747     4.2774     7.215      0.213     
2858.6     5.5011     2.8844     7.1843     6.4613     4.7627     3.4485     4.2611     7.2118     0.21      
2858.8     5.4739     2.8572     7.1646     6.4419     4.6345     3.4223     4.162      7.4452     0.22      
2859       5.4603     2.8368     7.0857     6.5196     4.585      3.4223     4.1154     7.6332     0.22      
2859.2     5.4671     2.8233     7.0529     6.6491     4.5126     3.4878     4.1893     7.8795     0.22      
2859.4     5.4842     2.8097     6.974      6.675      4.4403     3.5925     4.2774     8.0805     0.223     
2859.6     5.5011     2.8303     6.9477     6.6297     4.3613     3.7628     4.3354     8.3723     0.21      
2859.8     5.5351     2.8233     6.8951     6.5973     4.3218     4.0508     4.3523     8.5808     0.213     
2860       5.5623     2.8165     6.882      6.5585     4.3218     4.4043     4.3523     8.7872     0.223     
2860.2     5.5691     2.8233     6.8953     6.5261     4.3679     4.7054     4.3389     9.0919     0.223     
2860.4     5.5691     2.8504     6.9806     6.5326     4.4105     4.8887     4.3799     9.5132     0.227     
