~Version
 VERS              .         2.0                           : CWLS LOG ASCII STANDARD - VERSION 2.0
 WRAP              .         NO                            : ONE LINE PER DEPTH STEP
 DLM               .         SPACE                         : DELIMITING CHARACTER(SPACE TAB OR COMMA)
~Well Information
#_______________________________________________________________________________
#
#PARAMETER_NAME    .UNIT     VALUE                         : DESCRIPTION
#_______________________________________________________________________________
STRT               .m        2700                          : First reference value
STOP               .m        2908                          : Last reference value
STEP               .m        0.2                           : Step increment
NULL               .         -9999                         : Missing value
COMP               .                                       : Company
WELL               .         503                           : Well name
FLD                .                                       : Field
LOC                .                                       : Location
CNTY               .                                       : County
STAT               .                                       : State
CTRY               .                                       : Country
SRVC               .                                       : Service Company
DATE               .                                       : Date
API                .                                       : API number
EREF               .m        139.4                         : 
X                  .m        230550                        : 
Y                  .m        242075                        : 
group              .         Pad5                          : 
Интер-р            .         Ярышев                        : 
Куст               .         5                             : 
Статус             .         Не проверено                  : 
Тип                .         Разобраться                   : 
~Parameter Information Block
#_______________________________________________________________________________
#
#PARAMETER_NAME    .UNIT     VALUE                         : DESCRIPTION
#_______________________________________________________________________________
SET                .         LAS3                          : 
REAL_CREATION_DATE .         Ср апр 11 2012-13_17_18       : 
TLFamily_DEPTH     .         Measured Depth                : 
TLFamily_GR        .         Gamma Ray                     : 
TLFamily_TNPH      .         Neutron Porosity              : 
group              .         INI                           : 
~Curve Information
#_______________________________________________________________________________
#
#LOGNAME           .UNIT     LOG_ID                        : DESCRIPTION
#_______________________________________________________________________________
DEPTH              .m                                      : Measured Depth 
GR                 .gAPI                                   :  
TNPH               .v/v                                    : Neutron Porosity 
~Ascii
# ...
2748.6     92.51      0.271     
2748.8     92.46001   0.274     
2749       93.66      0.27      
2749.2     92.45      0.263     
2749.4     94.34      0.268     
2749.6     92.01      0.287     
2749.8     87.83      0.267     
2750       87.47      0.269     
2750.2     77.17      0.266     
2750.4     70.71999   0.271     
2750.6     73.33      0.292     
2750.8     79.31      0.248     
2751       80.01      0.249     
2751.2     85.54      0.264     
2751.4     89.78      0.268     
2751.6     88.67      0.27      
2751.8     88.64999   0.25      
2752       85.53001   0.265     
2752.2     88.6       0.229     
2752.4     85.57999   0.236     
2752.6     83.47      0.26      
2752.8     82.95999   0.281     
2753       87.86      0.284     
2753.2     91.75999   0.254     
2753.4     92.3       0.251     
2753.6     88.27      0.215     
2753.8     86.1       0.231     
2754       85.57      0.236     
2754.2     87.9       0.242     
2754.4     80.71      0.27      
2754.6     83.53      0.256     
2754.8     83.05      0.246     
2755       84.35001   0.244     
2755.2     83.87      0.239     
2755.4     79         0.236     
2755.6     76.34      0.23      
2755.8     76.91      0.228     
2756       72.32001   0.227     
2756.2     80.59      0.243     
2756.4     76.86      0.241     
2756.6     69.05      0.263     
2756.8     66.91      0.258     
2757       67.51      0.255     
2757.2     72.92      0.283     
2757.4     78.48      0.282     
2757.6     84.34      0.289     
2757.8     85.38      0.276     
2758       85.24001   0.309     
2758.2     87.1       0.318     
2758.4     92.22      0.295     
2758.6     87.57      0.303     
2758.8     91.3       0.309     
2759       92.81      0.28      
2759.2     94.09      0.257     
2759.4     94.77      0.284     
2759.6     96.73      0.265     
2759.8     93.44      0.252     
2760       92.77      0.261     
2760.2     86.99001   0.254     
2760.4     75.54      0.255     
2760.6     74.59      0.265     
2760.8     80.73      0.254     
2761       91.35001   0.301     
2761.2     91.73      0.289     
2761.4     96.95      0.257     
2761.6     99.17      0.243     
2761.8     99.05      0.242     
2762       93.00999   0.227     
2762.2     85.36      0.219     
2762.4     83.29001   0.216     
2762.6     86.33      0.211     
2762.8     87.57      0.24      
2763       88.48      0.238     
2763.2     86.74      0.231     
2763.4     88.27      0.24      
2763.6     86         0.259     
2763.8     89.37      0.292     
2764       93.59      0.309     
2764.2     97.14      0.283     
2764.4     94.74      0.238     
2764.6     93.8       0.243     
2764.8     98.05      0.297     
2765       103.72     0.299     
2765.2     108.88     0.243     
2765.4     103.7      0.254     
2765.6     101.51     0.227     
2765.8     98.84      0.254     
2766       98.19      0.276     
2766.2     93.00999   0.259     
2766.4     86.26      0.243     
2766.6     81         0.224     
2766.8     84.03      0.25      
2767       89.79      0.273     
2767.2     96.25      0.272     
2767.4     98.00999   0.271     
2767.6     99.91      0.262     
2767.8     94.71      0.267     
2768       89.02      0.221     
2768.2     78.34      0.192     
2768.4     56.93      0.163     
2768.6     46.12      0.156     
2768.8     45.27      0.167     
2769       49.15      0.18      
2769.2     58.79      0.192     
2769.4     69.05      0.197     
2769.6     70.27      0.197     
2769.8     68.42      0.216     
2770       78.06      0.233     
2770.2     83.32      0.234     
2770.4     76.70999   0.235     
2770.6     73.52      0.252     
2770.8     72.16      0.242     
2771       73.54      0.27      
2771.2     74.8       0.265     
2771.4     83.00999   0.275     
2771.6     95.43999   0.304     
2771.8     97.21      0.307     
2772       97.16      0.262     
2772.2     106.27     0.255     
2772.4     111.91     0.255     
2772.6     119.26     0.277     
2772.8     125.52     0.298     
2773       134.22     0.288     
2773.2     130.68     0.274     
2773.4     127.47     0.273     
2773.6     132.51     0.255     
2773.8     133.7      0.24      
2774       133.56     0.261     
2774.2     130.2      0.255     
2774.4     131.93     0.263     
2774.6     126.26     0.273     
2774.8     121.11     0.288     
2775       125.94     0.262     
2775.2     123.7      0.242     
2775.4     122.78     0.231     
2775.6     127.94     0.238     
2775.8     127.65     0.236     
2776       118.42     0.243     
2776.2     109.07     0.255     
2776.4     103.31     0.258     
2776.6     103.74     0.241     
2776.8     101.13     0.243     
2777       104.43     0.25      
2777.2     99.6       0.236     
2777.4     101.91     0.252     
2777.6     105.97     0.268     
2777.8     101.82     0.232     
2778       105.75     0.257     
2778.2     119.99     0.246     
2778.4     128.51     0.261     
2778.6     137.88     0.263     
2778.8     150.83     0.276     
2779       156.64     0.283     
2779.2     157.87     0.282     
2779.4     167.3      0.299     
2779.6     174.39     0.343     
2779.8     169.41     0.315     
2780       169.02     0.33      
2780.2     187.61     0.336     
2780.4     201.32     0.312     
2780.6     209.19     0.284     
2780.8     211.82     0.286     
2781       195.07     0.308     
2781.2     180.18     0.329     
2781.4     169.33     0.346     
2781.6     174.34     0.381     
2781.8     183.63     0.362     
2782       195.45     0.338     
2782.2     196.88     0.386     
2782.4     211.45     0.357     
2782.6     229.84     0.346     
2782.8     238.76     0.299     
2783       242.96     0.275     
2783.2     244.51     0.257     
2783.4     232.09     0.301     
2783.6     219.78     0.294     
2783.8     208.79     0.267     
2784       197.26     0.257     
2784.2     170.88     0.277     
2784.4     165.45     0.264     
2784.6     161.91     0.253     
2784.8     165.3      0.281     
2785       178.58     0.275     
2785.2     193.95     0.291     
2785.4     221.34     0.338     
2785.6     248.5      0.302     
2785.8     260.59     0.295     
2786       272.45     0.325     
2786.2     300.21     0.355     
2786.4     345.32     0.301     
2786.6     385.18     0.285     
2786.8     382.41     0.284     
2787       346.79     0.285     
2787.2     325.26     0.301     
2787.4     304.13     0.333     
2787.6     271.58     0.369     
2787.8     276.74     0.36      
2788       318.03     0.364     
2788.2     322.85     0.319     
2788.4     305.66     0.299     
2788.6     296.8      0.264     
2788.8     294.02     0.258     
2789       307.38     0.309     
2789.2     318.48     0.342     
2789.4     322.95     0.349     
2789.6     336.34     0.367     
2789.8     338.97     0.334     
2790       339.65     0.335     
2790.2     330.38     0.323     
2790.4     307.96     0.295     
2790.6     282.95     0.322     
2790.8     263.34     0.339     
2791       267.12     0.348     
2791.2     278.81     0.396     
2791.4     280.9      0.372     
2791.6     287.16     0.337     
2791.8     310.54     0.303     
2792       333.99     0.271     
2792.2     306.21     0.297     
2792.4     294.79     0.339     
2792.6     302.44     0.348     
2792.8     291.19     0.356     
2793       273.97     0.383     
2793.2     276.3      0.357     
2793.4     281.49     0.404     
2793.6     282.8      0.483     
2793.8     281.24     0.454     
2794       272.66     0.413     
2794.2     257.86     0.383     
2794.4     250.18     0.373     
2794.6     236.04     0.334     
2794.8     208.25     0.32      
2795       177.41     0.343     
2795.2     164.23     0.301     
2795.4     163.54     0.306     
2795.6     163.47     0.326     
2795.8     176.5      0.323     
2796       186.75     0.344     
2796.2     182.46     0.302     
2796.4     181.37     0.25      
2796.6     187.39     0.277     
2796.8     174.74     0.31      
2797       161.99     0.316     
