~Version
 VERS              .         2.0                           : CWLS LOG ASCII STANDARD - VERSION 2.0
 WRAP              .         NO                            : ONE LINE PER DEPTH STEP
 DLM               .         SPACE                         : DELIMITING CHARACTER(SPACE TAB OR COMMA)
~Well Information
#_______________________________________________________________________________
#
#PARAMETER_NAME    .UNIT     VALUE                         : DESCRIPTION
#_______________________________________________________________________________
STRT               .m        2348.4                        : First reference value
STOP               .m        2559.000105                   : Last reference value
STEP               .m        0.2000001                     : Step increment
NULL               .         -9999                         : Missing value
COMP               .                                       : Company
WELL               .         504                           : Well name
FLD                .                                       : Field
LOC                .                                       : Location
CNTY               .                                       : County
STAT               .                                       : State
CTRY               .                                       : Country
SRVC               .                                       : Service Company
DATE               .                                       : Date
API                .                                       : API number
EREF               .m        139.4                         : 
X                  .m        230550                        : 
Y                  .m        242075                        : 
group              .         Pad5                          : 
Интер-р            .         Зайцев                        : 
Куст               .         5                             : 
Статус             .         Не проверено                  : 
Тип                .         Эксплуатация                  : 
~Parameter Information Block
#_______________________________________________________________________________
#
#PARAMETER_NAME    .UNIT     VALUE                         : DESCRIPTION
#_______________________________________________________________________________
SET                .         LAS3                          : 
REAL_CREATION_DATE .         Ср апр 11 2012-13_17_19       : 
TLFamily_DEPTH     .         Measured Depth                : 
TLFamily_GR        .         Gamma Ray                     : 
TLFamily_TNPH      .         Neutron Porosity              : 
group              .         INI                           : 
~Curve Information
#_______________________________________________________________________________
#
#LOGNAME           .UNIT     LOG_ID                        : DESCRIPTION
#_______________________________________________________________________________
DEPTH              .m                                      : Measured Depth 
GR                 .gAPI                                   :  
TNPH               .v/v                                    : Neutron Porosity 
~Ascii
# ...
2442.800047 327.66     0.308     
2443.000047 352.91     0.302     
2443.200047 351.72     0.309     
2443.400048 341.74     0.323     
2443.600048 330.88     0.29      
2443.800048 307.99     0.298     
2444.000048 280.49     0.295     
2444.200048 264.2      0.286     
2444.400048 262.14     0.299     
2444.600048 282.63     0.262     
2444.800048 280.46     0.249     
2445.000048 291.78     0.268     
2445.200048 322.93     0.286     
2445.400049 331.52     0.299     
2445.600049 309.69     0.32      
2445.800049 313.18     0.351     
2446.000049 308.66     0.32      
2446.200049 298.53     0.356     
2446.400049 297.66     0.325     
2446.600049 277.58     0.344     
2446.800049 278.83     0.3       
2447.000049 292.58     0.296     
2447.200049 291.26     0.298     
2447.40005 280.53     0.314     
2447.60005 266.21     0.339     
2447.80005 251.57     0.31      
2448.00005 243.91     0.353     
2448.20005 237.96     0.364     
2448.40005 212.95     0.297     
2448.60005 193.92     0.26      
2448.80005 172.22     0.277     
2449.00005 168.49     0.28      
2449.20005 173.73     0.256     
2449.40005 179.92     0.302     
2449.600051 168        0.276     
2449.800051 160.03     0.264     
2450.000051 164.92     0.251     
2450.200051 166.17     0.229     
2450.400051 162.82     0.273     
2450.600051 162.14     0.254     
2450.800051 158.12     0.259     
2451.000051 156.26     0.22      
2451.200051 145.43     0.23      
2451.400052 134.91     0.276     
2451.600052 130.35     0.263     
2451.800052 128.84     0.229     
2452.000052 137.69     0.243     
2452.200052 144.95     0.263     
2452.400052 138.11     0.272     
2452.600052 109.04     0.2       
2452.800052 89.81      0.202     
2453.000052 90.92      0.195     
2453.200052 107.89     0.173     
2453.400053 158.82     0.217     
2453.600053 147.93     0.255     
2453.800053 138.51     0.295     
2454.000053 135.42     0.266     
2454.200053 127.12     0.235     
2454.400053 123.33     0.195     
2454.600053 117.24     0.193     
2454.800053 110.9      0.225     
2455.000053 126.19     0.215     
2455.200053 121.47     0.226     
2455.400054 113.73     0.25      
2455.600054 115.04     0.208     
2455.800054 117.68     0.238     
2456.000054 116.09     0.227     
2456.200054 111.68     0.231     
2456.400054 114.66     0.233     
2456.600054 119.16     0.243     
2456.800054 124.47     0.259     
2457.000054 121.32     0.242     
2457.200054 123.66     0.237     
2457.400054 132.2      0.231     
2457.600055 138.3      0.241     
2457.800055 144.17     0.275     
2458.000055 149.56     0.275     
2458.200055 152.11     0.291     
2458.400055 149.37     0.286     
2458.600055 136.55     0.269     
2458.800055 128.14     0.347     
2459.000055 118.58     0.349     
2459.200055 126.08     0.329     
2459.400056 134.54     0.261     
2459.600056 133.85     0.266     
2459.800056 121.04     0.272     
2460.000056 108.63     0.211     
2460.200056 101.43     0.208     
2460.400056 98.6       0.218     
2460.600056 104.56     0.23      
2460.800056 116.07     0.286     
2461.000056 124.08     0.291     
2461.200056 120.45     0.339     
2461.400057 117.18     0.305     
2461.600057 116.61     0.303     
2461.800057 110.56     0.29      
2462.000057 101.91     0.231     
2462.200057 109.33     0.231     
2462.400057 122.97     0.278     
2462.600057 136.76     0.262     
2462.800057 153.99     0.257     
2463.000057 156.35     0.286     
2463.200057 150.97     0.234     
2463.400058 152.15     0.242     
2463.600058 152.43     0.291     
2463.800058 158.69     0.269     
2464.000058 156.17     0.244     
2464.200058 141.64     0.285     
2464.400058 138.95     0.404     
2464.600058 144.28     0.368     
2464.800058 141.17     0.327     
2465.000058 138.99     0.311     
2465.200058 157.91     0.292     
2465.400058 170.04     0.352     
2465.600059 192.34     0.346     
2465.800059 198.92     0.363     
2466.000059 188.85     0.355     
2466.200059 164.04     0.326     
2466.400059 136.3      0.292     
2466.600059 131.48     0.288     
2466.800059 129.26     0.291     
2467.000059 133.17     0.308     
2467.200059 138.35     0.275     
2467.40006 125.24     0.3       
2467.60006 123.59     0.301     
2467.80006 126.82     0.335     
2468.00006 128.83     0.293     
2468.20006 123.5      0.255     
2468.40006 128.29     0.27      
2468.60006 135.26     0.215     
2468.80006 145.55     0.204     
2469.00006 149.78     0.275     
2469.20006 159.53     0.277     
2469.400061 142.58     0.252     
2469.600061 138.4      0.257     
2469.800061 131.25     0.246     
2470.000061 121.94     0.25      
2470.200061 113.95     0.235     
2470.400061 118.17     0.243     
2470.600061 122.95     0.226     
2470.800061 122.26     0.265     
2471.000061 125.39     0.25      
2471.200061 117.55     0.283     
2471.400061 115.37     0.259     
2471.600062 112.16     0.226     
2471.800062 118.03     0.239     
2472.000062 112.92     0.19      
2472.200062 117.59     0.209     
2472.400062 125.36     0.228     
2472.600062 119.51     0.241     
2472.800062 125.97     0.226     
2473.000062 128.43     0.233     
2473.200062 126.01     0.25      
2473.400062 112.02     0.198     
2473.600063 89.82001   0.19      
2473.800063 83.85001   0.17      
2474.000063 103.91     0.214     
2474.200063 131.6      0.255     
2474.400063 130.59     0.296     
2474.600063 129.08     0.25      
2474.800063 128.13     0.239     
2475.000063 121.79     0.26      
2475.200063 114.6      0.24      
2475.400064 117.14     0.253     
2475.600064 120.49     0.28      
2475.800064 117.18     0.273     
2476.000064 122.41     0.303     
2476.200064 117.09     0.258     
2476.400064 120.95     0.214     
2476.600064 118.95     0.247     
2476.800064 119.11     0.269     
2477.000064 125.7      0.299     
2477.200064 122.26     0.307     
2477.400065 119.63     0.271     
2477.600065 135.31     0.27      
2477.800065 150.6      0.257     
2478.000065 149.3      0.219     
2478.200065 140.71     0.241     
2478.400065 153.28     0.26      
2478.600065 149.1      0.279     
2478.800065 144.89     0.273     
2479.000065 140.12     0.274     
2479.200065 131.69     0.25      
2479.400065 141.39     0.255     
2479.600066 146.1      0.23      
2479.800066 137        0.239     
2480.000066 140.53     0.266     
2480.200066 142.9      0.252     
2480.400066 136.11     0.238     
2480.600066 136.83     0.243     
2480.800066 130.84     0.239     
2481.000066 124.67     0.218     
2481.200066 123.48     0.2       
2481.400067 124.36     0.224     
2481.600067 122.53     0.207     
2481.800067 120.74     0.182     
2482.000067 117.1      0.22      
2482.200067 114.47     0.239     
2482.400067 112.29     0.275     
2482.600067 119.04     0.264     
2482.800067 120.92     0.23      
2483.000067 122.39     0.214     
2483.200067 119.06     0.244     
2483.400068 112.96     0.269     
2483.600068 125.57     0.292     
2483.800068 114.63     0.351     
2484.000068 117.09     0.321     
2484.200068 122.38     0.309     
2484.400068 125.62     0.267     
2484.600068 119.23     0.245     
2484.800068 123.91     0.254     
2485.000068 126.02     0.274     
2485.200068 131.8      0.261     
2485.400069 133.4      0.311     
2485.600069 141.51     0.284     
2485.800069 132.11     0.271     
2486.000069 133.79     0.309     
2486.200069 126.35     0.318     
2486.400069 132.71     0.319     
2486.600069 133.24     0.286     
2486.800069 128.36     0.272     
2487.000069 134.89     0.293     
2487.200069 139.15     0.286     
2487.400069 132.72     0.287     
2487.60007 133.44     0.26      
2487.80007 131.31     0.223     
2488.00007 137.15     0.204     
2488.20007 143.27     0.165     
2488.40007 152.85     0.136     
2488.60007 143.12     0.147     
2488.80007 101.88     0.147     
2489.00007 76.70999   0.139     
2489.20007 62.36      0.141     
2489.40007 56.46      0.135     
2489.600071 54.01      0.138     
2489.800071 50.15      0.136     
2490.000071 57.08      0.136     
