~Version
 VERS              .         2.0                           : CWLS LOG ASCII STANDARD - VERSION 2.0
 WRAP              .         NO                            : ONE LINE PER DEPTH STEP
 DLM               .         SPACE                         : DELIMITING CHARACTER(SPACE TAB OR COMMA)
~Well Information
#_______________________________________________________________________________
#
#PARAMETER_NAME    .UNIT     VALUE                         : DESCRIPTION
#_______________________________________________________________________________
STRT               .m        2356                          : First reference value
STOP               .m        2578.600111                   : Last reference value
STEP               .m        0.2000001                     : Step increment
NULL               .         -9999                         : Missing value
COMP               .                                       : Company
WELL               .         504                           : Well name
FLD                .                                       : Field
LOC                .                                       : Location
CNTY               .                                       : County
STAT               .                                       : State
CTRY               .                                       : Country
SRVC               .                                       : Service Company
DATE               .                                       : Date
API                .                                       : API number
EREF               .m        139.4                         : 
X                  .m        230550                        : 
Y                  .m        242075                        : 
group              .         Pad5                          : 
Интер-р            .         Зайцев                        : 
Куст               .         5                             : 
Статус             .         Не проверено                  : 
Тип                .         Эксплуатация                  : 
~Parameter Information Block
#_______________________________________________________________________________
#
#PARAMETER_NAME    .UNIT     VALUE                         : DESCRIPTION
#_______________________________________________________________________________
SET                .         LAS1                          : 
REAL_CREATION_DATE .         Ср апр 11 2012-13_17_19       : 
TLFamily_DEPTH     .         Measured Depth                : 
TLFamily_KS        .         Potential Resistivity         : 
TLFamily_KS1       .         Extra Shallow Resistivity     : 
TLFamily_KS2       .         Shallow Resistivity           : 
TLFamily_KS3       .         Medium Resistivity            : 
TLFamily_KS4       .         Deep Resistivity              : 
TLFamily_KS5       .         Extra Deep Resistivity        : 
TLFamily_LLD       .         Lateral Log Resistivity       : 
TLFamily_OKS3      .         Medium Resistivity Inverted   : 
TLFamily_RM        .         Mud Resistivity               : 
group              .         INI                           : 
~Curve Information
#_______________________________________________________________________________
#
#LOGNAME           .UNIT     LOG_ID                        : DESCRIPTION
#_______________________________________________________________________________
DEPTH              .m                                      : Measured Depth 
KS                 .ohm.m                                  : Potential Resistivity 
KS1                .ohm.m                                  : Extra Shallow Resistivity 
KS2                .ohm.m                                  : Shallow Resistivity 
KS3                .ohm.m                                  : Medium Resistivity 
KS4                .ohm.m                                  : Deep Resistivity 
KS5                .ohm.m                                  : Extra Deep Resistivity 
LLD                .ohm.m                                  : Lateral Log Resistivity 
OKS3               .ohm.m                                  : Medium Resistivity Inverted 
RM                 .ohm.m                                  : Mud Resistivity 
~Ascii
# ...
2502.000073 9.6229     2.2522     8.9102     20.6351    30.2332    29.643     7.5713     11.6334    0.124     
2502.200073 9.3559     2.2343     8.6196     19.126     29.0236    28.2595    6.9363     12.0559    0.124     
2502.400073 9.2012     2.1679     8.1088     17.6895    27.9593    26.6924    5.9469     12.4221    0.124     
2502.600073 9.0909     2.0944     7.6816     16.461     26.8057    24.9851    5.8761     12.8429    0.124     
2502.800073 9.0074     2.042      7.3897     15.4878    25.6961    24.1226    5.6474     13.3358    0.124     
2503.000073 8.9731     1.9403     6.948      14.1844    24.045     22.5507    5.2295     14.2345    0.127     
2503.200074 8.969      1.8359     6.5309     13.192     22.8101    21.3128    5.6676     15.2864    0.127     
2503.400074 9.0055     1.8331     6.4429     12.4987    21.9302    20.4704    6.0322     16.207     0.127     
2503.600074 9.1504     1.7999     6.1888     11.8992    21.0553    20.1665    5.3412     17.2217    0.13      
2503.800074 9.4236     1.7207     5.8347     11.2496    20.2553    20.1394    5.1889     18.6442    0.133     
2504.000074 9.8568     1.602      5.5404     10.7353    19.7615    20.4292    5.5554     20.55      0.13      
2504.200074 10.5053    1.409      5.1179     10.5064    19.7981    21.066     9.261      21.8774    0.115     
2504.400074 11.2748    1.4183     5.2591     10.6949    20.2851    21.9983    40.3739    21.469     0.124     
2504.600074 12.0033    1.6986     6.0005     11.4599    21.344     22.9175    55.2878    19.7466    0.119     
2504.800074 12.5073    2.0298     6.8854     12.3671    22.3838    24.0111    48.7919    17.9797    0.118     
2505.000074 12.6429    2.2168     7.4707     12.9682    23.0532    24.6068    45.932     17.0831    0.117     
2505.200075 12.4867    2.6025     9.1126     14.472     24.4994    26.1642    46.7805    15.0279    0.114     
2505.400075 12.1472    2.8983     10.6288    15.4855    25.1212    27.2855    14.4918    13.8109    0.114     
2505.600075 11.7316    2.8603     11.0387    16.1832    25.2203    28.4953    9.1894     13.427     0.114     
2505.800075 11.2682    2.7314     10.9811    16.4725    25.0708    29.9792    8.5037     13.7888    0.114     
2506.000075 10.9742    2.6089     10.7732    16.7829    25.285     31.0012    7.8734     14.3714    0.114     
2506.200075 10.7112    2.4803     10.4637    17.2167    25.6984    33.672     8.3912     14.9386    0.114     
2506.400075 10.3924    2.4302     10.3288    18.2036    26.8533    37.5433    8.6116     15.8422    0.114     
2506.600075 10.1217    2.4287     10.2501    19.7469    28.802     41.7382    8.022      16.9714    0.114     
2506.800075 9.9235     2.4269     10.2055    21.0955    30.8257    46.1592    7.1607     18.3784    0.114     
2507.000076 9.8623     2.2747     9.5644     21.4238    31.9531    44.7554    6.2161     19.6076    0.114     
2507.200076 9.7885     2.2042     9.2545     21.4918    32.5019    46.1865    16.2249    19.8223    0.114     
2507.400076 9.654      2.4932     10.039     21.9731    32.0949    45.2807    11.44      18.3752    0.117     
2507.600076 9.5839     2.4942     9.9085     21.7226    31.3198    43.9887    8.8202     17.6829    0.117     
2507.800076 9.4308     2.4367     9.5792     20.4171    28.8784    48.9492    7.4938     16.2863    0.12      
2508.000076 9.2832     2.3289     9.2306     18.8754    26.5061    44.4577    6.6897     15.326     0.12      
2508.200076 9.1748     2.2745     9.0466     17.4776    24.4644    40.0565    6.798      14.7578    0.12      
2508.400076 9.0882     2.1941     8.7108     16.5257    23.1363    35.9521    7.0026     14.3       0.12      
2508.600076 9.0362     2.2374     8.7198     15.8846    22.3166    32.2146    7.5035     13.8911    0.124     
2508.800076 8.9952     2.2147     8.4162     15.2339    21.3124    27.5412    7.2333     13.4004    0.124     
2509.000076 8.9731     2.2102     8.2796     14.8802    20.2876    24.6057    6.8909     13.2231    0.127     
2509.200077 8.9707     2.1598     8.0089     14.5541    19.0483    22.0925    5.8104     13.2602    0.127     
2509.400077 8.9453     2.1165     7.874      14.304     17.8956    19.8773    6.9543     13.2919    0.127     
2509.600077 8.9832     2.1108     7.8152     14.0244    16.9001    17.9744    6.2109     13.4321    0.126     
2509.800077 9.0447     2.0558     7.5754     13.6697    15.8757    16.4347    6.3194     13.6471    0.127     
2510.000077 9.086      2.0285     7.4847     13.4024    15.1478    15.0729    7.449      13.7785    0.127     
2510.200077 9.1612     2.0789     7.5912     13.3158    14.749     13.8923    8.2692     13.7222    0.126     
2510.400077 9.2293     2.1124     7.6262     13.1922    14.4283    12.8713    7.3489     13.5678    0.124     
2510.600077 9.2549     2.1114     7.5569     12.964     14.0807    11.9421    6.9921     13.5627    0.124     
2510.800077 9.2723     2.0719     7.4554     12.7259    13.8775    11.1003    6.9026     13.6551    0.124     
2511.000077 9.3103     2.0575     7.4417     12.5166    13.9171    10.3473    6.9091     13.8258    0.127     
2511.200078 9.335      2.0351     7.4487     12.4261    14.2315    9.7212     7.3        14.044     0.13      
2511.400078 9.3744     2.0567     7.5124     12.3835    14.6298    9.2669     7.8487     14.1147    0.13      
2511.600078 9.4366     2.0667     7.5116     12.4194    14.9334    8.9205     7.5013     14.1276    0.131     
2511.800078 9.4629     2.0702     7.504      12.4764    15.1675    8.6265     8.3365     14.11      0.13      
2512.000078 9.4629     2.0877     7.5601     12.4924    15.2232    8.4919     8.4465     14.0991    0.128     
2512.200078 9.4629     2.1008     7.5953     12.5035    15.2318    8.4919     8.4465     14.0915    0.128     
2512.400078 9.4629     2.1204     7.6482     12.52      15.2447    8.4919     8.3601     14.0802    0.128     
2512.600078 9.5216     2.1261     7.634      12.461     15.1064    8.3637     6.4788     14.1675    0.124     
2512.800078 9.5977     1.9928     7.2583     12.2863    14.9187    8.3313     6.6357     14.4119    0.12      
2513.000079 9.676      1.9636     7.2485     12.2111    14.9447    8.4416     8.6811     14.5753    0.12      
2513.200079 9.7627     2.0016     7.3805     12.4815    15.3607    8.7332     9.0706     14.6215    0.114     
2513.400079 9.8222     2.096      7.689      12.7926    15.7557    9.204      9.3904     14.5092    0.117     
2513.600079 9.7988     2.156      7.8311     13.1215    16.1626    9.7238     8.7891     14.4954    0.114     
2513.800079 9.7728     2.1824     7.94       13.3487    16.5489    10.323     7.8694     14.5954    0.114     
2514.000079 9.72       2.1847     8.0357     13.6283    17.0251    10.9718    8.3364     14.7839    0.114     
2514.200079 9.6802     2.2015     8.1837     13.8564    17.5729    11.7381    7.6231     15.087     0.114     
2514.400079 9.6721     2.1505     8.0733     13.9717    18.0816    12.6608    7.7402     15.4249    0.114     
2514.600079 9.6249     2.1287     8.0485     14.1898    18.9014    13.8099    8.7307     15.6839    0.114     
2514.800079 9.5484     2.1878     8.2608     14.6745    20.2009    15.5441    9.3349     15.766     0.114     
2515.00008 9.4608     2.2668     8.5427     15.3033    21.7742    18.1964    8.1142     15.9086    0.114     
2515.20008 9.3984     2.2598     8.5758     16.0529    24.0326    21.0338    5.785      16.9664    0.114     
2515.40008 9.3199     2.1439     8.5106     16.9353    26.5716    23.6611    8.2677     18.249     0.114     
2515.60008 9.3288     2.2031     8.9222     17.5084    27.7046    26.0426    10.3386    18.4292    0.114     
2515.80008 9.4678     2.2074     8.8346     17.4337    26.8238    27.7717    8.7262     17.2562    0.114     
2516.00008 9.532      2.2309     8.6968     16.868     25.1753    28.0944    8.6327     15.8214    0.114     
2516.20008 9.5419     2.2609     8.6589     16.4096    23.752     27.7676    8.1094     14.5492    0.114     
2516.40008 9.5059     2.2733     8.6496     16.1766    22.6665    27.3109    9.0145     13.3667    0.114     
