~Version
 VERS              .         2.0                           : CWLS LOG ASCII STANDARD - VERSION 2.0
 WRAP              .         NO                            : ONE LINE PER DEPTH STEP
 DLM               .         SPACE                         : DELIMITING CHARACTER(SPACE TAB OR COMMA)
~Well Information
#_______________________________________________________________________________
#
#PARAMETER_NAME    .UNIT     VALUE                         : DESCRIPTION
#_______________________________________________________________________________
STRT               .m        2356                          : First reference value
STOP               .m        2578.600111                   : Last reference value
STEP               .m        0.2000001                     : Step increment
NULL               .         -9999                         : Missing value
COMP               .                                       : Company
WELL               .         504                           : Well name
FLD                .                                       : Field
LOC                .                                       : Location
CNTY               .                                       : County
STAT               .                                       : State
CTRY               .                                       : Country
SRVC               .                                       : Service Company
DATE               .                                       : Date
API                .                                       : API number
EREF               .m        139.4                         : 
X                  .m        230550                        : 
Y                  .m        242075                        : 
group              .         Pad5                          : 
Интер-р            .         Зайцев                        : 
Куст               .         5                             : 
Статус             .         Не проверено                  : 
Тип                .         Эксплуатация                  : 
~Parameter Information Block
#_______________________________________________________________________________
#
#PARAMETER_NAME    .UNIT     VALUE                         : DESCRIPTION
#_______________________________________________________________________________
SET                .         LAS1                          : 
REAL_CREATION_DATE .         Ср апр 11 2012-13_17_19       : 
TLFamily_DEPTH     .         Measured Depth                : 
TLFamily_KS        .         Potential Resistivity         : 
TLFamily_KS1       .         Extra Shallow Resistivity     : 
TLFamily_KS2       .         Shallow Resistivity           : 
TLFamily_KS3       .         Medium Resistivity            : 
TLFamily_KS4       .         Deep Resistivity              : 
TLFamily_KS5       .         Extra Deep Resistivity        : 
TLFamily_LLD       .         Lateral Log Resistivity       : 
TLFamily_OKS3      .         Medium Resistivity Inverted   : 
TLFamily_RM        .         Mud Resistivity               : 
group              .         INI                           : 
~Curve Information
#_______________________________________________________________________________
#
#LOGNAME           .UNIT     LOG_ID                        : DESCRIPTION
#_______________________________________________________________________________
DEPTH              .m                                      : Measured Depth 
KS                 .ohm.m                                  : Potential Resistivity 
KS1                .ohm.m                                  : Extra Shallow Resistivity 
KS2                .ohm.m                                  : Shallow Resistivity 
KS3                .ohm.m                                  : Medium Resistivity 
KS4                .ohm.m                                  : Deep Resistivity 
KS5                .ohm.m                                  : Extra Deep Resistivity 
LLD                .ohm.m                                  : Lateral Log Resistivity 
OKS3               .ohm.m                                  : Medium Resistivity Inverted 
RM                 .ohm.m                                  : Mud Resistivity 
~Ascii
# ...
2399.800022 7.4202     2.0794     7.0845     10.7129    9.939      9.2516     5.1945     10.9451    0.124     
2400.000022 7.425      2.0228     6.9949     10.6277    9.9506     9.3164     4.8914     10.9649    0.124     
2400.200022 7.4408     2.0513     7.0722     10.6457    10.0681    9.3461     5.7955     10.8445    0.124     
2400.400022 7.4449     2.1005     7.1774     10.7268    10.2439    9.347      6.0511     10.6457    0.124     
2400.600022 7.4162     2.1159     7.1857     10.8028    10.407     9.267      5.5605     10.5264    0.124     
2400.800022 7.3568     2.1259     7.2318     10.8432    10.5982    9.1537     5.3763     10.4947    0.124     
2401.000022 7.3036     2.1231     7.2646     10.8356    10.7445    9.0275     5.3001     10.4985    0.127     
2401.200023 7.2663     2.0939     7.2435     10.8035    10.8023    8.9122     5.0795     10.5018    0.127     
2401.400023 7.2362     2.0922     7.2281     10.7699    10.7972    8.7783     5.1691     10.4952    0.127     
2401.600023 7.2117     2.0855     7.1772     10.7361    10.7556    8.64       5.1495     10.4565    0.127     
2401.800023 7.1959     2.0747     7.1169     10.6941    10.6882    8.5        5.1216     10.4093    0.13      
2402.000023 7.1759     2.072      7.0725     10.6357    10.6292    8.3948     5.0673     10.4086    0.13      
2402.200023 7.1499     2.072      7.051      10.6048    10.5771    8.315      5.0896     10.42      0.13      
2402.400023 7.1464     2.0635     7.026      10.5859    10.5056    8.2647     5.0168     10.4693    0.13      
2402.600023 7.131      2.0451     6.9745     10.5482    10.4944    8.2142     4.9713     10.5374    0.13      
2402.800023 7.109      2.0728     7.0674     10.5288    10.5322    8.1687     5.2541     10.5626    0.13      
2403.000023 7.1007     2.0788     7.0388     10.5294    10.5314    8.1063     5.1052     10.5664    0.13      
2403.200024 7.0824     2.0779     7.0622     10.4635    10.4785    8.0255     5.0606     10.5368    0.128     
2403.400024 7.0616     2.0855     7.0591     10.4285    10.4115    7.8987     5.1396     10.4749    0.13      
2403.600024 7.0379     2.0801     7.0396     10.3553    10.2964    7.7462     5.0388     10.3653    0.13      
2403.800024 7.0063     2.0836     7.0487     10.277     10.1858    7.5812     4.9395     10.3256    0.13      
2404.000024 6.9929     2.078      7.0135     10.1762    10.0488    7.4562     4.8177     10.3703    0.127     
2404.200024 6.9826     2.0345     6.8939     10.0455    9.9093     7.392      4.6666     10.4227    0.127     
2404.400024 6.9826     2.0316     6.8779     9.9816     9.8443     7.3532     4.8618     10.4651    0.128     
2404.600024 6.9984     2.036      6.8882     9.9567     9.7937     7.3378     4.9831     10.442     0.13      
2404.800024 7.0142     2.0239     6.8305     9.9317     9.7245     7.3628     4.8689     10.4146    0.13      
2405.000025 7.0142     2.0353     6.8316     9.931      9.6489     7.3838     5.0249     10.4086    0.131     
2405.200025 7.0142     2.0425     6.859      9.9422     9.63       7.4292     5.0515     10.4061    0.134     
2405.400025 7.0142     2.0505     6.8936     9.9791     9.6129     7.4908     5.0457     10.3707    0.134     
2405.600025 6.9984     2.0586     6.9391     10.0167    9.6201     7.5073     5.0765     10.3376    0.137     
2405.800025 6.9872     2.0726     6.965      10.0334    9.6068     7.5193     4.9317     10.3445    0.137     
2406.000025 6.9718     2.0672     6.9509     9.989      9.5601     7.5098     4.7199     10.473     0.134     
2406.200025 6.9722     2.0458     6.8983     9.9147     9.4926     7.4978     4.76       10.66      0.13      
2406.400025 6.9915     2.028      6.8653     9.8642     9.4631     7.4744     4.8942     10.8379    0.127     
2406.600025 6.9984     2.0212     6.8535     9.9019     9.4895     7.4557     5.2125     10.9729    0.127     
2406.800025 6.9831     2.0611     6.9815     9.994      9.5318     7.4251     5.2761     11.0191    0.124     
2407.000025 6.9656     2.085      7.0108     10.0689    9.5388     7.3828     4.9033     11.0697    0.124     
2407.200026 6.9282     2.0801     6.9885     10.0455    9.4936     7.3084     4.6506     11.2266    0.124     
2407.400026 6.8962     2.0599     6.9444     9.9623     9.4103     7.2211     4.5024     11.4443    0.12      
2407.600026 6.9036     2.0188     6.8586     9.8414     9.2919     7.1443     4.5189     11.6665    0.12      
2407.800026 6.9618     1.9736     6.7131     9.6436     9.1109     7.0341     4.5765     11.9086    0.117     
2408.000026 7.1089     1.9323     6.5365     9.4165     8.9089     6.9184     4.7752     12.0677    0.117     
2408.200026 7.2638     1.9146     6.4455     9.3255     8.8429     6.8548     5.0815     12.0427    0.117     
2408.400026 7.3865     1.948      6.5127     9.369      8.8534     6.8202     5.387      11.9217    0.117     
2408.600026 7.4968     1.9841     6.6106     9.4741     8.8979     6.8063     5.608      11.7403    0.117     
2408.800026 7.5857     2.0131     6.7059     9.5845     8.9723     6.7945     5.5921     11.529     0.117     
2409.000026 7.6539     2.0392     6.863      9.7068     9.0657     6.7816     5.7586     11.2737    0.117     
2409.200027 7.6927     2.0762     7.0336     9.8667     9.1784     6.7804     5.9345     11.0082    0.117     
2409.400027 7.6964     2.1031     7.1789     10.0513    9.3055     6.7931     5.9524     10.7745    0.117     
2409.600027 7.6726     2.137      7.3388     10.268     9.4396     6.805      5.8849     10.5739    0.117     
2409.800027 7.6246     2.1532     7.4467     10.4944    9.5623     6.8188     5.7112     10.3932    0.117     
2410.000027 7.5789     2.1558     7.4975     10.6966    9.6748     6.8309     5.6134     10.2264    0.117     
2410.200027 7.5108     2.1581     7.53       10.8867    9.778      6.821      5.5437     10.0579    0.117     
2410.400027 7.4454     2.1617     7.543      11.0425    9.8564     6.8193     5.5383     9.929      0.117     
2410.600027 7.3621     2.1529     7.5178     11.1689    9.932      6.8063     5.3185     9.8319     0.117     
2410.800027 7.2706     2.1529     7.5182     11.2637    10.0171    6.7853     5.3156     9.7536     0.117     
2411.000028 7.1803     2.1631     7.5091     11.318     10.0633    6.7685     5.1653     9.7121     0.117     
2411.200028 7.0889     2.1313     7.4172     11.3032    10.0951    6.7674     4.8662     9.7571     0.117     
2411.400028 7.0108     2.1051     7.3249     11.2074    10.0947    6.7557     4.731      9.8334     0.117     
2411.600028 6.935      2.0801     7.2112     11.0895    10.1035    6.7428     4.7038     9.9566     0.117     
2411.800028 6.8809     2.072      7.1697     10.9745    10.1247    6.7387     4.647      10.0849    0.117     
2412.000028 6.8352     2.0546     7.0579     10.8337    10.1454    6.7262     4.5962     10.1966    0.117     
2412.200028 6.8088     2.0262     6.9288     10.6345    10.1437    6.7039     4.5342     10.277     0.117     
2412.400028 6.791      2.0139     6.8202     10.4351    10.1283    6.6903     4.5715     10.303     0.117     
2412.600028 6.7773     2.0135     6.7862     10.2573    10.0985    6.6767     4.6153     10.2854    0.117     
2412.800028 6.7718     2.0005     6.7288     10.1021    10.071     6.6637     4.5513     10.3131    0.117     
2413.000029 6.7684     1.9974     6.6914     9.9513     10.0081    6.6507     4.5215     10.3771    0.117     
2413.200029 6.7805     1.9884     6.6619     9.8065     9.9451     6.6389     4.4846     10.4578    0.117     
2413.400029 6.8069     1.9724     6.6171     9.6567     9.8547     6.6314     4.5052     10.5328    0.117     
2413.600029 6.8762     1.9549     6.5392     9.4874     9.7073     6.6378     4.5537     10.6395    0.117     
2413.800029 6.9513     1.9239     6.4555     9.3775     9.5882     6.6378     4.4407     10.6529    0.117     
2414.000029 7.0126     1.9541     6.5219     9.372      9.5471     6.6506     5.0622     10.5572    0.12      
2414.200029 7.066      1.9947     6.6189     9.4693     9.5599     6.6781     5.3225     10.4273    0.12      
