~Version
 VERS              .         2.0                           : CWLS LOG ASCII STANDARD - VERSION 2.0
 WRAP              .         NO                            : ONE LINE PER DEPTH STEP
 DLM               .         SPACE                         : DELIMITING CHARACTER(SPACE TAB OR COMMA)
~Well Information
#_______________________________________________________________________________
#
#PARAMETER_NAME    .UNIT     VALUE                         : DESCRIPTION
#_______________________________________________________________________________
STRT               .m        2356                          : First reference value
STOP               .m        2578.600111                   : Last reference value
STEP               .m        0.2000001                     : Step increment
NULL               .         -9999                         : Missing value
COMP               .                                       : Company
WELL               .         504                           : Well name
FLD                .                                       : Field
LOC                .                                       : Location
CNTY               .                                       : County
STAT               .                                       : State
CTRY               .                                       : Country
SRVC               .                                       : Service Company
DATE               .                                       : Date
API                .                                       : API number
EREF               .m        139.4                         : 
X                  .m        230550                        : 
Y                  .m        242075                        : 
group              .         Pad5                          : 
Интер-р            .         Зайцев                        : 
Куст               .         5                             : 
Статус             .         Не проверено                  : 
Тип                .         Эксплуатация                  : 
~Parameter Information Block
#_______________________________________________________________________________
#
#PARAMETER_NAME    .UNIT     VALUE                         : DESCRIPTION
#_______________________________________________________________________________
SET                .         LAS1                          : 
REAL_CREATION_DATE .         Ср апр 11 2012-13_17_19       : 
TLFamily_DEPTH     .         Measured Depth                : 
TLFamily_KS        .         Potential Resistivity         : 
TLFamily_KS1       .         Extra Shallow Resistivity     : 
TLFamily_KS2       .         Shallow Resistivity           : 
TLFamily_KS3       .         Medium Resistivity            : 
TLFamily_KS4       .         Deep Resistivity              : 
TLFamily_KS5       .         Extra Deep Resistivity        : 
TLFamily_LLD       .         Lateral Log Resistivity       : 
TLFamily_OKS3      .         Medium Resistivity Inverted   : 
TLFamily_RM        .         Mud Resistivity               : 
group              .         INI                           : 
~Curve Information
#_______________________________________________________________________________
#
#LOGNAME           .UNIT     LOG_ID                        : DESCRIPTION
#_______________________________________________________________________________
DEPTH              .m                                      : Measured Depth 
KS                 .ohm.m                                  : Potential Resistivity 
KS1                .ohm.m                                  : Extra Shallow Resistivity 
KS2                .ohm.m                                  : Shallow Resistivity 
KS3                .ohm.m                                  : Medium Resistivity 
KS4                .ohm.m                                  : Deep Resistivity 
KS5                .ohm.m                                  : Extra Deep Resistivity 
LLD                .ohm.m                                  : Lateral Log Resistivity 
OKS3               .ohm.m                                  : Medium Resistivity Inverted 
RM                 .ohm.m                                  : Mud Resistivity 
~Ascii
# ...
2429.000037 7.0562     2.0431     6.9705     9.9778     11.0211    5.4313     4.9869     10.3944    0.117     
2429.200037 7.03       2.0792     7.0752     10.064     10.7983    5.4193     4.9896     10.4215    0.117     
2429.400037 7.0239     2.0645     7.0123     10.0983    10.5463    5.4064     4.6823     10.4514    0.117     
2429.600037 6.9984     2.0552     6.9484     10.1023    10.3206    5.4063     4.7125     10.4923    0.117     
2429.800037 6.9948     2.0575     6.9636     10.0611    10.055     5.3687     4.7361     10.5427    0.117     
2430.000037 7.0063     2.0324     6.8633     9.9724     9.7156     5.3674     4.6862     10.6461    0.117     
2430.200037 7.0004     1.9902     6.73       9.8805     9.4076     5.3356     5.0581     10.7089    0.117     
2430.400037 7.0172     2.0257     6.8221     9.8231     9.1006     5.278      4.5552     10.681     0.117     
2430.600037 7.0142     2.0112     6.7302     9.6909     8.903      5.286      4.5836     10.7222    0.117     
2430.800037 7.0194     1.9979     6.6812     9.546      8.7522     5.3104     4.6301     10.9027    0.117     
2431.000037 7.0388     1.9845     6.6465     9.4658     8.6812     5.3764     4.7355     11.1275    0.117     
2431.200038 7.0541     1.9912     6.6578     9.441      8.684      5.5056     4.822      11.3176    0.117     
2431.400038 7.0898     1.9989     6.6722     9.437      8.7022     5.7227     4.5865     11.5424    0.117     
2431.600038 7.1295     1.9692     6.572      9.3835     8.7381     6.0545     4.5111     11.8076    0.117     
2431.800038 7.1856     1.9476     6.5007     9.3425     8.8249     6.4365     4.6973     12.1258    0.117     
2432.000038 7.2519     1.9405     6.5218     9.41       9.0243     6.859      4.8864     12.4333    0.117     
2432.200038 7.3534     1.9508     6.5968     9.5644     9.3366     7.3068     4.9796     12.7343    0.117     
2432.400038 7.4478     1.9614     6.654      9.8361     9.7617     7.7398     5.1432     12.9767    0.117     
2432.600038 7.5572     2.0363     6.8889     10.068     10.1006    8.1311     5.615      13.065     0.117     
2432.800038 7.7207     2.027      6.8879     10.1561    10.2326    8.5041     5.2604     13.0363    0.117     
2433.000038 7.9334     2.0007     6.8081     10.1436    10.3222    8.9045     5.3343     12.9029    0.117     
2433.200039 8.0536     2.084      7.1151     10.3208    10.517     9.0738     6.5064     12.7581    0.117     
2433.400039 8.1268     2.1077     7.2576     10.6117    10.7745    9.1871     6.174      12.5116    0.117     
2433.600039 8.1234     2.2214     7.6851     10.9715    11.0324    9.1914     6.9864     12.1098    0.117     
2433.800039 8.0322     2.3233     8.0613     11.3681    11.1678    9.0521     7.0661     11.5668    0.117     
2434.000039 7.9155     2.3037     8.0912     11.5139    11.0753    8.8486     6.2959     11.3173    0.117     
2434.200039 7.7824     2.2999     8.1544     11.6033    10.9336    8.5774     5.5715     11.1827    0.117     
2434.400039 7.677      2.2677     8.0739     11.6052    10.6915    8.3036     5.4322     11.1618    0.117     
2434.600039 7.6068     2.1846     7.7957     11.4817    10.3418    8.0871     4.9285     11.3551    0.116     
2434.800039 7.5593     2.0962     7.5501     11.3913    10.1134    7.9067     4.4487     11.6334    0.117     
2435.00004 7.5449     2.1037     7.5343     11.4521    10.064     7.8001     4.6658     11.723     0.117     
2435.20004 7.5821     2.1031     7.4429     11.5397    10.0594    7.7703     5.4374     11.7509    0.117     
2435.40004 7.5755     2.072      7.2693     11.6143    10.0865    7.7506     4.9813     11.8068    0.117     
2435.60004 7.5671     2.1187     7.4029     11.6388    10.1099    7.7146     5.263      11.8778    0.117     
2435.80004 7.5788     2.14       7.3907     11.738     10.1847    7.6639     5.4642     12.0007    0.117     
2436.00004 7.5671     2.1408     7.407      11.6264    10.1673    7.5911     5.0296     12.1106    0.117     
2436.20004 7.5818     2.1189     7.3685     11.4859    10.1986    7.4569     5.1921     12.2606    0.117     
2436.40004 7.5883     2.1124     7.35       11.2776    10.1947    7.3265     5.1845     12.3751    0.117     
2436.60004 7.6082     2.1124     7.3392     11.0898    10.2336    7.1621     5.2851     12.512     0.117     
2436.80004 7.6145     2.1124     7.289      10.9297    10.2808    7.0072     5.1698     12.6868    0.117     
2437.000041 7.6062     2.1221     7.3451     10.8676    10.3574    6.8532     5.3487     12.808     0.117     
2437.200041 7.5869     2.1498     7.4221     10.9267    10.4515    6.6794     5.639      12.8551    0.117     
2437.400041 7.5671     2.1824     7.5052     10.9157    10.411     6.5154     5.6376     12.8801    0.117     
2437.600041 7.5671     2.1229     7.2955     10.7075    10.1886    6.3503     4.9702     13.075     0.117     
2437.800041 7.5711     2.0664     7.1092     10.4446    9.9067     6.1886     4.6388     13.4327    0.117     
2438.000041 7.6171     2.0315     7.0506     10.2336    9.6815     6.0773     4.8691     13.9697    0.117     
2438.200041 7.7228     1.9539     6.8007     10.0526    9.4713     6.0511     4.5871     14.7121    0.117     
2438.400041 7.8577     1.9268     6.6952     9.9546     9.3866     6.1077     4.8755     15.517     0.117     
2438.600041 8.0457     1.9373     6.7075     10.053     9.5099     6.2379     5.5698     16.2471    0.117     
2438.800041 8.2149     1.9765     6.7831     10.2757    9.7403     6.4251     5.9376     16.8012    0.117     
2439.000041 8.3987     2.0263     6.9489     10.5219    10.0301    6.6391     6.5788     17.3121    0.117     
2439.200042 8.5853     2.0634     7.064      10.7338    10.3002    6.8838     6.4656     17.821     0.117     
2439.400042 8.7582     2.0667     7.1309     10.9197    10.6283    7.1584     6.2503     18.3869    0.117     
2439.600042 8.9094     2.0931     7.3385     11.1958    11.0924    7.414      6.779      18.9238    0.117     
2439.800042 9.0353     2.156      7.6658     11.613     11.6719    7.5743     7.5063     19.2711    0.117     
2440.000042 9.1997     2.2332     7.9837     11.8344    11.9287    7.6664     7.7535     19.3743    0.117     
2440.200042 9.3937     2.1423     7.7239     11.7449    11.7992    7.6947     6.3313     19.4055    0.117     
2440.400042 9.5964     2.1044     7.6432     11.5422    11.543     7.6231     6.7888     19.487     0.117     
2440.600042 9.8088     2.0986     7.6532     11.6097    11.4992    7.5479     7.1028     19.5812    0.117     
2440.800042 10.0112    2.132      7.7986     11.8638    11.5655    7.579      8.045      19.5665    0.117     
2441.000042 10.2175    2.1769     7.9778     12.2012    11.7317    7.6722     8.4474     19.4852    0.117     
2441.200043 10.3835    2.1874     8.0501     12.5793    11.9552    7.7864     8.1348     19.4224    0.117     
2441.400043 10.5261    2.2492     8.3113     13.0025    12.2094    7.8971     9.428      19.2571    0.117     
2441.600043 10.6609    2.2939     8.513      13.4429    12.4109    8.0057     9.4249     19.0213    0.117     
2441.800043 10.7583    2.3145     8.6556     13.8242    12.5658    8.1069     8.9318     18.8066    0.117     
2442.000043 10.841     2.3262     8.7996     14.23      12.7783    8.1822     8.9701     18.5896    0.117     
2442.200043 10.9137    2.3462     8.9257     14.6236    13.0508    8.2602     9.1099     18.4126    0.117     
2442.400043 10.9684    2.3522     9.0058     14.988     13.363     8.3361     8.8157     18.2557    0.117     
2442.600043 10.9944    2.3833     9.153      15.3919    13.7782    8.4022     9.4682     18.1083    0.117     
2442.800043 11.0277    2.3977     9.2434     15.7908    14.2647    8.454      9.2778     17.9382    0.117     
2443.000044 11.0427    2.4118     9.3261     16.1868    14.8426    8.5105     9.3257     17.8406    0.117     
2443.200044 11.0269    2.4222     9.3678     16.5091    15.4469    8.5755     9.0977     17.8259    0.117     
2443.400044 11.0134    2.4222     9.4093     16.7772    15.979     8.656      9.0034     17.8644    0.117     
