~Version
 VERS              .         2.0                           : CWLS LOG ASCII STANDARD - VERSION 2.0
 WRAP              .         NO                            : ONE LINE PER DEPTH STEP
 DLM               .         SPACE                         : DELIMITING CHARACTER(SPACE TAB OR COMMA)
~Well Information
#_______________________________________________________________________________
#
#PARAMETER_NAME    .UNIT     VALUE                         : DESCRIPTION
#_______________________________________________________________________________
STRT               .m        2356                          : First reference value
STOP               .m        2578.600111                   : Last reference value
STEP               .m        0.2000001                     : Step increment
NULL               .         -9999                         : Missing value
COMP               .                                       : Company
WELL               .         504                           : Well name
FLD                .                                       : Field
LOC                .                                       : Location
CNTY               .                                       : County
STAT               .                                       : State
CTRY               .                                       : Country
SRVC               .                                       : Service Company
DATE               .                                       : Date
API                .                                       : API number
EREF               .m        139.4                         : 
X                  .m        230550                        : 
Y                  .m        242075                        : 
group              .         Pad5                          : 
Интер-р            .         Зайцев                        : 
Куст               .         5                             : 
Статус             .         Не проверено                  : 
Тип                .         Эксплуатация                  : 
~Parameter Information Block
#_______________________________________________________________________________
#
#PARAMETER_NAME    .UNIT     VALUE                         : DESCRIPTION
#_______________________________________________________________________________
SET                .         LAS1                          : 
REAL_CREATION_DATE .         Ср апр 11 2012-13_17_19       : 
TLFamily_DEPTH     .         Measured Depth                : 
TLFamily_KS        .         Potential Resistivity         : 
TLFamily_KS1       .         Extra Shallow Resistivity     : 
TLFamily_KS2       .         Shallow Resistivity           : 
TLFamily_KS3       .         Medium Resistivity            : 
TLFamily_KS4       .         Deep Resistivity              : 
TLFamily_KS5       .         Extra Deep Resistivity        : 
TLFamily_LLD       .         Lateral Log Resistivity       : 
TLFamily_OKS3      .         Medium Resistivity Inverted   : 
TLFamily_RM        .         Mud Resistivity               : 
group              .         INI                           : 
~Curve Information
#_______________________________________________________________________________
#
#LOGNAME           .UNIT     LOG_ID                        : DESCRIPTION
#_______________________________________________________________________________
DEPTH              .m                                      : Measured Depth 
KS                 .ohm.m                                  : Potential Resistivity 
KS1                .ohm.m                                  : Extra Shallow Resistivity 
KS2                .ohm.m                                  : Shallow Resistivity 
KS3                .ohm.m                                  : Medium Resistivity 
KS4                .ohm.m                                  : Deep Resistivity 
KS5                .ohm.m                                  : Extra Deep Resistivity 
LLD                .ohm.m                                  : Lateral Log Resistivity 
OKS3               .ohm.m                                  : Medium Resistivity Inverted 
RM                 .ohm.m                                  : Mud Resistivity 
~Ascii
# ...
2472.800058 9.0587     2.061      7.2291     10.5674    13.606     17.1589    6.2493     13.2767    0.127     
2473.000058 9.2405     2.0409     7.4258     10.9517    13.9569    18.6991    6.7923     13.1977    0.127     
2473.200059 9.4622     2.0672     7.573      11.4118    14.7944    20.768     6.8149     13.3069    0.127     
2473.400059 9.6421     2.0144     7.5622     12.1364    16.0096    22.9071    6.791      13.6161    0.124     
2473.600059 9.6804     2.186      8.1903     13.5297    17.2513    25.2903    14.4814    13.1437    0.127     
2473.800059 9.6498     2.3737     8.9462     14.6344    17.9447    25.4315    49.9226    12.4705    0.127     
2474.000059 9.2893     2.869      10.7089    17.158     18.9595    25.8752    37.7901    10.6964    0.127     
2474.200059 8.7487     2.9536     10.8584    18.1374    18.5705    25.0061    8.5812     9.6422     0.127     
2474.400059 8.2016     2.9332     10.9911    17.8574    17.4004    23.2902    6.7428     8.9038     0.13      
2474.600059 7.695      2.6871     10.4922    17.2108    16.1443    20.8487    4.4628     8.4649     0.13      
2474.800059 7.2722     2.561      10.1406    16.2055    15.0247    18.3846    4.4123     8.3134     0.134     
2475.00006 6.9454     2.3366     9.229      15.0959    13.8125    16.0483    3.634      8.2981     0.131     
2475.20006 6.7098     2.1847     8.4493     14.0494    12.6592    13.9831    3.7042     8.3781     0.127     
2475.40006 6.5852     2.0619     7.8075     13.24      11.7304    12.2521    3.5927     8.5867     0.124     
2475.60006 6.4503     1.948      7.0374     12.6291    11.0736    10.2544    3.9386     8.8719     0.124     
2475.80006 6.3741     2.0364     7.0825     12.5312    10.992     9.2546     4.9364     8.8186     0.123     
2476.00006 6.3111     2.018      6.8016     12.1643    10.8827    8.4316     3.967      8.7805     0.12      
2476.20006 6.2068     2.0215     6.693      11.4336    10.4919    7.6761     3.9607     8.8308     0.12      
2476.40006 6.1507     1.9618     6.5042     10.7272    10.086     6.9337     3.6465     8.9672     0.119     
2476.60006 6.1146     1.9057     6.3147     9.9849     9.63       6.3583     3.6135     9.1683     0.117     
2476.80006 6.1387     1.8571     6.1435     9.3276     9.2144     5.8741     3.552      9.4773     0.117     
2477.000061 6.1941     1.8003     5.9364     8.8442     8.9543     5.4571     3.6866     9.7313     0.117     
2477.200061 6.3133     1.8155     5.923      8.5602     8.9487     4.9897     4.2852     9.8748     0.114     
2477.400061 6.4633     1.8207     5.8671     8.4038     9.0238     4.7844     4.3762     9.9419     0.114     
2477.600061 6.5701     1.887      6.0399     8.4431     9.3516     4.6246     4.7295     9.943      0.115     
2477.800061 6.6569     1.9233     6.1602     8.5688     9.5112     4.5299     4.9317     9.8647     0.115     
2478.000061 6.6667     1.9688     6.3627     8.6465     9.5422     4.4388     4.8627     9.7711     0.115     
2478.200061 6.6501     2.0101     6.5415     8.7524     9.5175     4.3472     4.9824     9.6671     0.114     
2478.400061 6.6332     2.0285     6.6795     8.7805     9.3268     4.3193     4.8311     9.5673     0.114     
2478.600061 6.6114     1.9789     6.5913     8.7594     9.0929     4.293      4.1137     9.6188     0.114     
2478.800061 6.5821     1.9674     6.6055     8.7964     8.8721     4.2798     4.1272     9.6581     0.114     
2479.000061 6.5798     1.9778     6.6597     8.903      8.7932     4.2785     4.6996     9.6668     0.114     
2479.200062 6.5893     1.9831     6.6456     9.0128     8.6566     4.3144     4.4999     9.6066     0.114     
2479.400062 6.6192     1.9681     6.5538     9.0304     8.513      4.3548     4.4098     9.6103     0.114     
2479.600062 6.6717     1.9149     6.4024     9.0111     8.4037     4.4436     4.0615     9.6454     0.114     
2479.800062 6.7047     1.9037     6.3861     9.102      8.4166     4.5693     4.4365     9.5911     0.114     
2480.000062 6.7378     1.9764     6.6023     9.2756     8.4539     4.7358     5.0774     9.3403     0.114     
2480.200062 6.744      2.0327     6.7122     9.454      8.4792     4.882      5.0348     9.0857     0.114     
2480.400062 6.6988     2.0616     6.7735     9.4911     8.4118     4.9746     4.7865     8.8817     0.114     
2480.600062 6.604      2.0613     6.8175     9.4723     8.3215     5.0738     4.3759     8.7773     0.114     
2480.800062 6.5242     2.0411     6.8888     9.4176     8.2706     5.1656     4.5263     8.7019     0.114     
2481.000062 6.5004     2.0255     6.8416     9.4021     8.2613     5.221      4.5099     8.6992     0.114     
2481.200063 6.4289     1.9927     6.7206     9.362      8.249      5.3432     4.1837     8.6347     0.114     
2481.400063 6.3458     2.0218     6.802      9.3691     8.2604     5.4499     4.5369     8.5326     0.114     
2481.600063 6.2888     2.0151     6.7301     9.3545     8.2365     5.5905     4.4446     8.4738     0.114     
2481.800063 6.2109     1.9831     6.5853     9.2586     8.1497     5.7899     3.9286     8.4921     0.114     
2482.000063 6.1382     1.966      6.5402     9.1969     8.0907     5.9753     4.0543     8.5249     0.114     
2482.200063 6.1024     1.928      6.4124     9.1753     8.0692     6.0538     3.9714     8.5221     0.114     
2482.400063 6.0398     1.9321     6.4022     9.1106     8.0281     6.1766     4.1861     8.5224     0.114     
2482.600063 5.9892     1.9284     6.3296     8.9381     7.9254     6.294      4.0399     8.6296     0.114     
2482.800063 5.9587     1.8616     6.0895     8.6828     7.8204     6.4133     3.5912     8.8955     0.114     
2483.000064 5.9716     1.7961     5.9102     8.5213     7.889      6.4749     3.7451     9.2127     0.114     
2483.200064 5.9558     1.8336     6.0597     8.5848     8.0558     6.5196     4.5329     9.2883     0.114     
2483.400064 5.98       1.8969     6.1897     8.681      8.1642     6.5338     4.2972     9.2374     0.114     
2483.600064 6.0032     1.8835     6.0799     8.6192     8.1483     6.5284     3.9189     9.2078     0.114     
2483.800064 5.9948     1.878      6.0407     8.4913     8.1419     6.4414     4.1237     9.25       0.114     
2484.000064 5.9867     1.9131     6.1492     8.4551     8.1508     6.3137     4.433      9.2624     0.114     
2484.200064 5.9953     1.9028     6.1361     8.3172     8.0051     6.2412     3.949      9.3875     0.114     
2484.400064 6.023      1.845      5.988      8.1243     7.8261     6.2004     3.6105     9.6442     0.114     
2484.600064 6.0782     1.8014     5.9083     8.0469     7.7933     6.1493     3.6999     9.9252     0.114     
2484.800064 6.1226     1.8366     6.0569     8.1356     7.8747     6.1105     4.3908     9.948      0.114     
2485.000065 6.1669     1.9317     6.2751     8.334      7.9232     6.0843     5.2361     9.766      0.114     
2485.200065 6.1795     1.9746     6.3175     8.437      7.843      6.0354     4.7499     9.6056     0.117     
2485.400065 6.1531     1.9778     6.3098     8.4736     7.7011     5.9506     4.2881     9.6079     0.117     
2485.600065 6.1176     1.9627     6.3421     8.4334     7.5487     5.8364     4.2696     9.6561     0.117     
2485.800065 6.0979     1.9183     6.3265     8.3418     7.3186     5.7141     4.096      10.1409    0.12      
2486.000065 6.0979     1.9045     6.292      8.3036     7.2056     5.6357     4.052      10.6337    0.12      
2486.200065 6.1216     1.8835     6.2223     8.2684     7.1093     5.5699     4.2261     11.1469    0.12      
2486.400065 6.1529     1.8835     6.1918     8.2504     7.035      5.5102     4.3031     11.6497    0.124     
2486.600065 6.1768     1.886      6.1847     8.3338     7.005      5.4323     4.3969     12.1285    0.124     
2486.800065 6.1769     1.9318     6.309      8.4974     7.0147     5.3258     4.7493     12.5176    0.124     
2487.000065 6.205      1.9584     6.3613     8.5756     6.9507     5.2227     4.7265     12.9793    0.124     
2487.200066 6.2366     1.8963     6.1771     8.4221     6.7992     5.0897     4.0143     13.6275    0.124     
