~Version
 VERS              .         2.0                           : CWLS LOG ASCII STANDARD - VERSION 2.0
 WRAP              .         NO                            : ONE LINE PER DEPTH STEP
 DLM               .         SPACE                         : DELIMITING CHARACTER(SPACE TAB OR COMMA)
~Well Information
#_______________________________________________________________________________
#
#PARAMETER_NAME    .UNIT     VALUE                         : DESCRIPTION
#_______________________________________________________________________________
STRT               .m        2348.4                        : First reference value
STOP               .m        2559.000105                   : Last reference value
STEP               .m        0.2000001                     : Step increment
NULL               .         -9999                         : Missing value
COMP               .                                       : Company
WELL               .         504                           : Well name
FLD                .                                       : Field
LOC                .                                       : Location
CNTY               .                                       : County
STAT               .                                       : State
CTRY               .                                       : Country
SRVC               .                                       : Service Company
DATE               .                                       : Date
API                .                                       : API number
EREF               .m        139.4                         : 
X                  .m        230550                        : 
Y                  .m        242075                        : 
group              .         Pad5                          : 
Интер-р            .         Зайцев                        : 
Куст               .         5                             : 
Статус             .         Не проверено                  : 
Тип                .         Эксплуатация                  : 
~Parameter Information Block
#_______________________________________________________________________________
#
#PARAMETER_NAME    .UNIT     VALUE                         : DESCRIPTION
#_______________________________________________________________________________
SET                .         LAS3                          : 
REAL_CREATION_DATE .         Ср апр 11 2012-13_17_19       : 
TLFamily_DEPTH     .         Measured Depth                : 
TLFamily_GR        .         Gamma Ray                     : 
TLFamily_TNPH      .         Neutron Porosity              : 
group              .         INI                           : 
~Curve Information
#_______________________________________________________________________________
#
#LOGNAME           .UNIT     LOG_ID                        : DESCRIPTION
#_______________________________________________________________________________
DEPTH              .m                                      : Measured Depth 
GR                 .gAPI                                   :  
TNPH               .v/v                                    : Neutron Porosity 
~Ascii
# ...
2395.600024 84.55      0.216     
2395.800024 94.18      0.227     
2396.000024 106.4      0.221     
2396.200024 106.27     0.203     
2396.400024 101.08     0.19      
2396.600024 95.31      0.211     
2396.800024 96.47      0.233     
2397.000024 96.27      0.235     
2397.200024 97.84      0.241     
2397.400025 107.38     0.253     
2397.600025 111.31     0.246     
2397.800025 113.26     0.229     
2398.000025 120.06     0.234     
2398.200025 112.75     0.223     
2398.400025 110.13     0.249     
2398.600025 109.25     0.244     
2398.800025 117.35     0.233     
2399.000025 112.15     0.211     
2399.200025 98.19      0.2       
2399.400026 92.92      0.236     
2399.600026 102.24     0.187     
2399.800026 105.64     0.203     
2400.000026 102.45     0.214     
2400.200026 106        0.188     
2400.400026 105.08     0.187     
2400.600026 102.84     0.204     
2400.800026 100.71     0.221     
2401.000026 101.81     0.224     
2401.200026 96.52      0.232     
2401.400026 97.47      0.209     
2401.600027 101.16     0.202     
2401.800027 101.53     0.192     
2402.000027 102.34     0.204     
2402.200027 107.29     0.215     
2402.400027 101.81     0.207     
2402.600027 99.42001   0.208     
2402.800027 102.72     0.221     
2403.000027 95.7       0.202     
2403.200027 97.16      0.193     
2403.400028 95.12      0.173     
2403.600028 102.35     0.18      
2403.800028 101.28     0.19      
2404.000028 108.26     0.22      
2404.200028 99.74      0.22      
2404.400028 100.5      0.219     
2404.600028 99.38      0.222     
2404.800028 97.14      0.203     
2405.000028 102.4      0.197     
2405.200028 110.17     0.208     
2405.400029 105.17     0.2       
2405.600029 104.08     0.192     
2405.800029 107.15     0.191     
2406.000029 103.69     0.212     
2406.200029 116.49     0.2       
2406.400029 104.41     0.201     
2406.600029 93.23      0.217     
2406.800029 94.61      0.217     
2407.000029 100        0.208     
2407.200029 97.28      0.239     
2407.40003 88.54      0.223     
2407.60003 93.58      0.203     
2407.80003 94.53      0.185     
2408.00003 96.68      0.203     
2408.20003 91.49001   0.233     
2408.40003 89.91      0.225     
2408.60003 86.72      0.207     
2408.80003 92.93      0.199     
2409.00003 97.9       0.174     
2409.20003 84.49001   0.173     
2409.40003 84.88      0.204     
2409.600031 84.8       0.207     
2409.800031 94.81      0.2       
2410.000031 96.00999   0.198     
2410.200031 99.8       0.202     
2410.400031 87.73      0.227     
2410.600031 91.98      0.237     
2410.800031 93.24001   0.235     
2411.000031 98.76      0.23      
2411.200031 98.7       0.239     
2411.400032 100.94     0.226     
2411.600032 98.5       0.218     
2411.800032 97.8       0.25      
2412.000032 90.75      0.229     
2412.200032 84.75      0.23      
2412.400032 84.06999   0.204     
2412.600032 89.06      0.249     
2412.800032 91.62      0.229     
2413.000032 93.35      0.236     
2413.200032 105.07     0.228     
2413.400033 107.84     0.237     
2413.600033 104.16     0.225     
2413.800033 104.37     0.229     
2414.000033 100.69     0.222     
2414.200033 96.47      0.189     
2414.400033 95.27      0.22      
2414.600033 95.88      0.221     
2414.800033 100.48     0.211     
2415.000033 109.72     0.212     
2415.200033 104.6      0.236     
2415.400034 108.32     0.226     
2415.600034 107.24     0.21      
2415.800034 107.69     0.233     
2416.000034 105.07     0.244     
2416.200034 106.88     0.218     
2416.400034 100.35     0.245     
2416.600034 105.24     0.271     
2416.800034 106.29     0.24      
2417.000034 97.56      0.231     
2417.200034 97         0.26      
2417.400034 93.38      0.207     
2417.600035 100.27     0.258     
2417.800035 96.07001   0.234     
2418.000035 98.12      0.247     
2418.200035 97.83      0.244     
2418.400035 99.87      0.249     
2418.600035 96.95      0.228     
2418.800035 94.32      0.201     
2419.000035 99.32999   0.224     
2419.200035 105.21     0.219     
2419.400036 103.94     0.261     
2419.600036 106.75     0.245     
2419.800036 111.38     0.289     
2420.000036 109.89     0.258     
2420.200036 112.04     0.243     
2420.400036 109.25     0.242     
2420.600036 108.23     0.271     
2420.800036 109.89     0.272     
2421.000036 119.62     0.307     
2421.200036 111.05     0.254     
2421.400037 109.08     0.226     
2421.600037 100.87     0.193     
2421.800037 92.02      0.212     
2422.000037 101.11     0.199     
2422.200037 108.27     0.199     
2422.400037 115.04     0.215     
2422.600037 104.03     0.221     
2422.800037 92.77      0.198     
2423.000037 80.94      0.202     
2423.200037 71.22      0.162     
2423.400038 67.07      0.137     
2423.600038 62.02      0.125     
2423.800038 63.63      0.148     
2424.000038 74.51      0.162     
2424.200038 82.8       0.199     
2424.400038 73.53      0.204     
2424.600038 74.78      0.181     
2424.800038 87.08      0.18      
2425.000038 102.98     0.188     
2425.200038 100.9      0.2       
2425.400038 102.09     0.206     
2425.600039 103.77     0.182     
2425.800039 112.98     0.204     
2426.000039 113.55     0.186     
2426.200039 118.77     0.212     
2426.400039 127.95     0.232     
2426.600039 142.22     0.229     
2426.800039 140.3      0.244     
2427.000039 137.92     0.236     
2427.200039 135.58     0.267     
2427.40004 144.38     0.255     
2427.60004 135.2      0.276     
2427.80004 138.93     0.241     
2428.00004 124.59     0.258     
2428.20004 128.06     0.263     
2428.40004 135.95     0.269     
2428.60004 131.22     0.242     
2428.80004 131.77     0.289     
2429.00004 130.51     0.298     
2429.20004 130.58     0.245     
2429.400041 128.29     0.22      
2429.600041 133.76     0.219     
2429.800041 122.61     0.234     
2430.000041 116.78     0.233     
2430.200041 101.94     0.234     
2430.400041 114.93     0.218     
2430.600041 113.76     0.226     
2430.800041 117.83     0.198     
2431.000041 114.96     0.213     
2431.200041 115.84     0.205     
2431.400042 120.75     0.242     
2431.600042 133.11     0.213     
2431.800042 144.64     0.21      
2432.000042 156.89     0.205     
2432.200042 172.8      0.213     
2432.400042 198.38     0.241     
2432.600042 201.38     0.235     
2432.800042 189.84     0.262     
2433.000042 180.37     0.222     
2433.200042 182.33     0.243     
2433.400042 193.92     0.242     
2433.600043 192.25     0.262     
2433.800043 192.72     0.218     
2434.000043 190.82     0.24      
2434.200043 192.69     0.276     
2434.400043 191.84     0.241     
2434.600043 182.9      0.255     
2434.800043 189.78     0.252     
2435.000043 204.89     0.302     
2435.200043 213.92     0.271     
2435.400044 226.36     0.266     
2435.600044 235.78     0.25      
2435.800044 240.18     0.278     
2436.000044 245.13     0.26      
2436.200044 242.94     0.228     
2436.400044 256.33     0.256     
2436.600044 247.64     0.24      
2436.800044 230.14     0.22      
2437.000044 214.71     0.232     
2437.200044 203.49     0.225     
2437.400045 191.21     0.211     
2437.600045 176.95     0.238     
2437.800045 168.36     0.252     
2438.000045 173        0.236     
2438.200045 185.18     0.247     
2438.400045 186.49     0.259     
2438.600045 199.39     0.28      
2438.800045 223.14     0.263     
2439.000045 235.73     0.288     
2439.200045 255.88     0.335     
2439.400046 271.7      0.317     
2439.600046 297.68     0.283     
2439.800046 330.46     0.298     
2440.000046 364.48     0.313     
2440.200046 375.84     0.345     
2440.400046 349.93     0.283     
2440.600046 312.14     0.291     
2440.800046 303.37     0.287     
2441.000046 283.46     0.254     
2441.200046 305.47     0.305     
2441.400046 344.49     0.352     
2441.600047 342.94     0.281     
2441.800047 319.06     0.315     
2442.000047 322.4      0.373     
2442.200047 321.35     0.327     
2442.400047 322.34     0.298     
2442.600047 317.87     0.269     
