~Version
 VERS              .         2.0                           : CWLS LOG ASCII STANDARD - VERSION 2.0
 WRAP              .         NO                            : ONE LINE PER DEPTH STEP
 DLM               .         SPACE                         : DELIMITING CHARACTER(SPACE TAB OR COMMA)
~Well Information
#_______________________________________________________________________________
#
#PARAMETER_NAME    .UNIT     VALUE                         : DESCRIPTION
#_______________________________________________________________________________
STRT               .m        2348.4                        : First reference value
STOP               .m        2559.000105                   : Last reference value
STEP               .m        0.2000001                     : Step increment
NULL               .         -9999                         : Missing value
COMP               .                                       : Company
WELL               .         504                           : Well name
FLD                .                                       : Field
LOC                .                                       : Location
CNTY               .                                       : County
STAT               .                                       : State
CTRY               .                                       : Country
SRVC               .                                       : Service Company
DATE               .                                       : Date
API                .                                       : API number
EREF               .m        139.4                         : 
X                  .m        230550                        : 
Y                  .m        242075                        : 
group              .         Pad5                          : 
Интер-р            .         Зайцев                        : 
Куст               .         5                             : 
Статус             .         Не проверено                  : 
Тип                .         Эксплуатация                  : 
~Parameter Information Block
#_______________________________________________________________________________
#
#PARAMETER_NAME    .UNIT     VALUE                         : DESCRIPTION
#_______________________________________________________________________________
SET                .         LAS3                          : 
REAL_CREATION_DATE .         Ср апр 11 2012-13_17_19       : 
TLFamily_DEPTH     .         Measured Depth                : 
TLFamily_GR        .         Gamma Ray                     : 
TLFamily_TNPH      .         Neutron Porosity              : 
group              .         INI                           : 
~Curve Information
#_______________________________________________________________________________
#
#LOGNAME           .UNIT     LOG_ID                        : DESCRIPTION
#_______________________________________________________________________________
DEPTH              .m                                      : Measured Depth 
GR                 .gAPI                                   :  
TNPH               .v/v                                    : Neutron Porosity 
~Ascii
2348.3999023 -9999      -9999     
2348.6     60.26      -9999     
2348.8     62.39      -9999     
2349       54.44      -9999     
2349.2     60.92      -9999     
2349.400001 60.59      -9999     
2349.600001 53.87      -9999     
2349.800001 57.71      -9999     
2350.000001 59.58      -9999     
2350.200001 55.69      -9999     
2350.400001 59.31      0.248     
2350.600001 55.59      0.248     
2350.800001 55.93      0.205     
2351.000001 61.63      0.22      
2351.200001 52.29      0.201     
2351.400002 47.72      0.23      
2351.600002 55.33      0.246     
2351.800002 49.64      0.234     
2352.000002 49.26      0.201     
2352.200002 52.44      0.2       
2352.400002 52.74      0.219     
2352.600002 55.85      0.212     
2352.800002 52.83      0.207     
2353.000002 61.26      0.237     
2353.200002 61.68999   0.236     
2353.400003 61.51      0.272     
2353.600003 62.29      0.29      
2353.800003 59.02      0.289     
2354.000003 56.14      0.251     
2354.200003 55.26      0.265     
2354.400003 52.03      0.233     
2354.600003 57.13      0.204     
2354.800003 61.35      0.218     
2355.000003 56.48      0.246     
2355.200003 54.12      0.208     
2355.400003 42.96      0.188     
2355.600004 42.41      0.187     
2355.800004 37.17      0.146     
2356.000004 36.58      0.153     
2356.200004 37.14      0.162     
2356.400004 43.2       0.206     
2356.600004 44.82      0.197     
2356.800004 50.23      0.214     
2357.000004 55.8       0.229     
2357.200004 50.61      0.224     
2357.400005 55.31      0.231     
2357.600005 62.29      0.21      
2357.800005 68.3       0.202     
2358.000005 65.28      0.289     
2358.200005 66.56      0.227     
2358.400005 65.59      0.187     
2358.600005 57.74      0.217     
2358.800005 53.95      0.208     
2359.000005 46.05      0.197     
2359.200005 40.29      0.216     
2359.400006 34.33      0.204     
2359.600006 40.04      0.221     
2359.800006 58.43      0.213     
2360.000006 88.24001   0.195     
2360.200006 97.67999   0.197     
2360.400006 104.15     0.204     
2360.600006 102.47     0.199     
2360.800006 104.61     0.176     
2361.000006 100.23     0.185     
2361.200006 103.4      0.184     
2361.400007 102.55     0.161     
2361.600007 101.15     0.142     
2361.800007 97.36      0.196     
2362.000007 92.11      0.21      
2362.200007 89.25      0.215     
2362.400007 91.49001   0.177     
2362.600007 97.12      0.189     
2362.800007 98.18      0.193     
2363.000007 95.54      0.239     
2363.200007 97.25      0.23      
2363.400007 93.27      0.203     
2363.600008 84.12      0.215     
2363.800008 79.04      0.243     
2364.000008 88.02      0.207     
2364.200008 97.98      0.197     
2364.400008 95.64999   0.202     
2364.600008 90.34      0.207     
2364.800008 89.28001   0.207     
2365.000008 90.97      0.221     
2365.200008 76.89999   0.217     
2365.400009 76.77      0.226     
2365.600009 79.32      0.216     
2365.800009 84.27      0.215     
2366.000009 93.42      0.214     
2366.200009 89.06      0.205     
2366.400009 90.85      0.229     
2366.600009 89.64      0.204     
2366.800009 86.65      0.21      
2367.000009 85.31      0.194     
2367.200009 77.7       0.194     
2367.40001 73.41      0.222     
2367.60001 68.95      0.242     
2367.80001 76.96      0.251     
2368.00001 76.49001   0.261     
2368.20001 86.25      0.209     
2368.40001 84.64      0.215     
2368.60001 77.75      0.197     
2368.80001 70.08      0.167     
2369.00001 69.32999   0.163     
2369.20001 64.65      0.131     
2369.400011 60.4       0.112     
2369.600011 55.4       0.097     
2369.800011 70.93001   0.117     
2370.000011 87.44      0.159     
2370.200011 106.2      0.211     
2370.400011 109.9      0.215     
2370.600011 109.5      0.23      
2370.800011 105.55     0.218     
2371.000011 100.51     0.234     
2371.200011 101.35     0.23      
2371.400011 92.14      0.223     
2371.600012 95.7       0.226     
2371.800012 102.24     0.202     
2372.000012 93.25      0.213     
2372.200012 95.48      0.221     
2372.400012 88.26      0.223     
2372.600012 88.21      0.224     
2372.800012 93.97      0.207     
2373.000012 95.05      0.182     
2373.200012 90.21      0.17      
2373.400013 84.27      0.189     
2373.600013 92.79      0.188     
2373.800013 96.78001   0.205     
2374.000013 101.8      0.21      
2374.200013 106.52     0.218     
2374.400013 100.58     0.212     
2374.600013 104.3      0.219     
2374.800013 103.44     0.19      
2375.000013 104.33     0.172     
2375.200013 93.64      0.183     
2375.400014 90.81001   0.179     
2375.600014 99.69      0.174     
2375.800014 102.3      0.177     
2376.000014 100.31     0.176     
2376.200014 98.14      0.195     
2376.400014 97.78      0.179     
2376.600014 93.58      0.184     
2376.800014 91.88      0.205     
2377.000014 98.38      0.211     
2377.200014 106.51     0.214     
2377.400014 105.29     0.206     
2377.600015 105.02     0.183     
2377.800015 97.67999   0.187     
2378.000015 101.21     0.177     
2378.200015 103.15     0.176     
2378.400015 92.21      0.202     
2378.600015 94.46      0.176     
2378.800015 96.37      0.185     
2379.000015 98.96      0.191     
2379.200015 93.94      0.212     
2379.400015 94.95      0.209     
2379.600016 104.96     0.211     
2379.800016 110.46     0.204     
2380.000016 104.73     0.199     
2380.200016 101.74     0.219     
2380.400016 106.11     0.185     
2380.600016 108.27     0.188     
2380.800016 96.07001   0.193     
2381.000016 99.75999   0.19      
2381.200016 99.96001   0.178     
2381.400017 98.49      0.178     
2381.600017 95.71999   0.209     
2381.800017 103.48     0.208     
2382.000017 99.7       0.184     
2382.200017 95.07      0.183     
2382.400017 96.52      0.217     
2382.600017 97.15      0.227     
2382.800017 97.05      0.221     
2383.000017 98.03001   0.228     
2383.200017 102.65     0.204     
2383.400018 93.56      0.211     
2383.600018 91.82      0.211     
2383.800018 92.83      0.223     
2384.000018 97.33      0.197     
2384.200018 88.85001   0.229     
2384.400018 93.57001   0.229     
2384.600018 103.83     0.216     
2384.800018 100.29     0.217     
2385.000018 90.60001   0.234     
2385.200018 81.55      0.203     
2385.400018 72.02      0.191     
2385.600019 72.25999   0.198     
2385.800019 66.32      0.225     
2386.000019 62.02      0.217     
2386.200019 54.66      0.198     
2386.400019 63.79      0.223     
2386.600019 73.11      0.209     
2386.800019 76.7       0.225     
2387.000019 79.85      0.226     
2387.200019 87.92      0.25      
2387.400019 90.89      0.239     
2387.60002 85.78      0.232     
2387.80002 87.19      0.2       
2388.00002 78.89      0.199     
2388.20002 69.68001   0.192     
2388.40002 72.83      0.193     
2388.60002 72.83      0.21      
2388.80002 66.95      0.223     
2389.00002 72.34      0.223     
2389.20002 78.99001   0.182     
2389.400021 86.36      0.175     
2389.600021 98.09      0.186     
2389.800021 88.9       0.196     
2390.000021 88.11      0.189     
2390.200021 79.51      0.178     
2390.400021 64.01      0.192     
2390.600021 52.62      0.19      
2390.800021 54.8       0.189     
2391.000021 55.53      0.181     
2391.200021 52.39      0.162     
2391.400022 48.33      0.136     
2391.600022 47.83      0.136     
2391.800022 53.19      0.174     
2392.000022 60.96      0.2       
2392.200022 68.35      0.246     
2392.400022 73         0.225     
2392.600022 76.99001   0.201     
2392.800022 70.73      0.232     
2393.000022 73.48      0.241     
2393.200022 71.96999   0.198     
2393.400022 69.94      0.207     
2393.600023 71.75999   0.224     
2393.800023 81.46      0.202     
2394.000023 78.59      0.199     
2394.200023 80.76      0.198     
2394.400023 77.22      0.2       
2394.600023 69.88      0.199     
2394.800023 63.29      0.182     
2395.000023 64.02      0.196     
2395.200023 68.48      0.177     
2395.400024 77.5       0.204     
