~Version
 VERS              .         2.0                           : CWLS LOG ASCII STANDARD - VERSION 2.0
 WRAP              .         NO                            : ONE LINE PER DEPTH STEP
 DLM               .         SPACE                         : DELIMITING CHARACTER(SPACE TAB OR COMMA)
~Well Information
#_______________________________________________________________________________
#
#PARAMETER_NAME    .UNIT     VALUE                         : DESCRIPTION
#_______________________________________________________________________________
STRT               .m        2356                          : First reference value
STOP               .m        2578.600111                   : Last reference value
STEP               .m        0.2000001                     : Step increment
NULL               .         -9999                         : Missing value
COMP               .                                       : Company
WELL               .         504                           : Well name
FLD                .                                       : Field
LOC                .                                       : Location
CNTY               .                                       : County
STAT               .                                       : State
CTRY               .                                       : Country
SRVC               .                                       : Service Company
DATE               .                                       : Date
API                .                                       : API number
EREF               .m        139.4                         : 
X                  .m        230550                        : 
Y                  .m        242075                        : 
group              .         Pad5                          : 
Интер-р            .         Зайцев                        : 
Куст               .         5                             : 
Статус             .         Не проверено                  : 
Тип                .         Эксплуатация                  : 
~Parameter Information Block
#_______________________________________________________________________________
#
#PARAMETER_NAME    .UNIT     VALUE                         : DESCRIPTION
#_______________________________________________________________________________
SET                .         LAS1                          : 
REAL_CREATION_DATE .         Ср апр 11 2012-13_17_19       : 
TLFamily_DEPTH     .         Measured Depth                : 
TLFamily_KS        .         Potential Resistivity         : 
TLFamily_KS1       .         Extra Shallow Resistivity     : 
TLFamily_KS2       .         Shallow Resistivity           : 
TLFamily_KS3       .         Medium Resistivity            : 
TLFamily_KS4       .         Deep Resistivity              : 
TLFamily_KS5       .         Extra Deep Resistivity        : 
TLFamily_LLD       .         Lateral Log Resistivity       : 
TLFamily_OKS3      .         Medium Resistivity Inverted   : 
TLFamily_RM        .         Mud Resistivity               : 
group              .         INI                           : 
~Curve Information
#_______________________________________________________________________________
#
#LOGNAME           .UNIT     LOG_ID                        : DESCRIPTION
#_______________________________________________________________________________
DEPTH              .m                                      : Measured Depth 
KS                 .ohm.m                                  : Potential Resistivity 
KS1                .ohm.m                                  : Extra Shallow Resistivity 
KS2                .ohm.m                                  : Shallow Resistivity 
KS3                .ohm.m                                  : Medium Resistivity 
KS4                .ohm.m                                  : Deep Resistivity 
KS5                .ohm.m                                  : Extra Deep Resistivity 
LLD                .ohm.m                                  : Lateral Log Resistivity 
OKS3               .ohm.m                                  : Medium Resistivity Inverted 
RM                 .ohm.m                                  : Mud Resistivity 
~Ascii
# ...
2414.400029 7.0508     2.0389     6.7648     9.6237     9.6063     6.7152     5.3748     10.2954    0.124     
2414.600029 6.9991     2.1225     7.033      9.8204     9.6498     6.7411     5.663      10.1906    0.124     
2414.800029 6.9258     2.1249     7.0945     9.9284     9.617      6.7654     4.9954     10.2044    0.124     
2415.000029 6.872      2.0898     7.0546     9.8793     9.481      6.7574     4.514      10.3211    0.124     
2415.20003 6.8404     2.047      6.9671     9.7786     9.311      6.7459     4.4301     10.4548    0.124     
2415.40003 6.8404     1.9983     6.8196     9.6901     9.1506     6.7166     4.4177     10.5378    0.124     
2415.60003 6.8601     1.9912     6.7652     9.6389     9.029      6.7026     4.6855     10.5665    0.125     
2415.80003 6.8799     1.9884     6.7145     9.6942     9.0035     6.6896     4.8466     10.5883    0.127     
2416.00003 6.8878     2.0366     6.7893     9.7792     9.0018     6.7076     4.9128     10.6382    0.127     
2416.20003 6.8878     2.0328     6.7572     9.8661     9.0265     6.7195     4.6589     10.7618    0.127     
2416.40003 6.8884     2.037      6.7885     9.8772     9.0174     6.7285     4.7353     10.8389    0.13      
2416.60003 6.9159     2.0291     6.8159     9.8327     8.9884     6.7285     4.7898     10.8692    0.13      
2416.80003 6.9468     2.0101     6.7177     9.7351     8.918      6.7169     4.6378     10.8712    0.13      
2417.00003 6.9836     2.009      6.7184     9.626      8.8708     6.7156     4.8264     10.9018    0.13      
2417.200031 7.0079     2.017      6.7539     9.6136     8.8839     6.6797     4.8959     10.8948    0.129     
2417.400031 7.0186     2.0421     6.8306     9.6752     8.9398     6.6561     5.0502     10.8049    0.13      
2417.600031 7.034      2.072      6.9257     9.7361     8.9955     6.6185     5.1174     10.6992    0.129     
2417.800031 7.0458     2.0586     6.9099     9.7669     8.9905     6.5802     4.8044     10.5999    0.127     
2418.000031 7.0563     2.0561     6.8803     9.7188     8.9483     6.5205     4.7051     10.5481    0.127     
2418.200031 7.0946     2.0217     6.8147     9.639      8.8984     6.4462     4.6428     10.4658    0.13      
2418.400031 7.1548     2.0047     6.7723     9.5852     8.8384     6.3843     4.8027     10.392     0.13      
2418.600031 7.2086     2.0054     6.7643     9.611      8.8142     6.3338     4.9898     10.3236    0.13      
2418.800031 7.2317     2.0342     6.8376     9.7256     8.8529     6.2864     5.2958     10.2455    0.134     
2419.000032 7.2465     2.0726     6.9715     9.8651     8.9059     6.2603     5.2356     10.1698    0.134     
2419.200032 7.234      2.0735     6.9835     9.9944     8.9615     6.2435     5.1268     10.1235    0.137     
2419.400032 7.173      2.1141     7.1284     10.1359    9.0558     6.2188     5.3958     10.1135    0.134     
2419.600032 7.1032     2.1384     7.2269     10.2479    9.1495     6.1983     5.0668     10.1513    0.13      
2419.800032 7.0213     2.1254     7.2228     10.2873    9.199      6.1815     4.7868     10.318     0.127     
2420.000032 6.9463     2.0972     7.1662     10.2466    9.1961     6.1448     4.5877     10.5387    0.125     
2420.200032 6.9111     2.0801     7.1173     10.2148    9.1823     6.119      4.4819     10.6644    0.124     
2420.400032 6.8658     2.0613     7.0546     10.1336    9.121      6.0759     4.3635     10.9952    0.124     
2420.600032 6.8714     2.0135     6.8645     9.9697     9.0124     6.0312     4.1809     11.4971    0.12      
2420.800032 6.9093     1.9488     6.6163     9.7315     8.8896     6.0002     4.2846     12.2121    0.12      
2421.000033 6.962      1.9137     6.4758     9.5621     8.8022     5.9769     4.5528     12.9474    0.117     
2421.200033 7.0396     1.9239     6.4394     9.4434     8.7434     5.978      4.7056     13.5979    0.117     
2421.400033 7.1414     1.9194     6.3947     9.3242     8.7019     6.0134     4.6884     14.1068    0.117     
2421.600033 7.2246     1.9093     6.3275     9.261      8.7205     6.0635     5.3016     14.3253    0.117     
2421.800033 7.3057     1.9778     6.5009     9.2229     8.7642     6.16       5.2694     14.4513    0.117     
2422.000033 7.3815     1.9778     6.4978     9.1778     8.7709     6.3045     4.8105     14.7546    0.117     
2422.200033 7.4708     1.9697     6.4644     9.0347     8.7379     6.5111     4.608      15.2739    0.117     
2422.400033 7.6286     1.9112     6.3679     8.877      8.7394     6.8039     4.3842     15.806     0.117     
2422.600033 7.8838     1.7982     6.1435     8.6599     8.7697     7.2295     4.2346     16.5152    0.114     
2422.800033 8.2505     1.6938     5.85       8.4607     8.9057     7.7995     4.714      17.3282    0.114     
2423.000033 8.7198     1.605      5.6591     8.5867     9.3547     8.464      6.6103     17.7772    0.114     
2423.200034 9.2916     1.7127     6.0639     9.1252     10.1047    9.133      10.813     17.4351    0.114     
2423.400034 9.7745     1.8665     6.5202     10.1166    11.0711    9.7526     21.7596    16.2996    0.117     
2423.600034 9.9799     2.2413     7.4831     11.3439    12.0712    10.1631    30.6528    14.7344    0.117     
2423.800034 10.0148    2.5477     8.5174     12.4351    12.7601    10.4251    13.0361    13.1991    0.117     
2424.000034 9.9383     2.578      8.9449     12.9257    12.876     10.6194    6.2115     12.5073    0.115     
2424.200034 9.7193     2.4327     8.9198     13.1529    12.9549    10.6685    8.5573     12.4057    0.117     
2424.400034 9.4348     2.5054     9.8339     13.8603    13.3988    10.5087    14.0907    11.9538    0.117     
2424.600034 9.2151     2.6319     10.3152    14.6995    13.8622    10.2972    7.1022     11.1792    0.117     
2424.800034 8.9551     2.6259     10.1767    14.9477    13.6296    10.0193    5.9855     10.4468    0.117     
2425.000034 8.6124     2.5164     9.6701     15.0803    13.2527    9.5786     6.3922     9.9593     0.117     
2425.200035 8.2709     2.5012     9.5699     15.4657    13.0775    9.0272     5.6461     9.5671     0.117     
2425.400035 7.9915     2.4851     9.5226     15.7764    12.8718    8.4701     4.5042     9.343      0.117     
2425.600035 7.7267     2.3536     8.9742     15.5537    12.4671    8.0097     4.5455     9.3494     0.117     
2425.800035 7.4757     2.2625     8.4996     15.1044    12.0638    7.6113     4.5112     9.5048     0.117     
2426.000035 7.3017     2.1931     8.1694     14.5727    11.7941    7.2533     4.3115     9.66       0.117     
2426.200035 7.1754     2.1285     7.8434     13.9387    11.5881    6.9824     4.2826     9.8673     0.117     
2426.400035 7.1036     2.0753     7.5359     13.3647    11.4511    6.7582     4.4856     10.1434    0.117     
2426.600035 7.0578     2.0391     7.2629     12.9808    11.4106    6.5858     4.5788     10.3884    0.117     
2426.800035 7.0537     2.0262     7.0956     12.5534    11.4346    6.4644     4.7203     10.5417    0.117     
2427.000036 7.0616     2.0214     6.9906     12.1091    11.5706    6.3451     4.6869     10.5915    0.117     
2427.200036 7.0829     2.0196     6.9099     11.7384    11.8698    6.2504     4.8575     10.627     0.117     
2427.400036 7.0938     2.0362     6.8974     11.4129    12.2257    6.1564     4.9568     10.642     0.117     
2427.600036 7.1213     2.0424     6.9118     11.0953    12.4278    6.0795     4.9751     10.6023    0.117     
2427.800036 7.1248     2.0684     6.9816     10.8044    12.5115    5.9899     4.9651     10.5271    0.117     
2428.000036 7.1296     2.0678     6.9948     10.589     12.4322    5.8878     5.1054     10.4188    0.117     
2428.200036 7.1248     2.0855     7.0521     10.3837    12.1576    5.7749     4.9026     10.2649    0.117     
2428.400036 7.1186     2.0776     7.0129     10.2013    11.8218    5.6511     4.7073     10.1656    0.117     
2428.600036 7.109      2.0543     6.9508     10.0082    11.5223    5.5683     4.694      10.1854    0.117     
2428.800036 7.0873     2.0374     6.9258     9.9295     11.2457    5.494      4.7573     10.2854    0.117     
