~Version
 VERS              .         2.0                           : CWLS LOG ASCII STANDARD - VERSION 2.0
 WRAP              .         NO                            : ONE LINE PER DEPTH STEP
 DLM               .         SPACE                         : DELIMITING CHARACTER(SPACE TAB OR COMMA)
~Well Information
#_______________________________________________________________________________
#
#PARAMETER_NAME    .UNIT     VALUE                         : DESCRIPTION
#_______________________________________________________________________________
STRT               .m        2356                          : First reference value
STOP               .m        2578.600111                   : Last reference value
STEP               .m        0.2000001                     : Step increment
NULL               .         -9999                         : Missing value
COMP               .                                       : Company
WELL               .         504                           : Well name
FLD                .                                       : Field
LOC                .                                       : Location
CNTY               .                                       : County
STAT               .                                       : State
CTRY               .                                       : Country
SRVC               .                                       : Service Company
DATE               .                                       : Date
API                .                                       : API number
EREF               .m        139.4                         : 
X                  .m        230550                        : 
Y                  .m        242075                        : 
group              .         Pad5                          : 
Интер-р            .         Зайцев                        : 
Куст               .         5                             : 
Статус             .         Не проверено                  : 
Тип                .         Эксплуатация                  : 
~Parameter Information Block
#_______________________________________________________________________________
#
#PARAMETER_NAME    .UNIT     VALUE                         : DESCRIPTION
#_______________________________________________________________________________
SET                .         LAS1                          : 
REAL_CREATION_DATE .         Ср апр 11 2012-13_17_19       : 
TLFamily_DEPTH     .         Measured Depth                : 
TLFamily_KS        .         Potential Resistivity         : 
TLFamily_KS1       .         Extra Shallow Resistivity     : 
TLFamily_KS2       .         Shallow Resistivity           : 
TLFamily_KS3       .         Medium Resistivity            : 
TLFamily_KS4       .         Deep Resistivity              : 
TLFamily_KS5       .         Extra Deep Resistivity        : 
TLFamily_LLD       .         Lateral Log Resistivity       : 
TLFamily_OKS3      .         Medium Resistivity Inverted   : 
TLFamily_RM        .         Mud Resistivity               : 
group              .         INI                           : 
~Curve Information
#_______________________________________________________________________________
#
#LOGNAME           .UNIT     LOG_ID                        : DESCRIPTION
#_______________________________________________________________________________
DEPTH              .m                                      : Measured Depth 
KS                 .ohm.m                                  : Potential Resistivity 
KS1                .ohm.m                                  : Extra Shallow Resistivity 
KS2                .ohm.m                                  : Shallow Resistivity 
KS3                .ohm.m                                  : Medium Resistivity 
KS4                .ohm.m                                  : Deep Resistivity 
KS5                .ohm.m                                  : Extra Deep Resistivity 
LLD                .ohm.m                                  : Lateral Log Resistivity 
OKS3               .ohm.m                                  : Medium Resistivity Inverted 
RM                 .ohm.m                                  : Mud Resistivity 
~Ascii
# ...
2560.400102 -9999      0          0          0          0          0          -9999      0          0         
2560.600102 -9999      0          0          0          0          0          -9999      0          0         
2560.800102 -9999      0          0          0          0          0          -9999      0          0         
2561.000103 -9999      0          0          0          0          0          -9999      0          0         
2561.200103 -9999      0          0          0          0          0          -9999      0          0         
2561.400103 -9999      0          0          0          0          0          -9999      0          0         
2561.600103 -9999      0          0          0          0          0          -9999      0          0         
2561.800103 -9999      0          0          0          0          0          -9999      0          0         
2562.000103 -9999      0          0          0          0          0          -9999      0          0         
2562.200103 -9999      0          0          0          0          0          -9999      0          0         
2562.400103 -9999      0          0          0          0          0          -9999      0          0         
2562.600103 -9999      0          0          0          0          0          -9999      0          0         
2562.800103 -9999      0          0          0          0          0          -9999      0          0         
2563.000104 -9999      0          0          0          0          0          -9999      0          0         
2563.200104 -9999      0          0          0          0          0          -9999      0          0         
2563.400104 -9999      0          0          0          0          0          -9999      0          0         
2563.600104 -9999      0          0          0          0          0          -9999      0          0         
2563.800104 -9999      0          0          0          0          0          -9999      0          0         
2564.000104 -9999      0          0          0          0          0          -9999      0          0         
2564.200104 -9999      0          0          0          0          0          -9999      0          0         
2564.400104 -9999      0          0          0          0          0          -9999      0          0         
2564.600104 -9999      0          0          0          0          0          -9999      0          0         
2564.800104 -9999      0          0          0          0          0          -9999      0          0         
2565.000104 -9999      0          0          0          0          0          -9999      0          0         
2565.200105 -9999      0          0          0          0          0          -9999      0          0         
2565.400105 -9999      0          0          0          0          0          -9999      0          0         
2565.600105 -9999      0          0          0          0          0          -9999      0          0         
2565.800105 -9999      0          0          0          0          0          -9999      0          0         
2566.000105 -9999      0          0          0          0          0          -9999      0          0         
2566.200105 -9999      0          0          0          0          0          -9999      0          0         
2566.400105 -9999      0          0          0          0          0          -9999      0          0         
2566.600105 -9999      0          0          0          0          0          -9999      0          0         
2566.800105 -9999      0          0          0          0          0          -9999      0          0         
2567.000105 -9999      0          0          0          0          0          -9999      0          0         
2567.200106 -9999      0          0          0          0          0          -9999      0          0         
2567.400106 -9999      0          0          0          0          0          -9999      0          0         
2567.600106 -9999      0          0          0          0          0          -9999      0          0         
2567.800106 -9999      0          0          0          0          0          -9999      0          0         
2568.000106 -9999      0          0          0          0          0          -9999      -9999      0         
2568.200106 -9999      0          0          0          0          0          -9999      -9999      0         
2568.400106 -9999      0          0          0          0          0          -9999      -9999      0         
2568.600106 -9999      0          0          0          0          0          -9999      -9999      0         
2568.800106 -9999      0          0          0          0          0          -9999      -9999      0         
2569.000107 -9999      0          0          0          0          0          -9999      -9999      0         
2569.200107 -9999      0          0          0          0          0          -9999      -9999      0         
2569.400107 -9999      0          0          0          0          0          -9999      -9999      0         
2569.600107 -9999      0          0          0          0          0          -9999      -9999      0         
2569.800107 -9999      0          0          0          0          0          -9999      -9999      0         
2570.000107 -9999      0          0          0          0          0          -9999      -9999      0         
2570.200107 -9999      0          0          0          0          0          -9999      -9999      -9999     
2570.400107 -9999      0          0          0          0          0          -9999      -9999      -9999     
2570.600107 -9999      -9999      0          0          0          0          -9999      -9999      -9999     
2570.800107 -9999      -9999      0          0          0          0          -9999      -9999      -9999     
2571.000108 -9999      -9999      0          0          0          0          -9999      -9999      -9999     
2571.200108 -9999      -9999      -9999      0          0          0          -9999      -9999      -9999     
2571.400108 -9999      -9999      -9999      0          0          0          -9999      -9999      -9999     
2571.600108 -9999      -9999      -9999      0          0          0          -9999      -9999      -9999     
2571.800108 -9999      -9999      -9999      0          0          0          -9999      -9999      -9999     
2572.000108 -9999      -9999      -9999      0          0          0          -9999      -9999      -9999     
2572.200108 -9999      -9999      -9999      0          0          0          -9999      -9999      -9999     
2572.400108 -9999      -9999      -9999      -9999      0          0          -9999      -9999      -9999     
2572.600108 -9999      -9999      -9999      -9999      0          0          -9999      -9999      -9999     
2572.800108 -9999      -9999      -9999      -9999      0          0          -9999      -9999      -9999     
2573.000108 -9999      -9999      -9999      -9999      0          0          -9999      -9999      -9999     
2573.200109 -9999      -9999      -9999      -9999      0          0          -9999      -9999      -9999     
2573.400109 -9999      -9999      -9999      -9999      0          0          -9999      -9999      -9999     
2573.600109 -9999      -9999      -9999      -9999      0          0          -9999      -9999      -9999     
2573.800109 -9999      -9999      -9999      -9999      0          0          -9999      -9999      -9999     
2574.000109 -9999      -9999      -9999      -9999      0          0          -9999      -9999      -9999     
2574.200109 -9999      -9999      -9999      -9999      0          0          -9999      -9999      -9999     
2574.400109 -9999      -9999      -9999      -9999      -9999      0          -9999      -9999      -9999     
2574.600109 -9999      -9999      -9999      -9999      -9999      0          -9999      -9999      -9999     
2574.800109 -9999      -9999      -9999      -9999      -9999      0          -9999      -9999      -9999     
