~Version
 VERS              .         2.0                           : CWLS LOG ASCII STANDARD - VERSION 2.0
 WRAP              .         NO                            : ONE LINE PER DEPTH STEP
 DLM               .         SPACE                         : DELIMITING CHARACTER(SPACE TAB OR COMMA)
~Well Information
#_______________________________________________________________________________
#
#PARAMETER_NAME    .UNIT     VALUE                         : DESCRIPTION
#_______________________________________________________________________________
STRT               .m        2356                          : First reference value
STOP               .m        2578.600111                   : Last reference value
STEP               .m        0.2000001                     : Step increment
NULL               .         -9999                         : Missing value
COMP               .                                       : Company
WELL               .         504                           : Well name
FLD                .                                       : Field
LOC                .                                       : Location
CNTY               .                                       : County
STAT               .                                       : State
CTRY               .                                       : Country
SRVC               .                                       : Service Company
DATE               .                                       : Date
API                .                                       : API number
EREF               .m        139.4                         : 
X                  .m        230550                        : 
Y                  .m        242075                        : 
group              .         Pad5                          : 
Интер-р            .         Зайцев                        : 
Куст               .         5                             : 
Статус             .         Не проверено                  : 
Тип                .         Эксплуатация                  : 
~Parameter Information Block
#_______________________________________________________________________________
#
#PARAMETER_NAME    .UNIT     VALUE                         : DESCRIPTION
#_______________________________________________________________________________
SET                .         LAS1                          : 
REAL_CREATION_DATE .         Ср апр 11 2012-13_17_19       : 
TLFamily_DEPTH     .         Measured Depth                : 
TLFamily_KS        .         Potential Resistivity         : 
TLFamily_KS1       .         Extra Shallow Resistivity     : 
TLFamily_KS2       .         Shallow Resistivity           : 
TLFamily_KS3       .         Medium Resistivity            : 
TLFamily_KS4       .         Deep Resistivity              : 
TLFamily_KS5       .         Extra Deep Resistivity        : 
TLFamily_LLD       .         Lateral Log Resistivity       : 
TLFamily_OKS3      .         Medium Resistivity Inverted   : 
TLFamily_RM        .         Mud Resistivity               : 
group              .         INI                           : 
~Curve Information
#_______________________________________________________________________________
#
#LOGNAME           .UNIT     LOG_ID                        : DESCRIPTION
#_______________________________________________________________________________
DEPTH              .m                                      : Measured Depth 
KS                 .ohm.m                                  : Potential Resistivity 
KS1                .ohm.m                                  : Extra Shallow Resistivity 
KS2                .ohm.m                                  : Shallow Resistivity 
KS3                .ohm.m                                  : Medium Resistivity 
KS4                .ohm.m                                  : Deep Resistivity 
KS5                .ohm.m                                  : Extra Deep Resistivity 
LLD                .ohm.m                                  : Lateral Log Resistivity 
OKS3               .ohm.m                                  : Medium Resistivity Inverted 
RM                 .ohm.m                                  : Mud Resistivity 
~Ascii
# ...
2531.200088 5.2272     1.6801     4.761      5.4203     7.7517     7.7815     3.7305     9.8643     0.117     
2531.400088 5.2347     1.6605     4.9094     5.6377     8.5256     9.4654     4.151      11.1681    0.12      
2531.600088 5.5493     1.4411     4.4472     5.8987     9.9098     12.9417    3.3983     13.2072    0.124     
2531.800088 5.8609     1.309      4.2593     6.4957     12.0312    15.7121    3.1882     15.3717    0.124     
2532.000088 6.2667     1.3475     4.5263     7.417      14.332     18.8204    4.1123     16.5761    0.124     
2532.200088 6.7809     1.5548     5.159      8.4085     15.6859    21.3554    9.8047     16.4113    0.123     
2532.400088 7.1776     1.8086     5.7268     8.9733     15.5917    22.0368    12.7666    15.551     0.127     
2532.600088 7.4254     1.9677     6.0055     9.0609     14.5134    21.417     9.021      14.5484    0.129     
2532.800088 7.5646     2.0288     6.2806     8.8353     13.1709    20.4613    6.4776     13.992     0.129     
2533.000088 7.6405     2.0395     6.633      8.5341     11.8771    18.911     5.2024     13.999     0.124     
2533.200089 7.7047     2.003      6.9038     8.278      10.6133    17.5107    6.744      13.714     0.118     
2533.400089 7.7962     1.9941     7.0365     8.2741     9.6384     16.2951    7.6448     13.0516    0.114     
2533.600089 7.7732     2.0796     7.2753     8.4538     8.9078     15.2259    8.1841     12.2401    0.11      
2533.800089 7.6004     2.1611     7.4556     8.8574     8.4926     14.12      7.866      11.6525    0.11      
2534.000089 7.3376     2.2808     7.8103     9.4217     8.1118     12.9539    7.3919     11.1934    0.112     
2534.200089 7.0692     2.2236     7.7066     9.9458     7.5579     11.7349    4.9588     11.0054    0.114     
2534.400089 6.9066     2.0997     7.3004     9.7511     6.6624     10.4422    3.697      11.3464    0.117     
2534.600089 6.8982     1.7492     6.2166     8.9581     5.7106     8.6705     3.1503     12.1971    0.117     
2534.800089 7.0842     1.5086     5.4047     8.1382     5.0987     8.1089     3.0399     13.3712    0.12      
2535.000089 7.4368     1.3259     4.8178     7.6444     4.8284     7.395      4.4502     14.2832    0.12      
2535.20009 7.9329     1.4329     4.938      7.82       4.9544     7.0055     8.3336     14.4417    0.124     
2535.40009 8.4381     1.6022     5.1265     8.3637     5.3488     6.9056     9.3033     13.978     0.124     
2535.60009 8.7967     1.7055     5.2885     8.9089     5.8765     6.9087     10.125     13.2917    0.127     
2535.80009 9.0138     1.9354     5.976      9.4767     6.5969     6.9327     13.8099    12.4682    0.125     
2536.00009 9.1191     2.0833     6.6829     10.0583    7.5816     7.0212     10.8456    11.6742    0.12      
2536.20009 9.1206     2.15       7.2669     10.4899    8.8931     7.1734     9.7022     10.9266    0.114     
2536.40009 8.9307     2.1941     7.7854     11.0876    10.4008    7.3163     11.2073    10.2165    0.113     
2536.60009 8.582      2.4521     8.8927     11.9437    12.0478    7.5256     17.8091    9.384      0.112     
2536.80009 8.2853     2.6573     9.6701     12.5025    13.1651    7.872      7.9401     9.1732     0.114     
2537.000091 8.0774     2.3303     8.5733     12.3193    13.5905    8.2716     4.0326     9.8301     0.117     
2537.200091 7.9156     1.9941     7.5871     12.0364    14.0757    8.8337     5.6729     11.0878    0.117     
2537.400091 7.8625     1.8979     7.4536     12.5188    15.3897    9.6242     8.5481     12.0491    0.124     
2537.600091 7.8128     2.0147     7.7839     13.5325    17.089     10.756     10.1029    12.6112    0.124     
2537.800091 7.6616     2.2052     8.1666     14.7931    19.0735    12.1149    8.8664     13.0502    0.124     
2538.000091 7.3728     2.342      8.463      16.1656    21.6104    13.0275    8.0561     13.8708    0.129     
2538.200091 6.96       2.4427     9.0285     17.426     23.6567    13.3925    6.4073     14.913     0.126     
2538.400091 6.6278     2.5513     9.5569     17.538     23.3699    13.1248    4.1603     14.8387    0.124     
2538.600091 6.4099     2.329      8.7422     16.0081    20.3802    12.1062    3.4645     14.1384    0.12      
2538.800091 6.289      2.0438     7.6777     13.7139    16.7495    10.3333    3.4945     13.3234    0.115     
2539.000092 6.282      1.7509     6.5964     11.6368    13.908     8.6924     4.4647     13.3718    0.11      
2539.200092 6.3731     1.6427     6.1032     10.0724    12.1157    7.4186     4.869      13.6214    0.11      
2539.400092 6.5475     1.6067     5.6749     9.1881     10.9777    6.5738     4.7849     13.6444    0.11      
2539.600092 6.7614     1.6195     5.3839     8.6241     10.0922    6.0952     5.0692     13.6823    0.114     
2539.800092 7.0208     1.6104     5.1621     8.2432     9.3887     5.8588     5.7009     13.8178    0.117     
2540.000092 7.3332     1.6006     5.1328     8.0219     8.914      5.8447     6.6401     13.8786    0.12      
2540.200092 7.7002     1.5952     5.2339     8.0527     8.7452     6.1021     8.5962     13.8863    0.124     
2540.400092 8.0249     1.6269     5.4912     8.4691     8.9656     6.5518     13.0876    13.8863    0.124     
2540.600092 8.3764     1.7914     6.1139     9.1396     9.314      7.0477     11.141     13.884     0.124     
2540.800092 8.7538     1.9371     6.5088     9.6671     9.5454     7.5145     10.1108    13.8735    0.124     
2541.000092 8.9758     2.0775     6.8959     9.8984     9.4661     7.8601     9.5326     13.8735    0.13      
2541.200093 9.0801     2.1218     7.1414     10.1787    9.3989     8.0047     9.2099     13.8657    0.124     
2541.400093 9.1627     2.1852     7.5736     10.5325    9.5555     8.0628     8.2139     13.8735    0.116     
2541.600093 9.1963     2.2264     7.9702     10.9802    9.8945     8.0473     8.4184     13.8786    0.114     
2541.800093 9.2101     2.2356     8.2409     11.3126    10.1648    7.9711     8.4664     13.8798    0.113     
2542.000093 9.2156     2.22       8.2242     11.5885    10.332     7.7727     8.4875     13.8805    0.107     
2542.200093 9.2259     2.2067     8.2059     11.8403    10.4206    7.524      6.7348     13.8735    0.107     
2542.400093 9.2259     2.1966     8.094      11.9766    10.4393    7.2591     6.1346     13.8689    0.107     
2542.600093 9.222      2.1933     7.927      11.9866    10.4008    7.0598     6.7509     13.8617    0.107     
2542.800093 9.2174     2.196      7.8483     11.9449    10.3154    6.8986     7.1309     13.8664    0.107     
2543.000093 9.2136     2.2046     7.6789     12.0022    10.3678    6.8584     7.1411     13.8731    0.107     
2543.200094 9.2259     2.1933     7.5764     12.0398    10.5188    6.9345     7.1596     13.8757    0.107     
2543.400094 9.2259     2.2007     7.5744     12.0526    10.8261    7.1012     9.2213     13.8839    0.107     
2543.600094 9.2259     2.1933     7.5744     12.2676    11.3225    7.3031     9.8994     13.8735    0.107     
2543.800094 9.2259     2.1933     7.5744     12.3843    11.9704    7.5198     10.7229    13.8735    0.107     
2544.000094 9.2259     2.1933     7.5762     12.4264    12.6874    7.7558     10.3553    0          0.107     
2544.200094 9.218      2.1933     7.5789     12.5446    13.403     8.01       8.3041     0          0.107     
2544.400094 9.2101     2.1933     7.5769     12.6227    14.0112    8.3043     7.2747     0          0.107     
2544.600094 9.2239     2.1977     7.587      12.6299    14.6267    8.6056     7.5686     0          0.107     
2544.800094 9.2204     2.1938     7.5762     12.634     15.2163    8.9868     6.6313     0          0.107     
2545.000095 9.2259     2.1933     7.5744     12.6355    15.4433    9.5323     6.1354     0          0.107     
2545.200095 9.2259     2.1933     7.5744     12.6331    15.3534    10.2066    5.7666     0          0.107     
2545.400095 9.2259     2.1933     7.5744     12.628     15.0849    11.0767    6.1304     0          0.107     
2545.600095 9.2193     2.1933     7.5786     12.6227    14.9689    12.2931    7.9816     0          0.107     
