~Version
 VERS              .         2.0                           : CWLS LOG ASCII STANDARD - VERSION 2.0
 WRAP              .         NO                            : ONE LINE PER DEPTH STEP
 DLM               .         SPACE                         : DELIMITING CHARACTER(SPACE TAB OR COMMA)
~Well Information
#_______________________________________________________________________________
#
#PARAMETER_NAME    .UNIT     VALUE                         : DESCRIPTION
#_______________________________________________________________________________
STRT               .m        2356                          : First reference value
STOP               .m        2578.600111                   : Last reference value
STEP               .m        0.2000001                     : Step increment
NULL               .         -9999                         : Missing value
COMP               .                                       : Company
WELL               .         504                           : Well name
FLD                .                                       : Field
LOC                .                                       : Location
CNTY               .                                       : County
STAT               .                                       : State
CTRY               .                                       : Country
SRVC               .                                       : Service Company
DATE               .                                       : Date
API                .                                       : API number
EREF               .m        139.4                         : 
X                  .m        230550                        : 
Y                  .m        242075                        : 
group              .         Pad5                          : 
Интер-р            .         Зайцев                        : 
Куст               .         5                             : 
Статус             .         Не проверено                  : 
Тип                .         Эксплуатация                  : 
~Parameter Information Block
#_______________________________________________________________________________
#
#PARAMETER_NAME    .UNIT     VALUE                         : DESCRIPTION
#_______________________________________________________________________________
SET                .         LAS1                          : 
REAL_CREATION_DATE .         Ср апр 11 2012-13_17_19       : 
TLFamily_DEPTH     .         Measured Depth                : 
TLFamily_KS        .         Potential Resistivity         : 
TLFamily_KS1       .         Extra Shallow Resistivity     : 
TLFamily_KS2       .         Shallow Resistivity           : 
TLFamily_KS3       .         Medium Resistivity            : 
TLFamily_KS4       .         Deep Resistivity              : 
TLFamily_KS5       .         Extra Deep Resistivity        : 
TLFamily_LLD       .         Lateral Log Resistivity       : 
TLFamily_OKS3      .         Medium Resistivity Inverted   : 
TLFamily_RM        .         Mud Resistivity               : 
group              .         INI                           : 
~Curve Information
#_______________________________________________________________________________
#
#LOGNAME           .UNIT     LOG_ID                        : DESCRIPTION
#_______________________________________________________________________________
DEPTH              .m                                      : Measured Depth 
KS                 .ohm.m                                  : Potential Resistivity 
KS1                .ohm.m                                  : Extra Shallow Resistivity 
KS2                .ohm.m                                  : Shallow Resistivity 
KS3                .ohm.m                                  : Medium Resistivity 
KS4                .ohm.m                                  : Deep Resistivity 
KS5                .ohm.m                                  : Extra Deep Resistivity 
LLD                .ohm.m                                  : Lateral Log Resistivity 
OKS3               .ohm.m                                  : Medium Resistivity Inverted 
RM                 .ohm.m                                  : Mud Resistivity 
~Ascii
2356.0000000 0          0          0.0508     0          0          0          -9999      0.0142     0.104     
2356.2     0          0          0.0508     0          0          0          -9999      0.0142     0.103     
2356.4     0          0          0.0508     0          0          0          -9999      0.0142     0.1       
2356.6     0          0          0.0508     0          0          0          -9999      0.0142     0.1       
2356.8     0          0          0.0508     0          0          0.3595     -9999      0.0142     0.104     
2357.000001 0          0          0.0508     0          0          0.4026     -9999      0.0142     0.104     
2357.200001 0          0          0.0508     0          0          0.4026     -9999      0.0142     0.101     
2357.400001 0          0          0.0508     0          0          0.3905     -9999      0.0142     0.1       
2357.600001 0          0          0.0508     0          0          0.3896     -9999      0.0252     0.103     
2357.800001 0          0          0.0508     0          0          0.3896     -9999      0.027      0.102     
2358.000001 0          0          0.0508     0          0          0.3767     -9999      0.027      0.1       
2358.200001 0          0          0.0508     0          0          0.3767     -9999      0.027      0.103     
2358.400001 0          0          0.0508     0          0          0.3767     -9999      0.027      0.101     
2358.600001 0          0          0.0508     0          0          0.401      -9999      0.027      0.103     
2358.800001 0          0          0.0508     0          0          0.4156     -9999      0.027      0.104     
2359.000002 0          0          0.0508     0          0          0.3797     -9999      0.027      0.106     
2359.200002 0          0          0.0508     0          0          0.4008     -9999      0.0327     0.097     
2359.400002 0          0          0.0534     0          0          0.3909     -9999      4.0079     0.094     
2359.600002 0          0          0.0528     0          0          0.3802     -9999      15.1828    0.1       
2359.800002 0.0526     0          0.0508     0          0          0.3767     -9999      24.9759    0.107     
2360.000002 1.5589     0          0.0508     0          0          0.407      -9999      26.8975    0.107     
2360.200002 3.2147     0.324      0.0508     0          0          0.3791     -9999      23.7742    0.11      
2360.400002 4.3843     0.8188     0.0508     0          0          0.3767     -9999      21.4583    0.11      
2360.600002 5.2661     1.1503     0.1018     0          0          0.3767     -9999      19.7006    0.112     
2360.800002 5.9525     1.384      1.4675     0          0          0.3767     -9999      18.3475    0.11      
2361.000002 6.4836     1.5745     3.0644     0          0          0.3767     -9999      17.2534    0.11      
2361.200003 6.8827     1.6997     4.1358     0          0          0.3767     -9999      16.3424    0.11      
2361.400003 7.209      1.7916     4.9191     0          0          0.3767     -9999      15.6562    0.11      
2361.600003 7.5193     1.8268     5.4353     0          0          0.3767     -9999      15.2056    0.111     
2361.800003 7.8007     1.8535     5.8186     0.013      0          0.3767     -9999      14.8866    0.11      
2362.000003 8.026      1.8763     6.1043     1.9479     0          0.3767     -9999      14.477     0.114     
2362.200003 8.1342     2.0425     6.7076     4.5052     0          0.3767     -9999      13.7834    0.116     
2362.400003 8.1556     2.2482     7.4499     6.5849     0          0.3767     -9999      13.1698    0.117     
2362.600003 8.0814     2.328      7.7733     8.2009     0          0.3767     -9999      12.9465    0.117     
2362.800003 7.9672     2.2865     7.8444     9.3008     0          0.3767     -9999      13.0343    0.117     
2363.000003 7.9065     2.2016     7.8165     10.0075    0          0.3767     -9999      13.2025    0.117     
2363.200004 7.8913     2.1361     7.7481     10.4669    0          0.3767     5.0912     13.2703    0.117     
2363.400004 7.9335     2.0915     7.6017     10.7564    0          0.3767     5.5003     13.2152    0.117     
2363.600004 8.001      2.0545     7.3608     11.0208    0          0.3767     5.4301     13.1588    0.117     
2363.800004 8.0174     2.0817     7.4258     11.4101    0.0052     0.3767     5.6954     13.2369    0.117     
2364.000004 7.9974     2.1548     7.6192     11.8324    2.0584     0.3767     5.8304     13.2075    0.117     
2364.200004 8.0096     2.1475     7.5975     12.0239    4.5627     0.3767     6.3595     12.9805    0.117     
2364.400004 8.0323     2.1439     7.5617     11.9566    6.2646     0.3767     6.2447     12.9571    0.118     
2364.600004 8.0315     2.0807     7.3418     11.7511    7.534      0.3767     5.5484     12.9831    0.117     
2364.800004 8.0821     2.0802     7.3633     11.5163    8.4998     0.3767     5.2907     13.0439    0.117     
2365.000005 8.1244     2.0574     7.2637     11.4552    9.3154     0.3767     6.0161     13.0863    0.117     
2365.200005 8.1006     2.1118     7.4143     11.5499    10.0051    0.3767     5.5439     13.1123    0.12      
2365.400005 8.1359     2.1892     7.6002     11.6322    10.4788    0.3767     6.7193     13.2011    0.12      
2365.600005 8.1596     2.1098     7.2867     11.5419    10.6808    0.3767     6.329      13.4399    0.124     
2365.800005 8.1837     2.0893     7.3415     11.4329    10.8678    0.3767     5.4542     13.7819    0.124     
2366.000005 8.2207     2.0855     7.3305     11.4576    11.1088    0.3641     5.9005     14.1411    0.124     
2366.200005 8.2656     2.0855     7.3461     11.5019    11.2673    0.3637     5.9708     14.4439    0.124     
2366.400005 8.3196     2.0861     7.3322     11.5322    11.3932    0.3637     6.1436     14.776     0.124     
2366.600005 8.3816     2.1034     7.345      11.4269    11.3941    0.3637     6.3046     15.1297    0.124     
2366.800005 8.4233     2.0866     7.2823     11.4365    11.3728    0.3731     6.4336     15.5748    0.123     
2367.000006 8.4584     2.1218     7.4038     11.4519    11.3708    0.3767     6.3766     15.8608    0.124     
2367.200006 8.4986     2.1349     7.4162     11.4189    11.3421    0.3767     6.6664     16.1194    0.124     
2367.400006 8.6133     2.09       7.2896     11.2128    11.1715    0.3767     6.671      16.5527    0.127     
2367.600006 8.7082     1.9723     6.945      10.9778    11.0976    0.3767     5.5357     16.9134    0.124     
2367.800006 8.8685     1.9886     7.0702     10.9342    11.2242    0.372      5.45       16.8429    0.127     
2368.000006 9.0629     2.0101     7.1276     11.1165    11.5079    0.3765     7.2222     16.6318    0.127     
2368.200006 9.2429     2.0312     7.1403     11.2451    11.781     1.167      7.1068     16.5898    0.127     
2368.400006 9.4773     2.0195     7.077      11.2996    12.0413    2.7291     6.9764     16.8818    0.13      
2368.600006 9.7518     1.9256     6.8719     11.3689    12.3958    4.1321     6.5009     17.2206    0.13      
2368.800006 10.1266    1.9225     6.9962     11.5923    13.0587    5.4958     6.4485     17.6127    0.13      
2369.000006 10.5314    1.9019     7.1035     12.1889    14.1159    6.8719     7.7699     17.6871    0.13      
2369.200007 10.8478    2.0631     7.7038     13.1924    15.4358    8.2353     8.8894     17.2386    0.13      
2369.400007 10.9764    2.3847     8.769      14.8542    17.0717    9.8424     17.3331    15.8133    0.13      
2369.600007 10.8618    2.7403     9.9844     16.4165    18.4491    10.2793    43.5142    14.3829    0.13      
2369.800007 10.5108    3.0105     11.031     17.6313    19.2663    10.8116    45.7595    13.0619    0.13      
2370.000007 10.0654    3.001      11.1496    17.8803    19.0089    10.9898    11.3434    12.3132    0.13      
2370.200007 9.5859     2.7955     10.8596    17.4222    18.1627    10.8098    6.632      12.0773    0.13      
2370.400007 9.1958     2.6217     10.6035    16.9034    17.3496    10.4339    6.0799     12.2135    0.13      
