~Version
 VERS              .         2.0                           : CWLS LOG ASCII STANDARD - VERSION 2.0
 WRAP              .         NO                            : ONE LINE PER DEPTH STEP
 DLM               .         SPACE                         : DELIMITING CHARACTER(SPACE TAB OR COMMA)
~Well Information
#_______________________________________________________________________________
#
#PARAMETER_NAME    .UNIT     VALUE                         : DESCRIPTION
#_______________________________________________________________________________
STRT               .m        2356                          : First reference value
STOP               .m        2578.600111                   : Last reference value
STEP               .m        0.2000001                     : Step increment
NULL               .         -9999                         : Missing value
COMP               .                                       : Company
WELL               .         504                           : Well name
FLD                .                                       : Field
LOC                .                                       : Location
CNTY               .                                       : County
STAT               .                                       : State
CTRY               .                                       : Country
SRVC               .                                       : Service Company
DATE               .                                       : Date
API                .                                       : API number
EREF               .m        139.4                         : 
X                  .m        230550                        : 
Y                  .m        242075                        : 
group              .         Pad5                          : 
Интер-р            .         Зайцев                        : 
Куст               .         5                             : 
Статус             .         Не проверено                  : 
Тип                .         Эксплуатация                  : 
~Parameter Information Block
#_______________________________________________________________________________
#
#PARAMETER_NAME    .UNIT     VALUE                         : DESCRIPTION
#_______________________________________________________________________________
SET                .         LAS1                          : 
REAL_CREATION_DATE .         Ср апр 11 2012-13_17_19       : 
TLFamily_DEPTH     .         Measured Depth                : 
TLFamily_KS        .         Potential Resistivity         : 
TLFamily_KS1       .         Extra Shallow Resistivity     : 
TLFamily_KS2       .         Shallow Resistivity           : 
TLFamily_KS3       .         Medium Resistivity            : 
TLFamily_KS4       .         Deep Resistivity              : 
TLFamily_KS5       .         Extra Deep Resistivity        : 
TLFamily_LLD       .         Lateral Log Resistivity       : 
TLFamily_OKS3      .         Medium Resistivity Inverted   : 
TLFamily_RM        .         Mud Resistivity               : 
group              .         INI                           : 
~Curve Information
#_______________________________________________________________________________
#
#LOGNAME           .UNIT     LOG_ID                        : DESCRIPTION
#_______________________________________________________________________________
DEPTH              .m                                      : Measured Depth 
KS                 .ohm.m                                  : Potential Resistivity 
KS1                .ohm.m                                  : Extra Shallow Resistivity 
KS2                .ohm.m                                  : Shallow Resistivity 
KS3                .ohm.m                                  : Medium Resistivity 
KS4                .ohm.m                                  : Deep Resistivity 
KS5                .ohm.m                                  : Extra Deep Resistivity 
LLD                .ohm.m                                  : Lateral Log Resistivity 
OKS3               .ohm.m                                  : Medium Resistivity Inverted 
RM                 .ohm.m                                  : Mud Resistivity 
~Ascii
# ...
2516.60008 9.3977     2.3579     9.0384     16.1661    21.9249    26.5394    9.3048     12.3613    0.114     
2516.80008 9.2799     2.4053     9.2535     16.2076    21.2283    25.4064    8.0804     11.5007    0.114     
2517.00008 9.0855     2.4128     9.2599     16.0746    20.2922    24.0078    8.5085     10.6044    0.114     
2517.200081 8.8701     2.4451     9.3468     15.824     19.3313    22.2621    6.8538     9.8196     0.117     
2517.400081 8.6657     2.3751     9.0449     15.3963    18.2474    20.5168    6.3173     9.2796     0.12      
2517.600081 8.4588     2.3169     8.8294     14.9663    17.0894    18.8105    6.093      9.0699     0.12      
2517.800081 8.2856     2.2574     8.6106     14.886     16.2528    17.274     6.1599     9.1283     0.124     
2518.000081 8.0385     2.2294     8.4695     14.952     15.823     16.0706    7.145      9.3581     0.127     
2518.200081 7.7449     2.3089     8.6821     15.2239    15.7302    14.9901    7.8458     9.513      0.124     
2518.400081 7.3892     2.4255     8.887      15.5507    15.7213    13.9021    6.2822     9.5325     0.127     
2518.600081 7.1121     2.4739     8.7833     15.0351    14.8769    12.8279    3.9236     9.6537     0.13      
2518.800081 6.8751     2.1593     7.6833     13.8281    13.5262    11.5663    3.7691     10.255     0.13      
2519.000081 6.7272     1.998      7.1606     12.3666    12.169     10.2814    3.8529     11.1013    0.124     
2519.200082 6.6825     1.8321     6.5314     11.2546    11.1949    9.279      3.7304     12.1709    0.12      
2519.400082 6.6935     1.7487     6.0626     10.1966    10.3496    8.6994     3.6312     13.4989    0.117     
2519.600082 6.8401     1.6472     5.4686     9.1728     9.7331     8.4357     3.3232     15.3182    0.114     
2519.800082 7.1452     1.4812     4.833      8.209      9.4177     8.4713     3.2287     18.014     0.114     
2520.000082 7.6097     1.3093     4.3488     7.5993     9.5206     8.6267     4.0769     21.6401    0.113     
2520.200082 8.21       1.2148     4.1892     7.4857     10.1043    8.9807     9.0661     24.3928    0.114     
2520.400082 8.9961     1.3513     4.5063     7.7562     10.8798    9.4649     13.3627    25.3501    0.117     
2520.600082 9.7875     1.5425     4.8931     8.1116     11.5469    9.821      13.5231    25.1476    0.12      
2520.800082 10.4079    1.7319     5.3173     8.39       12.0965    10.0697    13.4009    25.091     0.126     
2521.000083 10.911     1.8761     5.8211     8.6515     12.5832    10.3366    13.2593    25.5564    0.127     
2521.200083 11.2951    1.9912     6.487      8.9765     13.0357    10.6524    12.7503    26.6173    0.126     
2521.400083 11.5995    2.0889     7.1522     9.3506     13.4358    11.0966    11.952     27.6955    0.129     
2521.600083 11.8274    2.1499     7.6425     9.8264     13.8372    11.7655    11.6582    28.7211    0.134     
2521.800083 12.0426    2.207      8.0832     10.4194    14.3369    12.6214    10.7863    29.6131    0.129     
2522.000083 12.3112    2.2106     8.3065     11.0255    14.8948    13.6179    9.8486     31.9364    0.124     
2522.200083 12.6437    2.11       8.1031     11.6262    15.4374    14.8364    10.909     34.4112    0.12      
2522.400083 12.9847    2.0748     8.101      12.5053    16.0747    16.4652    12.7457    35.5058    0.117     
2522.600083 13.4174    2.0909     8.2039     13.6322    17.0631    17.9775    11.4697    36.0668    0.116     
2522.800083 13.9452    2.037      8.1339     14.4474    18.0029    18.5375    13.233     36.2999    0.114     
2523.000084 14.6984    1.8997     7.7012     14.189     17.4922    19.0016    30.7306    33.3172    0.111     
2523.200084 15.7448    1.5828     6.5766     12.767     15.4827    19.9794    46.6363    26.401     0.11      
2523.400084 16.441     1.3933     5.9988     12.8181    15.1345    21.0262    53.6282    21.7379    0.109     
2523.600084 16.3587    1.9199     7.9971     15.3853    18.028     21.8191    95.7395    20.913     0.113     
2523.800084 16.0485    2.379      10.1315    19.1649    21.4953    21.8211    74.7599    20.3609    0.124     
2524.000084 16.5263    2.5958     11.4863    18.5925    19.6337    24.0237    34.2684    15.6372    0.124     
2524.200084 16.8952    1.2091     5.7621     16.8217    18.0186    25.9489    48.5651    11.6569    0.106     
2524.400084 16.4501    2.0973     9.537      18.8042    21.1643    27.5827    53.4782    10.4184    0.112     
2524.600084 15.3448    2.792      12.7441    26.4441    30.0167    29.3249    51.3399    11.4721    0.121     
2524.800084 14.5064    3.1823     15.0156    31.2914    35.6253    33.9226    17.6508    11.3336    0.134     
2525.000084 13.6598    3.2437     15.5405    34.85      39.7209    35.602     14.6092    10.8584    0.124     
2525.200085 12.4587    3.2209     15.1362    37.1892    42.1853    35.7735    10.5558    10.2738    0.122     
2525.400085 11.7183    3.0931     14.3294    36.8718    42.7736    35.3963    10.9258    9.8922     0.117     
2525.600085 10.7537    3.069      14.0529    37.2308    45.2634    34.1966    21.2605    9.5026     0.115     
2525.800085 9.7882     3.4321     15.5158    38.1531    47.8939    32.6439    11.6076    8.7514     0.114     
2526.000085 8.8512     3.2338     14.4519    37.6401    48.2444    30.8248    7.2862     7.8928     0.114     
2526.200085 8.0736     3.0281     13.5242    34.8641    46.0902    28.2916    5.8048     7.0818     0.114     
2526.400085 7.4417     2.7711     12.2751    30.7396    43.4922    24.7164    4.726      6.4846     0.114     
2526.600085 6.9249     2.5575     11.0541    26.6723    40.1297    21.5276    4.1686     5.9865     0.114     
2526.800085 6.4756     2.2911     9.5544     23.4123    36.9508    18.4565    3.9128     5.5902     0.114     
2527.000085 6.0919     2.2293     8.9268     20.5105    33.9516    15.7932    3.8621     5.3085     0.12      
2527.200086 5.7917     2.0922     7.9895     18.109     31.2432    13.5248    3.3672     5.1726     0.117     
2527.400086 5.5818     1.9357     7.1272     15.7568    27.4352    11.8062    3.5108     5.0577     0.12      
2527.600086 5.3996     1.8601     6.5396     13.9059    23.8514    10.1453    3.6643     4.9686     0.124     
2527.800086 5.2131     1.8773     6.2406     12.4751    21.2045    8.7993     3.6954     4.8214     0.124     
2528.000086 5.0774     1.844      5.7984     10.9793    18.6307    7.7733     3.0198     4.7325     0.125     
2528.200086 4.9003     1.6809     5.171      9.3379     15.5506    6.984      2.8735     4.8501     0.124     
2528.400086 4.7768     1.5902     4.9022     8.0554     12.652     6.1078     3.15       5.0216     0.125     
2528.600086 4.7221     1.5792     4.7612     7.3582     11.2451    5.7786     3.3141     5.0574     0.127     
2528.800086 4.6602     1.5661     4.5694     6.711      9.9923     5.472      3.258      5.0424     0.13      
2529.000087 4.6398     1.5394     4.2993     6.0717     8.824      5.1733     3.0859     5.1503     0.126     
2529.200087 4.6288     1.4345     3.9907     5.5193     7.8876     4.9159     2.7667     5.3294     0.12      
2529.400087 4.658      1.3918     3.9235     5.1909     7.3259     4.7742     3.0328     5.7099     0.117     
2529.600087 4.7288     1.3501     3.8406     5.0914     7.1714     4.7214     3.057      6.3323     0.114     
2529.800087 4.7776     1.4067     3.9838     5.1525     7.263      4.7352     3.4827     6.9844     0.114     
2530.000087 4.917      1.4852     4.1286     5.1348     7.1947     4.8458     4.1221     7.3605     0.11      
2530.200087 5.1036     1.415      3.8568     4.9007     6.8745     5.0215     3.5883     7.6035     0.11      
2530.400087 5.2269     1.439      3.9013     4.8011     6.7462     5.1904     4.1014     7.8445     0.11      
2530.600087 5.3098     1.524      4.1207     4.9112     6.7782     5.4778     5.1867     7.9865     0.114     
2530.800087 5.3397     1.6719     4.4844     5.0535     6.8706     6.0106     5.3846     8.1376     0.114     
2531.000088 5.3175     1.6992     4.628      5.2027     7.1701     6.7467     4.2182     8.8022     0.117     
