~Version
 VERS              .         2.0                           : CWLS LOG ASCII STANDARD - VERSION 2.0
 WRAP              .         NO                            : ONE LINE PER DEPTH STEP
 DLM               .         SPACE                         : DELIMITING CHARACTER(SPACE TAB OR COMMA)
~Well Information
#_______________________________________________________________________________
#
#PARAMETER_NAME    .UNIT     VALUE                         : DESCRIPTION
#_______________________________________________________________________________
STRT               .m        2356                          : First reference value
STOP               .m        2578.600111                   : Last reference value
STEP               .m        0.2000001                     : Step increment
NULL               .         -9999                         : Missing value
COMP               .                                       : Company
WELL               .         504                           : Well name
FLD                .                                       : Field
LOC                .                                       : Location
CNTY               .                                       : County
STAT               .                                       : State
CTRY               .                                       : Country
SRVC               .                                       : Service Company
DATE               .                                       : Date
API                .                                       : API number
EREF               .m        139.4                         : 
X                  .m        230550                        : 
Y                  .m        242075                        : 
group              .         Pad5                          : 
Интер-р            .         Зайцев                        : 
Куст               .         5                             : 
Статус             .         Не проверено                  : 
Тип                .         Эксплуатация                  : 
~Parameter Information Block
#_______________________________________________________________________________
#
#PARAMETER_NAME    .UNIT     VALUE                         : DESCRIPTION
#_______________________________________________________________________________
SET                .         LAS1                          : 
REAL_CREATION_DATE .         Ср апр 11 2012-13_17_19       : 
TLFamily_DEPTH     .         Measured Depth                : 
TLFamily_KS        .         Potential Resistivity         : 
TLFamily_KS1       .         Extra Shallow Resistivity     : 
TLFamily_KS2       .         Shallow Resistivity           : 
TLFamily_KS3       .         Medium Resistivity            : 
TLFamily_KS4       .         Deep Resistivity              : 
TLFamily_KS5       .         Extra Deep Resistivity        : 
TLFamily_LLD       .         Lateral Log Resistivity       : 
TLFamily_OKS3      .         Medium Resistivity Inverted   : 
TLFamily_RM        .         Mud Resistivity               : 
group              .         INI                           : 
~Curve Information
#_______________________________________________________________________________
#
#LOGNAME           .UNIT     LOG_ID                        : DESCRIPTION
#_______________________________________________________________________________
DEPTH              .m                                      : Measured Depth 
KS                 .ohm.m                                  : Potential Resistivity 
KS1                .ohm.m                                  : Extra Shallow Resistivity 
KS2                .ohm.m                                  : Shallow Resistivity 
KS3                .ohm.m                                  : Medium Resistivity 
KS4                .ohm.m                                  : Deep Resistivity 
KS5                .ohm.m                                  : Extra Deep Resistivity 
LLD                .ohm.m                                  : Lateral Log Resistivity 
OKS3               .ohm.m                                  : Medium Resistivity Inverted 
RM                 .ohm.m                                  : Mud Resistivity 
~Ascii
# ...
2458.200051 14.3184    2.7535     11.6078    25.0204    37.3943    24.0792    18.5124    19.4147    0.117     
2458.400051 14.1293    2.8351     11.8988    25.4421    37.78      24.8805    18.3637    18.9476    0.117     
2458.600051 13.936     2.8127     11.8569    25.483     37.732     25.5877    15.4335    18.6729    0.114     
2458.800051 13.7232    2.746      11.721     25.3226    37.5647    26.3064    11.8371    18.5549    0.114     
2459.000052 13.4626    2.7622     11.8089    25.5057    37.9195    26.9458    12.6679    18.2219    0.117     
2459.200052 13.1676    2.8504     12.1754    26.0317    38.5668    27.4534    15.9734    17.5643    0.117     
2459.400052 12.8164    2.9387     12.4239    26.4947    38.9545    27.6966    17.7736    16.7914    0.117     
2459.600052 12.463     2.9514     12.3517    26.2167    38.1928    27.5841    14.8224    16.4438    0.117     
2459.800052 12.1425    2.7874     11.6884    25.1633    36.3408    27.1487    9.8537     16.738     0.117     
2460.000052 11.9305    2.5964     10.944     23.6563    34.0944    26.5046    7.6984     17.6345    0.117     
2460.200052 11.8213    2.4128     10.2566    22.3234    32.2886    25.976     6.8235     18.7145    0.117     
2460.400052 11.8175    2.3427     9.8945     21.4622    31.2912    25.7706    7.648      19.6399    0.117     
2460.600052 11.8542    2.3444     9.7071     21.1273    31.0087    25.916     8.9312     20.0994    0.117     
2460.800052 11.8952    2.4086     9.7435     21.0301    31.0309    26.301     11.0545    20.1803    0.117     
2461.000053 11.89      2.4775     9.8158     21.043     31.0429    26.7098    12.1387    20.1021    0.117     
2461.200053 11.8317    2.5339     9.91       20.9911    30.9204    26.7408    12.1676    20.0994    0.117     
2461.400053 11.7465    2.572      10.0681    20.628     30.2535    26.4091    11.0863    20.2407    0.117     
2461.600053 11.7062    2.4914     9.7792     19.8024    29.0525    25.8713    10.0218    20.8189    0.117     
2461.800053 11.7225    2.3659     9.4089     18.5216    27.485     25.3276    7.5277     21.9901    0.117     
2462.000053 11.8479    2.2287     8.9502     17.4215    26.3122    24.6439    7.2181     23.5966    0.117     
2462.200053 12.0989    2.1766     8.7413     16.839     25.5807    24.5158    9.0551     25.0422    0.117     
2462.400053 12.3467    2.168      8.6319     16.8138    25.3801    24.5981    8.713      25.5456    0.117     
2462.600053 12.6028    2.2465     8.795      17.0367    25.3502    24.6651    10.2609    25.6763    0.117     
2462.800053 12.7986    2.2741     8.8269     17.2173    25.2345    24.8839    12.9853    25.6742    0.117     
2463.000053 12.9919    2.2909     8.8593     17.2473    25.0245    24.9658    11.5668    25.8133    0.117     
2463.200054 13.1781    2.258      8.8197     17.2609    24.9106    25.1563    11.0426    25.9976    0.117     
2463.400054 13.366     2.2592     8.906      17.2712    24.8361    25.2399    11.2949    26.0189    0.117     
2463.600054 13.6125    2.2836     9.0663     17.3998    24.8853    25.4717    12.3975    25.7864    0.117     
2463.800054 13.8754    2.3162     9.2978     17.5573    24.8661    25.8506    13.0662    25.2016    0.117     
2464.000054 14.1383    2.3345     9.4069     17.7693    24.9242    26.2944    13.8786    24.6177    0.117     
2464.200054 14.338     2.358      9.5512     18.1937    25.262     26.7211    13.723     24.0887    0.117     
2464.400054 14.4772    2.4477     9.9642     18.9495    25.8868    27.1406    15.4433    23.2197    0.117     
2464.600054 14.6164    2.5374     10.3721    19.7547    26.5445    27.6242    20.8323    22.2505    0.117     
2464.800054 14.6729    2.5467     10.4949    20.4268    27.0761    28.1389    15.5069    21.3979    0.117     
2465.000054 14.6682    2.5921     10.7734    21.1665    27.8421    28.5688    15.5573    20.5886    0.117     
2465.200055 14.6167    2.6631     11.1504    22.0341    28.8268    29.1014    17.0121    19.6778    0.117     
2465.400055 14.4659    2.7204     11.4449    23.1049    30.0281    29.6934    17.1518    18.6536    0.117     
2465.600055 14.2053    2.8765     12.0821    24.4093    31.3918    30.059     20.3109    17.3402    0.117     
2465.800055 13.972     3.0002     12.6565    25.5639    32.3776    30.1663    26.4756    16.1967    0.117     
2466.000055 13.7116    3.0655     12.9612    26.2593    32.7739    30.0453    18.1529    15.3363    0.117     
2466.200055 13.2781    3.0239     12.8761    26.6833    32.7857    29.4472    11.8852    14.3293    0.117     
2466.400055 12.8713    2.9513     12.5862    26.3305    32.2091    28.5004    9.9503     13.5493    0.117     
2466.600055 12.5298    2.7951     12.0109    25.7094    31.4937    27.4746    8.2772     13.0095    0.117     
2466.800055 12.2104    2.6989     11.7168    25.2747    31.2611    26.4978    10.5696    12.4905    0.117     
2467.000056 12.056     2.6985     11.685     25.2457    31.4764    26.0727    11.9334    12.1892    0.117     
2467.200056 11.561     2.768      11.7132    25.5458    32.4604    25.0845    10.7479    11.2949    0.117     
2467.400056 11.1837    2.8277     11.7473    25.5712    32.7839    24.4205    9.6323     10.7097    0.117     
2467.600056 10.7699    2.8163     11.5666    25.395     32.9381    23.6611    9.0663     10.0228    0.117     
2467.800056 10.3848    2.7924     11.4687    24.8823    32.7229    22.8152    7.9705     9.4339     0.117     
2468.000056 9.9713     2.7391     11.203     24.2804    32.3672    21.8077    8.0353     9.0198     0.117     
2468.200056 9.5239     2.7289     11.0903    23.4789    31.7899    20.6984    7.3236     8.706      0.117     
2468.400056 9.0624     2.6949     10.834     22.6535    31.1152    19.3963    7.0079     8.4015     0.117     
2468.600056 8.6646     2.6632     10.5607    21.4197    29.9056    18.1466    5.2183     8.1606     0.117     
2468.800056 8.3097     2.4857     9.7464     19.8812    28.1212    16.9785    4.2644     8.2243     0.119     
2469.000057 7.9824     2.321      9.0099     18.246     25.8259    15.9237    3.9183     8.7761     0.12      
2469.200057 7.6841     2.1515     8.3714     17.0996    24.2556    15.0294    5.0519     9.4222     0.12      
2469.400057 7.467      2.1659     8.2872     16.3879    23.36      14.2459    5.4755     9.8114     0.12      
2469.600057 7.3522     2.2059     8.1492     15.6599    22.2672    13.5266    4.4143     9.9437     0.12      
2469.800057 7.2662     2.116      7.5014     14.5247    20.6207    12.8889    3.7631     10.1862    0.12      
2470.000057 7.2078     2.001      6.7976     13.1408    18.8452    12.2448    3.8079     10.7436    0.12      
2470.200057 7.1604     1.8915     6.454      12.1127    17.5334    11.6201    4.8137     11.362     0.124     
2470.400057 7.1761     1.8927     6.5635     11.7195    16.9687    11.3796    4.3961     11.6266    0.124     
2470.600057 7.2591     1.8957     6.4335     11.1469    16.0923    11.0505    4.7387     12.1571    0.124     
2470.800057 7.3258     1.878      6.3198     10.5562    15.1991    10.9109    5.0107     12.6215    0.124     
2471.000057 7.4212     1.8917     6.1761     9.9599     14.4253    10.8747    4.5639     13.0951    0.124     
2471.200058 7.5414     1.8698     6.0245     9.4183     13.7836    11.0895    4.4523     13.7098    0.127     
2471.400058 7.6955     1.8349     5.9477     9.0633     13.3918    11.6029    4.6601     14.6945    0.127     
2471.600058 7.8784     1.7639     5.914      9.1373     13.542     12.4336    5.848      16.0669    0.127     
2471.800058 8.1076     1.7919     6.1127     9.4533     14.2081    13.3292    10.3731    17.1177    0.127     
2472.000058 8.3179     1.8698     6.5392     9.9903     14.9513    14.1689    6.8966     16.7356    0.127     
2472.200058 8.5737     2.0862     7.0616     10.4189    15.0892    14.8717    6.6064     15.676     0.127     
2472.400058 8.8243     2.1178     7.0621     10.3878    14.1427    15.5622    6.1547     14.0373    0.127     
2472.600058 8.9188     2.0825     7.0776     10.4237    13.7271    15.9848    6.1779     13.5278    0.127     
