~Version
 VERS              .         2.0                           : CWLS LOG ASCII STANDARD - VERSION 2.0
 WRAP              .         NO                            : ONE LINE PER DEPTH STEP
 DLM               .         SPACE                         : DELIMITING CHARACTER(SPACE TAB OR COMMA)
~Well Information
#_______________________________________________________________________________
#
#PARAMETER_NAME    .UNIT     VALUE                         : DESCRIPTION
#_______________________________________________________________________________
STRT               .m        2356                          : First reference value
STOP               .m        2578.600111                   : Last reference value
STEP               .m        0.2000001                     : Step increment
NULL               .         -9999                         : Missing value
COMP               .                                       : Company
WELL               .         504                           : Well name
FLD                .                                       : Field
LOC                .                                       : Location
CNTY               .                                       : County
STAT               .                                       : State
CTRY               .                                       : Country
SRVC               .                                       : Service Company
DATE               .                                       : Date
API                .                                       : API number
EREF               .m        139.4                         : 
X                  .m        230550                        : 
Y                  .m        242075                        : 
group              .         Pad5                          : 
Интер-р            .         Зайцев                        : 
Куст               .         5                             : 
Статус             .         Не проверено                  : 
Тип                .         Эксплуатация                  : 
~Parameter Information Block
#_______________________________________________________________________________
#
#PARAMETER_NAME    .UNIT     VALUE                         : DESCRIPTION
#_______________________________________________________________________________
SET                .         LAS1                          : 
REAL_CREATION_DATE .         Ср апр 11 2012-13_17_19       : 
TLFamily_DEPTH     .         Measured Depth                : 
TLFamily_KS        .         Potential Resistivity         : 
TLFamily_KS1       .         Extra Shallow Resistivity     : 
TLFamily_KS2       .         Shallow Resistivity           : 
TLFamily_KS3       .         Medium Resistivity            : 
TLFamily_KS4       .         Deep Resistivity              : 
TLFamily_KS5       .         Extra Deep Resistivity        : 
TLFamily_LLD       .         Lateral Log Resistivity       : 
TLFamily_OKS3      .         Medium Resistivity Inverted   : 
TLFamily_RM        .         Mud Resistivity               : 
group              .         INI                           : 
~Curve Information
#_______________________________________________________________________________
#
#LOGNAME           .UNIT     LOG_ID                        : DESCRIPTION
#_______________________________________________________________________________
DEPTH              .m                                      : Measured Depth 
KS                 .ohm.m                                  : Potential Resistivity 
KS1                .ohm.m                                  : Extra Shallow Resistivity 
KS2                .ohm.m                                  : Shallow Resistivity 
KS3                .ohm.m                                  : Medium Resistivity 
KS4                .ohm.m                                  : Deep Resistivity 
KS5                .ohm.m                                  : Extra Deep Resistivity 
LLD                .ohm.m                                  : Lateral Log Resistivity 
OKS3               .ohm.m                                  : Medium Resistivity Inverted 
RM                 .ohm.m                                  : Mud Resistivity 
~Ascii
# ...
2370.600007 8.8996     2.4753     10.1388    16.4853    16.6657    10.0518    5.7452     12.504     0.131     
2370.800007 8.6953     2.3913     9.6394     16.1349    16.0108    9.704      5.7136     12.9015    0.134     
2371.000007 8.5541     2.2992     8.9968     15.8494    15.4662    9.3787     5.4828     13.3316    0.137     
2371.200008 8.4864     2.2229     8.4721     15.5419    14.9523    9.1233     5.4985     13.6881    0.137     
2371.400008 8.4676     2.1646     8.0948     15.3248    14.525     8.9427     5.6509     13.8782    0.137     
2371.600008 8.4783     2.1529     7.903      15.0983    14.2089    8.8147     6.1481     13.971     0.137     
2371.800008 8.5092     2.1529     7.7722     14.7677    14.0797    8.7355     6.2045     14.0071    0.135     
2372.000008 8.5406     2.1512     7.6709     14.2621    14.0376    8.7129     6.2303     14.0961    0.134     
2372.200008 8.5816     2.1394     7.6268     13.679     13.9897    8.6989     6.0752     14.1518    0.132     
2372.400008 8.6623     2.1292     7.585      13.1795    13.996     8.737      6.3137     14.2398    0.13      
2372.600008 8.7582     2.099      7.5298     12.7918    14.0282    8.8286     6.162      14.361     0.127     
2372.800008 8.8889     2.0936     7.5178     12.5369    14.18      8.9681     6.4059     14.56      0.127     
2373.000009 9.0467     2.0674     7.4511     12.4677    14.5932    9.1412     6.4084     14.7528    0.127     
2373.200009 9.1233     2.1055     7.6547     12.8034    15.4071    9.2434     7.5763     14.4037    0.124     
2373.400009 9.1813     2.3241     8.3442     13.2944    16.192     9.294      13.2278    13.4934    0.124     
2373.600009 9.1947     2.3684     8.432      13.5745    16.4569    9.3097     9.4397     12.5385    0.124     
2373.800009 9.057      2.3832     8.4913     13.5631    16.2705    9.2072     7.9604     11.9584    0.124     
2374.000009 8.8768     2.4088     8.6974     13.6261    16.0025    9.03       7.0304     11.7395    0.124     
2374.200009 8.684      2.3869     8.781      13.6811    15.6188    8.9176     6.2982     11.7873    0.122     
2374.400009 8.5247     2.3412     8.7734     13.6536    15.173     8.8608     5.731      12.0528    0.12      
2374.600009 8.3967     2.2385     8.4037     13.4936    14.5767    8.8419     5.8475     12.417     0.117     
2374.800009 8.4006     2.2021     8.2502     13.4229    14.4118    8.8597     5.6926     12.5549    0.117     
2375.00001 8.409      2.1282     7.9409     13.4105    14.2392    8.8974     5.9708     12.7977    0.117     
2375.20001 8.3728     2.1888     8.0103     13.6756    14.3284    8.9238     8.607      12.702     0.117     
2375.40001 8.3406     2.28       8.2187     14.0888    14.4792    8.9195     7.4376     12.3649    0.117     
2375.60001 8.2585     2.3123     8.2198     14.1922    14.3759    8.878      6.4559     12.0972    0.12      
2375.80001 8.1351     2.2983     8.1668     13.8714    14.0961    8.732      5.9441     12.0253    0.12      
2376.00001 8.0465     2.2286     7.9731     13.3617    13.7295    8.602      5.2055     12.1777    0.12      
2376.20001 7.9633     2.1614     7.8181     12.8639    13.426     8.4986     5.5026     12.4334    0.124     
2376.40001 7.9419     2.1345     7.7499     12.4905    13.2715    8.444      5.775      12.6637    0.124     
2376.60001 7.9403     2.1178     7.6051     12.2246    13.1609    8.4396     5.6214     12.8796    0.124     
2376.80001 7.9557     2.1086     7.4905     12.0267    13.0446    8.4719     5.7789     13.1021    0.124     
2377.00001 7.992      2.0953     7.3692     11.9003    13.0039    8.5548     5.799      13.3437    0.125     
2377.200011 8.0377     2.0922     7.315      11.8467    13.0335    8.7048     6.1149     13.4873    0.127     
2377.400011 8.083      2.1076     7.3532     11.9323    13.1721    8.8828     6.4726     13.5021    0.13      
2377.600011 8.1353     2.1408     7.4456     11.9606    13.2546    9.1041     6.4982     13.4665    0.13      
2377.800011 8.1674     2.144      7.435      11.872     13.1268    9.2808     6.2794     13.5229    0.125     
2378.000011 8.1833     2.1446     7.4624     11.7491    12.9053    9.4205     6.1529     13.6028    0.13      
2378.200011 8.2037     2.1475     7.509      11.6505    12.7049    9.4764     6.2947     13.7175    0.13      
2378.400011 8.2333     2.1446     7.5379     11.5937    12.5044    9.5156     6.3107     13.8101    0.127     
2378.600011 8.2753     2.1351     7.5288     11.5835    12.3804    9.4813     6.1912     13.9355    0.13      
2378.800011 8.3164     2.1394     7.5555     11.5994    12.3173    9.4309     6.4105     14.0232    0.13      
2379.000011 8.394      2.1325     7.5275     11.5932    12.2398    9.392      6.4004     14.0283    0.13      
2379.200012 8.436      2.1102     7.4632     11.657     12.2473    9.3346     7.1761     13.8655    0.13      
2379.400012 8.4399     2.1999     7.7596     11.9081    12.4288    9.2643     8.0922     13.5497    0.13      
2379.600012 8.4671     2.2573     7.9092     12.1305    12.5139    9.2259     6.2011     13.3671    0.13      
2379.800012 8.4676     2.1902     7.7148     12.0672    12.36      9.225      5.977      13.4013    0.13      
2380.000012 8.4699     2.1431     7.6648     11.9948    12.2298    9.2057     6.9021     13.4604    0.134     
2380.200012 8.5063     2.1573     7.7608     12.0664    12.2351    9.2189     6.8155     13.4561    0.134     
2380.400012 8.5434     2.1631     7.7914     12.1492    12.2718    9.2683     6.4909     13.5321    0.134     
2380.600012 8.5624     2.1483     7.7138     12.266     12.3655    9.3329     7.7768     13.5284    0.137     
2380.800012 8.5693     2.1938     7.8739     12.4732    12.5638    9.4316     7.1534     13.3744    0.137     
2381.000013 8.5711     2.2155     7.9452     12.7163    12.8268    9.5216     6.9089     13.2734    0.135     
2381.200013 8.5192     2.2416     8.0503     12.9334    13.0662    9.602      7.601      13.1461    0.132     
2381.400013 8.4635     2.2648     8.164      13.1743    13.3091    9.6314     7.172      12.9028    0.13      
2381.600013 8.3935     2.3045     8.2868     13.2693    13.4038    9.6052     6.0222     12.7173    0.127     
2381.800013 8.3088     2.2512     8.1686     13.1398    13.3152    9.4832     5.9925     12.7019    0.127     
2382.000013 8.27       2.2028     8.0099     12.8276    13.0395    9.2855     6.0217     12.6935    0.124     
2382.200013 8.2574     2.1418     7.7802     12.5879    12.787     9.0487     6.4881     12.6248    0.123     
2382.400013 8.2462     2.1313     7.7401     12.4529    12.6862    8.8458     6.607      12.4994    0.12      
2382.600013 8.2165     2.1525     7.7171     12.4867    12.7329    8.6737     6.4094     12.449     0.12      
2382.800013 8.1786     2.1764     7.7487     12.5245    12.7766    8.5714     6.0761     12.449     0.12      
2383.000014 8.1476     2.1508     7.6753     12.5285    12.798     8.4949     6.1797     12.4476    0.12      
2383.200014 8.1473     2.1394     7.6262     12.3881    12.7554    8.455      5.9753     12.5522    0.117     
2383.400014 8.1517     2.1032     7.5187     12.308     12.758     8.4166     6.7409     12.6182    0.117     
2383.600014 8.1728     2.1147     7.5488     12.2822    12.7975    8.4307     6.8582     12.5628    0.117     
2383.800014 8.1741     2.14       7.5903     12.3175    12.9088    8.4396     6.9033     12.3103    0.117     
2384.000014 8.1517     2.173      7.6571     12.3173    12.961     8.4589     6.5296     11.9754    0.117     
2384.200014 8.1393     2.177      7.6378     12.2624    12.95      8.471      6.0802     11.7028    0.117     
2384.400014 8.094      2.1453     7.6121     12.2097    12.9434    8.4773     6.5375     11.5844    0.116     
2384.600014 8.0561     2.1529     7.688      12.2442    13.0652    8.4914     6.6281     11.4977    0.117     
2384.800014 8.018      2.1663     7.7649     12.3143    13.2058    8.5187     6.4351     11.3301    0.117     
2385.000014 7.9596     2.1921     7.8136     12.3666    13.3094    8.542      5.3997     11.1459    0.117     
