~Version
 VERS              .         2.0                           : CWLS LOG ASCII STANDARD - VERSION 2.0
 WRAP              .         NO                            : ONE LINE PER DEPTH STEP
 DLM               .         SPACE                         : DELIMITING CHARACTER(SPACE TAB OR COMMA)
~Well Information
#_______________________________________________________________________________
#
#PARAMETER_NAME    .UNIT     VALUE                         : DESCRIPTION
#_______________________________________________________________________________
STRT               .m        2348.4                        : First reference value
STOP               .m        2559.000105                   : Last reference value
STEP               .m        0.2000001                     : Step increment
NULL               .         -9999                         : Missing value
COMP               .                                       : Company
WELL               .         504                           : Well name
FLD                .                                       : Field
LOC                .                                       : Location
CNTY               .                                       : County
STAT               .                                       : State
CTRY               .                                       : Country
SRVC               .                                       : Service Company
DATE               .                                       : Date
API                .                                       : API number
EREF               .m        139.4                         : 
X                  .m        230550                        : 
Y                  .m        242075                        : 
group              .         Pad5                          : 
Интер-р            .         Зайцев                        : 
Куст               .         5                             : 
Статус             .         Не проверено                  : 
Тип                .         Эксплуатация                  : 
~Parameter Information Block
#_______________________________________________________________________________
#
#PARAMETER_NAME    .UNIT     VALUE                         : DESCRIPTION
#_______________________________________________________________________________
SET                .         LAS3                          : 
REAL_CREATION_DATE .         Ср апр 11 2012-13_17_19       : 
TLFamily_DEPTH     .         Measured Depth                : 
TLFamily_GR        .         Gamma Ray                     : 
TLFamily_TNPH      .         Neutron Porosity              : 
group              .         INI                           : 
~Curve Information
#_______________________________________________________________________________
#
#LOGNAME           .UNIT     LOG_ID                        : DESCRIPTION
#_______________________________________________________________________________
DEPTH              .m                                      : Measured Depth 
GR                 .gAPI                                   :  
TNPH               .v/v                                    : Neutron Porosity 
~Ascii
# ...
2490.200071 50.31      0.137     
2490.400071 55.75      0.136     
2490.600071 55.66      0.135     
2490.800071 55.25      0.156     
2491.000071 51.99      0.149     
2491.200071 38.76      0.132     
2491.400072 28.88      0.124     
2491.600072 25.44      0.118     
2491.800072 28.29      0.089     
2492.000072 33.19      0.078     
2492.200072 30.99      0.276     
2492.400072 33.15      0.206     
2492.600072 35.77      0.171     
2492.800072 33.37      0.171     
2493.000072 33.2       0.179     
2493.200072 39.32      0.165     
2493.400073 32.87      0.17      
2493.600073 29.48      0.148     
2493.800073 32.17      0.121     
2494.000073 29.92      0.123     
2494.200073 32.93      0.11      
2494.400073 29.89      0.125     
2494.600073 29.61      0.168     
2494.800073 31.09      0.157     
2495.000073 35.15      0.188     
2495.200073 40.08      0.2       
2495.400073 38.44      0.205     
2495.600074 35.78      0.185     
2495.800074 34.57      0.172     
2496.000074 33.27      0.163     
2496.200074 35.95      0.164     
2496.400074 32.86      0.155     
2496.600074 36.93      0.167     
2496.800074 37.87      0.182     
2497.000074 38.03      0.181     
2497.200074 35.18      0.202     
2497.400075 34.63      0.224     
2497.600075 32.89      0.212     
2497.800075 34.17      0.172     
2498.000075 33.55      0.169     
2498.200075 32.99      0.146     
2498.400075 30.18      0.115     
2498.600075 34.49      0.085     
2498.800075 33.18      0.074     
2499.000075 33.58      0.07      
2499.200075 24.67      0.067     
2499.400076 30.24      0.074     
2499.600076 31.91      0.105     
2499.800076 31.93      0.14      
2500.000076 33.15      0.169     
2500.200076 34.2       0.168     
2500.400076 33.17      0.163     
2500.600076 35.24      0.164     
2500.800076 32.86      0.165     
2501.000076 33.45      0.162     
2501.200076 40.86      0.189     
2501.400077 41.7       0.197     
2501.600077 42.95      0.174     
2501.800077 44.02      0.174     
2502.000077 48.44      0.179     
2502.200077 47.18      0.176     
2502.400077 48.56      0.174     
2502.600077 52.89      0.216     
2502.800077 56.77      0.225     
2503.000077 56.97      0.214     
2503.200077 62.44      0.171     
2503.400077 65.99      0.168     
2503.600078 69.55      0.173     
2503.800078 66.96      0.168     
2504.000078 61.3       0.153     
2504.200078 55.8       0.175     
2504.400078 50.18      0.171     
2504.600078 39.16      0.152     
2504.800078 37.57      0.147     
2505.000078 40.57      0.149     
2505.200078 53.71      0.164     
2505.400079 56.73      0.186     
2505.600079 70.08      0.199     
2505.800079 82.7       0.206     
2506.000079 91.42      0.21      
2506.200079 96         0.222     
2506.400079 99.39      0.219     
2506.600079 100.98     0.231     
2506.800079 101.39     0.279     
2507.000079 92.84      0.351     
2507.200079 88.59      0.355     
2507.40008 102.51     0.289     
2507.60008 107.9      0.251     
2507.80008 99.05      0.231     
2508.00008 87.1       0.223     
2508.20008 86.68999   0.232     
2508.40008 84.44      0.241     
2508.60008 83.33      0.217     
2508.80008 90.64999   0.2       
2509.00008 86.37      0.171     
2509.20008 77.66      0.168     
2509.400081 71.63      0.183     
2509.600081 73.55      0.182     
2509.800081 79.55      0.168     
2510.000081 81.73      0.181     
2510.200081 84.97      0.197     
2510.400081 85.21      0.203     
2510.600081 89.06      0.183     
2510.800081 88.48      0.186     
2511.000081 92.47      0.183     
2511.200081 90.60001   0.192     
2511.400081 85.31      0.205     
2511.600082 88.2       0.214     
2511.800082 85.76      0.206     
2512.000082 90.03999   0.229     
2512.200082 90.36      0.229     
2512.400082 91.65      0.229     
2512.600082 89.58      0.184     
2512.800082 89.94      0.174     
2513.000082 90.61      0.164     
2513.200082 93.07      0.194     
2513.400083 93.64999   0.194     
2513.600083 87.41      0.201     
2513.800083 85.88      0.214     
2514.000083 94.91      0.21      
2514.200083 94.45      0.211     
2514.400083 86.89      0.195     
2514.600083 86.25      0.214     
2514.800083 83.72      0.256     
2515.000083 67.87      0.271     
2515.200083 70.61      0.299     
2515.400084 86.21001   0.344     
2515.600084 97.15      0.269     
2515.800084 104.86     0.179     
2516.000084 90.3       0.214     
2516.200084 96.5       0.234     
2516.400084 96.79      0.239     
2516.600084 91.25      0.272     
2516.800084 84.56001   0.246     
2517.000084 80.56      0.237     
2517.200084 79.5       0.208     
2517.400085 75.42      0.196     
2517.600085 78.4       0.188     
2517.800085 72.53      0.213     
2518.000085 67.97      0.191     
2518.200085 68.02      0.186     
2518.400085 60.38      0.199     
2518.600085 56.3       0.227     
2518.800085 57.71      0.246     
2519.000085 52.39      0.229     
2519.200085 54.85      0.223     
2519.400085 63.72      0.231     
2519.600086 69.24      0.217     
2519.800086 77.11      0.223     
2520.000086 92.67999   0.231     
2520.200086 102.75     0.257     
2520.400086 101.57     0.282     
2520.600086 101.47     0.235     
2520.800086 107.66     0.235     
2521.000086 106.6      0.23      
2521.200086 105.37     0.226     
2521.400087 94.66      0.248     
2521.600087 94.92      0.231     
2521.800087 94.39      0.218     
2522.000087 92.32001   0.217     
2522.200087 81.46      0.241     
2522.400087 60.99      0.247     
2522.600087 52.1       0.309     
2522.800087 32.47      0.465     
2523.000087 15.63      0.503     
2523.200087 20.35      0.555     
2523.400088 30.28      0.422     
2523.600088 42.66      0.446     
2523.800088 52.25      0.527     
2524.000088 56.25      0.43      
2524.200088 60.88      0.403     
2524.400088 68.88      0.373     
2524.600088 73.24001   0.281     
2524.800088 80.24001   0.241     
2525.000088 85.85      0.241     
2525.200088 87.36      0.267     
2525.400089 86.68      0.295     
2525.600089 85.75      0.266     
2525.800089 85.13      0.191     
2526.000089 80.21      0.153     
2526.200089 75.23      0.15      
2526.400089 62.39      0.166     
2526.600089 67.16      0.173     
2526.800089 73.33      0.171     
2527.000089 72.95999   0.158     
2527.200089 57.49      0.166     
2527.400089 60.02      0.186     
2527.60009 55         0.187     
2527.80009 51.44      0.193     
2528.00009 50.83      0.177     
2528.20009 55.63      0.179     
2528.40009 59.17      0.178     
2528.60009 55.01      0.183     
2528.80009 53.33      0.188     
2529.00009 51.76      0.169     
2529.20009 46.7       0.164     
2529.400091 48.31      0.189     
2529.600091 56.85      0.198     
2529.800091 52.38      0.195     
2530.000091 44.45      0.19      
2530.200091 44.97      0.193     
2530.400091 47.45      0.201     
2530.600091 49.35      0.181     
2530.800091 52.03      0.179     
2531.000091 51.21      0.209     
2531.200091 50.02      0.226     
2531.400092 50.36      0.234     
2531.600092 56.91      0.182     
2531.800092 70.86      0.203     
2532.000092 85.68      0.243     
2532.200092 94.14      0.287     
2532.400092 90.85      0.31      
2532.600092 88.88      0.248     
2532.800092 84.11      0.203     
2533.000092 92.98      0.209     
2533.200092 97.63      0.189     
2533.400093 103.3      0.209     
2533.600093 103.71     0.176     
2533.800093 102.58     0.189     
2534.000093 90.03      0.194     
2534.200093 80.91      0.168     
2534.400093 75.08      0.177     
2534.600093 69.77      0.209     
2534.800093 79.55      0.224     
2535.000093 86.68      0.203     
2535.200093 83.59      0.196     
2535.400093 77.05      0.218     
2535.600094 66.28      0.183     
2535.800094 65.48      0.177     
2536.000094 71.58      0.191     
2536.200094 72.27      0.2       
2536.400094 60.67001   0.166     
2536.600094 51.82      0.159     
2536.800094 62.49      0.162     
2537.000094 69.67      0.193     
2537.200094 86.62      0.225     
