~Version
 VERS              .         2.0                           : CWLS LOG ASCII STANDARD - VERSION 2.0
 WRAP              .         NO                            : ONE LINE PER DEPTH STEP
 DLM               .         SPACE                         : DELIMITING CHARACTER(SPACE TAB OR COMMA)
~Well Information
#_______________________________________________________________________________
#
#PARAMETER_NAME    .UNIT     VALUE                         : DESCRIPTION
#_______________________________________________________________________________
STRT               .m        2356                          : First reference value
STOP               .m        2578.600111                   : Last reference value
STEP               .m        0.2000001                     : Step increment
NULL               .         -9999                         : Missing value
COMP               .                                       : Company
WELL               .         504                           : Well name
FLD                .                                       : Field
LOC                .                                       : Location
CNTY               .                                       : County
STAT               .                                       : State
CTRY               .                                       : Country
SRVC               .                                       : Service Company
DATE               .                                       : Date
API                .                                       : API number
EREF               .m        139.4                         : 
X                  .m        230550                        : 
Y                  .m        242075                        : 
group              .         Pad5                          : 
Интер-р            .         Зайцев                        : 
Куст               .         5                             : 
Статус             .         Не проверено                  : 
Тип                .         Эксплуатация                  : 
~Parameter Information Block
#_______________________________________________________________________________
#
#PARAMETER_NAME    .UNIT     VALUE                         : DESCRIPTION
#_______________________________________________________________________________
SET                .         LAS1                          : 
REAL_CREATION_DATE .         Ср апр 11 2012-13_17_19       : 
TLFamily_DEPTH     .         Measured Depth                : 
TLFamily_KS        .         Potential Resistivity         : 
TLFamily_KS1       .         Extra Shallow Resistivity     : 
TLFamily_KS2       .         Shallow Resistivity           : 
TLFamily_KS3       .         Medium Resistivity            : 
TLFamily_KS4       .         Deep Resistivity              : 
TLFamily_KS5       .         Extra Deep Resistivity        : 
TLFamily_LLD       .         Lateral Log Resistivity       : 
TLFamily_OKS3      .         Medium Resistivity Inverted   : 
TLFamily_RM        .         Mud Resistivity               : 
group              .         INI                           : 
~Curve Information
#_______________________________________________________________________________
#
#LOGNAME           .UNIT     LOG_ID                        : DESCRIPTION
#_______________________________________________________________________________
DEPTH              .m                                      : Measured Depth 
KS                 .ohm.m                                  : Potential Resistivity 
KS1                .ohm.m                                  : Extra Shallow Resistivity 
KS2                .ohm.m                                  : Shallow Resistivity 
KS3                .ohm.m                                  : Medium Resistivity 
KS4                .ohm.m                                  : Deep Resistivity 
KS5                .ohm.m                                  : Extra Deep Resistivity 
LLD                .ohm.m                                  : Lateral Log Resistivity 
OKS3               .ohm.m                                  : Medium Resistivity Inverted 
RM                 .ohm.m                                  : Mud Resistivity 
~Ascii
# ...
2487.400066 6.2382     1.8981     6.2031     8.311      6.6889     4.7501     4.2097     14.0716    0.127     
2487.600066 6.4157     1.9056     6.1741     7.9581     6.3034     4.5075     4.8409     14.2349    0.124     
2487.800066 6.6175     1.6683     5.3752     7.2272     5.6828     4.2956     3.2396     15.0533    0.127     
2488.000066 6.8118     1.5677     5.1396     6.768      5.3478     4.0861     3.3153     16.1853    0.13      
2488.200066 7.0562     1.6348     5.3386     6.8666     5.4007     4.0004     5.0592     16.7454    0.128     
2488.400066 7.3135     1.7405     5.6058     7.0849     5.5181     4.0223     6.8399     17.3348    0.124     
2488.600066 7.5271     1.7971     5.6546     7.2306     5.6371     4.0993     6.4297     18.4064    0.12      
2488.800066 7.7242     1.7715     5.6119     7.3519     5.8051     4.2639     5.7905     19.9093    0.118     
2489.000066 7.9644     1.7341     5.7484     7.5809     6.1556     4.5359     5.6327     21.8324    0.115     
2489.200067 8.3809     1.7202     5.9532     8.0875     6.7998     4.9942     6.1833     23.9761    0.11      
2489.400067 8.6508     1.7488     6.2198     8.7918     7.4881     5.2667     6.7527     25.2487    0.11      
2489.600067 9.0071     1.8622     6.5912     9.3331     7.9179     5.5769     9.3591     25.7223    0.11      
2489.800067 9.396      1.8182     6.4385     9.4564     8.1277     5.9031     9.3658     26.3739    0.11      
2490.000067 9.7932     1.8302     6.5117     9.4898     8.397      6.2517     7.4599     28.19      0.11      
2490.200067 10.2164    1.7506     6.3063     9.6706     8.8325     6.5731     7.0237     30.8853    0.11      
2490.400067 10.6732    1.69       6.2333     9.6912     9.1356     6.883      6.8809     32.731     0.11      
2490.600067 11.1964    1.6031     6.0699     9.7706     9.5521     7.1982     7.0903     33.832     0.109     
2490.800067 11.7503    1.6259     6.186      10.0828    10.0892    7.5138     8.2599     33.8107    0.11      
2491.000068 12.5177    1.9126     7.127      11.2736    11.3061    7.9516     15.2219    31.7295    0.11      
2491.200068 12.8305    2.1296     7.8404     12.4804    12.3712    8.2971     37.6668    30.05      0.111     
2491.400068 12.9518    2.3626     8.738      13.7032    13.4046    8.4754     51.424     28.669     0.112     
2491.600068 13.0491    2.6408     9.8707     14.9823    14.3779    8.6737     58.1358    26.7899    0.11      
2491.800068 13.1262    2.4874     9.7102     15.3108    14.5137    8.7566     25.0145    25.5081    0.11      
2492.000068 13.2668    2.288      9.5057     15.3346    14.2745    8.7515     13.0723    24.0783    0.11      
2492.200068 13.3862    2.2098     9.2983     15.4189    14.346     8.7014     12.2081    23.5789    0.11      
2492.400068 13.5042    2.2096     9.2709     15.7763    14.7719    8.7845     12.6273    23.1441    0.11      
2492.600068 13.6541    2.214      9.2195     16.4393    15.3718    8.9611     14.2971    22.7068    0.114     
2492.800068 13.8139    2.1958     9.1044     17.2028    15.9705    9.3299     15.3813    22.5222    0.11      
2493.000068 13.931     2.2011     9.1448     18.3699    16.9336    9.8351     14.9494    23.1848    0.11      
2493.200069 13.9761    2.2532     9.5261     19.5354    18.1002    10.1518    14.6721    23.9849    0.113     
2493.400069 13.9863    2.2997     9.8825     20.8946    19.5357    10.8096    13.2675    24.2809    0.109     
2493.600069 13.9717    2.4603     10.6327    23.0274    21.9097    11.4385    16.7431    23.7473    0.113     
2493.800069 13.8178    2.7301     11.5052    24.9263    24.4527    11.7676    39.4186    22.6564    0.114     
2494.000069 13.6459    2.8749     11.8655    25.3162    25.9244    11.8606    47.2422    21.3641    0.114     
2494.200069 13.4907    2.6018     10.859     24.1681    25.7995    11.7754    23.7054    20.2184    0.114     
2494.400069 13.3421    2.4112     10.2784    22.7157    25.2845    11.4947    11.2511    19.5616    0.114     
2494.600069 13.2037    2.3279     10.0301    21.9012    25.5676    11.1702    11.5136    19.4395    0.114     
2494.800069 13.1096    2.2968     9.8699     21.3552    26.2535    11.0609    11.9718    19.3811    0.114     
2495.000069 13.0713    2.2062     9.3611     20.7127    27.0654    11.0703    11.8483    19.3871    0.114     
2495.20007 13.0507    2.1561     9.0231     20.0535    27.6691    11.1891    11.268     19.559     0.114     
2495.40007 13.0245    2.1259     8.8723     19.8713    28.6009    11.3179    11.6558    20.1588    0.114     
2495.60007 13.0213    2.1465     8.9078     19.9561    29.4239    11.5861    11.949     20.766     0.112     
2495.80007 13.0427    2.1267     8.8022     20.0541    29.8074    11.7466    12.0711    21.0598    0.11      
2496.00007 13.0387    2.1209     8.8209     20.3196    30.5638    12.0782    13.4659    21.4773    0.114     
2496.20007 13.0492    2.2381     9.1288     20.488     31.2094    12.4206    17.199     21.6001    0.114     
2496.40007 13.0648    2.2322     8.9323     20.3457    31.2884    12.7553    13.2854    21.6282    0.11      
2496.60007 13.0413    2.1839     8.7856     19.8415    30.9501    13.0126    11.9421    21.8644    0.114     
2496.80007 13.0334    2.1852     8.7735     19.6152    30.8616    13.1648    13.1106    21.9977    0.114     
2497.000071 13.1046    2.1095     8.5284     18.7956    30.3132    13.8426    12.675     21.8283    0.114     
2497.200071 13.1829    2.0578     8.2768     18.1601    29.7746    14.3224    11.561     21.3831    0.114     
2497.400071 13.2717    2.0051     8.0839     17.7557    29.5724    15.0584    11.5687    21.2758    0.114     
2497.600071 13.4019    1.9643     7.9721     17.6767    30.2353    16.2839    11.2287    21.7455    0.11      
2497.800071 13.5731    1.9409     7.997      18.0175    31.8838    17.9867    10.5346    23.2394    0.114     
2498.000071 13.6834    1.9139     8          18.4365    33.104     19.0045    12.217     24.3776    0.114     
2498.200071 14.0587    2.0052     8.6365     20.3224    37.42      22.6979    29.319     26.3719    0.11      
2498.400071 14.4854    2.1672     9.2871     21.5688    39.6608    25.5399    47.2708    25.5396    0.114     
2498.600071 14.8346    2.2835     9.6567     22.7869    41.5166    28.2392    101.0949   23.5891    0.109     
2498.800071 14.9462    2.5402     10.5211    24.1043    43.4055    31.0845    87.3567    21.4319    0.108     
2499.000072 14.8044    2.7202     11.0541    25.2087    44.9682    32.6949    162.2575   20.2751    0.11      
2499.200072 14.1017    3.1894     12.8215    27.7123    48.1714    36.5361    50.9155    18.0038    0.11      
2499.400072 13.4981    3.2973     13.9751    28.4777    48.2033    38.5134    17.1125    16.3114    0.112     
2499.600072 13.0266    3.1064     13.407     27.465     45.6108    39.1918    11.3861    14.9777    0.117     
2499.800072 12.5726    2.7893     12.2656    25.4571    41.6734    38.5678    10.5939    13.6738    0.114     
2500.000072 12.1577    2.6246     11.6363    24.0375    38.7955    37.1213    10.1069    12.8038    0.117     
2500.200072 11.7641    2.5249     11.152     23.5951    37.2724    35.8959    10.0138    12.332     0.114     
2500.400072 11.4438    2.4958     10.8255    23.5493    36.0208    34.9761    10.7266    11.9023    0.117     
2500.600072 11.1977    2.4059     10.2636    23.452     34.5789    34.2706    9.6661     11.5292    0.116     
2500.800072 10.9542    2.333      9.8588     23.3404    33.5986    33.6607    9.119      11.3141    0.117     
2501.000072 10.8408    2.3313     9.792      23.257     33.2694    33.3507    9.3063     11.2782    0.117     
2501.200073 10.6144    2.3153     9.5983     23.143     32.9706    32.8088    9.3636     11.2456    0.117     
2501.400073 10.3992    2.3263     9.5283     22.765     32.3739    32.3802    8.8637     11.1532    0.123     
2501.600073 10.1743    2.2873     9.2528     22.2837    31.7671    31.8047    7.9545     11.1271    0.125     
2501.800073 9.9134     2.2741     9.1326     21.6131    31.0827    31.0982    7.6646     11.241     0.124     
