~Version
 VERS              .         2.0                           : CWLS LOG ASCII STANDARD - VERSION 2.0
 WRAP              .         NO                            : ONE LINE PER DEPTH STEP
 DLM               .         SPACE                         : DELIMITING CHARACTER(SPACE TAB OR COMMA)
~Well Information
#_______________________________________________________________________________
#
#PARAMETER_NAME    .UNIT     VALUE                         : DESCRIPTION
#_______________________________________________________________________________
STRT               .m        2356                          : First reference value
STOP               .m        2578.600111                   : Last reference value
STEP               .m        0.2000001                     : Step increment
NULL               .         -9999                         : Missing value
COMP               .                                       : Company
WELL               .         504                           : Well name
FLD                .                                       : Field
LOC                .                                       : Location
CNTY               .                                       : County
STAT               .                                       : State
CTRY               .                                       : Country
SRVC               .                                       : Service Company
DATE               .                                       : Date
API                .                                       : API number
EREF               .m        139.4                         : 
X                  .m        230550                        : 
Y                  .m        242075                        : 
group              .         Pad5                          : 
Интер-р            .         Зайцев                        : 
Куст               .         5                             : 
Статус             .         Не проверено                  : 
Тип                .         Эксплуатация                  : 
~Parameter Information Block
#_______________________________________________________________________________
#
#PARAMETER_NAME    .UNIT     VALUE                         : DESCRIPTION
#_______________________________________________________________________________
SET                .         LAS1                          : 
REAL_CREATION_DATE .         Ср апр 11 2012-13_17_19       : 
TLFamily_DEPTH     .         Measured Depth                : 
TLFamily_KS        .         Potential Resistivity         : 
TLFamily_KS1       .         Extra Shallow Resistivity     : 
TLFamily_KS2       .         Shallow Resistivity           : 
TLFamily_KS3       .         Medium Resistivity            : 
TLFamily_KS4       .         Deep Resistivity              : 
TLFamily_KS5       .         Extra Deep Resistivity        : 
TLFamily_LLD       .         Lateral Log Resistivity       : 
TLFamily_OKS3      .         Medium Resistivity Inverted   : 
TLFamily_RM        .         Mud Resistivity               : 
group              .         INI                           : 
~Curve Information
#_______________________________________________________________________________
#
#LOGNAME           .UNIT     LOG_ID                        : DESCRIPTION
#_______________________________________________________________________________
DEPTH              .m                                      : Measured Depth 
KS                 .ohm.m                                  : Potential Resistivity 
KS1                .ohm.m                                  : Extra Shallow Resistivity 
KS2                .ohm.m                                  : Shallow Resistivity 
KS3                .ohm.m                                  : Medium Resistivity 
KS4                .ohm.m                                  : Deep Resistivity 
KS5                .ohm.m                                  : Extra Deep Resistivity 
LLD                .ohm.m                                  : Lateral Log Resistivity 
OKS3               .ohm.m                                  : Medium Resistivity Inverted 
RM                 .ohm.m                                  : Mud Resistivity 
~Ascii
# ...
2385.200015 7.9666     2.1765     7.7671     12.2533    13.1957    8.5597     5.99       11.0371    0.117     
2385.400015 7.9779     2.0555     7.378      11.997     13.017     8.6056     7.074      10.8445    0.114     
2385.600015 7.9937     2.0676     7.4119     11.9505    12.9762    8.6544     8.0034     10.5975    0.114     
2385.800015 7.9157     2.2143     7.8155     12.4195    13.3459    8.777      6.785      10.0138    0.117     
2386.000015 7.7501     2.2818     7.9774     12.7691    13.5981    8.7896     7.0991     9.5397     0.117     
2386.200015 7.5845     2.3607     8.1742     12.7102    13.4123    8.7645     4.7111     9.2689     0.117     
2386.400015 7.4558     2.2139     7.7218     12.2861    12.9292    8.7255     4.8277     9.2044     0.114     
2386.600015 7.2902     2.1        7.45       11.8784    12.5628    8.6162     5.3408     9.2225     0.114     
2386.800015 7.2211     2.1064     7.5315     11.6656    12.3883    8.5321     4.9508     9.4121     0.114     
2387.000015 7.1647     2.0323     7.1651     11.532     12.2775    8.5385     5.7724     9.5402     0.114     
2387.200016 7.0951     2.0365     7.1202     11.4346    12.1873    8.5553     5.7352     9.5858     0.114     
2387.400016 7.008      2.1169     7.2081     11.3975    12.1212    8.5162     4.5975     9.7049     0.115     
2387.600016 6.9271     2.0681     6.952      11.2169    11.8819    8.487      5.2034     9.8413     0.117     
2387.800016 6.8098     1.9972     6.7999     10.9707    11.664     8.4078     5.9569     9.8312     0.115     
2388.000016 6.7272     2.0801     6.9839     10.8296    11.4949    8.2527     4.4176     9.8314     0.115     
2388.200016 6.6634     2.0418     6.803      10.4317    11.067     8.1577     4.2632     9.9205     0.116     
2388.400016 6.5718     1.9088     6.3365     9.8555     10.5789    8.0635     5.0352     10.2076    0.114     
2388.600016 6.4878     1.9323     6.4031     9.4953     10.3475    7.9283     4.6332     10.5834    0.114     
2388.800016 6.4817     1.9176     6.3525     9.1671     9.9963     7.9293     4.0398     10.9454    0.114     
2389.000017 6.5037     1.8167     5.8873     8.7023     9.5182     8.0982     3.6112     11.6324    0.114     
2389.200017 6.5899     1.7229     5.5283     8.295      9.3323     8.3282     4.118      12.8946    0.114     
2389.400017 6.7306     1.6027     5.3188     8.1854     9.4551     8.6602     6.0077     13.7105    0.112     
2389.600017 7.0011     1.6735     5.6211     8.3151     9.7852     9.1742     5.945      13.7094    0.115     
2389.800017 7.2381     1.7609     5.6477     8.5339     10.1162    9.7281     6.1386     13.0469    0.114     
2390.000017 7.3547     1.8232     5.701      8.6122     10.2226    9.9914     5.3057     12.9341    0.114     
2390.200017 7.5618     1.814      5.805      8.6742     10.3848    10.5412    7.2578     12.9392    0.114     
2390.400017 7.6893     1.8561     5.8453     8.8108     10.7084    11.1302    6.1922     12.944     0.117     
2390.600017 7.895      1.9768     6.3609     8.9609     10.9973    11.988     4.6636     12.7993    0.117     
2390.800017 8.2036     1.846      5.9923     9.0433     11.3875    12.8787    7.6765     13.2283    0.116     
2391.000018 8.5318     1.7137     5.9889     9.0842     11.8768    13.7628    19.3747    13.6011    0.115     
2391.200018 8.8581     1.7898     6.5099     9.5547     12.7188    14.627     31.4448    13.3584    0.114     
2391.400018 9.0877     2.0913     7.3861     10.6952    13.885     16.0231    31.1574    12.3967    0.117     
2391.600018 8.7964     2.5377     8.6709     12.7975    15.3422    16.2484    26.8289    11.3156    0.117     
2391.800018 8.1086     3.0998     10.4851    14.6199    16.2655    15.7858    10.6488    9.992      0.117     
2392.000018 7.6992     2.8541     10.2827    14.0116    15.1929    15.065     3.5761     9.239      0.117     
2392.200018 7.3296     2.271      8.7251     12.5521    13.1545    13.9675    3.6497     9.0575     0.117     
2392.400018 6.9797     2.0787     8.3501     12.1307    12.0007    12.4727    5.3039     9.0299     0.115     
2392.600018 6.8453     2.0825     8.1302     11.9821    11.3774    11.4824    3.7725     9.2239     0.117     
2392.800018 6.7274     1.8926     7.2048     11.6727    10.8109    10.858     4.7905     9.3008     0.117     
2393.000018 6.6308     1.9459     7.0429     11.4443    10.4515    10.2435    5.1951     9.2403     0.117     
2393.200019 6.6489     1.9364     6.5809     11.3706    10.0495    9.7566     3.6461     9.2981     0.117     
2393.400019 6.6714     1.818      6.0127     10.8549    9.4838     9.5        3.7427     9.898      0.117     
2393.600019 6.709      1.7056     5.7608     10.5133    9.4925     9.2534     4.3935     10.4938    0.114     
2393.800019 6.8351     1.7992     6.0082     10.4266    9.8171     9.1472     5.6853     10.7608    0.114     
2394.000019 6.9807     1.8558     6.0926     10.2973    10.0742    9.1508     5.3683     10.7806    0.115     
2394.200019 7.0558     1.877      6.054      10.0664    10.3552    9.1264     6.4474     10.5808    0.116     
2394.400019 7.0458     2.0138     6.3916     9.9869     10.6353    8.9917     6.8299     10.3248    0.117     
2394.600019 7.0287     2.1162     6.6741     9.8563     10.7132    8.8106     5.008      10.2281    0.119     
2394.800019 6.9465     1.9956     6.5112     9.5794     10.5837    8.5611     5.5355     9.9645     0.117     
2395.000019 6.8959     2.0209     6.6624     9.3277     10.4993    8.2535     6.1243     9.5665     0.117     
2395.20002 6.8549     2.0138     6.6246     9.167      10.4937    8.0442     4.8134     9.3968     0.117     
2395.40002 6.808      1.9368     6.3384     8.8023     10.4329    7.9631     3.944      9.9636     0.117     
2395.60002 6.8026     1.7665     5.9403     8.5856     10.5044    8.0009     3.795      10.71      0.114     
2395.80002 6.8571     1.7339     5.9957     8.7897     10.8606    8.1841     4.4685     11.2206    0.117     
2396.00002 6.9882     1.8163     6.2291     9.2235     11.2905    8.4859     5.8003     11.4988    0.117     
2396.20002 7.1359     1.856      6.2173     9.5977     11.5897    8.8405     5.4571     11.7752    0.117     
2396.40002 7.2572     1.8886     6.1969     9.9024     11.8419    9.2419     5.5089     12.1661    0.117     
2396.60002 7.3797     1.9236     6.3158     10.2301    12.2596    9.5678     5.845      12.4301    0.117     
2396.80002 7.4855     2.0126     6.7347     10.6715    12.7207    9.7469     7.1951     12.238     0.117     
2397.000021 7.5644     2.1168     7.0571     10.8853    12.6779    9.7498     6.7983     11.7789    0.117     
2397.200021 7.5595     2.1495     7.1573     10.6808    12.2492    9.5953     5.9623     11.4217    0.117     
2397.400021 7.5444     2.1245     7.1801     10.398     11.8559    9.2947     5.6152     11.2297    0.117     
2397.600021 7.5291     2.0943     7.1842     10.1538    11.5261    9.0235     5.4425     11.1583    0.117     
2397.800021 7.5039     2.0759     7.2243     10.1075    11.3524    8.8745     5.4262     11.1658    0.117     
2398.000021 7.4789     2.0969     7.2923     10.2355    11.2419    8.81       5.6003     11.1709    0.119     
2398.200021 7.4724     2.0957     7.2586     10.3322    11.1228    8.7722     5.5333     11.169     0.117     
2398.400021 7.457      2.0778     7.1853     10.4145    10.9638    8.752      5.272      11.1517    0.117     
2398.600021 7.4566     2.0725     7.1593     10.5133    10.8073    8.7624     5.4781     11.0895    0.117     
2398.800021 7.4566     2.0755     7.1432     10.6398    10.6496    8.8038     5.5397     11.0395    0.118     
2399.000022 7.4417     2.0789     7.1285     10.8005    10.5191    8.8591     5.4165     11.0052    0.12      
2399.200022 7.4297     2.099      7.1892     10.8664    10.3843    8.9242     5.5509     10.9893    0.12      
2399.400022 7.413      2.0887     7.181      10.8862    10.2035    9.0677     5.3858     10.9332    0.12      
2399.600022 7.4051     2.0855     7.1737     10.8277    10.031     9.1813     5.3603     10.8974    0.121     
