~Version
 VERS              .         2.0                           : CWLS LOG ASCII STANDARD - VERSION 2.0
 WRAP              .         NO                            : ONE LINE PER DEPTH STEP
 DLM               .         SPACE                         : DELIMITING CHARACTER(SPACE TAB OR COMMA)
~Well Information
#_______________________________________________________________________________
#
#PARAMETER_NAME    .UNIT     VALUE                         : DESCRIPTION
#_______________________________________________________________________________
STRT               .m        2356                          : First reference value
STOP               .m        2578.600111                   : Last reference value
STEP               .m        0.2000001                     : Step increment
NULL               .         -9999                         : Missing value
COMP               .                                       : Company
WELL               .         504                           : Well name
FLD                .                                       : Field
LOC                .                                       : Location
CNTY               .                                       : County
STAT               .                                       : State
CTRY               .                                       : Country
SRVC               .                                       : Service Company
DATE               .                                       : Date
API                .                                       : API number
EREF               .m        139.4                         : 
X                  .m        230550                        : 
Y                  .m        242075                        : 
group              .         Pad5                          : 
Интер-р            .         Зайцев                        : 
Куст               .         5                             : 
Статус             .         Не проверено                  : 
Тип                .         Эксплуатация                  : 
~Parameter Information Block
#_______________________________________________________________________________
#
#PARAMETER_NAME    .UNIT     VALUE                         : DESCRIPTION
#_______________________________________________________________________________
SET                .         LAS1                          : 
REAL_CREATION_DATE .         Ср апр 11 2012-13_17_19       : 
TLFamily_DEPTH     .         Measured Depth                : 
TLFamily_KS        .         Potential Resistivity         : 
TLFamily_KS1       .         Extra Shallow Resistivity     : 
TLFamily_KS2       .         Shallow Resistivity           : 
TLFamily_KS3       .         Medium Resistivity            : 
TLFamily_KS4       .         Deep Resistivity              : 
TLFamily_KS5       .         Extra Deep Resistivity        : 
TLFamily_LLD       .         Lateral Log Resistivity       : 
TLFamily_OKS3      .         Medium Resistivity Inverted   : 
TLFamily_RM        .         Mud Resistivity               : 
group              .         INI                           : 
~Curve Information
#_______________________________________________________________________________
#
#LOGNAME           .UNIT     LOG_ID                        : DESCRIPTION
#_______________________________________________________________________________
DEPTH              .m                                      : Measured Depth 
KS                 .ohm.m                                  : Potential Resistivity 
KS1                .ohm.m                                  : Extra Shallow Resistivity 
KS2                .ohm.m                                  : Shallow Resistivity 
KS3                .ohm.m                                  : Medium Resistivity 
KS4                .ohm.m                                  : Deep Resistivity 
KS5                .ohm.m                                  : Extra Deep Resistivity 
LLD                .ohm.m                                  : Lateral Log Resistivity 
OKS3               .ohm.m                                  : Medium Resistivity Inverted 
RM                 .ohm.m                                  : Mud Resistivity 
~Ascii
# ...
2545.800095 9.2238     2.1933     7.5744     12.6227    15.0193    13.9012    9.6616     0          0.107     
2546.000095 9.2175     2.1933     7.5858     12.6248    15.0603    15.9087    11.215     0          0.107     
2546.200095 9.2232     2.204      7.5822     12.6347    15.1237    18.3677    12.0021    0          0         
2546.400095 -9999      2.1933     7.5744     12.6284    15.228     20.9862    16.6285    0          0         
2546.600095 -9999      1.3183     7.5744     12.6355    15.2171    24.1519    17.0268    0          0         
2546.800095 -9999      0          7.5744     12.6276    15.2234    28.0922    11.5051    0          0         
2547.000096 -9999      0          7.5746     12.6227    15.2171    32.7976    11.8413    0          0         
2547.200096 -9999      0          4.5447     12.6242    15.2223    37.7694    12.3723    0          0         
2547.400096 -9999      0          0          12.6227    15.227     42.1146    28.4803    0          0         
2547.600096 -9999      0          0          12.6306    15.2301    44.9369    170.3092   0          0         
2547.800096 -9999      0          0          12.6355    15.2301    47.6314    254.0891   0          0         
2548.000096 -9999      0          0          12.6355    15.2241    49.481     66.9971    0          0         
2548.200096 -9999      0          0          12.6355    15.2179    49.1082    10.5099    0          0         
2548.400096 -9999      0          0          7.5813     15.2171    46.5993    5.9441     0          0         
2548.600096 -9999      0          0          0          15.2254    43.5712    5.2336     0          0         
2548.800096 -9999      0          0          0          15.2223    39.2308    5.4303     0          0         
2549.000096 -9999      0          0          0          15.2301    33.1799    5.9104     0          0         
2549.200097 -9999      0          0          0          15.2317    28.1875    5.3682     0          0         
2549.400097 -9999      0          0          0          15.2301    25.1511    5.9396     0          0         
2549.600097 -9999      0          0          0          15.2258    21.5581    6.2778     0          0         
2549.800097 -9999      0          0          0          15.2253    17.9757    6.2633     0          0         
2550.000097 -9999      0          0          0          15.2244    16.7915    7.0015     0          0         
2550.200097 -9999      0          0          0          15.2223    16.634     9.0985     0          0         
2550.400097 -9999      0          0          0          9.1381     16.2459    8.9066     0          0         
2550.600097 -9999      0          0          0          0          16.0052    8.1268     0          0         
2550.800097 -9999      0          0          0          0          15.9983    7.8378     0          0         
2551.000097 -9999      0          0          0          0          15.997     8.1318     0          0         
2551.200098 -9999      0          0          0          0          15.997     7.8974     0          0         
2551.400098 -9999      0          0          0          0          15.997     8.0218     0          0         
2551.600098 -9999      0          0          0          0          15.9983    8.2769     0          0         
2551.800098 -9999      0          0          0          0          16.0089    9.5307     0          0         
2552.000098 -9999      0          0          0          0          16.01      10.8052    0          0         
2552.200098 -9999      0          0          0          0          16.001     11.3128    0          0         
2552.400098 -9999      0          0          0          0          16.01      11.0143    0          0         
2552.600098 -9999      0          0          0          0          15.9972    11.8089    0          0         
2552.800098 -9999      0          0          0          0          16.008     9.7995     0          0         
2553.000099 -9999      0          0          0          0          16.0031    9.5881     0          0         
2553.200099 -9999      0          0          0          0          16.01      9.4831     0          0         
2553.400099 -9999      0          0          0          0          16.01      9.5244     0          0         
2553.600099 -9999      0          0          0          0          16.0112    9.6455     0          0         
2553.800099 -9999      0          0          0          0          16.0104    9.7134     0          0         
2554.000099 -9999      0          0          0          0          16.01      9.5211     0          0         
2554.200099 -9999      0          0          0          0          16.01      9.2494     0          0         
2554.400099 -9999      0          0          0          0          16.0018    9.4272     0          0         
2554.600099 -9999      0          0          0          0          16.01      9.194      0          0         
2554.800099 -9999      0          0          0          0          0          8.6971     0          0         
2555.0001  -9999      0          0          0          0          0          9.6888     0          0         
2555.2001  -9999      0          0          0          0          0          9.9479     0          0         
2555.4001  -9999      0          0          0          0          0          9.0021     0          0         
2555.6001  -9999      0          0          0          0          0          7.4962     0          0         
2555.8001  -9999      0          0          0          0          0          7.0595     0          0         
2556.0001  -9999      0          0          0          0          0          6.3445     0          0         
2556.2001  -9999      0          0          0          0          0          6.4308     0          0         
2556.4001  -9999      0          0          0          0          0          7.7909     0          0         
2556.6001  -9999      0          0          0          0          0          9.0403     0          0         
2556.8001  -9999      0          0          0          0          0          8.7936     0          0         
2557.0001  -9999      0          0          0          0          0          7.784      0          0         
2557.200101 -9999      0          0          0          0          0          7.6654     0          0         
2557.400101 -9999      0          0          0          0          0          7.5457     0          0         
2557.600101 -9999      0          0          0          0          0          7.5108     0          0         
2557.800101 -9999      0          0          0          0          0          7.5141     0          0         
2558.000101 -9999      0          0          0          0          0          7.5146     0          0         
2558.200101 -9999      0          0          0          0          0          7.522      0          0         
2558.400101 -9999      0          0          0          0          0          7.5146     0          0         
2558.600101 -9999      0          0          0          0          0          7.5216     0          0         
2558.800101 -9999      0          0          0          0          0          7.5138     0          0         
2559.000101 -9999      0          0          0          0          0          7.5138     0          0         
2559.200102 -9999      0          0          0          0          0          7.5131     0          0         
2559.400102 -9999      0          0          0          0          0          7.5145     0          0         
2559.600102 -9999      0          0          0          0          0          7.5154     0          0         
2559.800102 -9999      0          0          0          0          0          7.5175     0          0         
2560.000102 -9999      0          0          0          0          0          7.522      0          0         
2560.200102 -9999      0          0          0          0          0          -9999      0          0         
