~Version
 VERS              .         2.0                           : CWLS LOG ASCII STANDARD - VERSION 2.0
 WRAP              .         NO                            : ONE LINE PER DEPTH STEP
 DLM               .         SPACE                         : DELIMITING CHARACTER(SPACE TAB OR COMMA)
~Well Information
#_______________________________________________________________________________
#
#PARAMETER_NAME    .UNIT     VALUE                         : DESCRIPTION
#_______________________________________________________________________________
STRT               .m        2356                          : First reference value
STOP               .m        2578.600111                   : Last reference value
STEP               .m        0.2000001                     : Step increment
NULL               .         -9999                         : Missing value
COMP               .                                       : Company
WELL               .         504                           : Well name
FLD                .                                       : Field
LOC                .                                       : Location
CNTY               .                                       : County
STAT               .                                       : State
CTRY               .                                       : Country
SRVC               .                                       : Service Company
DATE               .                                       : Date
API                .                                       : API number
EREF               .m        139.4                         : 
X                  .m        230550                        : 
Y                  .m        242075                        : 
group              .         Pad5                          : 
Интер-р            .         Зайцев                        : 
Куст               .         5                             : 
Статус             .         Не проверено                  : 
Тип                .         Эксплуатация                  : 
~Parameter Information Block
#_______________________________________________________________________________
#
#PARAMETER_NAME    .UNIT     VALUE                         : DESCRIPTION
#_______________________________________________________________________________
SET                .         LAS1                          : 
REAL_CREATION_DATE .         Ср апр 11 2012-13_17_19       : 
TLFamily_DEPTH     .         Measured Depth                : 
TLFamily_KS        .         Potential Resistivity         : 
TLFamily_KS1       .         Extra Shallow Resistivity     : 
TLFamily_KS2       .         Shallow Resistivity           : 
TLFamily_KS3       .         Medium Resistivity            : 
TLFamily_KS4       .         Deep Resistivity              : 
TLFamily_KS5       .         Extra Deep Resistivity        : 
TLFamily_LLD       .         Lateral Log Resistivity       : 
TLFamily_OKS3      .         Medium Resistivity Inverted   : 
TLFamily_RM        .         Mud Resistivity               : 
group              .         INI                           : 
~Curve Information
#_______________________________________________________________________________
#
#LOGNAME           .UNIT     LOG_ID                        : DESCRIPTION
#_______________________________________________________________________________
DEPTH              .m                                      : Measured Depth 
KS                 .ohm.m                                  : Potential Resistivity 
KS1                .ohm.m                                  : Extra Shallow Resistivity 
KS2                .ohm.m                                  : Shallow Resistivity 
KS3                .ohm.m                                  : Medium Resistivity 
KS4                .ohm.m                                  : Deep Resistivity 
KS5                .ohm.m                                  : Extra Deep Resistivity 
LLD                .ohm.m                                  : Lateral Log Resistivity 
OKS3               .ohm.m                                  : Medium Resistivity Inverted 
RM                 .ohm.m                                  : Mud Resistivity 
~Ascii
# ...
2443.600044 10.9747    2.4451     9.5131     17.0875    16.6202    8.7615     9.2934     17.889     0.117     
2443.800044 10.8997    2.4738     9.6129     17.3655    17.3786    8.945      9.6419     17.9184    0.117     
2444.000044 10.7979    2.4977     9.7188     17.6193    18.1468    9.1004     9.4035     18.0655    0.117     
2444.200044 10.7108    2.4896     9.7001     17.7013    18.6218    9.2318     9.2266     18.386     0.117     
2444.400044 10.6594    2.4464     9.5716     17.6044    18.9596    9.4014     8.312      18.9293    0.117     
2444.600044 10.6477    2.3829     9.3706     17.3698    19.1309    9.6212     7.7253     19.62      0.117     
2444.800044 10.6783    2.3223     9.1544     17.2404    19.484     9.774      7.4313     20.3608    0.117     
2445.000045 10.7319    2.3337     9.2203     17.2392    19.8477    9.8756     7.4023     20.7231    0.117     
2445.200045 10.8604    2.3276     9.1093     17.1479    19.9855    9.9522     8.5031     20.7859    0.117     
2445.400045 10.9762    2.301      8.9247     16.8401    19.8179    9.9813     8.8093     20.646     0.117     
2445.600045 11.086     2.301      8.8716     16.6439    19.7372    9.9079     8.5301     20.5866    0.117     
2445.800045 11.1812    2.328      8.937      16.5782    19.7687    9.8791     9.1092     20.5121    0.117     
2446.000045 11.2594    2.3632     9.0699     16.5691    19.8359    9.8899     9.5741     20.4839    0.117     
2446.200045 11.3348    2.3684     9.1478     16.5471    19.8956    9.9505     9.7599     20.5001    0.117     
2446.400045 11.4021    2.3684     9.1875     16.5284    19.9575    10.0518    9.5787     20.5804    0.117     
2446.600045 11.4544    2.3944     9.2961     16.6219    20.0899    10.1982    9.4878     20.6239    0.117     
2446.800045 11.4893    2.4222     9.4456     16.7833    20.2219    10.2917    9.6722     20.601     0.117     
2447.000045 11.5324    2.4222     9.498      16.9429    20.3073    10.4889    10.3473    20.534     0.117     
2447.200046 11.5916    2.4209     9.5085     17.1354    20.3286    10.7095    10.1074    20.5416    0.117     
2447.400046 11.6235    2.4217     9.5281     17.3595    20.3477    10.9206    9.849      20.6141    0.117     
2447.600046 11.643     2.4411     9.6469     17.6182    20.4346    11.1541    9.8872     20.766     0.117     
2447.800046 11.6632    2.4505     9.7011     17.8763    20.5481    11.3835    10.3983    20.8321    0.117     
2448.000046 11.6805    2.4573     9.7488     18.0142    20.5727    11.582     10.1116    20.8479    0.117     
2448.200046 11.7084    2.443      9.6912     18.0391    20.4583    11.7816    10.3527    20.7712    0.117     
2448.400046 11.722     2.4322     9.6455     18.0179    20.3016    11.977     10.1842    20.726     0.117     
2448.600046 11.722     2.4357     9.6713     18.0766    20.321     12.1364    9.9345     20.6731    0.117     
2448.800046 11.7201    2.4507     9.7185     18.199     20.509     12.2871    10.4498    20.7423    0.117     
2449.000046 11.6967    2.4627     9.7448     18.3022    20.7229    12.467     10.5122    20.9906    0.117     
2449.200047 11.6667    2.4781     9.8133     18.4212    21.0071    12.654     10.3002    21.3408    0.117     
2449.400047 11.6629    2.4557     9.7675     18.4196    21.2673    12.823     10.6465    21.7715    0.117     
2449.600047 11.7358    2.4084     9.597      18.0709    21.1901    13.0434    9.3604     22.8265    0.117     
2449.800047 11.8066    2.2378     9.0546     17.8679    21.2748    13.3198    8.6366     24.0463    0.117     
2450.000047 11.8886    2.3057     9.3179     17.9524    21.6872    13.6772    7.4901     24.9705    0.117     
2450.200047 12.0187    2.3746     9.554      18.5357    22.599     14.0477    12.6928    25.5098    0.117     
2450.400047 12.0916    2.4338     9.7321     19.0101    23.3545    14.3202    12.9685    26.2502    0.117     
2450.600047 12.1481    2.4627     9.8455     19.1967    23.6988    14.4371    11.5989    26.5938    0.117     
2450.800047 12.2249    2.4537     9.7816     19.0978    23.6124    14.4122    11.9027    26.5463    0.117     
2451.000048 12.3051    2.4157     9.6888     18.8386    23.2944    14.229     11.12      26.3445    0.117     
2451.200048 12.4473    2.3742     9.5462     18.2426    22.5839    13.913     10.3877    26.3884    0.117     
2451.400048 12.5993    2.2809     9.1766     17.7487    22.0655    13.626     9.2891     26.6638    0.117     
2451.600048 12.762     2.3074     9.3258     17.5424    21.8694    13.3896    11.0337    26.8676    0.117     
2451.800048 13.0132    2.3013     9.2735     17.4613    21.8359    13.2819    10.1384    27.2304    0.117     
2452.000048 13.2997    2.2348     9          17.112     21.4777    13.3136    9.7643     28.01      0.117     
2452.200048 13.8623    2.136      8.681      16.8125    21.1005    13.4223    11.0351    29.1953    0.117     
2452.400048 14.3601    2.0418     8.3993     16.7435    21.162     13.6735    11.5444    29.8836    0.117     
2452.600048 14.955     2.1637     8.9358     17.8088    22.5277    14.3672    20.6535    28.9476    0.117     
2452.800048 15.3474    2.4825     10.0639    19.9024    24.8566    15.6894    73.5724    26.778     0.117     
2453.000049 15.3638    2.7814     11.1574    21.6877    26.8109    16.4119    95.0405    25.0472    0.117     
2453.200049 15.2459    2.9407     11.8774    22.8852    28.1107    16.6339    28.2946    24.0722    0.117     
2453.400049 14.892     2.8471     12.0308    23.4322    28.4977    17.0878    14.3877    23.7653    0.117     
2453.600049 14.7372    2.7677     12.0293    23.3531    28.3448    17.0163    12.5255    23.9033    0.117     
2453.800049 14.6452    2.7067     11.8793    23.3481    28.3657    16.8868    13.0311    23.994     0.117     
2454.000049 14.6014    2.6451     11.5709    23.2792    28.43      16.8017    13.0306    24.12      0.117     
2454.200049 14.5737    2.5791     11.1558    23.335     28.5261    16.7092    12.3545    24.2054    0.117     
2454.400049 14.5892    2.5782     11.0779    23.4506    28.6631    16.6752    12.9387    24.3265    0.117     
2454.600049 14.6203    2.5355     10.7941    23.7402    28.9911    16.7026    13.9424    24.2863    0.117     
2454.800049 14.6471    2.5435     10.76      23.876     29.24      16.8133    13.577     24.2245    0.117     
2455.000049 14.6761    2.5522     10.755     23.9272    29.6158    16.9671    14.6098    24.0147    0.117     
2455.20005 14.6684    2.5842     10.8497    23.8981    30.1528    17.1741    15.2369    23.8228    0.117     
2455.40005 14.6603    2.6199     10.9872    23.8082    30.7835    17.3841    15.6618    23.7026    0.114     
2455.60005 14.6445    2.6098     10.9317    23.5403    31.123     17.6008    15.1146    23.753     0.117     
2455.80005 14.6445    2.5605     10.7824    23.1907    31.2481    17.8411    13.0848    23.9142    0.117     
2456.00005 14.6357    2.5482     10.7635    23.0452    31.7038    18.0675    12.9519    23.9216    0.117     
2456.20005 14.6556    2.5701     10.8683    23.1119    32.4597    18.3774    14.3896    23.7101    0.117     
2456.40005 14.6715    2.5667     10.8485    23.2251    33.3051    18.7514    14.9865    23.3729    0.117     
2456.60005 14.6537    2.5935     10.9167    23.351     34.1773    19.1626    14.7144    23.0202    0.117     
2456.80005 14.6499    2.6159     10.9863    23.4945    34.9066    19.575     15.7006    22.6701    0.117     
2457.00005 14.5952    2.6152     10.9873    23.6181    35.2644    19.9926    14.6277    22.3002    0.117     
2457.200051 14.5656    2.6243     11.0629    23.6382    35.286     20.4497    14.5283    21.9202    0.117     
2457.400051 14.5577    2.5829     10.9313    23.5329    35.0936    21.0187    13.7422    21.5893    0.117     
2457.600051 14.5424    2.5476     10.8212    23.4918    35.1364    21.6709    12.6692    21.2584    0.117     
2457.800051 14.5158    2.5948     11.0291    23.8284    35.7344    22.3872    14.2803    20.6866    0.117     
2458.000051 14.4548    2.682      11.3619    24.4076    36.6218    23.1953    18.6582    20.0341    0.117     
