~Version
 VERS              .         2.0                           : CWLS LOG ASCII STANDARD - VERSION 2.0
 WRAP              .         NO                            : ONE LINE PER DEPTH STEP
 DLM               .         SPACE                         : DELIMITING CHARACTER(SPACE TAB OR COMMA)
~Well Information
#_______________________________________________________________________________
#
#PARAMETER_NAME    .UNIT     VALUE                         : DESCRIPTION
#_______________________________________________________________________________
STRT               .m        2888                          : First reference value
STOP               .m        3109                          : Last reference value
STEP               .m        0.2                           : Step increment
NULL               .         -9999                         : Missing value
COMP               .                                       : Company
WELL               .         505                           : Well name
FLD                .                                       : Field
LOC                .                                       : Location
CNTY               .                                       : County
STAT               .                                       : State
CTRY               .                                       : Country
SRVC               .                                       : Service Company
DATE               .                                       : Date
API                .                                       : API number
EREF               .m        139.4                         : 
X                  .m        230550                        : 
Y                  .m        242075                        : 
group              .         Pad5                          : 
Интер-р            .         Старостина                    : 
Куст               .         5                             : 
Статус             .         Не проверено                  : 
Тип                .         Разведка                      : 
~Parameter Information Block
#_______________________________________________________________________________
#
#PARAMETER_NAME    .UNIT     VALUE                         : DESCRIPTION
#_______________________________________________________________________________
SET                .         LAS1                          : 
REAL_CREATION_DATE .         Ср апр 11 2012-13_17_19       : 
TLFamily_DEPTH     .         Measured Depth                : 
TLFamily_KS        .         Potential Resistivity         : 
TLFamily_KS1       .         Extra Shallow Resistivity     : 
TLFamily_KS2       .         Shallow Resistivity           : 
TLFamily_KS3       .         Medium Resistivity            : 
TLFamily_KS4       .         Deep Resistivity              : 
TLFamily_KS5       .         Extra Deep Resistivity        : 
TLFamily_LLD       .         Lateral Log Resistivity       : 
TLFamily_OKS3      .         Medium Resistivity Inverted   : 
TLFamily_RM        .         Mud Resistivity               : 
group              .         INI                           : 
~Curve Information
#_______________________________________________________________________________
#
#LOGNAME           .UNIT     LOG_ID                        : DESCRIPTION
#_______________________________________________________________________________
DEPTH              .m                                      : Measured Depth 
KS                 .ohm.m                                  : Potential Resistivity 
KS1                .ohm.m                                  : Extra Shallow Resistivity 
KS2                .ohm.m                                  : Shallow Resistivity 
KS3                .ohm.m                                  : Medium Resistivity 
KS4                .ohm.m                                  : Deep Resistivity 
KS5                .ohm.m                                  : Extra Deep Resistivity 
LLD                .ohm.m                                  : Lateral Log Resistivity 
OKS3               .ohm.m                                  : Medium Resistivity Inverted 
RM                 .ohm.m                                  : Mud Resistivity 
~Ascii
# ...
2961       6.7575     3.2102     8.5603     9.2421     7.754      5.9248     5.6066     12.3659    0.224     
2961.2     6.7811     3.1496     8.3527     9.0021     7.3373     5.86       8.3134     12.3143    0.224     
2961.4     6.8081     3.0755     8.343      8.8765     7.0833     5.7174     5.6984     12.6287    0.227     
2961.6     6.7069     2.9678     8.2749     8.7546     6.9009     5.6915     5.3192     13.2896    0.227     
2961.8     6.6597     2.8533     8.0673     8.5044     6.7772     5.7304     5.2184     14.22      0.231     
2962       6.68       2.6647     7.5225     8.1901     6.7186     5.9378     4.8885     15.5161    0.231     
2962.2     6.8351     2.5165     7.088      8.0682     6.7316     6.3656     4.6301     17.1266    0.234     
2962.4     7.0895     2.4284     6.8545     8.3954     7.0702     7.0137     4.4731     18.8526    0.234     
2962.6     7.3746     2.5098     7.3409     9.1648     8.3206     7.7656     4.8954     19.3275    0.237     
2962.8     7.9411     2.8802     8.2554     9.9413     9.1932     8.4526     5.66       19.013     0.231     
2963       8.5009     3.3516     8.8719     11.1088    9.8119     8.9581     9.8733     17.9799    0.231     
2963.2     9.0202     3.648      9.6434     11.8978    10.0296    8.9841     12.24      16.5619    0.231     
2963.4     9.2495     3.7692     10.6422    11.9106    9.877      8.8415     10.345     14.9642    0.227     
2963.6     9.3439     3.392      10.1104    11.5193    9.3495     8.5822     11.1179    13.7131    0.224     
2963.8     9.472      3.4389     10.7979    11.4103    9.0435     8.1544     6.5183     12.8276    0.227     
2964       9.4653     3.6412     11.6476    12.0389    9.2193     7.5452     8.227      12.0111    0.224     
2964.2     9.3304     3.6951     11.654     12.3967    9.2714     7.3637     10.0665    11.5508    0.224     
2964.4     9.263      3.6951     11.6415    12.6997    9.1346     7.2341     7.3543     11.0246    0.227     
2964.6     9.1146     3.4122     10.9795    13.1679    9.2518     7.1304     6.3691     10.9219    0.227     
2964.8     9.0067     3.5133     11.1806    14.1173    9.4082     6.9748     7.4884     10.4664    0.229     
2965       8.8246     3.5627     11.5481    15.2441    9.7641     6.91       10.2306    9.8697     0.227     
2965.2     8.7111     3.5806     11.226     15.6889    9.838      6.9619     7.5291     9.5424     0.224     
2965.4     8.6593     3.6278     11.4854    16.5934    10.2808    6.7933     7.065      9.3224     0.224     
2965.6     8.42       3.85       12.4388    16.9873    10.6585    6.6248     8.0886     9.0099     0.227     
2965.8     7.9816     3.8433     11.751     16.8179    10.4827    6.4044     7.2429     8.5736     0.224     
2966       7.6039     3.5133     11.1092    15.7916    9.8966     6.1843     4.7967     8.3682     0.227     
2966.2     7.2667     3.3045     10.4671    14.778     9.7168     5.86       4.8457     8.4324     0.231     
2966.4     6.916      3.1698     9.9483     13.8735    9.6296     5.5748     4.809      8.5287     0.234     
2966.6     6.653      3.062      9.4424     13.0461    9.7077     5.3933     4.8918     8.6762     0.234     
2966.8     6.5116     3.0083     8.8846     12.3789    9.9943     5.2896     4.619      8.9457     0.237     
2967       6.4372     2.9543     8.4435     12.0035    10.3068    5.2248     4.5839     9.1807     0.234     
2967.2     6.3293     2.8869     8.1776     11.6925    10.4631    5.1989     4.6664     9.2922     0.231     
2967.4     6.2821     2.8667     8.0485     11.1922    10.5283    5.1859     4.8499     9.4654     0.231     
2967.6     6.309      2.9004     7.9376     10.7752    10.5088    5.1859     4.8444     9.5681     0.227     
2967.8     6.3428     2.8869     7.8663     10.4737    10.4371    5.2119     5.0762     9.6772     0.227     
2968       6.39       2.9341     7.8987     10.1402    10.3655    5.2507     4.9622     9.8119     0.227     
2968.2     6.4337     2.9441     8.0025     9.8515     10.3003    5.2896     5.1535     9.8953     0.224     
2968.4     6.4439     2.9812     8.0933     9.6334     10.1115    5.3285     5.3379     9.8825     0.221     
2968.6     6.4844     2.9947     8.2165     9.5567     9.8901     5.3415     5.36       9.8308     0.224     
2968.8     6.5248     3.0755     8.3555     9.4795     9.6686     5.3415     5.5487     9.7349     0.231     
2969       6.5181     3.1024     8.4306     9.3768     9.4211     5.3285     5.4066     9.5489     0.231     
2969.2     6.4911     3.0688     8.3787     9.2357     9.1802     5.3156     5.4273     9.3243     0.227     
2969.4     6.4709     3.0149     8.3073     9.0625     8.7244     5.2637     5.3136     9.1318     0.227     
2969.6     6.4574     2.9947     8.223      8.9342     8.3271     5.1989     5.1888     9.0548     0.227     
2969.8     6.427      2.9574     8.1711     8.915      8.021      5.16       5.1825     9.0676     0.224     
2970       6.4035     2.9678     8.2684     8.9373     7.7866     5.1341     5.0943     9.074      0.227     
2970.2     6.3495     2.9408     8.1517     8.9599     7.5391     5.173      5.1587     9.1061     0.224     
2970.4     6.3158     2.8802     8.0081     8.9599     7.3438     5.2256     5.0557     9.196      0.221     
2970.6     6.3158     2.9004     7.9895     9.0048     7.269      5.2896     5.0345     9.5681     0.224     
2970.8     6.2888     2.9341     8.0933     9.1523     7.2265     5.4193     4.9414     9.7542     0.226     
2971       6.2416     2.8667     7.9765     9.1716     7.1549     5.6007     4.9772     9.7991     0.227     
2971.2     6.2551     2.8263     7.769      9.1331     7.0702     5.7822     4.7984     9.7254     0.227     
2971.4     6.2992     2.9004     8.009      9.1395     7.0377     5.8859     5.0135     9.6387     0.231     
2971.6     6.3293     2.9812     7.9311     9.1234     6.927      5.9507     5.7648     9.5681     0.231     
2971.8     6.3562     2.961      7.8533     8.915      6.7511     5.9379     5.1809     9.6515     0.234     
2972       6.3562     2.9206     7.8144     8.684      6.6636     5.8859     4.9257     9.7285     0.237     
2972.2     6.3225     2.86       7.756      8.4916     6.5623     5.7952     4.837      9.767      0.234     
2972.4     6.3428     2.8465     7.7041     8.3248     6.4907     5.7304     4.9618     9.7927     0.234     
2972.6     6.3798     2.8599     7.7041     8.312      6.5102     5.6915     4.9736     9.9595     0.231     
2972.8     6.3967     2.8802     7.7431     8.3697     6.5493     5.6656     5.057      10.1969    0.231     
2973       6.4102     2.9071     7.7495     8.4181     6.5949     5.7044     5.2209     10.4261    0.227     
2973.2     6.4237     2.8802     7.714      8.4659     6.686      5.8081     5.155      10.7551    0.224     
2973.4     6.4507     2.8263     7.6652     8.5173     6.7939     5.8859     4.9791     11.2043    0.224     
2973.6     6.5046     2.8061     7.5485     8.5686     6.8879     6.0933     4.9116     11.6534    0.224     
2973.8     6.6125     2.8196     7.5809     8.6904     7.1679     6.4563     4.9134     12.1539    0.224     
2974       6.7203     2.86       7.756      9.024      7.6889     6.923      5.2012     12.7121    0.224     
2974.2     6.8148     2.9341     8.0609     9.4987     8.3271     7.3896     5.3198     13.0939    0.224     
2974.4     6.9565     3.0351     8.476      9.7738     8.77       7.7526     5.5327     13.1163    0.224     
2974.6     7.0914     3.1563     8.6122     9.9285     8.8611     8.0637     6.0436     12.9174    0.221     
2974.8     7.2397     3.0755     8.3916     9.8772     8.8546     8.1606     6.7188     12.8597    0.224     
2975       7.4623     3.1092     8.5149     9.7617     8.8876     8.2581     6.2148     12.8404    0.231     
2975.2     7.6241     3.1092     8.6965     9.9349     9.1021     8.3359     5.7737     12.8533    0.227     
2975.4     7.7725     3.2843     9.3191     10.3519    9.4082     8.3878     6.3265     12.4683    0.224     
