~Version
 VERS              .         2.0                           : CWLS LOG ASCII STANDARD - VERSION 2.0
 WRAP              .         NO                            : ONE LINE PER DEPTH STEP
 DLM               .         SPACE                         : DELIMITING CHARACTER(SPACE TAB OR COMMA)
~Well Information
#_______________________________________________________________________________
#
#PARAMETER_NAME    .UNIT     VALUE                         : DESCRIPTION
#_______________________________________________________________________________
STRT               .m        2888                          : First reference value
STOP               .m        3109                          : Last reference value
STEP               .m        0.2                           : Step increment
NULL               .         -9999                         : Missing value
COMP               .                                       : Company
WELL               .         505                           : Well name
FLD                .                                       : Field
LOC                .                                       : Location
CNTY               .                                       : County
STAT               .                                       : State
CTRY               .                                       : Country
SRVC               .                                       : Service Company
DATE               .                                       : Date
API                .                                       : API number
EREF               .m        139.4                         : 
X                  .m        230550                        : 
Y                  .m        242075                        : 
group              .         Pad5                          : 
Интер-р            .         Старостина                    : 
Куст               .         5                             : 
Статус             .         Не проверено                  : 
Тип                .         Разведка                      : 
~Parameter Information Block
#_______________________________________________________________________________
#
#PARAMETER_NAME    .UNIT     VALUE                         : DESCRIPTION
#_______________________________________________________________________________
SET                .         LAS1                          : 
REAL_CREATION_DATE .         Ср апр 11 2012-13_17_19       : 
TLFamily_DEPTH     .         Measured Depth                : 
TLFamily_KS        .         Potential Resistivity         : 
TLFamily_KS1       .         Extra Shallow Resistivity     : 
TLFamily_KS2       .         Shallow Resistivity           : 
TLFamily_KS3       .         Medium Resistivity            : 
TLFamily_KS4       .         Deep Resistivity              : 
TLFamily_KS5       .         Extra Deep Resistivity        : 
TLFamily_LLD       .         Lateral Log Resistivity       : 
TLFamily_OKS3      .         Medium Resistivity Inverted   : 
TLFamily_RM        .         Mud Resistivity               : 
group              .         INI                           : 
~Curve Information
#_______________________________________________________________________________
#
#LOGNAME           .UNIT     LOG_ID                        : DESCRIPTION
#_______________________________________________________________________________
DEPTH              .m                                      : Measured Depth 
KS                 .ohm.m                                  : Potential Resistivity 
KS1                .ohm.m                                  : Extra Shallow Resistivity 
KS2                .ohm.m                                  : Shallow Resistivity 
KS3                .ohm.m                                  : Medium Resistivity 
KS4                .ohm.m                                  : Deep Resistivity 
KS5                .ohm.m                                  : Extra Deep Resistivity 
LLD                .ohm.m                                  : Lateral Log Resistivity 
OKS3               .ohm.m                                  : Medium Resistivity Inverted 
RM                 .ohm.m                                  : Mud Resistivity 
~Ascii
# ...
2990.2     11.4009    3.7355     12.4323    18.1778    16.5521    8.9322     10.6841    22.5291    0.221     
2990.4     11.5223    3.648      12.3026    18.3228    16.5521    9.1785     10.3033    22.4072    0.221     
2990.6     11.6369    3.6816     12.3731    18.5499    16.741     9.3989     9.9749     22.574     0.221     
2990.8     11.6976    3.7355     12.6464    18.9412    16.8875    9.4896     10.4518    23.0039    0.221     
2991       11.7583    3.7759     12.8345    19.3453    17.008     9.6452     10.783     23.2798    0.224     
2991.2     11.819     3.8029     13.0355    19.6596    17.1968    9.697      10.7964    22.9333    0.221     
2991.4     11.8971    3.7788     12.9577    19.6211    17.1708    9.6452     10.5508    22.6419    0.221     
2991.6     11.9809    3.722      12.614     19.3453    16.9168    9.6193     10.978     22.5163    0.224     
2991.8     12.1292    3.7288     12.6658    19.2714    16.8061    9.5933     10.5715    22.343     0.231     
2992       12.2439    3.7827     12.95      19.6276    17.3336    9.5674     10.9051    21.7463    0.231     
2992.2     12.2709    3.9914     13.3144    20.4037    18.2062    9.6261     13.1278    21.3742    0.227     
2992.4     12.1832    4.1598     14.1576    21.1479    18.7038    9.71       14.3009    21.6308    0.224     
2992.6     12.0011    3.978      14.0214    21.1607    18.9616    9.8007     10.6738    22.42      0.224     
2992.8     11.8763    3.8163     13.4247    20.5705    18.7663    9.8915     9.4498     23.5199    0.224     
2993       11.8797    3.6547     12.802     20.0958    18.5449    10.0081    8.796      24.4925    0.231     
2993.2     11.9134    3.6951     13.0809    20.3164    18.864     10.1896    8.904      25.8015    0.234     
2993.4     11.9876    3.8298     13.2852    20.9426    19.6715    10.5007    10.1375    26.4303    0.234     
2993.6     12.1023    3.9241     13.3923    21.7637    20.4855    10.773     12.4038    26.8024    0.237     
2993.8     12.1899    3.9712     13.496     21.9754    20.8916    10.8248    11.8861    26.6805    0.234     
2994       12.2304    3.9645     13.4701    21.7637    21.0912    10.773     12.1012    26.1415    0.231     
2994.2     12.2741    3.9443     13.3663    21.2312    20.7851    10.5656    12.3547    25.5384    0.227     
2994.4     12.2978    3.8837     13.1588    20.4358    19.9515    10.2285    11.3982    25.4168    0.224     
2994.6     12.3316    3.7961     12.8864    19.9547    19.2091    9.9174     10.4934    25.4486    0.224     
2994.8     12.399     3.6749     12.6696    19.4415    18.877     9.723      10.2156    25.8849    0.221     
2995       12.5271    3.6412     12.575     19.0567    18.7728    9.6841     10.1977    26.6292    0.224     
2995.2     12.7227    3.5873     12.3869    18.9733    18.832     9.7489     10.7018    27.4697    0.224     
2995.4     12.9857    3.5806     12.2248    19.3132    19.131     10.0341    10.6899    28.3102    0.224     
2995.6     13.1644    3.6681     12.5361    19.9804    19.8343    10.5137    11.4068    28.9904    0.227     
2995.8     13.4713    3.6614     12.7307    21.058     20.9804    11.2007    12.9875    29.1829    0.224     
2996       13.8355    3.8904     13.6712    21.8254    22.5108    12.2118    14.3649    29.0032    0.227     
2996.2     14.085     4.1194     14.1605    23.4764    24.4515    13.1452    16.7541    28.8808    0.234     
2996.4     14.1727    4.4427     15.4418    25.0544    25.7084    13.91      18.995     28.7145    0.231     
2996.6     14.0985    4.4629     15.8958    25.8819    25.9688    14.3248    17.266     28.1755    0.229     
2996.8     13.9771    4.3888     15.9672    25.5355    25.5065    14.3118    14.7512    27.29      0.227     
2997       13.893     4.2474     15.591     24.9646    24.7055    13.8841    12.5815    26.5842    0.224     
2997.2     13.8423    4.2204     15.4223    24.5284    24.1324    13.3526    12.4375    26.18      0.231     
2997.4     13.7613    4.1665     15.1305    24.3874    23.7612    12.7822    12.5662    25.9811    0.234     
2997.6     13.7141    4.1059     14.8204    24.0473    23.2793    12.3026    12.5088    25.9426    0.237     
2997.8     13.7478    3.9308     14.3197    23.6753    22.869     11.9007    11.8422    26.0966    0.234     
2998       13.8153    3.9443     14.0538    23.5598    22.7455    11.7841    11.643     26.0709    0.234     
2998.2     13.8895    3.9914     14.1381    23.9767    22.9667    11.5767    13.5731    26.0453    0.231     
2998.4     13.9906    4.052      14.2873    24.1499    23.0969    11.5118    13.8141    25.7822    0.227     
2998.6     14.0648    3.9982     14.0344    24.1435    23.0058    11.4989    13.6453    25.5408    0.227     
2998.8     14.1357    4.0386     14.1446    24.1366    22.9927    11.4989    14.1255    25.1342    0.221     
2999       14.1457    4.0589     14.3327    24.2975    23.3639    11.5378    14.5365    24.9417    0.224     
2999.2     14.0985    4.1396     14.6829    24.5733    23.8524    11.6026    14.8293    24.839     0.231     
2999.4     14.0243    4.1665     14.7089    24.6824    24.0737    11.7074    14.2619    25.0122    0.227     
2999.6     13.9636    4.0588     14.5562    24.4643    24.2691    11.81      13.4808    25.3716    0.227     
2999.8     13.9164    3.9982     14.43      24.4065    24.7185    11.9785    12.2998    25.6667    0.224     
3000       13.8827    4.0116     14.5208    24.5733    25.5065    12.1341    12.7078    25.5961    0.224     
3000.2     13.8962    4.0049     14.5273    24.7016    26.2033    12.3674    13.5009    25.2368    0.227     
3000.4     13.9367    3.9645     14.3197    24.708     26.6657    12.6396    13.6552    24.9352    0.231     
3000.6     13.9232    4.0453     14.3327    24.8876    27.2127    12.8341    13.3334    25.1085    0.237     
3000.8     13.8692    4.0722     14.5727    25.1678    27.9251    13.035     13.9385    25.1181    0.236     
3001       13.9097    3.9578     14.4365    25.125     28.1049    13.2878    13.1       24.6016    0.231     
3001.2     13.9841    3.8906     13.9954    24.7786    28.2221    13.7285    13.8407    23.9022    0.227     
3001.4     14.0378    3.9241     14.0538    24.4579    28.3654    14.2989    13.4839    23.7867    0.231     
3001.6     14.0109    3.9241     14.2679    24.7658    29.1078    15.0637    12.5005    23.2927    0.231     
3001.8     14.0176    3.978      14.6349    25.3559    30.2018    15.9452    12.2053    22.3751    0.231     
3002       14.0513    4.0924     15.0137    26.1513    31.1396    16.8007    14.7247    21.4063    0.231     
3002.2     14.0109    4.2608     15.338     27.1264    32.1425    17.2202    16.9264    20.5721    0.224     
3002.4     13.8153    4.4494     15.8763    27.4599    32.2336    17.5785    16.7169    19.584     0.224     
3002.6     13.6669    4.308      15.5326    26.7928    31.4326    17.9544    16.1285    18.9937    0.224     
3002.8     13.5455    4.079      14.8775    26.0936    30.9133    18.123     13.6221    19.0468    0.224     
3003       13.1881    4.0655     15.1694    26.294     30.7098    18.3174    11.3091    18.9552    0.227     
3003.2     12.9109    4.2743     15.3834    26.889     31.3284    18.7452    11.4441    18.628     0.214     
3003.4     12.6823    4.4501     16.6352    27.6588    31.9797    19.0174    15.9134    17.7939    0.224     
3003.6     12.1764    4.5976     16.7909    28.512     32.4485    18.9202    15.7231    16.7416    0.227     
3003.8     11.6909    4.4561     15.6104    28.2361    31.3284    18.797     12.0699    16.2219    0.231     
3004       11.266     4.0924     14.8006    25.8883    29.1078    18.2267    8.3171     16.7159    0.231     
3004.2     10.9625    3.7422     13.95      23.8998    26.6852    17.6952    7.316      17.9992    0.234     
3004.4     10.8209    3.4863     12.6983    22.45      25.0571    17.3581    6.8865     19.43      0.241     
3004.6     10.8478    3.4055     12.2572    21.7123    24.3603    17.423     7.4166     20.6299    0.234     
