~Version
 VERS              .         2.0                           : CWLS LOG ASCII STANDARD - VERSION 2.0
 WRAP              .         NO                            : ONE LINE PER DEPTH STEP
 DLM               .         SPACE                         : DELIMITING CHARACTER(SPACE TAB OR COMMA)
~Well Information
#_______________________________________________________________________________
#
#PARAMETER_NAME    .UNIT     VALUE                         : DESCRIPTION
#_______________________________________________________________________________
STRT               .m        2888                          : First reference value
STOP               .m        3109                          : Last reference value
STEP               .m        0.2                           : Step increment
NULL               .         -9999                         : Missing value
COMP               .                                       : Company
WELL               .         505                           : Well name
FLD                .                                       : Field
LOC                .                                       : Location
CNTY               .                                       : County
STAT               .                                       : State
CTRY               .                                       : Country
SRVC               .                                       : Service Company
DATE               .                                       : Date
API                .                                       : API number
EREF               .m        139.4                         : 
X                  .m        230550                        : 
Y                  .m        242075                        : 
group              .         Pad5                          : 
Интер-р            .         Старостина                    : 
Куст               .         5                             : 
Статус             .         Не проверено                  : 
Тип                .         Разведка                      : 
~Parameter Information Block
#_______________________________________________________________________________
#
#PARAMETER_NAME    .UNIT     VALUE                         : DESCRIPTION
#_______________________________________________________________________________
SET                .         LAS1                          : 
REAL_CREATION_DATE .         Ср апр 11 2012-13_17_19       : 
TLFamily_DEPTH     .         Measured Depth                : 
TLFamily_KS        .         Potential Resistivity         : 
TLFamily_KS1       .         Extra Shallow Resistivity     : 
TLFamily_KS2       .         Shallow Resistivity           : 
TLFamily_KS3       .         Medium Resistivity            : 
TLFamily_KS4       .         Deep Resistivity              : 
TLFamily_KS5       .         Extra Deep Resistivity        : 
TLFamily_LLD       .         Lateral Log Resistivity       : 
TLFamily_OKS3      .         Medium Resistivity Inverted   : 
TLFamily_RM        .         Mud Resistivity               : 
group              .         INI                           : 
~Curve Information
#_______________________________________________________________________________
#
#LOGNAME           .UNIT     LOG_ID                        : DESCRIPTION
#_______________________________________________________________________________
DEPTH              .m                                      : Measured Depth 
KS                 .ohm.m                                  : Potential Resistivity 
KS1                .ohm.m                                  : Extra Shallow Resistivity 
KS2                .ohm.m                                  : Shallow Resistivity 
KS3                .ohm.m                                  : Medium Resistivity 
KS4                .ohm.m                                  : Deep Resistivity 
KS5                .ohm.m                                  : Extra Deep Resistivity 
LLD                .ohm.m                                  : Lateral Log Resistivity 
OKS3               .ohm.m                                  : Medium Resistivity Inverted 
RM                 .ohm.m                                  : Mud Resistivity 
~Ascii
# ...
3019.4     8.5346     4.6342     14.0473    17.0039    16.7279    27.1063    6.4037     9.4334     0.221     
3019.6     7.7388     4.638      14.2224    16.4394    10.919     22.9841    4.5528     8.1886     0.221     
3019.8     7.0441     4.1463     13.269     15.907     7.6498     19.3415    4.4967     7.4058     0.221     
3020       6.4237     3.7894     12.931     15.1886    6.7928     16.1007    3.8655     6.8861     0.227     
3020.2     6.0123     3.3988     11.7773    13.9954    6.406      14.6489    3.8845     6.6551     0.224     
3020.4     5.7088     3.1227     10.3504    12.783     6.0413     11.8359    3.7169     6.6422     0.224     
3020.6     5.5267     2.9071     9.1894     11.7631    5.9892     9.5674     3.6624     6.7834     0.221     
3020.8     5.4458     2.7388     8.1776     10.9741    5.9111     7.7526     3.8949     7.0529     0.221     
3021       5.3716     2.6243     7.5031     10.7945    5.885      6.1711     5.0932     7.1941     0.227     
3021.2     5.3379     2.7859     7.5744     10.7429    5.8525     5.3285     4.3163     7.0914     0.229     
3021.4     5.3144     2.7859     7.2501     10.3904    5.8264     4.6415     4.1001     6.9823     0.231     
3021.6     5.2435     2.7994     7.0102     9.5821     5.7483     4.0711     3.9452     6.9888     0.224     
3021.8     5.1288     2.7792     6.8869     8.8059     5.6701     3.9415     3.7992     7.0721     0.221     
3022       5.0546     2.6512     6.7442     8.1131     5.5464     3.6433     3.7668     7.2903     0.217     
3022.2     5.0344     2.5839     6.6314     7.5294     5.4096     3.397      3.8433     7.5213     0.221     
3022.4     5.0883     2.4761     6.4199     7.0611     5.325      3.2156     4.2494     7.7844     0.227     
3022.6     5.176      2.3953     6.1346     6.7532     5.3901     3.1637     4.5597     8.0538     0.224     
3022.8     5.2907     2.4627     6.1605     6.6634     5.6376     3.0859     4.5566     8.2592     0.221     
3023       5.439      2.5233     6.2448     6.6826     6.0608     3.0341     4.6558     8.4067     0.217     
3023.2     5.5604     2.5435     6.2513     6.766      6.335      2.9433     5.1839     8.503      0.221     
3023.4     5.6616     2.6445     6.4848     6.8812     6.6274     2.8526     4.9611     8.5543     0.224     
3023.6     5.756      2.6782     6.6923     6.9585     6.8619     2.7619     5.3533     8.6185     0.224     
3023.8     5.783      2.8196     7.0037     7.0483     6.9921     2.7359     5.1518     8.6443     0.227     
3024       5.783      2.8331     7.2242     7.1573     7.0116     2.7359     5.1288     8.6891     0.227     
3024.2     5.7425     2.8804     7.542      7.2407     6.9205     2.9563     4.6291     8.6634     0.227     
3024.4     5.6886     2.9139     7.5225     7.3177     6.7772     3.1507     4.5602     8.6121     0.221     
3024.6     5.6818     2.8061     7.3085     7.3369     6.5818     3.3711     4.8199     8.58       0.217     
3024.8     5.7021     2.6782     7.1785     7.2728     6.3539     3.3841     4.9444     8.4966     0.224     
3025       5.7088     2.6714     7.1853     7.3883     6.2171     3.4359     4.7548     8.3682     0.221     
3025.2     5.7088     2.7118     7.2631     7.5358     6.1716     3.4489     4.8426     8.2463     0.217     
3025.4     5.7156     2.6984     7.2501     7.5422     6.0937     3.4748     4.2891     8.0795     0.221     
3025.6     5.7628     2.5973     7.0231     7.5679     6.0087     3.4878     4.5718     8.0923     0.221     
3025.8     5.7897     2.6108     7.1334     7.6384     5.9241     3.5396     4.8132     8.2463     0.227     
3026       5.8707     2.5839     7.1204     7.751      5.9762     3.6044     5.5435     8.3939     0.226     
3026.2     5.9483     2.6378     7.2177     7.9271     6.1129     3.6822     6.1037     8.2912     0.221     
3026.4     5.9718     2.8569     7.6587     8.2222     6.2888     3.8248     5.3159     8.1015     0.217     
3026.6     5.9988     2.9071     7.6847     8.4467     6.3018     4.0063     5.1872     7.7715     0.217     
3026.8     5.9381     2.9139     7.6587     8.4467     6.2367     4.2007     5.1389     7.4443     0.214     
3027       5.81       2.9476     7.8541     8.4659     6.2237     4.4081     4.788      7.2005     0.221     
3027.2     5.6549     2.9476     7.9701     8.5108     6.2237     4.7193     4.3774     7.085      0.214     
3027.4     5.52       2.9139     8.0544     8.3954     6.1585     4.9795     4.5066     7.0465     0.221     
3027.6     5.3918     2.8263     7.8014     8.2093     6.0153     5.1859     4.3524     7.0657     0.217     
3027.8     5.3042     2.7724     7.6328     8.0041     5.9046     5.3804     4.1679     7.0465     0.221     
3028       5.2367     2.7253     7.3734     7.8437     5.8393     5.4452     4.3016     7.0593     0.227     
3028.2     5.1693     2.6782     7.1269     7.8116     5.8004     5.4711     4.6864     7.1876     0.227     
3028.4     5.1423     2.6512     6.9842     7.8052     5.8069     5.4322     4.0747     7.2261     0.217     
3028.6     5.1356     2.6647     6.9453     7.7667     5.7873     5.3933     3.9433     7.2646     0.216     
3028.8     5.149      2.6849     6.7702     7.5679     5.6571     5.3544     4.6812     7.3483     0.217     
3029       5.1356     2.5401     6.5172     7.3883     5.6506     5.3285     4.8819     7.5983     0.224     
3029.2     5.1086     2.5637     6.6664     7.3498     5.8199     5.3156     4.2681     7.7074     0.227     
3029.4     5.149      2.6445     6.8026     7.3305     5.8915     5.3026     4.4694     7.6945     0.221     
3029.6     5.1963     2.6849     6.7122     7.1958     5.8264     5.3157     4.9406     7.6496     0.221     
3029.8     5.176      2.6041     6.6664     7.0739     5.7873     5.2767     4.2722     7.7138     0.217     
3030       5.149      2.6849     6.7507     7.0739     5.8459     5.16       3.935      7.7009     0.221     
3030.2     5.1356     2.7522     6.9712     7.0483     5.8328     5.0433     4.0553     7.6239     0.227     
3030.4     5.1625     2.6849     6.8415     6.8558     5.7613     4.9785     4.6697     7.6689     0.221     
3030.6     5.2165     2.5435     6.5107     6.6441     5.6115     4.9267     5.5033     7.9833     0.217     
3030.8     5.3042     2.4559     6.368      6.6186     5.618      4.9137     5.1984     8.3939     0.214     
3031       5.3716     2.5569     6.6405     6.7019     5.7678     4.9267     4.8426     8.5415     0.217     
3031.2     5.456      2.7186     6.9842     6.9713     5.8785     4.9267     4.6278     8.4675     0.224     
3031.4     5.4997     2.8062     7.0361     7.1445     5.7873     4.8878     4.5393     8.4003     0.221     
3031.6     5.52       2.8263     6.9777     7.1509     5.605      4.7841     4.4106     8.4452     0.221     
3031.8     5.493      2.8061     7.0945     7.0804     5.4292     4.6804     4.5007     8.7661     0.217     
3032       5.466      2.7994     7.1173     7.0226     5.2794     4.5896     4.532      9.3756     0.217     
3032.2     5.4795     2.7388     7.1334     6.9328     5.0905     4.5311     4.5839     10.1263    0.221     
3032.4     5.5065     2.6916     7.0426     6.8366     4.9603     4.46       4.6843     11.4288    0.224     
3032.6     5.5604     2.658      6.8934     6.7404     4.8626     4.3822     5.1026     12.3015    0.217     
3032.8     5.6211     2.6512     6.8285     6.7147     4.7909     4.3174     5.1351     13.1548    0.214     
3033       5.6414     2.658      6.8091     6.7853     4.7454     4.1748     4.5707     13.5783    0.214     
3033.2     5.6481     2.7657     7.0166     6.8429     4.6151     3.9674     4.8447     13.5527    0.217     
3033.4     5.7223     2.658      6.8415     6.7468     4.296      3.6952     5.0397     13.142     0.221     
3033.6     5.7965     2.5233     6.4005     6.3362     3.8792     3.423      3.5176     12.7634    0.217     
3033.8     5.8742     2.429      6.154      5.8038     3.4885     3.2026     3.7457     13.0798    0.217     
