~Version
 VERS              .         2.0                           : CWLS LOG ASCII STANDARD - VERSION 2.0
 WRAP              .         NO                            : ONE LINE PER DEPTH STEP
 DLM               .         SPACE                         : DELIMITING CHARACTER(SPACE TAB OR COMMA)
~Well Information
#_______________________________________________________________________________
#
#PARAMETER_NAME    .UNIT     VALUE                         : DESCRIPTION
#_______________________________________________________________________________
STRT               .m        2888                          : First reference value
STOP               .m        3109                          : Last reference value
STEP               .m        0.2                           : Step increment
NULL               .         -9999                         : Missing value
COMP               .                                       : Company
WELL               .         505                           : Well name
FLD                .                                       : Field
LOC                .                                       : Location
CNTY               .                                       : County
STAT               .                                       : State
CTRY               .                                       : Country
SRVC               .                                       : Service Company
DATE               .                                       : Date
API                .                                       : API number
EREF               .m        139.4                         : 
X                  .m        230550                        : 
Y                  .m        242075                        : 
group              .         Pad5                          : 
Интер-р            .         Старостина                    : 
Куст               .         5                             : 
Статус             .         Не проверено                  : 
Тип                .         Разведка                      : 
~Parameter Information Block
#_______________________________________________________________________________
#
#PARAMETER_NAME    .UNIT     VALUE                         : DESCRIPTION
#_______________________________________________________________________________
SET                .         LAS3                          : 
REAL_CREATION_DATE .         Ср апр 11 2012-13_17_19       : 
TLFamily_DEPTH     .         Measured Depth                : 
TLFamily_GR        .         Gamma Ray                     : 
TLFamily_TNPH      .         Neutron Porosity              : 
group              .         INI                           : 
~Curve Information
#_______________________________________________________________________________
#
#LOGNAME           .UNIT     LOG_ID                        : DESCRIPTION
#_______________________________________________________________________________
DEPTH              .m                                      : Measured Depth 
GR                 .gAPI                                   :  
TNPH               .v/v                                    : Neutron Porosity 
~Ascii
# ...
3033.8     195.99     0.203     
3034       214.2      0.214     
3034.2     168.38     0.198     
3034.4     106.98     0.181     
3034.6     76.77      0.177     
3034.8     64.85      0.168     
3035       52.06      0.161     
3035.2     43.69      0.152     
3035.4     41.77      0.148     
3035.6     44.64      0.157     
3035.8     47.83      0.15      
3036       45.46      0.14      
3036.2     39.14      0.133     
3036.4     35.77      0.117     
3036.6     33.81      0.11      
3036.8     32.31      0.114     
3037       31.87      0.109     
3037.2     28.64      0.095     
3037.4     24.99      0.089     
3037.6     24.74      0.102     
3037.8     27.78      0.132     
3038       30.78      0.156     
3038.2     33.5       0.171     
3038.4     41.13      0.185     
3038.6     49.92      0.195     
3038.8     51.99      0.183     
3039       49.69      0.163     
3039.2     49.87      0.166     
3039.4     55.33      0.192     
3039.6     56.28      0.203     
3039.8     52.36      0.192     
3040       50.84      0.182     
3040.2     51.8       0.173     
3040.4     53.41      0.171     
3040.6     52.43      0.178     
3040.8     47.97      0.181     
3041       43.93      0.167     
3041.2     41.67      0.136     
3041.4     42.48      0.137     
3041.6     43.47      0.146     
3041.8     44.42      0.159     
3042       42.17      0.171     
3042.2     39.5       0.163     
3042.4     41.06      0.156     
3042.6     41.34      0.135     
3042.8     39.12      0.102     
3043       35.03      0.073     
3043.2     29.75      0.056     
3043.4     28.22      0.044     
3043.6     28.98      0.04      
3043.8     27.29      0.045     
3044       25.27      0.062     
3044.2     28.36      0.083     
3044.4     30.47      0.087     
3044.6     28.6       0.084     
3044.8     28.54      0.092     
3045       31.31      0.11      
3045.2     32.46      0.124     
3045.4     30.67      0.136     
3045.6     29.44      0.153     
3045.8     31.07      0.168     
3046       33.88      0.177     
3046.2     36.24      0.188     
3046.4     37.69      0.196     
3046.6     38.66      0.183     
3046.8     39.19      0.176     
3047       36.67      0.184     
3047.2     36.17      0.186     
3047.4     37.44      0.172     
3047.6     36.1       0.16      
3047.8     35.41      0.168     
3048       37.14      0.178     
3048.2     36.85      0.185     
3048.4     34.12      0.191     
3048.6     31.58      0.188     
3048.8     32.67      0.181     
3049       38.42      0.188     
3049.2     44.45      0.194     
3049.4     50.79      0.191     
3049.6     61.48      0.194     
3049.8     71.95      0.195     
3050       75.66      0.202     
3050.2     76.49001   0.232     
3050.4     77.47      0.255     
3050.6     78.10001   0.266     
3050.8     77.38      0.242     
3051       68.34      0.202     
3051.2     47.1       0.161     
3051.4     27.55      0.142     
3051.6     28.27      0.152     
3051.8     86.32      0.191     
3052       124.45     0.232     
3052.2     148.02     0.387     
3052.4     129.97     0.478     
3052.6     109.65     0.335     
3052.8     102.95     0.236     
3053       99.01      0.216     
3053.2     89.87      0.223     
3053.4     78.12      0.228     
3053.6     71.82999   0.221     
3053.8     67.57      0.225     
3054       61.32      0.232     
3054.2     57.38      0.221     
3054.4     58.69      0.206     
3054.6     59.69      0.206     
3054.8     61.25      0.222     
3055       66.7       0.241     
3055.2     69.5       0.259     
3055.4     64.32      0.266     
3055.6     58.54      0.248     
3055.8     58.22      0.231     
3056       59.3       0.228     
3056.2     59.76      0.219     
3056.4     59.34      0.204     
3056.6     55.97      0.197     
3056.8     54.22      0.193     
3057       55.12      0.196     
3057.2     55.62      0.215     
3057.4     58.59      0.211     
3057.6     60.19      0.196     
3057.8     55.53      0.196     
3058       54.93      0.203     
3058.2     60.21      0.209     
3058.4     56.9       0.211     
3058.6     50.09      0.215     
3058.8     50.32      0.224     
3059       52.1       0.218     
3059.2     50.63      0.203     
3059.4     50.38      0.195     
3059.6     56.61      0.195     
3059.8     58.49      0.191     
3060       52.75      0.192     
3060.2     47.38      0.201     
3060.4     47.73      0.21      
3060.6     53.25      0.218     
3060.8     56.5       0.221     
3061       56.1       0.225     
3061.2     57.24      0.236     
3061.4     57.47      0.245     
3061.6     56.85      0.234     
3061.8     58         0.228     
3062       55.81      0.221     
3062.2     51.35      0.21      
3062.4     51.45      0.205     
3062.6     52.02      0.199     
3062.8     50.37      0.19      
3063       51.6       0.185     
3063.2     51.4       0.184     
3063.4     49.72      0.182     
3063.6     50.92      0.176     
3063.8     51.28      0.175     
3064       50.74      0.179     
3064.2     53.05      0.183     
3064.4     59.84      0.191     
3064.6     74.71      0.214     
3064.8     93.92      0.252     
3065       103.06     0.265     
3065.2     98.61      0.246     
3065.4     94.04      0.24      
3065.6     90.8       0.248     
3065.8     86.98      0.246     
3066       83.31001   0.225     
3066.2     80.3       0.214     
3066.4     77.74001   0.241     
3066.6     70.81001   0.261     
3066.8     61.5       0.243     
3067       63.31001   0.235     
3067.2     76.33      0.245     
3067.4     84.41      0.247     
3067.6     92.31      0.252     
3067.8     105.69     0.253     
3068       112.28     0.259     
3068.2     112.24     0.282     
3068.4     112.64     0.3       
3068.6     109.91     0.288     
3068.8     103.82     0.267     
3069       101.23     0.27      
3069.2     106.39     0.279     
3069.4     111.73     0.285     
3069.6     109.2      0.301     
3069.8     100        0.297     
3070       91.1       0.264     
3070.2     87.18001   0.249     
3070.4     87.78      0.239     
3070.6     88.73      0.24      
3070.8     90.64      0.255     
3071       90.06      0.291     
3071.2     70.48      0.382     
3071.4     35.99      0.495     
3071.6     11.3       0.549     
3071.8     5          0.625     
3072       10.75      0.593     
3072.2     18.77      0.49      
3072.4     23.36      0.477     
3072.6     29.23      0.51      
3072.8     47.65      0.51      
3073       66.89      0.523     
3073.2     74.51      0.519     
3073.4     76.46      0.434     
3073.6     83.9       0.347     
3073.8     93.58      0.297     
3074       99.5       0.256     
3074.2     99.55      0.222     
3074.4     91.87      0.221     
3074.6     85.66      0.259     
3074.8     83.14      0.299     
3075       80.49      0.34      
3075.2     82.22      0.351     
3075.4     90.71999   0.338     
3075.6     102.87     0.32      
3075.8     111.68     0.281     
3076       114.4      0.262     
3076.2     120.58     0.275     
3076.4     118        0.301     
3076.6     95.88      0.294     
3076.8     72.98      0.268     
3077       64.54001   0.248     
3077.2     71.09      0.219     
3077.4     84.43      0.223     
3077.6     99.75999   0.261     
3077.8     115.03     0.266     
3078       118.08     0.245     
3078.2     107.91     0.233     
3078.4     97.98      0.225     
3078.6     95.15      0.233     
3078.8     93.87      0.256     
3079       90.22      0.257     
3079.2     89.38      0.218     
3079.4     94.74      0.199     
3079.6     101.47     0.215     
3079.8     100.59     0.242     
3080       97.8       0.228     
3080.2     104.6      0.196     
3080.4     112.72     0.203     
3080.6     112.07     0.251     
3080.8     109.02     0.282     
3081       103.06     0.302     
3081.2     87.35      0.308     
3081.4     76.74      0.283     
3081.6     72.95999   0.248     
3081.8     73.36      0.229     
3082       79.45      0.24      
3082.2     86.00999   0.276     
