~Version
 VERS              .         2.0                           : CWLS LOG ASCII STANDARD - VERSION 2.0
 WRAP              .         NO                            : ONE LINE PER DEPTH STEP
 DLM               .         SPACE                         : DELIMITING CHARACTER(SPACE TAB OR COMMA)
~Well Information
#_______________________________________________________________________________
#
#PARAMETER_NAME    .UNIT     VALUE                         : DESCRIPTION
#_______________________________________________________________________________
STRT               .m        2888                          : First reference value
STOP               .m        3109                          : Last reference value
STEP               .m        0.2                           : Step increment
NULL               .         -9999                         : Missing value
COMP               .                                       : Company
WELL               .         505                           : Well name
FLD                .                                       : Field
LOC                .                                       : Location
CNTY               .                                       : County
STAT               .                                       : State
CTRY               .                                       : Country
SRVC               .                                       : Service Company
DATE               .                                       : Date
API                .                                       : API number
EREF               .m        139.4                         : 
X                  .m        230550                        : 
Y                  .m        242075                        : 
group              .         Pad5                          : 
Интер-р            .         Старостина                    : 
Куст               .         5                             : 
Статус             .         Не проверено                  : 
Тип                .         Разведка                      : 
~Parameter Information Block
#_______________________________________________________________________________
#
#PARAMETER_NAME    .UNIT     VALUE                         : DESCRIPTION
#_______________________________________________________________________________
SET                .         LAS1                          : 
REAL_CREATION_DATE .         Ср апр 11 2012-13_17_19       : 
TLFamily_DEPTH     .         Measured Depth                : 
TLFamily_KS        .         Potential Resistivity         : 
TLFamily_KS1       .         Extra Shallow Resistivity     : 
TLFamily_KS2       .         Shallow Resistivity           : 
TLFamily_KS3       .         Medium Resistivity            : 
TLFamily_KS4       .         Deep Resistivity              : 
TLFamily_KS5       .         Extra Deep Resistivity        : 
TLFamily_LLD       .         Lateral Log Resistivity       : 
TLFamily_OKS3      .         Medium Resistivity Inverted   : 
TLFamily_RM        .         Mud Resistivity               : 
group              .         INI                           : 
~Curve Information
#_______________________________________________________________________________
#
#LOGNAME           .UNIT     LOG_ID                        : DESCRIPTION
#_______________________________________________________________________________
DEPTH              .m                                      : Measured Depth 
KS                 .ohm.m                                  : Potential Resistivity 
KS1                .ohm.m                                  : Extra Shallow Resistivity 
KS2                .ohm.m                                  : Shallow Resistivity 
KS3                .ohm.m                                  : Medium Resistivity 
KS4                .ohm.m                                  : Deep Resistivity 
KS5                .ohm.m                                  : Extra Deep Resistivity 
LLD                .ohm.m                                  : Lateral Log Resistivity 
OKS3               .ohm.m                                  : Medium Resistivity Inverted 
RM                 .ohm.m                                  : Mud Resistivity 
~Ascii
# ...
2917.2     6.6395     3.0688     8.4662     8.4595     6.7707     7.2665     6.5307     11.8972    0.231     
2917.4     6.6867     2.8869     8.2198     8.6776     6.8977     7.3767     5.8195     13.065     0.227     
2917.6     6.6935     2.897      8.2425     8.9599     7.0702     7.4609     5.7559     13.989     0.227     
2917.8     6.5518     2.9408     8.3819     9.2421     7.2038     7.4674     5.2443     14.8937    0.224     
2918       6.5114     2.9038     8.0933     9.4153     7.2428     7.4544     5.4985     15.9042    0.224     
2918.2     6.5181     2.8869     7.9084     9.3512     7.1191     7.3637     5.5704     17.1266    0.224     
2918.4     6.6159     2.9543     7.8533     9.271      6.9823     7.1174     5.9714     18.4034    0.224     
2918.6     6.7069     2.9206     7.7333     9.0753     6.6925     6.8063     5.7399     19.584     0.221     
2918.8     6.7643     2.7792     7.4317     8.8765     6.3832     6.5211     5.887      21.0854    0.222     
2919       6.7946     2.5973     7.0264     8.4082     6.025      6.3656     5.5321     22.2853    0.221     
2919.2     6.8924     2.5334     6.9453     7.8116     5.8752     6.1452     5.4781     22.3559    0.221     
2919.4     7.1993     2.5637     6.8642     7.5358     5.8557     6.1646     5.1855     20.2513    0.214     
2919.6     7.7658     2.7253     6.8675     7.5935     5.9697     6.3137     5.2325     19.3915    0.221     
2919.8     8.5616     2.6984     7.4869     8.1773     6.2171     6.6248     5.7129     19.5584    0.217     
2920       9.1011     2.6378     8.2036     9.1395     6.8586     7.0526     9.1351     20.0845    0.217     
2920.2     9.6643     2.8061     8.7938     10.0375    8.0503     7.7526     7.6647     20.1037    0.221     
2920.4     10.2679    2.8937     9.3289     10.9773    9.2063     8.5304     7.6961     19.0835    0.221     
2920.6     10.949     3.3819     11.3103    13.9056    10.4241    9.3211     9.1734     17.0752    0.224     
2920.8     11.6909    4.308      13.1847    17.2734    11.8275    10.0989    11.4676    14.9065    0.224     
2921       12.598     5.0286     15.4937    22.944     13.5662    10.5656    16.1853    12.9238    0.227     
2921.2     13.4084    5.7829     18.889     24.9518    15.3376    10.5656    40.1585    11.2364    0.231     
2921.4     13.323     6.6516     23.1405    25.1955    16.3437    10.1896    155.3207   10.4151    0.231     
2921.6     12.4327    5.5673     19.3268    23.5983    14.5203    9.5285     190.2862   10.4921    0.234     
2921.8     10.9962    4.2676     16.1358    20.0638    12         8.7248     51.7543    10.6525    0.231     
2922       9.762      3.4729     13.762     18.7231    11.2153    7.7461     12.9684    10.5177    0.227     
2922.2     8.8246     3.2776     12.4777    17.9918    10.8604    6.8841     4.4486     10.3766    0.231     
2922.4     8.3188     3.2237     11.2       17.7897    10.7594    6.4304     5.5042     10.4921    0.227     
2922.6     8.1097     3.2371     10.4477    17.9597    10.7822    6.2035     6.2279     10.7102    0.227     
2922.8     7.9816     3.2978     10.2661    17.8828    10.8864    6.0415     6.1891     10.9989    0.224     
2923       7.7995     3.2304     10.078     17.3054    10.8506    5.8859     6.4521     11.3005    0.224     
2923.2     7.5837     3.1227     9.6499     16.3111    10.919     5.7563     5.9834     11.4866    0.221     
2923.4     7.4083     3.0755     9.3516     15.1757    11.0492    5.6396     5.684      11.6277    0.221     
2923.6     7.2869     3.0486     9.0791     13.9954    11.072     5.5489     5.6153     11.6923    0.224     
2923.8     7.2397     3.0149     8.8197     12.9306    10.9906    5.4711     5.6345     11.7625    0.221     
2924       7.2262     3.0216     8.7095     12.257     11.0427    5.3933     5.7773     11.8267    0.224     
2924.2     7.2532     2.9745     8.5149     11.7759    11.0818    5.3415     5.6596     11.6983    0.224     
2924.4     7.2869     2.988      8.4824     11.3269    11.1762    5.3026     5.8497     11.4353    0.224     
2924.6     7.3881     3.0755     8.6316     11.0382    11.4856    5.2767     6.17       11.1594    0.227     
2924.8     7.5095     3.1496     8.8067     10.942     11.6744    5.2637     6.5059     10.9861    0.224     
2925       7.6174     3.2439     9.0597     10.8971    11.733     5.3156     6.8601     10.9381    0.227     
2925.2     7.6781     3.1967     9.131      10.9998    11.72      5.3739     7.0206     10.8963    0.231     
2925.4     7.6781     3.318      9.5267     11.0447    11.5181    5.4322     6.4823     10.7295    0.231     
2925.6     7.6646     3.1967     9.3062     11.1922    11.2772    5.5619     7.153      10.6525    0.224     
2925.8     7.5702     3.2506     9.4813     11.2499    10.9841    5.6656     6.2553     10.7295    0.237     
2926       7.5095     3.1698     9.3905     11.3782    10.8669    5.873      5.9781     10.8578    0.237     
2926.2     7.4016     3.0957     9.0921     11.3269    10.6129    5.9896     6.0833     10.8835    0.237     
2926.4     7.3139     3.0957     8.9754     11.3141    10.3524    6.1193     6.125      11.0374    0.234     
2926.6     7.3141     3.1092     8.9624     11.3718    10.2482    6.197      6.1314     11.2331    0.231     
2926.8     7.3274     3.1429     8.8132     11.3526    10.2026    6.56       6.214      11.5058    0.231     
2927       7.3139     3.0351     8.696      11.2371    10.2287    7.0526     6.1675     11.9935    0.227     
2927.2     7.3139     3.089      8.6965     11.3077    10.5413    7.8239     6.0136     12.6993    0.227     
2927.4     7.3611     3.1227     8.9494     11.7503    11.2902    8.1674     6.0925     13.3858    0.224     
2927.6     7.4083     3.3112     9.4164     12.3597    12.1042    8.297      6.3271     13.3794    0.224     
2927.8     7.4286     3.362      9.7861     12.3789    12.2475    8.3618     6.4744     12.9031    0.221     
2928       7.3881     3.2439     9.3062     11.7439    11.5116    8.2841     8.0245     12.3785    0.221     
2928.2     7.3948     3.19       9.1116     11.4282    10.7432    7.96       6.4356     11.9101    0.221     
2928.4     7.4488     3.1698     9.1374     11.096     10.2157    7.7137     6.0152     11.7497    0.221     
2928.6     7.4758     3.1227     9.131      10.7752    9.7273     7.5452     6.2048     11.6855    0.221     
2928.8     7.4218     3.0418     8.9948     10.4994    9.2909     7.4674     6.0629     11.6021    0.221     
2929       7.3881     3.0486     8.9235     10.3198    8.9328     7.4674     5.875      11.2813    0.224     
2929.2     7.3881     3.0115     8.7419     10.2556    8.6462     7.5452     5.9537     11.0054    0.224     
2929.4     7.4151     3.0014     8.7549     10.3968    8.529      7.61       6.2992     10.8578    0.231     
2929.6     7.4589     3.1429     9.1116     10.6559    8.5355     7.6489     6.1017     10.845     0.231     
2929.8     7.5028     3.19       9.2121     10.9805    8.4834     7.7396     6.5705     10.8193    0.227     
2930       7.4555     3.1429     9.1699     11.2371    8.4118     7.8433     6.4822     10.845     0.227     
2930.2     7.4083     3.089      9.0467     11.2692    8.4676     7.9341     6.0855     11.0503    0.224     
2930.4     7.3814     3.0789     8.917      11.2499    8.5811     8.1156     6.0372     11.4545    0.224     
2930.6     7.3814     3.0486     8.8975     11.4167    8.822      8.4656     5.9763     11.9486    0.224     
2930.8     7.3982     3.0284     9.1181     12.071     9.9291     8.9322     5.9638     12.2355    0.221     
2931       7.4421     3.2776     10.0169    12.5265    10.7106    9.2433     5.8671     12.2501    0.224     
2931.2     7.5028     3.3651     9.9093     12.9049    10.8734    9.347      6.5324     11.8074    0.224     
2931.4     7.496      3.4729     10.0066    12.6034    10.6231    9.1785     7.728      11.0374    0.224     
2931.6     7.5095     3.4324     9.9029     12.1416    10.4306    8.3489     7.5484     10.4921    0.223     
