~Version
 VERS              .         2.0                           : CWLS LOG ASCII STANDARD - VERSION 2.0
 WRAP              .         NO                            : ONE LINE PER DEPTH STEP
 DLM               .         SPACE                         : DELIMITING CHARACTER(SPACE TAB OR COMMA)
~Well Information
#_______________________________________________________________________________
#
#PARAMETER_NAME    .UNIT     VALUE                         : DESCRIPTION
#_______________________________________________________________________________
STRT               .m        2888                          : First reference value
STOP               .m        3109                          : Last reference value
STEP               .m        0.2                           : Step increment
NULL               .         -9999                         : Missing value
COMP               .                                       : Company
WELL               .         505                           : Well name
FLD                .                                       : Field
LOC                .                                       : Location
CNTY               .                                       : County
STAT               .                                       : State
CTRY               .                                       : Country
SRVC               .                                       : Service Company
DATE               .                                       : Date
API                .                                       : API number
EREF               .m        139.4                         : 
X                  .m        230550                        : 
Y                  .m        242075                        : 
group              .         Pad5                          : 
Интер-р            .         Старостина                    : 
Куст               .         5                             : 
Статус             .         Не проверено                  : 
Тип                .         Разведка                      : 
~Parameter Information Block
#_______________________________________________________________________________
#
#PARAMETER_NAME    .UNIT     VALUE                         : DESCRIPTION
#_______________________________________________________________________________
SET                .         LAS1                          : 
REAL_CREATION_DATE .         Ср апр 11 2012-13_17_19       : 
TLFamily_DEPTH     .         Measured Depth                : 
TLFamily_KS        .         Potential Resistivity         : 
TLFamily_KS1       .         Extra Shallow Resistivity     : 
TLFamily_KS2       .         Shallow Resistivity           : 
TLFamily_KS3       .         Medium Resistivity            : 
TLFamily_KS4       .         Deep Resistivity              : 
TLFamily_KS5       .         Extra Deep Resistivity        : 
TLFamily_LLD       .         Lateral Log Resistivity       : 
TLFamily_OKS3      .         Medium Resistivity Inverted   : 
TLFamily_RM        .         Mud Resistivity               : 
group              .         INI                           : 
~Curve Information
#_______________________________________________________________________________
#
#LOGNAME           .UNIT     LOG_ID                        : DESCRIPTION
#_______________________________________________________________________________
DEPTH              .m                                      : Measured Depth 
KS                 .ohm.m                                  : Potential Resistivity 
KS1                .ohm.m                                  : Extra Shallow Resistivity 
KS2                .ohm.m                                  : Shallow Resistivity 
KS3                .ohm.m                                  : Medium Resistivity 
KS4                .ohm.m                                  : Deep Resistivity 
KS5                .ohm.m                                  : Extra Deep Resistivity 
LLD                .ohm.m                                  : Lateral Log Resistivity 
OKS3               .ohm.m                                  : Medium Resistivity Inverted 
RM                 .ohm.m                                  : Mud Resistivity 
~Ascii
# ...
3004.8     10.9962    3.4324     11.8551    21.2184    24.1584    17.6822    9.2863     20.893     0.231     
3005       11.1581    3.5469     11.8097    20.9875    24.1649    18.2137    11.3088    20.8164    0.224     
3005.2     11.2592    3.6816     11.9459    21.0133    24.1584    18.3822    11.8029    20.585     0.224     
3005.4     11.2488    3.8231     12.3415    21.0067    24.0412    18.5637    11.8582    20.5657    0.221     
3005.6     11.1783    3.8537     12.6918    20.8848    23.8068    18.3044    11.0241    20.5016    0.224     
3005.8     11.003     3.951      12.7112    20.0509    23.0448    17.8767    10.9641    20.7454    0.231     
3006       10.9018    3.6412     11.9848    18.5178    21.7294    17.3452    8.0453     21.4768    0.224     
3006.2     10.8816    3.419      11.4881    17.0873    20.4334    16.9433    7.6929     23.1194    0.224     
3006.4     10.9288    3.2371     11.0833    16.51      19.8473    16.6063    7.5678     25.3266    0.221     
3006.6     11.0906    3.2439     11.1676    16.51      19.8213    16.697     9.2913     27.2708    0.221     
3006.8     11.4278    3.1967     10.7979    16.8307    19.8668    17.0341    9.4002     28.4065    0.224     
3007       11.7651    3.3853     11.0638    17.3696    20.0752    17.3663    11.2606    28.9904    0.231     
3007.2     12.2237    3.4527     11.226     17.7224    20.1241    17.6433    12.4707    29.1771    0.231     
3007.4     12.6485    3.4122     11.1027    17.6639    19.9776    18.2137    11.5686    29.6256    0.234     
3007.6     12.8737    3.4627     11.2584    17.6262    19.8734    18.5767    11.2126    30.3121    0.234     
3007.8     13.2016    3.5267     11.8486    17.8571    20.1729    19.0563    12.566     30.7228    0.234     
3008       13.5725    3.5941     12.2248    18.2676    20.5637    19.7693    13.94      30.5367    0.227     
3008.2     13.8895    3.6345     12.4486    18.5435    20.8893    20.5989    13.4071    30.0555    0.227     
3008.4     14.2334    3.621      12.5945    19.0438    21.5079    21.3248    13.689     29.4267    0.224     
3008.6     14.4964    3.8298     13.5479    20.1472    22.4001    21.9081    19.8614    27.8675    0.224     
3008.8     14.692     4.0116     14.1316    21.3018    23.0839    22.3878    17.5495    26.2378    0.227     
3009       14.9213    3.9982     14.1381    22.1935    23.4812    22.7118    14.3113    25.2625    0.231     
3009.2     14.9955    4.0588     14.5208    23.2134    24.1063    22.9856    14.7786    24.7556    0.227     
3009.4     15.0495    4.0588     14.7478    24.106     24.6041    23.36      15.9973    24.1993    0.226     
3009.6     15.0967    4.1261     15.1824    24.8235    25.3046    23.9433    16.1428    23.6841    0.224     
3009.8     15.0729    4.2074     15.7272    26.5555    26.3205    24.5267    16.0875    22.882     0.227     
3010       14.9078    4.4022     17.0892    28.281     27.7206    25.0452    22.0929    21.6822    0.227     
3010.2     14.6246    4.6245     17.6211    30.0579    28.9645    25.1489    20.2239    19.2696    0.231     
3010.4     14.2267    4.8333     18.3194    30.9303    29.1989    24.8118    17.1827    17.1971    0.234     
3010.6     13.7343    4.7524     17.8481    31.6167    29.1989    23.697     11.6393    16.1256    0.234     
3010.8     13.0937    4.8333     18.2502    31.2511    28.6389    22.2711    10.198     15.4968    0.231     
3011       12.5271    4.3955     16.8817    29.8398    27.3429    20.6896    9.2001     14.9129    0.234     
3011.2     12.1562    4.0924     15.7791    27.9731    26.4312    19.3285    8.2615     14.5793    0.231     
3011.4     11.8392    3.951      15.1045    27.2162    26.4369    18.4371    9.4306     14.0082    0.224     
3011.6     11.5964    3.9376     14.6116    27.1424    26.6852    17.8248    11.5221    13.4115    0.224     
3011.8     11.4009    4.0655     14.7154    27.2547    27.4015    17.1118    11.0952    12.846     0.221     
3012       11.1543    4.18       14.7997    27.3381    27.5774    16.36      10.9925    12.4426    0.231     
3012.2     10.949     4.2439     14.4559    26.9404    27.2908    15.4526    8.8714     12.0641    0.227     
3012.4     10.5781    4.1127     13.9436    25.7472    26.3921    14.4544    8.525      11.4288    0.224     
3012.6     10.2544    3.9173     13.4571    24.2911    25.6497    13.4693    7.9832     10.2867    0.224     
3012.8     9.8699     3.7759     13.2389    23.0402    25.2785    12.8081    7.9463     9.2537     0.224     
3013       9.4586     3.6412     13.2625    21.9561    24.7966    12.5489    8.1109     8.2014     0.224     
3013.2     8.7976     4.1733     12.4842    22.1999    25.5976    11.9007    8.6825     6.9502     0.227     
3013.4     8.1097     3.4729     14.5403    22.5399    25.4544    11.123     17.2641    8.3297     0.224     
3013.6     7.8669     3.3112     12.0886    21.1479    22.8491    10.6855    6.0134     8.3973     0.217     
3013.8     7.5297     3.2035     10.8692    18.3639    20.5832    10.3193    4.4026     9.4077     0.217     
3014       6.9565     3.2102     10.8109    17.2944    19.2807    9.2952     4.3971     9.5553     0.217     
3014.2     6.6125     3.1294     10.1169    17.113     19.3198    8.6341     5.4344     9.8183     0.224     
3014.4     6.501      3.0818     9.5461     16.3625    18.6425    8.2711     5.7146     9.9467     0.217     
3014.6     6.4372     2.988      8.1192     13.649     16.8386    7.7267     4.3596     10.0429    0.221     
3014.8     6.3765     2.9476     6.6469     11.2948    14.2077    7.2211     3.8304     10.1135    0.221     
3015       6.3225     2.8061     6.8926     10.8779    12.6708    6.8452     4.2454     10.2226    0.224     
3015.2     6.3225     2.429      7.4382     10.2685    12.2866    6.6896     4.9342     10.306     0.221     
3015.4     6.2011     2.5973     7.5939     9.5436     12.0261    6.8581     4.8585     10.3894    0.227     
3015.6     6.4776     2.6108     7.2696     9.1908     11.1404    6.9359     5.2407     10.6268    0.227     
3015.8     6.9093     2.53       7.1074     8.4339     10.4983    7.0137     4.9007     11.0118    0.221     
3016       7.5904     2.8129     6.8156     7.9014     10.2287    7.4804     4.6477     11.8331    0.224     
3016.2     8.0469     3.1325     6.4783     7.8118     10.0594    8.2581     4.9483     13.2703    0.227     
3016.4     8.312      3.0553     7.8857     7.8886     10.7432    9.3211     5.6606     15.3043    0.227     
3016.6     8.3323     3.0149     8.2814     8.0233     12.6643    10.6433    7.0971     17.2059    0.227     
3016.8     8.366      3.0082     8.6195     8.3248     13.6086    11.6285    10.2377    17.7939    0.227     
3017       8.3862     2.9745     8.93       9.1651     12.508     12.5489    7.0777     16.8507    0.227     
3017.2     8.3997     2.9745     9.0402     9.9862     11.4986    13.2489    6.7657     14.8488    0.227     
3017.4     8.4267     2.961      9.0208     9.3897     11.1079    13.3526    6.4978     13.2575    0.227     
3017.6     8.4672     2.961      9.0337     9.5821     11.0427    13.8581    6.6866     12.3977    0.227     
3017.8     8.5346     2.9543     9.0532     12.4174    11.1209    15.0507    6.672      11.9871    0.227     
3018       8.6088     2.9812     9.0856     18.2806    11.5507    15.8674    7.3173     11.8331    0.224     
3018.2     8.7774     3.0082     9.157      19.0887    12.1482    20.0156    6.7265     11.8972    0.221     
3018.4     9.0606     2.988      9.5396     18.1393    12.6187    23.6711    7.196      12.4041    0.217     
3018.6     9.3237     2.8937     10.1169    17.9341    13.4262    27.4433    12.0005    13.3858    0.221     
3018.8     9.4113     3.2641     10.9536    17.6069    14.6896    30.2304    48.8811    13.3473    0.234     
3019       9.3102     3.9982     12.828     17.4594    16.7279    31.5396    20.3656    12.5643    0.234     
3019.2     9.1208     4.7053     14.4235    17.2349    18.9551    30.1137    7.3676     10.954     0.227     
