~Version
 VERS              .         2.0                           : CWLS LOG ASCII STANDARD - VERSION 2.0
 WRAP              .         NO                            : ONE LINE PER DEPTH STEP
 DLM               .         SPACE                         : DELIMITING CHARACTER(SPACE TAB OR COMMA)
~Well Information
#_______________________________________________________________________________
#
#PARAMETER_NAME    .UNIT     VALUE                         : DESCRIPTION
#_______________________________________________________________________________
STRT               .m        2888                          : First reference value
STOP               .m        3109                          : Last reference value
STEP               .m        0.2                           : Step increment
NULL               .         -9999                         : Missing value
COMP               .                                       : Company
WELL               .         505                           : Well name
FLD                .                                       : Field
LOC                .                                       : Location
CNTY               .                                       : County
STAT               .                                       : State
CTRY               .                                       : Country
SRVC               .                                       : Service Company
DATE               .                                       : Date
API                .                                       : API number
EREF               .m        139.4                         : 
X                  .m        230550                        : 
Y                  .m        242075                        : 
group              .         Pad5                          : 
Интер-р            .         Старостина                    : 
Куст               .         5                             : 
Статус             .         Не проверено                  : 
Тип                .         Разведка                      : 
~Parameter Information Block
#_______________________________________________________________________________
#
#PARAMETER_NAME    .UNIT     VALUE                         : DESCRIPTION
#_______________________________________________________________________________
SET                .         LAS1                          : 
REAL_CREATION_DATE .         Ср апр 11 2012-13_17_19       : 
TLFamily_DEPTH     .         Measured Depth                : 
TLFamily_KS        .         Potential Resistivity         : 
TLFamily_KS1       .         Extra Shallow Resistivity     : 
TLFamily_KS2       .         Shallow Resistivity           : 
TLFamily_KS3       .         Medium Resistivity            : 
TLFamily_KS4       .         Deep Resistivity              : 
TLFamily_KS5       .         Extra Deep Resistivity        : 
TLFamily_LLD       .         Lateral Log Resistivity       : 
TLFamily_OKS3      .         Medium Resistivity Inverted   : 
TLFamily_RM        .         Mud Resistivity               : 
group              .         INI                           : 
~Curve Information
#_______________________________________________________________________________
#
#LOGNAME           .UNIT     LOG_ID                        : DESCRIPTION
#_______________________________________________________________________________
DEPTH              .m                                      : Measured Depth 
KS                 .ohm.m                                  : Potential Resistivity 
KS1                .ohm.m                                  : Extra Shallow Resistivity 
KS2                .ohm.m                                  : Shallow Resistivity 
KS3                .ohm.m                                  : Medium Resistivity 
KS4                .ohm.m                                  : Deep Resistivity 
KS5                .ohm.m                                  : Extra Deep Resistivity 
LLD                .ohm.m                                  : Lateral Log Resistivity 
OKS3               .ohm.m                                  : Medium Resistivity Inverted 
RM                 .ohm.m                                  : Mud Resistivity 
~Ascii
# ...
3034       6.1404     2.321      5.5119     5.2265     3.1564     3.0859     6.1583     14.9386    0.211     
3034.2     6.4776     1.9306     4.9087     4.7967     3.0196     3.1637     7.3059     18.0056    0.217     
3034.4     6.9835     1.9104     5.0449     4.7454     3.1889     3.4359     7.6981     20.8609    0.211     
3034.6     7.4825     2.2606     5.5909     5.2072     3.6187     3.6304     8.1736     24.0305    0.224     
3034.8     7.9546     2.4963     6.0956     5.9578     4.2439     4.2007     9.675      27.752     0.221     
3035       8.5346     2.5704     6.3616     6.9007     5.0449     4.9007     16.2748    32.1601    0.214     
3035.2     9.0539     2.8802     7.4706     8.2414     6.0334     5.51       9.6152     35.1052    0.221     
3035.4     9.6879     3.3112     8.7095     9.6911     6.7642     6.0804     8.5461     35.3875    0.217     
3035.6     10.4634    3.2641     8.6251     9.7673     7.4089     6.6896     8.7936     34.6817    0.214     
3035.8     11.1041    3.062      8.1711     9.473      7.474      7.2341     11.2259    35.6762    0.217     
3036       11.7718    3.0822     8.5862     9.3255     7.7345     7.8563     12.9843    37.5049    0.217     
3036.2     12.5091    3.0418     8.9754     9.6462     8.4964     8.5693     27.6482    38.4895    0.217     
3036.4     13.0802    3.0788     9.4618     10.4802    9.317      9.4896     23.4901    37.4535    0.214     
3036.6     13.876     3.3651     11.3103    11.7631    10.5087    10.5656    17.8041    35.503     0.211     
3036.8     14.5639    3.8029     11.693     13.2642    12.1889    11.797     17.2112    33.8347    0.214     
3037       15.0495    3.8567     12.3203    14.669     13.9407    12.9767    28.7829    34.3224    0.217     
3037.2     15.4069    3.7692     12.6529    16.6062    15.5036    13.4693    104.0976   34.3352    0.211     
3037.4     15.7441    3.9645     14.0019    19.0053    16.8452    14.4415    41.3761    33.4241    0.214     
3037.6     15.6834    4.1194     15.0267    22.6361    18.5961    15.1285    21.7813    31.1142    0.211     
3037.8     15.3057    5.0824     18.2048    26.0744    19.437     15.0896    16.6744    29.4203    0.221     
3038       14.7932    5.1094     19.262     28.1784    19.7561    14.7137    15.5332    27.4697    0.214     
3038.2     14.3885    4.712      18.4123    28.224     18.5709    14.0785    13.9786    24.8839    0.214     
3038.4     13.9704    4.5369     17.8221    28.4029    17.9848    12.8859    11.7512    22.9975    0.217     
3038.6     13.6255    4.3888     17.2384    28.807     17.7569    11.6156    11.9523    22.1307    0.217     
3038.8     13.3971    4.2301     16.1098    28.6916    17.5355    10.5396    10.7834    21.7527    0.214     
3039       13.0869    4.1194     15.1175    27.8192    17.5615    9.5544     10.7259    21.4961    0.211     
3039.2     12.8509    3.9645     14.43      26.7351    17.7634    8.8026     11.6116    21.7848    0.214     
3039.4     12.6216    3.8096     13.6172    26.1064    18.4472    8.0896     9.4847     22.3623    0.214     
3039.6     12.4867    3.8433     13.6128    25.2084    19.0203    7.7785     8.2581     23.1323    0.221     
3039.8     12.4732    3.6749     12.588     23.7202    18.7402    7.0396     9.8431     24.4669    0.217     
3040       12.5676    3.3449     11.3751    21.8022    18.4016    6.6378     11.132     26.7126    0.211     
3040.2     12.7767    3.2506     10.8303    20.2947    18.3474    6.3785     13.4808    29.2791    0.217     
3040.4     13.0734    3.1563     10.3115    19.5955    18.7598    6.2878     12.5374    31.3901    0.211     
3040.6     13.4443    3.3516     10.6552    19.1914    19.8473    6.4044     12.7282    33.8283    0.214     
3040.8     13.7883    3.2641     10.3244    19.1272    21.3842    6.6637     14.0489    37.8449    0.214     
3041       14.1929    3.2506     10.4347    19.0246    22.8104    7.0526     18.4122    42.901     0.214     
3041.2     14.5172    3.2573     10.986     19.3966    24.5296    7.4674     29.781     45.2279    0.217     
3041.4     14.9348    3.1865     11.3103    20.2498    27.0759    7.8563     18.2294    46.7701    0.211     
3041.6     15.5283    3.6614     12.601     20.7245    28.7952    8.1544     18.0453    46.3594    0.217     
3041.8     16.0948    3.5941     11.8875    20.6603    29.4073    8.5044     17.0886    45.6536    0.211     
3042       16.6208    3.4527     11.7608    19.8842    29.264     8.673      17.9394    45.3777    0.214     
3042.2     17.0794    3.4257     11.8616    19.974     30.2669    8.997      17.8636    46.5583    0.217     
3042.4     17.5987    3.4459     12.2832    20.4807    31.5043    9.5415     17.9229    47.9314    0.214     
3042.6     18.3204    3.3112     12.0821    20.8399    32.4681    10.4878    23.7345    51.0537    0.211     
3042.8     19.2308    3.2102     11.9264    21.7444    33.6077    11.5767    62.7795    53.6563    0.221     
3043       20.3369    3.1631     12.3999    23.1428    35.9587    12.7563    114.6529   51.8429    0.217     
3043.2     21.6183    3.2708     12.7566    24.2897    37.9579    14.2859    169.5417   47.9122    0.211     
3043.4     22.6906    3.722      13.9695    26.1834    39.3646    16.2304    223.4769   43.5876    0.214     
3043.6     23.1767    4.1935     15.6234    29.5447    41.7481    18.4341    297.0725   40.4062    0.217     
3043.8     23.3313    4.669      17.6729    33.4385    44.646     21.2081    170.3925   37.8809    0.217     
3044       23.1874    5.0399     20.5767    37.6619    47.9437    23.9433    42.5569    34.6368    0.217     
3044.2     22.7041    5.4259     22.7644    41.1746    50.9955    26.2637    22.2174    32.2242    0.217     
3044.4     21.7329    5.8839     24.7954    43.593     52.6844    28.4285    24.5413    30.9987    0.224     
3044.6     20.6673    5.6886     24.068     44.985     52.5311    29.5304    26.7071    29.9785    0.227     
3044.8     19.8108    5.4057     23.867     45.2288    52.0954    31.7081    28.299     28.7401    0.217     
3045       18.9745    5.6414     24.3599    47.1019    52.8377    32.6026    15.8115    27.3478    0.224     
3045.2     18.3608    5.2239     22.6087    47.6279    52.6072    33.16      15.6094    26.1544    0.221     
3045.4     17.7539    4.7255     19.8587    45.6329    50.8652    33.4841    19.7931    25.4678    0.217     
3045.6     17.2548    4.739      19.5992    44.217     49.4       33.0304    15.7304    24.6786    0.214     
3045.8     16.9446    4.4696     18.4188    43.593     48.892     32.7452    15.9245    23.7097    0.221     
3046       16.749     4.2608     17.1022    40.4177    47.6807    32.7063    15.6461    22.6767    0.224     
3046.2     16.6679    4.0318     15.8958    38.0122    45.8573    32.0841    15.5479    22.0564    0.217     
3046.4     16.5804    3.9779     15.3575    36.0493    44.7111    31.6693    16.2095    21.6565    0.214     
3046.6     16.459     3.9914     15.2667    34.715     44.5158    31.0081    16.2115    21.1111    0.211     
3046.8     16.3915    3.8904     14.5792    33.6822    44.8544    30.4378    16.3874    20.3283    0.211     
3047       16.2567    3.8298     14.5571    32.9894    45.9941    30.1007    17.1431    19.5968    0.211     
3047.2     16.0746    3.9645     14.8775    32.7457    48.1171    29.4396    15.9645    18.8718    0.214     
3047.4     15.9532    3.9106     14.6375    32.3223    50.4484    29.0118    16.3029    18.2622    0.211     
3047.6     15.7576    3.9106     14.5273    31.9695    51.6584    28.7396    16.2821    17.7554    0.217     
3047.8     15.5013    3.9982     14.8321    31.9759    53.1443    28.3637    15.8195    17.3896    0.217     
3048       15.2248    4.0116     14.8192    31.9823    53.7575    28.3118    15.4663    16.9469    0.211     
3048.2     14.8674    4.0318     14.9164    32.0145    54.8306    28.3637    16.0867    16.6967    0.214     
3048.4     14.429     4.1531     15.2018    32.2582    55.4438    28.26      15.5094    16.5298    0.214     
