~Version
 VERS              .         2.0                           : CWLS LOG ASCII STANDARD - VERSION 2.0
 WRAP              .         NO                            : ONE LINE PER DEPTH STEP
 DLM               .         SPACE                         : DELIMITING CHARACTER(SPACE TAB OR COMMA)
~Well Information
#_______________________________________________________________________________
#
#PARAMETER_NAME    .UNIT     VALUE                         : DESCRIPTION
#_______________________________________________________________________________
STRT               .m        2888                          : First reference value
STOP               .m        3109                          : Last reference value
STEP               .m        0.2                           : Step increment
NULL               .         -9999                         : Missing value
COMP               .                                       : Company
WELL               .         505                           : Well name
FLD                .                                       : Field
LOC                .                                       : Location
CNTY               .                                       : County
STAT               .                                       : State
CTRY               .                                       : Country
SRVC               .                                       : Service Company
DATE               .                                       : Date
API                .                                       : API number
EREF               .m        139.4                         : 
X                  .m        230550                        : 
Y                  .m        242075                        : 
group              .         Pad5                          : 
Интер-р            .         Старостина                    : 
Куст               .         5                             : 
Статус             .         Не проверено                  : 
Тип                .         Разведка                      : 
~Parameter Information Block
#_______________________________________________________________________________
#
#PARAMETER_NAME    .UNIT     VALUE                         : DESCRIPTION
#_______________________________________________________________________________
SET                .         LAS1                          : 
REAL_CREATION_DATE .         Ср апр 11 2012-13_17_19       : 
TLFamily_DEPTH     .         Measured Depth                : 
TLFamily_KS        .         Potential Resistivity         : 
TLFamily_KS1       .         Extra Shallow Resistivity     : 
TLFamily_KS2       .         Shallow Resistivity           : 
TLFamily_KS3       .         Medium Resistivity            : 
TLFamily_KS4       .         Deep Resistivity              : 
TLFamily_KS5       .         Extra Deep Resistivity        : 
TLFamily_LLD       .         Lateral Log Resistivity       : 
TLFamily_OKS3      .         Medium Resistivity Inverted   : 
TLFamily_RM        .         Mud Resistivity               : 
group              .         INI                           : 
~Curve Information
#_______________________________________________________________________________
#
#LOGNAME           .UNIT     LOG_ID                        : DESCRIPTION
#_______________________________________________________________________________
DEPTH              .m                                      : Measured Depth 
KS                 .ohm.m                                  : Potential Resistivity 
KS1                .ohm.m                                  : Extra Shallow Resistivity 
KS2                .ohm.m                                  : Shallow Resistivity 
KS3                .ohm.m                                  : Medium Resistivity 
KS4                .ohm.m                                  : Deep Resistivity 
KS5                .ohm.m                                  : Extra Deep Resistivity 
LLD                .ohm.m                                  : Lateral Log Resistivity 
OKS3               .ohm.m                                  : Medium Resistivity Inverted 
RM                 .ohm.m                                  : Mud Resistivity 
~Ascii
2888.0     -9999      1.5422     0.0616     0          0          0.2665     -9999      18.567     0.211     
2888.2     -9999      2.1798     1.121      0          0          0.2859     -9999      17.1554    0.214     
2888.4     -9999      2.5064     3.7478     0          0          0.2989     -9999      15.9909    0.211     
2888.6     4.9085     2.6007     5.3498     0          0          0.3119     -9999      15.5578    0.212     
2888.8     5.7189     2.5637     6.2383     0          0          0.3119     -9999      15.5674    0.211     
2889       6.2989     2.7556     7.208      0          0          0.3119     -9999      15.3396    0.217     
2889.2     6.6496     2.9543     8.1063     0          0          0.3248     -9999      14.6659    0.217     
2889.4     6.9194     3.0317     8.3884     1.6663     0          0.3248     -9999      13.7612    0.214     
2889.6     7.0914     3.126      8.7451     4.3573     0          0.3248     -9999      13.126     0.216     
2889.8     7.3274     3.1429     8.7289     6.5543     0          0.3378     -9999      12.7378    0.214     
2890       7.4994     3.1664     9.2348     8.065      0          0.3378     -9999      12.3079    0.217     
2890.2     7.5365     3.0822     9.1472     8.9021     0          0.3378     -9999      12.1411    0.214     
2890.4     7.5028     3.1159     9.2575     9.5436     0          0.3378     -9999      12.2373    0.217     
2890.6     7.4623     3.0284     9.0727     9.9926     0          0.3378     -9999      12.4555    0.217     
2890.8     7.4454     2.9577     8.9721     10.323     0          0.3378     -9999      12.7506    0.217     
2891       7.3881     2.988      9.0629     10.6341    0          0.3378     -9999      12.834     0.217     
2891.2     7.3375     2.9745     8.9429     11.035     0          0.3378     -9999      12.9623    0.217     
2891.4     7.3173     2.9543     8.7938     11.4327    1.1506     0.3378     -9999      13.2158    0.221     
2891.6     7.3409     2.9509     8.8521     11.8465    3.2769     0.3378     -9999      13.5527    0.224     
2891.8     7.3982     3.1159     9.3224     12.0999    5.2012     0.3378     6.1065     13.5847    0.224     
2892       7.4353     3.0856     9.2608     12.1095    6.4776     0.3507     6.0861     13.296     0.224     
2892.2     7.4286     3.1159     9.2348     11.699     7.0214     0.3507     6.7031     12.6479    0.221     
2892.4     7.4522     2.9071     8.5765     11.2628    7.448      0.3507     6.7673     12.0929    0.221     
2892.6     7.5028     3.0216     9.037      11.1601    7.9429     0.3507     6.8804     12.0737    0.217     
2892.8     7.5938     3.0755     9.4553     11.3077    8.415      0.3507     6.6349     12.0256    0.222     
2893       7.6714     2.9038     9.024      11.3269    8.6658     0.3507     6.1744     12.1218    0.207     
2893.2     7.6073     3.0957     9.4845     11.5193    9.0695     0.3507     6.5133     12.186     0.217     
2893.4     7.5871     3.0789     9.3872     11.6444    9.4244     0.3507     6.6505     12.372     0.217     
2893.6     7.6005     3.0755     9.2672     11.6733    9.5547     0.3637     6.45       12.5292    0.217     
2893.8     7.5904     3.0351     9.1018     11.6765    9.5644     0.3637     6.4119     12.741     0.217     
2894       7.5567     2.9913     9.0046     11.7054    9.5254     0.3637     6.4712     12.895     0.221     
2894.2     7.5938     2.9408     8.7613     11.8305    9.61       0.3637     6.21       12.6415    0.214     
2894.4     7.6545     3.1833     9.277      12.1961    9.7924     0.3572     6.21       12.2469    0.212     
2894.6     7.7725     3.4291     9.932      12.5393    9.978      0.3637     6.5621     12.1796    0.219     
2894.8     7.8771     3.4291     9.8672     12.3917    9.8054     0.3507     7.8769     12.4394    0.221     
2895       7.8838     3.2237     9.5883     11.962     9.4505     0.3507     8.8758     12.6094    0.224     
2895.2     7.7725     3.1496     9.4229     11.5963    9.2486     0.3507     6.6215     13.1163    0.224     
2895.4     7.5904     3.1698     9.4294     11.359     9.1346     0.3507     6.1092     13.8221    0.224     
2895.6     7.5365     3.1058     8.9689     11.2307    9.0597     0.7526     6.0919     14.7333    0.224     
2895.8     7.4994     3.1126     8.904      11.1569    9.0956     1.6665     6.2643     15.5995    0.224     
2896       7.4791     3.1462     8.9073     11.1088    9.1737     2.535      6.1759     16.655     0.226     
2896.2     7.4758     3.0654     8.6251     10.9548    9.1151     3.2544     6.3305     17.1586    0.224     
2896.4     7.496      2.9812     8.4241     10.8426    9.0272     3.7341     6.4986     17.3704    0.227     
2896.6     7.5162     2.9947     8.4824     10.7624    9.0435     4.2396     6.4539     17.5372    0.227     
2896.8     7.5938     2.9947     8.5376     10.6566    9.0793     4.7063     6.7525     17.1971    0.227     
2897       7.7118     2.9341     8.4954     10.6149    9.2453     5.1989     6.6722     17.1298    0.224     
2897.2     7.7658     2.8398     8.3138     10.4673    9.3919     5.6007     6.4343     17.5693    0.227     
2897.4     7.8265     2.631      7.8533     10.2524    9.5384     6.1257     6.4015     17.9511    0.226     
2897.6     7.9681     2.5771     7.675      10.2717    9.9194     6.7804     5.9843     17.8067    0.224     
2897.8     8.2648     2.5637     7.6263     10.6245    10.5283    7.422      5.7312     16.902     0.222     
2898       8.7639     2.7455     8.1095     11.1473    11.2804    7.96       6.4947     15.1952    0.221     
2898.2     9.3844     3.153      9.1862     12.4527    12.4624    8.5693     7.8558     13.8799    0.217     
2898.4     10.2813    3.8702     11.0736    14.3867    13.6411    9.1267     11.2384    12.4458    0.221     
2898.6     11.266     4.6784     13.4085    16.4972    15.279     9.6322     17.3546    10.3381    0.221     
2898.8     11.9202    5.6078     18.4675    19.8296    16.8647    9.7683     31.0819    9.3243     0.221     
2899       12.0787    5.4798     19.0188    20.7245    16.8321    9.5544     49.2391    8.8976     0.221     
2899.2     11.3874    4.5033     16.2006    19.3966    15.0901    8.8674     43.5205    8.9297     0.217     
2899.4     10.0116    3.8702     14.5078    18.2676    13.6639    8.0119     35.2919    9.0837     0.214     
2899.6     9.0404     3.685      13.6322    17.9116    12.7913    7.4285     6.5607     9.1895     0.219     
2899.8     8.2311     3.3954     11.9589    17.7192    12.1368    6.7868     4.9284     9.2986     0.217     
2900       7.4893     3.3449     11.0314    16.8115    11.186     6.3137     5.6758     9.1478     0.217     
2900.2     6.9969     2.9341     9.0273     15.4131    9.991      5.9767     5.5071     8.9457     0.214     
2900.4     6.6361     2.6041     7.8241     13.617     9.0597     5.6526     5.3507     9.3949     0.217     
2900.6     6.3192     2.6647     7.8501     12.7895    8.8807     5.3804     5.2848     10.1263    0.221     
2900.8     6.2483     2.4963     7.315      11.8722    8.7406     5.3933     4.1802     10.8385    0.224     
2901       6.1067     2.4728     7.1172     11.0639    8.7081     5.3998     4.1322     11.3551    0.224     
2901.2     5.9786     2.5435     7.0426     10.3775    8.7667     5.4517     4.4042     11.7015    0.221     
2901.4     6.046      2.5569     6.7053     9.8451     8.9783     5.5035     4.4326     12.0095    0.221     
2901.6     6.1944     2.7253     7.0491     9.55       9.2519     5.5359     5.2274     11.6887    0.222     
2901.8     6.4507     2.7421     7.1074     9.3768     9.5644     5.6396     5.6223     11.2684    0.219     
2902       6.6833     2.8028     7.4642     9.3095     10.0561    5.7563     6.3083     11.0759    0.221     
2902.2     6.9093     2.9644     8.1387     9.4923     10.512     5.8989     6.8743     11.0856    0.221     
2902.4     7.0745     2.9139     8.33       9.5853     10.8409    6.1452     6.7838     10.9027    0.221     
