~Version
 VERS              .         2.0                           : CWLS LOG ASCII STANDARD - VERSION 2.0
 WRAP              .         NO                            : ONE LINE PER DEPTH STEP
 DLM               .         SPACE                         : DELIMITING CHARACTER(SPACE TAB OR COMMA)
~Well Information
#_______________________________________________________________________________
#
#PARAMETER_NAME    .UNIT     VALUE                         : DESCRIPTION
#_______________________________________________________________________________
STRT               .m        2888                          : First reference value
STOP               .m        3109                          : Last reference value
STEP               .m        0.2                           : Step increment
NULL               .         -9999                         : Missing value
COMP               .                                       : Company
WELL               .         505                           : Well name
FLD                .                                       : Field
LOC                .                                       : Location
CNTY               .                                       : County
STAT               .                                       : State
CTRY               .                                       : Country
SRVC               .                                       : Service Company
DATE               .                                       : Date
API                .                                       : API number
EREF               .m        139.4                         : 
X                  .m        230550                        : 
Y                  .m        242075                        : 
group              .         Pad5                          : 
Интер-р            .         Старостина                    : 
Куст               .         5                             : 
Статус             .         Не проверено                  : 
Тип                .         Разведка                      : 
~Parameter Information Block
#_______________________________________________________________________________
#
#PARAMETER_NAME    .UNIT     VALUE                         : DESCRIPTION
#_______________________________________________________________________________
SET                .         LAS1                          : 
REAL_CREATION_DATE .         Ср апр 11 2012-13_17_19       : 
TLFamily_DEPTH     .         Measured Depth                : 
TLFamily_KS        .         Potential Resistivity         : 
TLFamily_KS1       .         Extra Shallow Resistivity     : 
TLFamily_KS2       .         Shallow Resistivity           : 
TLFamily_KS3       .         Medium Resistivity            : 
TLFamily_KS4       .         Deep Resistivity              : 
TLFamily_KS5       .         Extra Deep Resistivity        : 
TLFamily_LLD       .         Lateral Log Resistivity       : 
TLFamily_OKS3      .         Medium Resistivity Inverted   : 
TLFamily_RM        .         Mud Resistivity               : 
group              .         INI                           : 
~Curve Information
#_______________________________________________________________________________
#
#LOGNAME           .UNIT     LOG_ID                        : DESCRIPTION
#_______________________________________________________________________________
DEPTH              .m                                      : Measured Depth 
KS                 .ohm.m                                  : Potential Resistivity 
KS1                .ohm.m                                  : Extra Shallow Resistivity 
KS2                .ohm.m                                  : Shallow Resistivity 
KS3                .ohm.m                                  : Medium Resistivity 
KS4                .ohm.m                                  : Deep Resistivity 
KS5                .ohm.m                                  : Extra Deep Resistivity 
LLD                .ohm.m                                  : Lateral Log Resistivity 
OKS3               .ohm.m                                  : Medium Resistivity Inverted 
RM                 .ohm.m                                  : Mud Resistivity 
~Ascii
# ...
2946.4     6.363      2.7927     7.555      8.761      7.5131     5.6137     4.9933     10.1905    0.231     
2946.6     6.4203     2.8263     7.6523     8.7225     7.4414     5.6007     5.1082     10.2096    0.234     
2946.8     6.5114     2.8533     7.756      8.7738     7.4805     5.6526     5.2065     10.1969    0.234     
2947       6.6328     2.86       7.7852     8.8252     7.5456     5.7174     5.3262     10.1777    0.234     
2947.2     6.7609     2.8937     7.8533     9.0176     7.6398     5.7563     5.6418     10.2354    0.231     
2947.4     6.916      3.1833     8.5343     9.3832     7.8257     5.847      5.8534     10.1007    0.232     
2947.6     6.9969     3.2304     8.8067     9.704      7.995      5.8989     6.7851     9.9274     0.227     
2947.8     6.9969     3.3012     9.0143     9.8387     7.9755     5.9248     6.5928     9.9274     0.224     
2948       6.9596     3.3045     9.1764     10.0247    7.9299     5.8859     5.9234     10.0457    0.224     
2948.2     6.889      3.2304     9.1245     10.0568    7.8387     5.873      5.5843     10.1327    0.221     
2948.4     6.7002     3.1631     9.065      10.0504    7.6954     5.8211     5.3834     10.1392    0.221     
2948.6     6.5248     3.0149     8.8197     9.8708     7.487      5.7952     5.2355     10.1777    0.221     
2948.8     6.4237     2.9139     8.3333     9.6013     7.3503     5.7174     5.0904     10.4471    0.222     
2949       6.3697     2.8533     8.0673     9.3832     7.1679     5.6526     4.9156     10.8       0.224     
2949.2     6.3293     2.7254     7.7301     9.2678     7.0833     5.6137     4.6625     10.9284    0.227     
2949.4     6.3561     2.7118     7.6587     9.1844     7.0507     5.6137     4.6376     10.8006    0.231     
2949.6     6.4035     2.8061     7.7625     9.2713     7.1419     5.6526     5.4997     10.6525    0.227     
2949.8     6.5586     2.9071     7.8434     9.3127     7.2526     5.7174     5.8804     10.4985    0.224     
2950       6.7339     2.9745     7.9376     9.3319     7.3568     5.7433     6.0054     10.3188    0.227     
2950.2     6.8486     2.988      8.1257     9.3512     7.4284     5.7693     6.2378     10.1007    0.224     
2950.4     6.9362     3.0418     8.3722     9.4217     7.5066     5.8081     5.8444     9.8312     0.221     
2950.6     7.0037     3.1024     8.677      9.5949     7.6238     5.8341     5.7974     9.6964     0.224     
2950.8     7.0307     3.1663     8.917      9.7681     7.7605     5.8341     5.7873     9.6772     0.224     
2951       7.0173     3.19       9.1894     9.9218     7.8843     5.8341     5.7841     9.6869     0.224     
2951.2     6.8688     3.1631     9.1768     10.0183    7.9689     5.8341     5.7994     9.6515     0.224     
2951.4     6.7137     3.089      9.0467     10.1979    7.9364     5.8019     5.4298     9.6836     0.227     
2951.6     6.5855     3.0149     8.7873     10.1915    7.8742     5.7822     5.0553     9.7221     0.229     
2951.8     6.4709     2.9004     8.45       10.076     7.8126     5.7044     5.0197     9.6772     0.231     
2952       6.39       2.8601     8.1776     9.89       7.5717     5.6267     4.9711     9.7093     0.231     
2952.2     6.363      2.8398     8.0349     9.736      7.4284     5.5359     5.016      9.8633     0.231     
2952.4     6.363      2.8263     7.8663     9.6336     7.3373     5.4841     4.9761     9.9336     0.231     
2952.6     6.363      2.7724     7.7786     9.5757     7.3438     5.4581     4.9047     9.9787     0.234     
2952.8     6.39       2.8196     7.8403     9.5051     7.3959     5.4581     5.2045     9.9595     0.234     
2953       6.4439     2.9004     7.9571     9.473      7.4218     5.4776     5.406      9.9659     0.234     
2953.2     6.4911     2.9273     8.009      9.4538     7.4805     5.523      5.5244     9.9467     0.234     
2953.4     6.5114     2.9273     8.0609     9.4217     7.5847     5.5619     5.4889     9.9723     0.231     
2953.6     6.5248     2.9133     8.0414     9.3832     7.6759     5.5878     5.36       10.0942    0.231     
2953.8     6.5418     2.9139     8.2814     9.4664     7.8126     5.6137     5.3034     10.2548    0.234     
2954       6.5451     3.0216     8.3916     9.5372     7.9038     5.6137     5.4181     10.3252    0.227     
2954.2     6.5046     2.961      8.1797     9.4666     7.8126     5.6396     5.3428     10.4471    0.224     
2954.4     6.4776     2.8802     8.0219     9.2421     7.6923     5.6396     5.021      10.5498    0.221     
2954.6     6.5181     2.8533     7.9441     9.1651     7.6694     5.6137     5.1388     10.6717    0.221     
2954.8     6.5855     2.9408     7.9636     9.3255     7.6629     5.6267     5.2415     10.5947    0.224     
2955       6.6597     3.1131     8.5214     9.5179     7.7671     5.6526     5.7103     10.4086    0.231     
2955.2     6.6631     3.0284     8.3138     9.5115     7.7345     5.6915     6.3077     10.1263    0.224     
2955.4     6.6867     3.0486     8.2749     9.441      7.6108     5.6915     5.8858     10.1167    0.231     
2955.6     6.7339     3.0486     8.4108     9.4281     7.5652     5.7044     5.5574     10.0622    0.231     
2955.8     6.7137     2.9812     8.3981     9.364      7.4938     5.7107     5.4122     10.0365    0.227     
2956       6.6732     2.9004     8.249      9.2614     7.4414     5.7304     5.3429     10.0044    0.227     
2956.2     6.6867     2.8869     8.236      9.2357     7.4284     5.7822     5.1617     10.0108    0.224     
2956.4     6.7542     2.9341     8.2036     9.4987     7.5977     5.847      5.3772     9.9659     0.221     
2956.6     6.8486     3.0826     8.7419     9.9092     7.8452     5.873      5.383      9.6387     0.224     
2956.8     6.8722     3.2439     8.9429     10.1273    7.9103     5.8989     6.1546     9.3638     0.224     
2957       6.8688     3.19       8.7159     10.1273    7.7866     5.86       6.8795     9.0805     0.224     
2957.2     6.889      3.1429     8.6768     10.0183    7.6824     5.8149     5.7007     8.9714     0.227     
2957.4     6.8621     3.1159     8.7224     9.967      7.6796     5.7952     5.4476     9.0099     0.231     
2957.6     6.7879     3.1563     8.8781     10.0568    7.7475     5.7952     5.4714     9.0484     0.234     
2957.8     6.7204     3.1631     9.0467     10.1209    7.8061     5.7952     5.4599     9.042      0.234     
2958       6.5923     3.1092     8.7613     10.0055    7.7605     5.8081     5.8535     9.0355     0.234     
2958.2     6.5148     3.089      8.6251     9.9285     7.6889     5.7563     5.241      9.1542     0.234     
2958.4     6.4574     3.0418     8.4565     9.8545     7.6108     5.7044     5.0893     9.305      0.231     
2958.6     6.336      2.9812     8.3333     9.781      7.5131     5.6396     4.9749     9.4847     0.231     
2958.8     6.2281     2.9206     8.236      9.6911     7.4515     5.6137     4.749      9.5296     0.227     
2959       6.1404     2.8667     8.0284     9.4474     7.3633     5.523      4.6991     9.5873     0.226     
2959.2     6.0595     2.7455     7.6069     9.024      7.194      5.4711     4.6502     9.7285     0.224     
2959.4     6.073      2.7051     7.3798     8.7097     7.0051     5.4063     4.504      9.8376     0.221     
2959.6     6.1167     2.7118     7.315      8.5365     6.9009     5.3804     4.457      9.9723     0.224     
2959.8     6.1876     2.7388     7.3409     8.4916     6.8879     5.3933     4.8094     10.1177    0.224     
2960       6.309      2.8129     7.4606     8.4852     6.9335     5.4452     5.0684     10.4856    0.231     
2960.2     6.39       2.8398     7.5096     8.4595     6.9791     5.51       5.1423     11.3326    0.227     
2960.4     6.4574     2.7792     7.516      8.3825     7.0347     5.7044     5.0776     12.449     0.227     
2960.6     6.5855     2.7455     7.4317     8.575      7.3112     5.8341     4.9987     12.8789    0.224     
2960.8     6.7339     3.1294     8.3722     9.0048     7.715      5.8989     4.9903     12.6415    0.227     
