~Version
 VERS              .         2.0                           : CWLS LOG ASCII STANDARD - VERSION 2.0
 WRAP              .         NO                            : ONE LINE PER DEPTH STEP
 DLM               .         SPACE                         : DELIMITING CHARACTER(SPACE TAB OR COMMA)
~Well Information
#_______________________________________________________________________________
#
#PARAMETER_NAME    .UNIT     VALUE                         : DESCRIPTION
#_______________________________________________________________________________
STRT               .m        2888                          : First reference value
STOP               .m        3109                          : Last reference value
STEP               .m        0.2                           : Step increment
NULL               .         -9999                         : Missing value
COMP               .                                       : Company
WELL               .         505                           : Well name
FLD                .                                       : Field
LOC                .                                       : Location
CNTY               .                                       : County
STAT               .                                       : State
CTRY               .                                       : Country
SRVC               .                                       : Service Company
DATE               .                                       : Date
API                .                                       : API number
EREF               .m        139.4                         : 
X                  .m        230550                        : 
Y                  .m        242075                        : 
group              .         Pad5                          : 
Интер-р            .         Старостина                    : 
Куст               .         5                             : 
Статус             .         Не проверено                  : 
Тип                .         Разведка                      : 
~Parameter Information Block
#_______________________________________________________________________________
#
#PARAMETER_NAME    .UNIT     VALUE                         : DESCRIPTION
#_______________________________________________________________________________
SET                .         LAS3                          : 
REAL_CREATION_DATE .         Ср апр 11 2012-13_17_19       : 
TLFamily_DEPTH     .         Measured Depth                : 
TLFamily_GR        .         Gamma Ray                     : 
TLFamily_TNPH      .         Neutron Porosity              : 
group              .         INI                           : 
~Curve Information
#_______________________________________________________________________________
#
#LOGNAME           .UNIT     LOG_ID                        : DESCRIPTION
#_______________________________________________________________________________
DEPTH              .m                                      : Measured Depth 
GR                 .gAPI                                   :  
TNPH               .v/v                                    : Neutron Porosity 
~Ascii
# ...
2985.2     314.1      0.324     
2985.4     328.5      0.327     
2985.6     345.25     0.329     
2985.8     352.04     0.34      
2986       352.22     0.354     
2986.2     347.56     0.361     
2986.4     331.94     0.373     
2986.6     304.07     0.394     
2986.8     284.6      0.377     
2987       276.03     0.382     
2987.2     279.18     0.391     
2987.4     277.34     0.38      
2987.6     269.71     0.391     
2987.8     271.95     0.409     
2988       291.79     0.373     
2988.2     302.97     0.326     
2988.4     298.49     0.328     
2988.6     305.23     0.353     
2988.8     315.55     0.358     
2989       310.15     0.35      
2989.2     297.67     0.371     
2989.4     291.03     0.39      
2989.6     291.74     0.372     
2989.8     292.33     0.369     
2990       289.65     0.39      
2990.2     276.31     0.386     
2990.4     263.91     0.362     
2990.6     268.49     0.35      
2990.8     278.1      0.361     
2991       275.75     0.393     
2991.2     255.75     0.417     
2991.4     226.09     0.385     
2991.6     198.52     0.332     
2991.8     174.27     0.293     
2992       156.44     0.292     
2992.2     163.43     0.302     
2992.4     189.26     0.305     
2992.6     202.94     0.327     
2992.8     202.88     0.355     
2993       202.6      0.372     
2993.2     201.79     0.386     
2993.4     199.91     0.385     
2993.6     192.6      0.356     
2993.8     174.81     0.323     
2994       155.22     0.315     
2994.2     146.56     0.319     
2994.4     140.31     0.293     
2994.6     131.78     0.264     
2994.8     130.07     0.27      
2995       138.24     0.293     
2995.2     148.66     0.328     
2995.4     153.81     0.332     
2995.6     151.87     0.302     
2995.8     148.08     0.282     
2996       142.98     0.281     
2996.2     158.05     0.279     
2996.4     174.79     0.269     
2996.6     155.76     0.263     
2996.8     137.47     0.268     
2997       137.6      0.263     
2997.2     138.19     0.26      
2997.4     126.85     0.254     
2997.6     119.65     0.262     
2997.8     116.55     0.283     
2998       116.11     0.288     
2998.2     119.53     0.3       
2998.4     118.95     0.305     
2998.6     116.59     0.285     
2998.8     118.95     0.286     
2999       121.83     0.298     
2999.2     121.29     0.286     
2999.4     114.27     0.283     
2999.6     110.24     0.295     
2999.8     115.04     0.294     
3000       125.85     0.292     
3000.2     134.39     0.292     
3000.4     133.43     0.29      
3000.6     122.9      0.278     
3000.8     114.8      0.256     
3001       118.62     0.265     
3001.2     129.53     0.311     
3001.4     139.43     0.336     
3001.6     145.43     0.34      
3001.8     147.62     0.324     
3002       149.44     0.334     
3002.2     142.96     0.339     
3002.4     127.15     0.292     
3002.6     112.24     0.278     
3002.8     112.35     0.312     
3003       126.93     0.335     
3003.2     136.7      0.33      
3003.4     136.74     0.34      
3003.6     127.37     0.334     
3003.8     109.91     0.302     
3004       98.95      0.293     
3004.2     98.38      0.319     
3004.4     100.21     0.351     
3004.6     104.13     0.335     
3004.8     112.77     0.329     
3005       123.98     0.331     
3005.2     134.87     0.324     
3005.4     145.22     0.315     
3005.6     144.33     0.301     
3005.8     126.11     0.281     
3006       108.16     0.272     
3006.2     103.69     0.282     
3006.4     107.11     0.321     
3006.6     113.81     0.369     
3006.8     127.03     0.394     
3007       137.5      0.387     
3007.2     140.78     0.359     
3007.4     140.91     0.349     
3007.6     143.95     0.337     
3007.8     148.78     0.307     
3008       145.24     0.291     
3008.2     139.82     0.311     
3008.4     151.08     0.337     
3008.6     153.53     0.357     
3008.8     140.71     0.351     
3009       132.37     0.367     
3009.2     136.61     0.39      
3009.4     142.92     0.354     
3009.6     155.22     0.345     
3009.8     188.37     0.366     
3010       216.56     0.365     
3010.2     209.6      0.335     
3010.4     180.07     0.305     
3010.6     161.31     0.274     
3010.8     147.48     0.277     
3011       136.11     0.283     
3011.2     123.1      0.313     
3011.4     123.3      0.325     
3011.6     132.61     0.357     
3011.8     135.38     0.378     
3012       128.63     0.361     
3012.2     119.7      0.35      
3012.4     116.93     0.339     
3012.6     119.39     0.329     
3012.8     117.3      0.306     
3013       110.92     0.274     
3013.2     100.55     0.236     
3013.4     97.89      0.223     
3013.6     116.46     0.251     
3013.8     137.83     0.299     
3014       149.82     0.337     
3014.2     149.94     0.353     
3014.4     140.19     0.339     
3014.6     127.05     0.326     
3014.8     120.52     0.32      
3015       124.86     0.322     
3015.2     126.67     0.324     
3015.4     123.19     0.284     
3015.6     122.29     0.245     
3015.8     127.76     0.277     
3016       136.26     0.32      
3016.2     139.85     0.321     
3016.4     134.56     0.346     
3016.6     128.31     0.333     
3016.8     124.7      0.301     
3017       124.6      0.293     
3017.2     129.55     0.274     
3017.4     132.9      0.265     
3017.6     134.45     0.267     
3017.8     135.01     0.276     
3018       132.07     0.301     
3018.2     133.41     0.307     
3018.4     134.03     0.27      
3018.6     114.62     0.224     
3018.8     77.57      0.184     
3019       56.78      0.173     
3019.2     73.86      0.209     
3019.4     126.28     0.29      
3019.6     140.98     0.278     
3019.8     139.39     0.273     
3020       133.73     0.285     
3020.2     130.02     0.301     
3020.4     126        0.307     
3020.6     120.98     0.303     
3020.8     120.26     0.281     
3021       120.51     0.268     
3021.2     118.15     0.285     
3021.4     115.99     0.298     
3021.6     116.38     0.303     
3021.8     114.86     0.326     
3022       111.39     0.339     
3022.2     113.94     0.318     
3022.4     116.61     0.293     
3022.6     120.24     0.295     
3022.8     131.86     0.3       
3023       137.59     0.312     
3023.2     135.73     0.313     
3023.4     134.26     0.304     
3023.6     134.4      0.307     
3023.8     137.46     0.304     
3024       139.65     0.291     
3024.2     140.9      0.294     
3024.4     137.25     0.345     
3024.6     128.35     0.367     
3024.8     126.09     0.323     
3025       131.31     0.287     
3025.2     138.24     0.288     
3025.4     142.91     0.319     
3025.6     139.8      0.34      
3025.8     131.86     0.342     
3026       134.15     0.31      
3026.2     138.54     0.258     
3026.4     133.21     0.258     
3026.6     127.82     0.299     
3026.8     128.92     0.303     
3027       128.83     0.296     
3027.2     127.75     0.314     
3027.4     128.98     0.318     
3027.6     128.63     0.287     
3027.8     124.12     0.293     
3028       120.44     0.327     
3028.2     119.1      0.324     
3028.4     117.74     0.295     
3028.6     117.81     0.299     
3028.8     119.55     0.335     
3029       120.46     0.357     
3029.2     122.18     0.353     
3029.4     121.08     0.32      
3029.6     121.2      0.305     
3029.8     129.04     0.316     
3030       132.33     0.346     
3030.2     132.11     0.358     
3030.4     131.51     0.342     
3030.6     129.76     0.364     
3030.8     129.78     0.383     
3031       126.95     0.38      
3031.2     125.94     0.342     
3031.4     129.76     0.311     
3031.6     133.65     0.31      
3031.8     134.62     0.316     
3032       135.9      0.325     
3032.2     135.59     0.337     
3032.4     131.93     0.336     
3032.6     129.69     0.319     
3032.8     131.93     0.318     
3033       136.65     0.291     
3033.2     138.92     0.262     
3033.4     137.3      0.237     
3033.6     151.7      0.206     
