~Version
 VERS              .         2.0                           : CWLS LOG ASCII STANDARD - VERSION 2.0
 WRAP              .         NO                            : ONE LINE PER DEPTH STEP
 DLM               .         SPACE                         : DELIMITING CHARACTER(SPACE TAB OR COMMA)
~Well Information
#_______________________________________________________________________________
#
#PARAMETER_NAME    .UNIT     VALUE                         : DESCRIPTION
#_______________________________________________________________________________
STRT               .m        2888                          : First reference value
STOP               .m        3109                          : Last reference value
STEP               .m        0.2                           : Step increment
NULL               .         -9999                         : Missing value
COMP               .                                       : Company
WELL               .         505                           : Well name
FLD                .                                       : Field
LOC                .                                       : Location
CNTY               .                                       : County
STAT               .                                       : State
CTRY               .                                       : Country
SRVC               .                                       : Service Company
DATE               .                                       : Date
API                .                                       : API number
EREF               .m        139.4                         : 
X                  .m        230550                        : 
Y                  .m        242075                        : 
group              .         Pad5                          : 
Интер-р            .         Старостина                    : 
Куст               .         5                             : 
Статус             .         Не проверено                  : 
Тип                .         Разведка                      : 
~Parameter Information Block
#_______________________________________________________________________________
#
#PARAMETER_NAME    .UNIT     VALUE                         : DESCRIPTION
#_______________________________________________________________________________
SET                .         LAS3                          : 
REAL_CREATION_DATE .         Ср апр 11 2012-13_17_19       : 
TLFamily_DEPTH     .         Measured Depth                : 
TLFamily_GR        .         Gamma Ray                     : 
TLFamily_TNPH      .         Neutron Porosity              : 
group              .         INI                           : 
~Curve Information
#_______________________________________________________________________________
#
#LOGNAME           .UNIT     LOG_ID                        : DESCRIPTION
#_______________________________________________________________________________
DEPTH              .m                                      : Measured Depth 
GR                 .gAPI                                   :  
TNPH               .v/v                                    : Neutron Porosity 
~Ascii
# ...
2936.6     107.24     0.23      
2936.8     105.14     0.245     
2937       98.63      0.243     
2937.2     87.72      0.24      
2937.4     85         0.235     
2937.6     94.93      0.232     
2937.8     107.42     0.236     
2938       114.39     0.225     
2938.2     113.55     0.215     
2938.4     109.7      0.232     
2938.6     108.35     0.247     
2938.8     106.41     0.254     
2939       100.2      0.264     
2939.2     95.48      0.25      
2939.4     95.25      0.253     
2939.6     94.38      0.264     
2939.8     94.5       0.253     
2940       103.25     0.256     
2940.2     109.31     0.273     
2940.4     102        0.287     
2940.6     92.28      0.288     
2940.8     92.53      0.281     
2941       96.52      0.285     
2941.2     98.21      0.289     
2941.4     100.24     0.287     
2941.6     93.14999   0.272     
2941.8     84.83      0.249     
2942       87.88      0.243     
2942.2     91.87      0.242     
2942.4     89.81      0.242     
2942.6     86.38      0.25      
2942.8     86.52      0.258     
2943       86.77      0.257     
2943.2     87.16      0.245     
2943.4     84.93      0.233     
2943.6     82.75      0.231     
2943.8     82.85      0.228     
2944       83.85001   0.226     
2944.2     88.05      0.252     
2944.4     97.37      0.275     
2944.6     104.09     0.246     
2944.8     104.89     0.239     
2945       106.98     0.267     
2945.2     107.8      0.287     
2945.4     103.62     0.278     
2945.6     98.95      0.267     
2945.8     93.64999   0.27      
2946       91.42      0.263     
2946.2     97.23      0.262     
2946.4     101.51     0.264     
2946.6     98.98      0.249     
2946.8     98.84      0.231     
2947       98.21      0.238     
2947.2     91.22      0.234     
2947.4     82         0.231     
2947.6     76.72      0.244     
2947.8     79.75999   0.254     
2948       87.38      0.252     
2948.2     92.71      0.254     
2948.4     96.94      0.265     
2948.6     101.05     0.268     
2948.8     106.54     0.272     
2949       109.73     0.287     
2949.2     104.45     0.277     
2949.4     96.98      0.265     
2949.6     94.41      0.271     
2949.8     94.35001   0.261     
2950       96.11      0.242     
2950.2     96.04      0.24      
2950.4     96.2       0.249     
2950.6     95.68      0.236     
2950.8     89.79      0.236     
2951       88.99001   0.254     
2951.2     93.12      0.262     
2951.4     97.93999   0.255     
2951.6     99.58      0.25      
2951.8     102.66     0.252     
2952       104.18     0.271     
2952.2     97.08      0.272     
2952.4     93.67      0.267     
2952.6     96.48      0.269     
2952.8     102.97     0.262     
2953       108.46     0.276     
2953.2     107.47     0.281     
2953.4     107.27     0.282     
2953.6     103.82     0.301     
2953.8     98.2       0.307     
2954       95.66      0.291     
2954.2     94.86      0.271     
2954.4     103.97     0.267     
2954.6     109.74     0.278     
2954.8     103.7      0.276     
2955       94.87      0.256     
2955.2     91.12      0.244     
2955.4     93.88      0.245     
2955.6     98.9       0.248     
2955.8     98.71001   0.25      
2956       95.26      0.251     
2956.2     94.64      0.25      
2956.4     97.9       0.237     
2956.6     93.8       0.232     
2956.8     83.29001   0.245     
2957       82.97      0.266     
2957.2     86.63      0.281     
2957.4     87.08      0.281     
2957.6     90.69      0.274     
2957.8     94.22      0.277     
2958       96.21001   0.296     
2958.2     97.38      0.292     
2958.4     94.6       0.264     
2958.6     92.46001   0.249     
2958.8     95.48      0.256     
2959       99.16      0.269     
2959.2     100.64     0.285     
2959.4     101.77     0.292     
2959.6     101.95     0.278     
2959.8     101.31     0.266     
2960       99.75      0.267     
2960.2     98.13      0.266     
2960.4     98.05      0.265     
2960.6     99.29      0.275     
2960.8     94.64      0.276     
2961       84.56001   0.256     
2961.2     89.7       0.242     
2961.4     94.57      0.242     
2961.6     93.83      0.254     
2961.8     98.77      0.263     
2962       103.62     0.26      
2962.2     106.49     0.25      
2962.4     106.06     0.234     
2962.6     100.97     0.214     
2962.8     89.45      0.201     
2963       74.54001   0.198     
2963.2     64.42001   0.19      
2963.4     71.22      0.185     
2963.6     78.12      0.199     
2963.8     77.87      0.218     
2964       76.59      0.226     
2964.2     77.25      0.231     
2964.4     82.67      0.237     
2964.6     91.11      0.229     
2964.8     88.50999   0.213     
2965       83.56      0.203     
2965.2     84.54001   0.198     
2965.4     82.64      0.203     
2965.6     82.77      0.209     
2965.8     92.93999   0.22      
2966       99.75      0.255     
2966.2     101.96     0.274     
2966.4     105        0.27      
2966.6     106.59     0.262     
2966.8     109.23     0.255     
2967       118.31     0.258     
2967.2     128.55     0.289     
2967.4     133.03     0.305     
2967.6     135.61     0.287     
2967.8     133.37     0.282     
2968       130.2      0.3       
2968.2     132.87     0.322     
2968.4     134.56     0.317     
2968.6     133.74     0.295     
2968.8     136.93     0.285     
2969       139.89     0.283     
2969.2     134.99     0.279     
2969.4     126.64     0.281     
2969.6     124.46     0.278     
2969.8     125.03     0.266     
2970       125.44     0.259     
2970.2     125.09     0.269     
2970.4     118.94     0.286     
2970.6     116.33     0.292     
2970.8     119.08     0.289     
2971       111.41     0.273     
2971.2     98.54      0.265     
2971.4     99.09      0.274     
2971.6     106.58     0.271     
2971.8     113.65     0.252     
2972       117.32     0.237     
2972.2     116.16     0.228     
2972.4     114.37     0.221     
2972.6     112.94     0.23      
2972.8     112.9      0.248     
2973       116.91     0.255     
2973.2     121.54     0.266     
2973.4     120.8      0.277     
2973.6     120.56     0.275     
2973.8     125.62     0.257     
2974       143.61     0.248     
2974.2     179.15     0.258     
2974.4     202.68     0.275     
2974.6     191.85     0.286     
2974.8     171.38     0.286     
2975       169.24     0.279     
2975.2     180.45     0.281     
2975.4     187.32     0.292     
2975.6     197.05     0.303     
2975.8     209.66     0.333     
2976       220.33     0.34      
2976.2     218.96     0.311     
2976.4     203.93     0.315     
2976.6     187.95     0.351     
2976.8     176.75     0.358     
2977       177.13     0.323     
2977.2     182.78     0.296     
2977.4     189.24     0.311     
2977.6     202.41     0.333     
2977.8     217.41     0.33      
2978       230.68     0.339     
2978.2     243.54     0.348     
2978.4     249.64     0.351     
2978.6     243.91     0.345     
2978.8     233.83     0.335     
2979       227.69     0.336     
2979.2     227.93     0.33      
2979.4     207.78     0.326     
2979.6     181.06     0.331     
2979.8     172.26     0.312     
2980       165.28     0.296     
2980.2     158.68     0.299     
2980.4     161.22     0.31      
2980.6     170.31     0.327     
2980.8     188.94     0.359     
2981       212.61     0.367     
2981.2     227.34     0.35      
2981.4     233.69     0.341     
2981.6     238.03     0.345     
2981.8     253.93     0.335     
2982       307.4      0.32      
2982.2     389.88     0.344     
2982.4     419.81     0.346     
2982.6     381.39     0.329     
2982.8     335.91     0.327     
2983       310.6      0.3       
2983.2     288.94     0.287     
2983.4     262.12     0.307     
2983.6     257.58     0.34      
2983.8     292.21     0.375     
2984       331.37     0.368     
2984.2     336.97     0.346     
2984.4     320.49     0.325     
2984.6     311.81     0.332     
2984.8     310.08     0.341     
2985       310.08     0.329     
