~Version
 VERS              .         2.0                           : CWLS LOG ASCII STANDARD - VERSION 2.0
 WRAP              .         NO                            : ONE LINE PER DEPTH STEP
 DLM               .         SPACE                         : DELIMITING CHARACTER(SPACE TAB OR COMMA)
~Well Information
#_______________________________________________________________________________
#
#PARAMETER_NAME    .UNIT     VALUE                         : DESCRIPTION
#_______________________________________________________________________________
STRT               .m        2888                          : First reference value
STOP               .m        3109                          : Last reference value
STEP               .m        0.2                           : Step increment
NULL               .         -9999                         : Missing value
COMP               .                                       : Company
WELL               .         505                           : Well name
FLD                .                                       : Field
LOC                .                                       : Location
CNTY               .                                       : County
STAT               .                                       : State
CTRY               .                                       : Country
SRVC               .                                       : Service Company
DATE               .                                       : Date
API                .                                       : API number
EREF               .m        139.4                         : 
X                  .m        230550                        : 
Y                  .m        242075                        : 
group              .         Pad5                          : 
Интер-р            .         Старостина                    : 
Куст               .         5                             : 
Статус             .         Не проверено                  : 
Тип                .         Разведка                      : 
~Parameter Information Block
#_______________________________________________________________________________
#
#PARAMETER_NAME    .UNIT     VALUE                         : DESCRIPTION
#_______________________________________________________________________________
SET                .         LAS3                          : 
REAL_CREATION_DATE .         Ср апр 11 2012-13_17_19       : 
TLFamily_DEPTH     .         Measured Depth                : 
TLFamily_GR        .         Gamma Ray                     : 
TLFamily_TNPH      .         Neutron Porosity              : 
group              .         INI                           : 
~Curve Information
#_______________________________________________________________________________
#
#LOGNAME           .UNIT     LOG_ID                        : DESCRIPTION
#_______________________________________________________________________________
DEPTH              .m                                      : Measured Depth 
GR                 .gAPI                                   :  
TNPH               .v/v                                    : Neutron Porosity 
~Ascii
2888.0     80.60001   0.288     
2888.2     92.35      0.273     
2888.4     93.42      0.275     
2888.6     89.61      0.252     
2888.8     86.49001   0.221     
2889       91.36      0.213     
2889.2     102.28     0.226     
2889.4     108.01     0.244     
2889.6     101.86     0.262     
2889.8     88.14999   0.252     
2890       83.43001   0.224     
2890.2     83.25      0.215     
2890.4     81.3       0.213     
2890.6     88.05      0.223     
2890.8     98.09      0.247     
2891       101.64     0.245     
2891.2     99.99      0.228     
2891.4     97.83      0.218     
2891.6     96.04      0.22      
2891.8     99.75      0.231     
2892       105.78     0.222     
2892.2     108.65     0.212     
2892.4     104.89     0.225     
2892.6     95.62      0.238     
2892.8     95.02      0.239     
2893       100.01     0.241     
2893.2     98.49      0.241     
2893.4     97.19      0.243     
2893.6     100.82     0.25      
2893.8     104.39     0.235     
2894       107.4      0.224     
2894.2     110.82     0.246     
2894.4     108.81     0.253     
2894.6     101.57     0.234     
2894.8     95.37      0.22      
2895       87.87      0.22      
2895.2     82.37      0.231     
2895.4     81.79      0.245     
2895.6     79.68001   0.245     
2895.8     79.25999   0.241     
2896       82.12      0.234     
2896.2     85.24001   0.224     
2896.4     90.56      0.23      
2896.6     90.73      0.23      
2896.8     85.60001   0.226     
2897       86.68      0.234     
2897.2     96.08      0.244     
2897.4     102.79     0.25      
2897.6     96.89      0.239     
2897.8     80.91      0.22      
2898       69.28001   0.201     
2898.2     64.57      0.179     
2898.4     61.43      0.154     
2898.6     58.24      0.135     
2898.8     52.14      0.129     
2899       48.1       0.137     
2899.2     55.61      0.142     
2899.4     61.06      0.18      
2899.6     64.25999   0.214     
2899.8     74.44      0.228     
2900       83.04      0.236     
2900.2     82.5       0.232     
2900.4     84.57      0.22      
2900.6     85.60001   0.226     
2900.8     79.93      0.25      
2901       74.94      0.263     
2901.2     73.74      0.253     
2901.4     75.92      0.234     
2901.6     79.18      0.23      
2901.8     85.47      0.234     
2902       96.42999   0.226     
2902.2     102.7      0.215     
2902.4     101.54     0.216     
2902.6     104.36     0.223     
2902.8     105.42     0.232     
2903       96.58      0.245     
2903.2     85.88      0.246     
2903.4     85.06      0.254     
2903.6     90.16      0.278     
2903.8     88.84      0.271     
2904       84.95      0.243     
2904.2     90.67001   0.239     
2904.4     98.06      0.245     
2904.6     98.23      0.228     
2904.8     99.35001   0.217     
2905       100.3      0.223     
2905.2     94.37      0.229     
2905.4     92.52      0.237     
2905.6     99.23      0.241     
2905.8     101.39     0.244     
2906       92.5       0.248     
2906.2     79.71      0.248     
2906.4     70.36      0.252     
2906.6     67.01      0.268     
2906.8     71.42999   0.275     
2907       75.56      0.269     
2907.2     80.79001   0.263     
2907.4     90.38      0.244     
2907.6     100.65     0.239     
2907.8     105.19     0.256     
2908       109.13     0.272     
2908.2     109.69     0.269     
2908.4     105.76     0.26      
2908.6     97.16      0.252     
2908.8     79.13      0.227     
2909       66.6       0.204     
2909.2     63.56      0.212     
2909.4     62.49      0.231     
2909.6     61.35      0.225     
2909.8     59.83      0.193     
2910       63.2       0.19      
2910.2     73.11      0.217     
2910.4     77.53      0.204     
2910.6     72.67999   0.215     
2910.8     69.57      0.235     
2911       71.74      0.242     
2911.2     72.88      0.246     
2911.4     74.68001   0.241     
2911.6     75.74001   0.237     
2911.8     74.46999   0.251     
2912       72.33      0.266     
2912.2     73.03001   0.263     
2912.4     71.95      0.245     
2912.6     70.27      0.237     
2912.8     74.34      0.233     
2913       76.95      0.219     
2913.2     76.05      0.23      
2913.4     72.28      0.251     
2913.6     69.86      0.249     
2913.8     74.27      0.23      
2914       78.00999   0.218     
2914.2     76.3       0.222     
2914.4     77.17      0.231     
2914.6     86.99001   0.249     
2914.8     88.83      0.263     
2915       75.42      0.237     
2915.2     68.64      0.245     
2915.4     72.52      0.29      
2915.6     79.37      0.293     
2915.8     83.2       0.269     
2916       84.56001   0.268     
2916.2     93.54      0.261     
2916.4     104.86     0.244     
2916.6     106.79     0.235     
2916.8     101.15     0.229     
2917       98.54      0.23      
2917.2     100.01     0.237     
2917.4     103.14     0.249     
2917.6     107.82     0.256     
2917.8     112.06     0.247     
2918       111.61     0.234     
2918.2     109.4      0.228     
2918.4     108.07     0.243     
2918.6     107.67     0.262     
2918.8     108.84     0.276     
2919       104.57     0.282     
2919.2     93.98      0.281     
2919.4     86.79      0.265     
2919.6     85.66      0.244     
2919.8     82.2       0.246     
2920       81.34      0.235     
2920.2     80.8       0.206     
2920.4     68.52      0.178     
2920.6     57.57      0.151     
2920.8     57.88      0.119     
2921       54.75      0.086     
2921.2     49.96      0.081     
2921.4     47.63      0.099     
2921.6     45.25      0.133     
2921.8     49.42      0.176     
2922       62.29      0.207     
2922.2     77.62      0.22      
2922.4     90.55      0.22      
2922.6     97.64      0.232     
2922.8     101        0.25      
2923       105.8      0.266     
2923.2     108.56     0.26      
2923.4     107.98     0.247     
2923.6     108.28     0.25      
2923.8     108.97     0.259     
2924       108.07     0.253     
2924.2     107.58     0.245     
2924.4     108.03     0.252     
2924.6     102.2      0.244     
2924.8     97.83      0.226     
2925       99.18      0.225     
2925.2     99.56001   0.223     
2925.4     102.79     0.211     
2925.6     106.58     0.208     
2925.8     106.64     0.216     
2926       109.34     0.223     
2926.2     114.56     0.228     
2926.4     112.96     0.237     
2926.6     107.94     0.238     
2926.8     106.8      0.229     
2927       109.09     0.234     
2927.2     109.84     0.241     
2927.4     111.44     0.244     
2927.6     111.23     0.255     
2927.8     104.97     0.259     
2928       94.59      0.255     
2928.2     92.71      0.242     
2928.4     103.25     0.236     
2928.6     110.22     0.245     
2928.8     110.29     0.25      
2929       110.98     0.251     
2929.2     110.75     0.232     
2929.4     110.21     0.226     
2929.6     111.2      0.244     
2929.8     110.51     0.245     
2930       105.2      0.232     
2930.2     101.95     0.227     
2930.4     107.79     0.232     
2930.6     111.63     0.243     
2930.8     108.44     0.26      
2931       105.57     0.27      
2931.2     101.84     0.229     
2931.4     92.9       0.209     
2931.6     88.58      0.218     
2931.8     86.51      0.244     
2932       99.46999   0.267     
2932.2     101.01     0.278     
2932.4     96.14999   0.257     
2932.6     96.66      0.234     
2932.8     100.84     0.226     
2933       105.42     0.236     
2933.2     107.14     0.24      
2933.4     105.17     0.233     
2933.6     99.75      0.228     
2933.8     92.37      0.231     
2934       94.20999   0.249     
2934.2     101.29     0.268     
2934.4     102.89     0.263     
2934.6     104.96     0.245     
2934.8     108.96     0.242     
2935       110.25     0.236     
2935.2     112.37     0.232     
2935.4     114.48     0.254     
2935.6     113.96     0.269     
2935.8     111.81     0.282     
2936       107.57     0.292     
2936.2     104.09     0.25      
2936.4     105.93     0.218     
