~Version
 VERS              .         2.0                           : CWLS LOG ASCII STANDARD - VERSION 2.0
 WRAP              .         NO                            : ONE LINE PER DEPTH STEP
 DLM               .         SPACE                         : DELIMITING CHARACTER(SPACE TAB OR COMMA)
~Well Information
#_______________________________________________________________________________
#
#PARAMETER_NAME    .UNIT     VALUE                         : DESCRIPTION
#_______________________________________________________________________________
STRT               .m        2888                          : First reference value
STOP               .m        3109                          : Last reference value
STEP               .m        0.2                           : Step increment
NULL               .         -9999                         : Missing value
COMP               .                                       : Company
WELL               .         505                           : Well name
FLD                .                                       : Field
LOC                .                                       : Location
CNTY               .                                       : County
STAT               .                                       : State
CTRY               .                                       : Country
SRVC               .                                       : Service Company
DATE               .                                       : Date
API                .                                       : API number
EREF               .m        139.4                         : 
X                  .m        230550                        : 
Y                  .m        242075                        : 
group              .         Pad5                          : 
Интер-р            .         Старостина                    : 
Куст               .         5                             : 
Статус             .         Не проверено                  : 
Тип                .         Разведка                      : 
~Parameter Information Block
#_______________________________________________________________________________
#
#PARAMETER_NAME    .UNIT     VALUE                         : DESCRIPTION
#_______________________________________________________________________________
SET                .         LAS1                          : 
REAL_CREATION_DATE .         Ср апр 11 2012-13_17_19       : 
TLFamily_DEPTH     .         Measured Depth                : 
TLFamily_KS        .         Potential Resistivity         : 
TLFamily_KS1       .         Extra Shallow Resistivity     : 
TLFamily_KS2       .         Shallow Resistivity           : 
TLFamily_KS3       .         Medium Resistivity            : 
TLFamily_KS4       .         Deep Resistivity              : 
TLFamily_KS5       .         Extra Deep Resistivity        : 
TLFamily_LLD       .         Lateral Log Resistivity       : 
TLFamily_OKS3      .         Medium Resistivity Inverted   : 
TLFamily_RM        .         Mud Resistivity               : 
group              .         INI                           : 
~Curve Information
#_______________________________________________________________________________
#
#LOGNAME           .UNIT     LOG_ID                        : DESCRIPTION
#_______________________________________________________________________________
DEPTH              .m                                      : Measured Depth 
KS                 .ohm.m                                  : Potential Resistivity 
KS1                .ohm.m                                  : Extra Shallow Resistivity 
KS2                .ohm.m                                  : Shallow Resistivity 
KS3                .ohm.m                                  : Medium Resistivity 
KS4                .ohm.m                                  : Deep Resistivity 
KS5                .ohm.m                                  : Extra Deep Resistivity 
LLD                .ohm.m                                  : Lateral Log Resistivity 
OKS3               .ohm.m                                  : Medium Resistivity Inverted 
RM                 .ohm.m                                  : Mud Resistivity 
~Ascii
# ...
2975.6     7.8602     3.4363     9.8769     10.8266    9.6035     8.31       6.5044     11.8395    0.224     
2975.8     7.8737     3.5267     10.2466    10.9675    9.4082     8.1285     8.2167     11.4398    0.224     
2976       7.8534     3.5065     10.2725    11.128     9.076      7.8044     7.5894     11.0759    0.224     
2976.2     7.7523     3.5402     10.3989    11.2307    8.7244     7.597      6.3798     10.7487    0.224     
2976.4     7.5432     3.4122     10.305     11.2948    8.455      7.2081     6.225      10.4728    0.224     
2976.6     7.3544     3.2371     9.9483     11.1409    7.995      6.91       5.9548     10.4086    0.224     
2976.8     7.2397     3.0486     9.2802     10.9356    7.5522     6.6637     5.4909     10.6717    0.227     
2977       7.206      3.0452     9.1375     10.942     7.3959     6.4952     5.257      10.9476    0.227     
2977.2     7.1655     3.1563     9.2997     11.2179    7.4284     6.4822     4.9813     11.0407    0.231     
2977.4     7.0981     3.0957     9.0143     11.4493    7.5326     6.4952     5.8882     11.0503    0.231     
2977.6     7.1251     3.2169     9.2445     11.5322    7.6238     6.4563     5.5323     11.0952    0.231     
2977.8     7.1048     3.1294     8.9883     11.6412    7.6693     6.4174     5.8705     11.1337    0.231     
2978       7.1318     3.1361     8.904      11.3975    7.6498     6.3656     5.5666     11.262     0.234     
2978.2     7.1521     3.1563     8.9754     11.2307    7.7605     6.1841     5.7323     11.4866    0.234     
2978.4     7.1318     3.18       9.0727     11.0767    7.9103     6.0285     5.52       11.6662    0.231     
2978.6     7.1216     3.1765     9.0143     10.833     8.0341     5.86       5.7941     11.8012    0.231     
2978.8     7.1386     3.1429     8.9754     10.6566    8.1057     5.6785     5.7338     11.878     0.227     
2979       7.1588     3.1833     9.0439     10.5315    8.1708     5.497      5.664      11.9421    0.227     
2979.2     7.1318     3.19       9.0402     10.5186    8.2294     5.3463     5.8618     11.8908    0.221     
2979.4     7.0644     3.291      9.2802     10.493     8.1474     5.1859     6.0652     11.7946    0.221     
2979.6     6.9969     3.1429     9.0208     10.1915    7.9885     4.9656     6.1533     11.8972    0.224     
2979.8     6.97       2.9947     8.4889     9.8259     7.6759     4.7581     5.3547     12.2181    0.221     
2980       6.9259     3.0251     8.5927     9.5885     7.4024     4.6156     5.0072     12.5036    0.231     
2980.2     6.9093     2.8937     8.1582     9.4271     7.2396     4.5378     5.2495     12.8533    0.224     
2980.4     6.9835     2.8129     7.9765     9.287      7.1419     4.5896     5.041      13.5013    0.224     
2980.6     7.1453     2.7859     7.9019     9.2934     7.2461     4.6798     5.0345     14.2777    0.221     
2980.8     7.3814     2.7994     7.8274     9.4666     7.3633     4.823      5.6915     15.407     0.224     
2981       7.6107     2.988      8.21       9.8772     7.6759     5.0433     6.0006     16.4785    0.224     
2981.2     7.786      3.0957     8.5992     10.3775    8.1317     5.3156     6.8428     17.2164    0.227     
2981.4     7.9043     3.1463     8.8392     10.679     8.555      5.6267     6.8779     17.9852    0.227     
2981.6     8.0895     3.1294     9.0402     10.9228    8.9979     6.0026     6.8799     18.5061    0.231     
2981.8     8.2851     3.2102     9.4099     11.1875    9.7077     6.3007     6.7255     19.1926    0.231     
2982       8.4267     3.419      9.8358     11.7118    10.3394    6.4302     7.1623     19.3851    0.234     
2982.2     8.5683     3.4527     10.3374    12.071     10.4521    6.5081     8.1196     19.3338    0.234     
2982.4     8.71       3.2506     9.851      11.8016    10.1701    6.5211     8.39       19.4236    0.231     
2982.6     8.8819     3.1227     9.4878     11.3782    9.6882     6.4044     6.9323     19.6803    0.227     
2982.8     9.0134     3.1092     9.5072     11.2499    9.3626     6.3007     6.1795     19.9626    0.227     
2983       9.2832     3.1698     9.7861     11.5071    9.2649     6.3007     7.4291     20.0495    0.224     
2983.2     9.553      3.2573     9.9645     11.7952    9.2974     6.3656     8.156      20.0267    0.221     
2983.4     9.7958     3.3314     10.1169    12.2763    9.3886     6.4693     8.5591     20.0139    0.221     
2983.6     10.0318    3.392      10.3569    12.8215    9.5123     6.6248     9.1287     20.2128    0.224     
2983.8     10.1937    3.4863     10.8174    13.5528    9.7207     6.7156     8.6004     20.1679    0.227     
2984       10.3218    3.5604     11.2325    14.2584    9.9422     6.8841     9.187      19.8728    0.231     
2984.2     10.4268    3.5638     11.3687    14.7267    10.0659    7.0137     9.9501     19.6546    0.227     
2984.4     10.5511    3.5941     11.5373    15.0314    10.1961    7.0785     9.1997     19.5487    0.227     
2984.6     10.6455    3.6143     11.7124    15.2912    10.4762    7.1174     9.1381     19.3979    0.224     
2984.8     10.7197    3.6547     11.8749    15.721     10.8278    7.1174     9.4089     19.3017    0.224     
2985       10.7872    3.6884     12.0497    16.2342    11.203     7.1304     9.4939     19.1477    0.227     
2985.2     10.8411    3.7086     12.1989    16.6704    11.5181    7.1433     9.1559     18.8526    0.227     
2985.4     10.9153    3.7355     12.1794    17.0488    12         7.1563     9.6635     18.5317    0.231     
2985.6     10.9525    3.7761     12.3351    17.3696    12.534     7.1952     9.4984     18.4162    0.231     
2985.8     10.9625    3.7961     12.4259    17.7096    13.1462    7.3119     9.673      18.384     0.231     
2986       10.9558    3.8433     12.6204    17.9476    13.8039    7.4285     9.6436     18.3713    0.234     
2986.2     10.949     3.8029     12.5104    18.1842    14.4356    7.5452     9.5264     18.3649    0.234     
2986.4     10.9423    3.8365     12.614     18.4152    14.9533    7.6237     9.4283     18.4291    0.237     
2986.6     10.9018    3.9106     12.8734    18.7423    15.3213    7.6748     9.6998     18.5766    0.236     
2986.8     10.8276    3.9712     13.0226    18.9733    15.7641    7.7526     9.9971     18.6087    0.234     
2987       10.7231    3.8938     12.9123    18.9989    16.0572    7.8304     9.8829     18.705     0.231     
2987.2     10.659     3.9039     12.8993    18.9155    16.2916    7.8693     9.8619     19.0545    0.224     
2987.4     10.5444    3.8971     12.7502    18.8471    16.513     7.96       8.797      19.5712    0.224     
2987.6     10.3758    3.8029     12.5296    18.6718    16.6172    8.1674     8.4702     20.4502    0.227     
2987.8     10.2948    3.6547     12.3091    18.4408    16.9298    8.2711     7.9742     21.4191    0.231     
2988       10.3083    3.6008     12.0108    18.3125    17.1585    8.297      7.7342     22.0158    0.227     
2988.2     10.3892    3.5739     11.9718    18.0752    17.1773    8.2841     8.2121     22.1377    0.227     
2988.4     10.5646    3.5402     11.5762    17.6775    16.7735    8.2193     9.5615     21.9901    0.227     
2988.6     10.673     3.5639     11.5762    17.4017    16.4544    8.0248     8.6909     21.9581    0.224     
2988.8     10.7737    3.5806     11.68      17.2573    16.3112    7.9081     9.2234     21.8515    0.224     
2989       10.9018    3.5806     11.7384    17.1707    16.1549    7.9211     9.6192     21.6244    0.227     
2989.2     11.0569    3.5806     11.7576    17.0424    16.1288    7.9859     9.788      21.6308    0.231     
2989.4     11.1783    3.6682     11.9718    17.0553    16.2245    8.0637     10.0119    22.1377    0.234     
2989.6     11.2255    3.7086     12.2702    17.3503    16.3893    8.2322     9.5695     22.7729    0.234     
2989.8     11.2525    3.722      12.4583    17.639     16.5326    8.4526     9.8091     23.0103    0.231     
2990       11.3136    3.7492     12.6075    17.9597    16.6042    8.66       10.4212    22.8307    0.227     
