~Version
 VERS              .         2.0                           : CWLS LOG ASCII STANDARD - VERSION 2.0
 WRAP              .         NO                            : ONE LINE PER DEPTH STEP
 DLM               .         SPACE                         : DELIMITING CHARACTER(SPACE TAB OR COMMA)
~Well Information
#_______________________________________________________________________________
#
#PARAMETER_NAME    .UNIT     VALUE                         : DESCRIPTION
#_______________________________________________________________________________
STRT               .m        2888                          : First reference value
STOP               .m        3109                          : Last reference value
STEP               .m        0.2                           : Step increment
NULL               .         -9999                         : Missing value
COMP               .                                       : Company
WELL               .         505                           : Well name
FLD                .                                       : Field
LOC                .                                       : Location
CNTY               .                                       : County
STAT               .                                       : State
CTRY               .                                       : Country
SRVC               .                                       : Service Company
DATE               .                                       : Date
API                .                                       : API number
EREF               .m        139.4                         : 
X                  .m        230550                        : 
Y                  .m        242075                        : 
group              .         Pad5                          : 
Интер-р            .         Старостина                    : 
Куст               .         5                             : 
Статус             .         Не проверено                  : 
Тип                .         Разведка                      : 
~Parameter Information Block
#_______________________________________________________________________________
#
#PARAMETER_NAME    .UNIT     VALUE                         : DESCRIPTION
#_______________________________________________________________________________
SET                .         LAS1                          : 
REAL_CREATION_DATE .         Ср апр 11 2012-13_17_19       : 
TLFamily_DEPTH     .         Measured Depth                : 
TLFamily_KS        .         Potential Resistivity         : 
TLFamily_KS1       .         Extra Shallow Resistivity     : 
TLFamily_KS2       .         Shallow Resistivity           : 
TLFamily_KS3       .         Medium Resistivity            : 
TLFamily_KS4       .         Deep Resistivity              : 
TLFamily_KS5       .         Extra Deep Resistivity        : 
TLFamily_LLD       .         Lateral Log Resistivity       : 
TLFamily_OKS3      .         Medium Resistivity Inverted   : 
TLFamily_RM        .         Mud Resistivity               : 
group              .         INI                           : 
~Curve Information
#_______________________________________________________________________________
#
#LOGNAME           .UNIT     LOG_ID                        : DESCRIPTION
#_______________________________________________________________________________
DEPTH              .m                                      : Measured Depth 
KS                 .ohm.m                                  : Potential Resistivity 
KS1                .ohm.m                                  : Extra Shallow Resistivity 
KS2                .ohm.m                                  : Shallow Resistivity 
KS3                .ohm.m                                  : Medium Resistivity 
KS4                .ohm.m                                  : Deep Resistivity 
KS5                .ohm.m                                  : Extra Deep Resistivity 
LLD                .ohm.m                                  : Lateral Log Resistivity 
OKS3               .ohm.m                                  : Medium Resistivity Inverted 
RM                 .ohm.m                                  : Mud Resistivity 
~Ascii
# ...
3048.6     13.9906    4.281      15.6558    32.348     55.4438    28.247     12.8376    16.3281    0.214     
3048.8     13.7032    4.281      15.5456    32.1235    54.6773    28.1693    10.9477    16.2539    0.211     
3049       13.3027    4.2945     15.3186    31.1612    52.2067    27.6637    10.1239    16.5042    0.211     
3049.2     12.8576    4.2137     14.5013    29.3972    48.3515    27.0155    9.0135     16.9982    0.214     
3049.4     12.5069    3.9847     13.5803    27.2803    44.2553    26.7947    8.924      17.6334    0.217     
3049.6     12.2574    3.7961     13.0305    25.3431    41.3248    26.5489    9.3127     18.32      0.211     
3049.8     12.109     3.6547     12.5361    23.7586    39.2018    26.6137    10.9736    18.9937    0.211     
3050       12.0685    3.4931     11.8356    22.8991    38.2445    27.4433    10.1815    19.0771    0.211     
3050.2     12.1292    3.5133     11.7059    22.5848    38.2324    29.0118    9.1624     18.9873    0.211     
3050.4     12.1157    3.52       11.6476    22.5655    38.8762    30.4248    9.6583     19.3017    0.214     
3050.6     12.2709    3.4863     11.667     21.9305    38.6026    32.1878    10.4009    19.0194    0.214     
3050.8     12.6957    3.1765     11.0249    21.4739    37.5151    35.4933    12.6168    18.089     0.204     
3051       13.3027    3.1092     10.8498    20.4166    36.3168    38.2674    30.3566    16.6261    0.204     
3051.2     13.518     3.2439     10.8174    20.5577    37.5607    41.6767    114.5417   15.022     0.207     
3051.4     13.6264    3.6771     12.9058    21.9112    39.9507    46.11      93.0403    13.6593    0.207     
3051.6     13.3297    4.3214     15.1434    24.1371    42.0086    52.4351    22.5445    11.5251    0.217     
3051.8     12.689     5.1431     17.2124    25.5676    42.6728    57.6531    8.4869     9.7157     0.217     
3052       11.9202    4.9073     16.3505    26.2668    44.353     63.7437    7.4268     9.4783     0.204     
3052.2     11.0704    4.51       16.3822    27.2162    49.4846    72.6071    9.3081     10.537     0.211     
3052.4     10.1734    4.2473     16.6093    29.8526    55.1372    79.3311    12.9317    11.7304    0.207     
3052.6     9.3574     4.5302     18.1205    32.1235    55.2905    82.6931    7.1523     11.8267    0.211     
3052.8     8.7707     4.6582     18.2048    31.5141    52.0626    81.4706    6.3111     10.3958    0.221     
3053       8.2446     4.2002     15.6818    28.5697    45.7857    74.441     6.1864     8.6634     0.207     
3053.2     7.7321     3.8635     13.8787    26.6853    37.9254    64.3549    6.3679     7.7009     0.204     
3053.4     7.0981     3.7557     12.8734    24.8876    32.6504    53.6577    5.1562     7.0721     0.204     
3053.6     6.4372     3.9443     13.2625    23.656     28.8473    44.8655    4.5488     6.6166     0.204     
3053.8     5.9808     3.7288     12.3869    21.9305    24.979     37.2952    3.9047     6.4074     0.207     
3054       5.7156     3.4486     10.8109    18.7808    20.6483    29.8804    3.6609     6.1674     0.217     
3054.2     5.3918     3.2304     9.2867     15.3425    16.5651    23.1915    3.6481     6.0648     0.211     
3054.4     5.2097     2.9408     8.1452     12.6291    13.2309    19.4892    3.6517     6.0904     0.207     
3054.6     5.1221     2.7724     7.4005     10.8843    10.9971    16.2044    3.6535     6.315      0.207     
3054.8     5.1356     2.6512     6.9518     9.7425     9.5319     13.1193    3.7876     6.6872     0.211     
3055       5.2569     2.5435     6.4394     9.0176     8.7765     11.097     4.5884     7.1491     0.207     
3055.2     5.3716     2.5906     6.2513     8.6712     8.5036     9.697      5.3148     7.348      0.211     
3055.4     5.4997     2.86       6.4524     8.5686     8.4183     8.6989     4.7155     7.2967     0.214     
3055.6     5.5065     2.9812     6.8026     8.3441     8.262      8.0119     4.8956     7.2069     0.211     
3055.8     5.4323     3.0284     7.0037     8.077      7.995      7.2989     4.7142     7.162      0.211     
3056       5.3851     3.0082     7.1334     7.8758     7.5912     6.5989     4.6634     7.0529     0.211     
3056.2     5.3614     2.9543     7.1788     7.5358     7.1419     5.9378     4.7437     6.7834     0.211     
3056.4     5.3379     2.9204     7.062      7.0034     6.6925     5.3544     4.7266     6.5837     0.211     
3056.6     5.3109     2.8667     6.8545     6.5672     6.4646     4.8748     4.7214     6.469      0.211     
3056.8     5.2502     2.8465     6.861      6.3619     6.4451     4.4989     4.6306     6.3214     0.211     
3057       5.1895     2.86       6.8769     6.317      6.5232     4.284      4.334      6.2252     0.211     
3057.2     5.1625     2.7724     6.7637     6.2913     6.4841     4.123      4.3218     6.1546     0.207     
3057.4     5.1356     2.6445     6.4718     6.3811     6.3279     3.9674     4.6329     6.238      0.204     
3057.6     5.0816     2.6782     6.5821     6.5736     6.2953     3.8507     4.6616     6.4177     0.207     
3057.8     5.0276     2.7388     6.7377     6.7532     6.3474     3.76       4.4544     6.5396     0.207     
3058       5.0276     2.7186     6.621      6.843      6.3148     3.747      4.5033     6.5973     0.207     
3058.2     5.0007     2.7051     6.5302     6.9105     6.2627     3.7211     4.7955     6.7257     0.207     
3058.4     4.9872     2.7724     6.6599     6.9392     6.165      3.6952     4.5033     6.6936     0.211     
3058.6     5.0411     2.6782     6.407      6.7981     5.8525     3.6693     4.3515     6.4818     0.207     
3058.8     5.0546     2.6849     6.3291     6.5672     5.5789     3.6822     4.4739     6.392      0.207     
3059       5.0309     2.6849     6.3097     6.471      5.5334     3.6952     4.4874     6.4369     0.207     
3059.2     4.9872     2.7255     6.4329     6.4196     5.5399     3.773      4.3349     6.4632     0.214     
3059.4     4.9535     2.759      6.5107     6.3362     5.5268     3.8374     4.3739     6.3407     0.207     
3059.6     4.967      2.658      6.2189     6.1887     5.4682     3.9285     4.5447     6.0327     0.207     
3059.8     5.0007     2.6243     6.1703     6.0347     5.4422     4.0711     4.5134     5.8145     0.211     
3060       4.9939     2.6984     6.2448     6.0668     5.4813     4.2007     4.3527     5.7375     0.211     
3060.2     4.9939     2.7118     6.2318     6.0668     5.4845     4.3044     4.4586     5.7183     0.207     
3060.4     5.0007     2.6445     6.0956     6.0219     5.4747     4.46       4.3704     5.7568     0.207     
3060.6     5.0007     2.658      6.18       6.0668     5.4878     4.6674     4.2765     5.9044     0.207     
3060.8     5.0142     2.6243     6.1346     6.0989     5.605      5.0693     4.1025     6.2765     0.207     
3061       5.0614     2.5233     5.9919     6.1539     5.8785     5.8341     4.4346     6.8925     0.204     
3061.2     5.0749     2.5704     6.1346     6.4838     6.5688     7.0915     4.9424     7.733      0.204     
3061.4     4.9737     2.7522     6.6794     7.3498     7.6564     8.1544     6.417      8.5158     0.209     
3061.6     4.9504     3.1294     7.7301     8.0169     8.1643     8.7248     4.3632     8.6249     0.214     
3061.8     4.9872     2.9523     7.0491     7.8501     7.5326     8.4785     4.2088     8.2207     0.211     
3062       5.0074     2.8735     6.5107     6.9264     6.3148     7.9031     4.2047     7.3352     0.204     
3062.2     4.9467     2.7522     6.3097     6.2464     5.5073     7.0915     4.0831     6.8091     0.207     
3062.4     4.8995     2.6782     6.2121     5.7525     4.9603     6.2619     4.1156     6.6358     0.211     
3062.6     4.859      2.5771     6.1281     5.374      4.5761     5.7174     4.1556     6.6487     0.207     
3062.8     4.8051     2.5569     6.141      5.1239     4.3221     5.3026     4.1476     6.7449     0.211     
3063       4.7916     2.5435     6.0502     4.9891     4.1944     5.0433     4.1196     6.854      0.214     
