~Version
 VERS              .         2.0                           : CWLS LOG ASCII STANDARD - VERSION 2.0
 WRAP              .         NO                            : ONE LINE PER DEPTH STEP
 DLM               .         SPACE                         : DELIMITING CHARACTER(SPACE TAB OR COMMA)
~Well Information
#_______________________________________________________________________________
#
#PARAMETER_NAME    .UNIT     VALUE                         : DESCRIPTION
#_______________________________________________________________________________
STRT               .m        2888                          : First reference value
STOP               .m        3109                          : Last reference value
STEP               .m        0.2                           : Step increment
NULL               .         -9999                         : Missing value
COMP               .                                       : Company
WELL               .         505                           : Well name
FLD                .                                       : Field
LOC                .                                       : Location
CNTY               .                                       : County
STAT               .                                       : State
CTRY               .                                       : Country
SRVC               .                                       : Service Company
DATE               .                                       : Date
API                .                                       : API number
EREF               .m        139.4                         : 
X                  .m        230550                        : 
Y                  .m        242075                        : 
group              .         Pad5                          : 
Интер-р            .         Старостина                    : 
Куст               .         5                             : 
Статус             .         Не проверено                  : 
Тип                .         Разведка                      : 
~Parameter Information Block
#_______________________________________________________________________________
#
#PARAMETER_NAME    .UNIT     VALUE                         : DESCRIPTION
#_______________________________________________________________________________
SET                .         LAS1                          : 
REAL_CREATION_DATE .         Ср апр 11 2012-13_17_19       : 
TLFamily_DEPTH     .         Measured Depth                : 
TLFamily_KS        .         Potential Resistivity         : 
TLFamily_KS1       .         Extra Shallow Resistivity     : 
TLFamily_KS2       .         Shallow Resistivity           : 
TLFamily_KS3       .         Medium Resistivity            : 
TLFamily_KS4       .         Deep Resistivity              : 
TLFamily_KS5       .         Extra Deep Resistivity        : 
TLFamily_LLD       .         Lateral Log Resistivity       : 
TLFamily_OKS3      .         Medium Resistivity Inverted   : 
TLFamily_RM        .         Mud Resistivity               : 
group              .         INI                           : 
~Curve Information
#_______________________________________________________________________________
#
#LOGNAME           .UNIT     LOG_ID                        : DESCRIPTION
#_______________________________________________________________________________
DEPTH              .m                                      : Measured Depth 
KS                 .ohm.m                                  : Potential Resistivity 
KS1                .ohm.m                                  : Extra Shallow Resistivity 
KS2                .ohm.m                                  : Shallow Resistivity 
KS3                .ohm.m                                  : Medium Resistivity 
KS4                .ohm.m                                  : Deep Resistivity 
KS5                .ohm.m                                  : Extra Deep Resistivity 
LLD                .ohm.m                                  : Lateral Log Resistivity 
OKS3               .ohm.m                                  : Medium Resistivity Inverted 
RM                 .ohm.m                                  : Mud Resistivity 
~Ascii
# ...
2931.8     7.4623     3.2978     9.6175     11.5835    10.0789    7.8433     6.9398     10.0942    0.224     
2932       7.3476     3.2235     9.5461     11.1729    9.7663     7.3507     6.0681     9.8504     0.224     
2932.2     7.2128     3.1833     9.3645     10.8753    9.4016     6.9359     5.6848     9.7669     0.227     
2932.4     7.1212     3.1092     9.0986     10.6726    8.9914     6.6378     5.6062     9.6772     0.227     
2932.6     7.0104     3.0486     8.8381     10.416     8.6332     6.3785     5.5834     9.6643     0.227     
2932.8     6.9228     3.0284     8.7159     10.2941    8.3988     6.1581     5.5364     9.6643     0.231     
2933       6.8755     2.988      8.6057     10.3134    8.262      6.0415     5.5224     9.7798     0.227     
2933.2     6.8418     2.9543     8.3592     10.4802    8.2034     5.9507     5.4571     9.9082     0.231     
2933.4     6.8486     3.1396     8.8067     10.7239    8.2359     5.9119     5.6035     9.8761     0.234     
2933.6     6.8621     3.1429     8.703      10.8715    8.262      5.8859     5.7064     9.8153     0.234     
2933.8     6.8281     3.1159     8.6316     10.714     8.1904     5.86       6.6566     9.7798     0.234     
2934       6.8216     3.1227     8.6974     10.6662    8.2034     5.7822     5.5841     9.8761     0.234     
2934.2     6.8148     3.1361     8.7613     10.5507    8.1905     5.7174     5.4479     9.8825     0.234     
2934.4     6.7474     3.0553     8.6186     10.2877    8.1252     5.6915     5.5042     9.7349     0.232     
2934.6     6.6867     3.0418     8.5214     10.0247    8.0015     5.6137     5.5328     9.7285     0.231     
2934.8     6.653      3.0183     8.3916     9.8515     7.9689     5.523      5.5742     9.767      0.231     
2935       6.6395     3.0284     8.3657     9.7553     8.0406     5.4711     5.404      9.7253     0.227     
2935.2     6.6226     3.0149     8.3722     9.6649     8.1513     5.4452     5.3546     9.7157     0.227     
2935.4     6.5788     2.988      8.2972     9.6078     8.2164     5.4711     5.4898     9.7478     0.224     
2935.6     6.5383     2.9476     8.1971     9.5693     8.2164     5.5359     5.3434     9.8248     0.221     
2935.8     6.5046     2.9206     8.1322     9.5179     8.1969     5.5748     5.23       9.9274     0.221     
2936       6.4844     2.9273     8.1192     9.473      8.1773     5.7304     5.1665     10.0429    0.221     
2936.2     6.4844     2.9206     8.0738     9.5244     8.2034     5.8859     5.1769     10.152     0.221     
2936.4     6.4911     2.9543     8.2036     9.5693     8.1708     5.9896     5.2885     10.2096    0.224     
2936.6     6.5079     2.9476     7.9765     9.4887     8.0406     6.0804     5.4861     10.2097    0.224     
2936.8     6.5181     2.86       7.8503     9.3897     8.0406     6.1322     5.2553     10.1327    0.224     
2937       6.5788     2.9071     7.9571     9.4923     8.0862     6.0804     5.1624     9.9659     0.231     
2937.2     6.7002     3.1833     8.5149     9.7104     8.0562     6.0609     5.2231     9.7349     0.231     
2937.4     6.8014     3.1698     8.7354     9.7168     7.9624     6.0415     6.173      9.5553     0.227     
2937.6     6.8014     3.1092     8.6251     9.6591     7.9299     5.9248     6.9099     9.5168     0.227     
2937.8     6.7407     3.1193     8.7938     9.6398     7.8778     5.8341     5.5116     9.4912     0.227     
2938       6.6462     3.0688     8.7678     9.6528     7.8257     5.8211     5.343      9.4462     0.227     
2938.2     6.5788     3.0553     8.5278     9.6078     7.715      5.7822     5.406      9.3628     0.224     
2938.4     6.4911     2.9408     8.2878     9.5051     7.5847     5.7563     5.0966     9.3499     0.224     
2938.6     6.4507     2.8937     8.1128     9.3704     7.4804     5.7563     5.0375     9.5039     0.224     
2938.8     6.4304     2.9273     8.1776     9.3897     7.4349     5.7563     5.0668     9.6066     0.221     
2939       6.4439     2.9071     8.1322     9.5115     7.461      5.7822     5.2256     9.6258     0.224     
2939.2     6.4304     2.9473     8.1841     9.5564     7.4545     5.86       5.4007     9.6066     0.224     
2939.4     6.4439     2.961      8.1971     9.5629     7.4414     5.9378     5.4539     9.6546     0.224     
2939.6     6.4574     3.0418     8.3657     9.5661     7.448      6.0415     5.6138     9.767      0.227     
2939.8     6.4709     3.0418     8.3756     9.5436     7.4284     6.0804     5.5698     9.9402     0.231     
2940       6.4237     2.961      8.3398     9.4538     7.3928     6.0804     5.442      10.2033    0.231     
2940.2     6.336      2.9206     8.1906     9.3127     7.3373     6.0544     5.1379     10.4792    0.234     
2940.4     6.2686     2.8466     8.0544     9.1587     7.2786     5.9896     5.0082     10.7295    0.234     
2940.6     6.2281     2.8196     7.7755     8.9984     7.2135     5.8989     4.8819     10.9248    0.234     
2940.8     6.2214     2.8061     7.6847     8.8445     7.1354     5.7952     5.0146     11.0695    0.231     
2941       6.2686     2.7994     7.6395     8.7867     7.0702     5.7174     5.0489     11.2492    0.234     
2941.2     6.3225     2.7994     7.6004     8.7161     7.0116     5.6656     5.0502     11.2171    0.231     
2941.4     6.4035     2.7522     7.4901     8.6455     6.9628     5.6526     5.1547     11.2043    0.227     
2941.6     6.5248     2.8533     7.6328     8.6904     6.9921     5.6396     5.292      11.3005    0.231     
2941.8     6.6597     2.9004     7.9441     8.8444     7.0898     5.6656     5.4476     11.1529    0.227     
2942       6.7272     2.8802     7.9636     8.915      7.1549     5.7174     5.459      10.7551    0.227     
2942.2     6.7709     2.9139     8.0414     8.9116     7.1354     5.7174     5.9198     10.5081    0.224     
2942.4     6.8958     2.961      8.1711     8.9727     7.1158     5.7174     6.0299     10.4471    0.221     
2942.6     7.0307     3.0014     8.2582     9.1908     7.2135     5.7304     6.0013     10.3766    0.221     
2942.8     7.0981     3.0284     8.5278     9.4795     7.3759     5.7499     5.9912     10.2097    0.221     
2943       7.1251     3.0688     8.6835     9.7617     7.4935     5.7822     5.9422     9.9852     0.221     
2943.2     7.1588     3.1294     8.9105     10.044     7.6564     5.847      6.1506     9.7285     0.224     
2943.4     7.179      3.1261     8.9559     10.3326    7.7996     5.8859     6.3108     9.4719     0.227     
2943.6     7.1757     3.1698     9.1116     10.57      7.9234     5.8859     6.2796     9.2666     0.231     
2943.8     7.1588     3.2304     9.3386     10.7011    8.0145     5.8989     6.2867     9.1575     0.234     
2944       7.0914     3.2708     9.397      10.8907    8.0731     5.8859     6.382      9.119      0.227     
2944.2     6.9565     3.2371     9.3451     11.019     8.0861     5.8859     6.1542     9.3243     0.227     
2944.4     6.7676     3.1024     9.2543     10.9099    8.1057     5.873      5.3826     9.5745     0.227     
2944.6     6.5721     2.9273     8.7613     10.6277    8.0666     5.873      4.9355     9.7221     0.227     
2944.8     6.4642     2.9543     8.5278     10.3904    7.9885     5.86       4.8603     9.7863     0.224     
2945       6.4507     3.0048     8.4565     10.3326    7.982      5.8341     5.2386     9.9082     0.224     
2945.2     6.4338     3.0149     8.2944     10.2559    7.9559     5.8081     5.6318     10.0275    0.224     
2945.4     6.4035     2.9745     8.1906     10.1145    7.9624     5.7822     5.3826     10.1648    0.224     
2945.6     6.3428     2.9341     8.1873     9.9477     7.9559     5.7563     4.9165     10.3188    0.227     
2945.8     6.2821     2.9004     8.1971     9.7104     7.8975     5.7433     4.9195     10.3509    0.231     
2946       6.2483     2.8331     7.8598     9.3512     7.7866     5.7044     4.8677     10.3124    0.227     
2946.2     6.2753     2.8196     7.6977     8.9855     7.6433     5.6526     4.8724     10.2033    0.231     
