~Version
 VERS              .         2.0                           : CWLS LOG ASCII STANDARD - VERSION 2.0
 WRAP              .         NO                            : ONE LINE PER DEPTH STEP
 DLM               .         SPACE                         : DELIMITING CHARACTER(SPACE TAB OR COMMA)
~Well Information
#_______________________________________________________________________________
#
#PARAMETER_NAME    .UNIT     VALUE                         : DESCRIPTION
#_______________________________________________________________________________
STRT               .m        2888                          : First reference value
STOP               .m        3109                          : Last reference value
STEP               .m        0.2                           : Step increment
NULL               .         -9999                         : Missing value
COMP               .                                       : Company
WELL               .         505                           : Well name
FLD                .                                       : Field
LOC                .                                       : Location
CNTY               .                                       : County
STAT               .                                       : State
CTRY               .                                       : Country
SRVC               .                                       : Service Company
DATE               .                                       : Date
API                .                                       : API number
EREF               .m        139.4                         : 
X                  .m        230550                        : 
Y                  .m        242075                        : 
group              .         Pad5                          : 
Интер-р            .         Старостина                    : 
Куст               .         5                             : 
Статус             .         Не проверено                  : 
Тип                .         Разведка                      : 
~Parameter Information Block
#_______________________________________________________________________________
#
#PARAMETER_NAME    .UNIT     VALUE                         : DESCRIPTION
#_______________________________________________________________________________
SET                .         LAS1                          : 
REAL_CREATION_DATE .         Ср апр 11 2012-13_17_19       : 
TLFamily_DEPTH     .         Measured Depth                : 
TLFamily_KS        .         Potential Resistivity         : 
TLFamily_KS1       .         Extra Shallow Resistivity     : 
TLFamily_KS2       .         Shallow Resistivity           : 
TLFamily_KS3       .         Medium Resistivity            : 
TLFamily_KS4       .         Deep Resistivity              : 
TLFamily_KS5       .         Extra Deep Resistivity        : 
TLFamily_LLD       .         Lateral Log Resistivity       : 
TLFamily_OKS3      .         Medium Resistivity Inverted   : 
TLFamily_RM        .         Mud Resistivity               : 
group              .         INI                           : 
~Curve Information
#_______________________________________________________________________________
#
#LOGNAME           .UNIT     LOG_ID                        : DESCRIPTION
#_______________________________________________________________________________
DEPTH              .m                                      : Measured Depth 
KS                 .ohm.m                                  : Potential Resistivity 
KS1                .ohm.m                                  : Extra Shallow Resistivity 
KS2                .ohm.m                                  : Shallow Resistivity 
KS3                .ohm.m                                  : Medium Resistivity 
KS4                .ohm.m                                  : Deep Resistivity 
KS5                .ohm.m                                  : Extra Deep Resistivity 
LLD                .ohm.m                                  : Lateral Log Resistivity 
OKS3               .ohm.m                                  : Medium Resistivity Inverted 
RM                 .ohm.m                                  : Mud Resistivity 
~Ascii
# ...
2902.6     7.1318     2.9307     8.7095     9.5308     11.0492    6.3785     6.7715     11.0503    0.217     
2902.8     7.1048     3.0048     8.8748     9.9317     11.4204    6.573      6.7634     11.6566    0.211     
2903       7.088      3.0519     9.0921     10.4032    11.5181    6.4693     6.8164     11.7946    0.224     
2903.2     7.0711     3.0789     9.1375     10.1787    10.7562    6.4563     6.4185     10.9797    0.222     
2903.4     6.9362     2.5569     7.182      9.5917     9.5449     6.4822     6.3577     9.3596     0.206     
2903.6     6.8519     2.4189     7.4998     9.5436     9.2063     6.4304     6.6385     9.228      0.211     
2903.8     6.9295     3.1024     8.9689     10.7817    9.8835     6.3915     6.7536     9.7991     0.224     
2904       7.2836     2.8667     8.81       11.3141    10.2385    6.8063     6.1521     10.0365    0.217     
2904.2     7.3274     2.9644     9.1959     11.3461    10.1408    6.9359     6.1351     9.9435     0.227     
2904.4     7.0576     3.0856     9.4132     11.4392    9.9682     6.7933     6.8271     9.6964     0.227     
2904.6     6.9531     2.9779     8.8197     11.1024    9.3951     6.7415     6.6012     9.0676     0.221     
2904.8     6.9396     2.7724     7.8501     10.2685    8.6658     6.7804     6.7306     8.3297     0.219     
2905       6.8958     2.6815     8.0284     10.3936    8.8155     6.7804     6.9578     8.426      0.212     
2905.2     6.9531     3.1866     9.3548     11.2179    9.6686     6.8063     6.5096     8.7693     0.227     
2905.4     7.0812     3.1765     9.624      12.0806    9.9291     6.9619     6.1727     8.8816     0.224     
2905.6     6.8924     3.19       9.6369     11.8593    9.6165     7.0267     5.6628     8.5383     0.231     
2905.8     6.5046     2.9812     8.5732     10.679     8.9588     6.9943     6.3856     8.4902     0.234     
2906       6.2214     2.7051     7.4933     9.7457     8.4899     7.0331     6.4994     8.6891     0.231     
2906.2     6.0764     2.6007     7.1528     9.3768     8.3662     7.247      5.15       9.0291     0.227     
2906.4     5.9853     2.6074     7.1204     9.4025     8.5225     7.5322     4.4341     9.2505     0.224     
2906.6     5.9449     2.695      7.2047     9.4763     8.7341     7.9859     4.3251     9.2922     0.227     
2906.8     5.9819     2.7253     7.088      9.5147     8.8969     8.4007     4.7103     9.382      0.226     
2907       6.073      2.8061     7.2501     9.4666     9.1021     8.7767     5.441      9.6002     0.227     
2907.2     6.245      2.9038     7.6069     9.4442     9.4537     9.1137     6.0188     9.7606     0.227     
2907.4     6.3866     2.9678     8.0057     9.5308     9.7696     9.3665     5.4872     9.6836     0.227     
2907.6     6.4271     3.0014     8.2165     9.6559     9.9747     9.5674     5.9831     9.3788     0.224     
2907.8     6.4608     3.0688     8.45       9.6976     9.8314     9.6711     6.2205     8.9521     0.224     
2908       6.4709     3.1126     8.6478     9.874      9.9552     9.5156     6.1265     8.5864     0.221     
2908.2     6.4473     3.3483     9.4034     9.704      9.711      9.1526     6.1593     8.0731     0.217     
2908.4     6.3697     3.0351     8.4435     9.2902     8.9458     8.673      6.2167     7.5983     0.219     
2908.6     6.1472     2.7758     7.7787     8.5782     8.2652     8.1933     6.0378     7.271      0.221     
2908.8     5.9381     2.6714     7.3117     8.2767     7.8192     7.7137     5.9353     7.2935     0.221     
2909       5.8268     2.6378     7.1366     8.1644     7.5912     7.5711     4.5482     7.393      0.221     
2909.2     5.7762     2.6479     6.9583     8.2799     7.4642     7.7331     4.4052     7.6175     0.217     
2909.4     5.7392     2.6344     7.0783     8.7289     7.8745     7.9535     4.6261     8.0442     0.217     
2909.6     5.7425     2.9644     7.8436     9.473      8.5485     8.0248     4.86       7.9961     0.217     
2909.8     5.8066     3.227      8.2587     9.8483     8.415      7.947      4.9236     7.3833     0.217     
2910       5.7796     3.2001     7.8695     9.3736     7.6173     7.4156     4.6687     6.8219     0.217     
2910.2     5.6683     2.9947     7.3409     8.5974     6.9074     6.7868     6.6687     6.6102     0.217     
2910.4     5.638      2.86       7.182      8.049      6.4581     6.2619     8.1324     6.4947     0.217     
2910.6     5.4997     2.695      7.0134     7.5743     6.1683     5.86       4.6287     6.4754     0.217     
2910.8     5.2907     2.6041     6.7248     7.1605     5.9729     5.5748     4.3527     6.5139     0.217     
2911       5.1322     2.5435     6.3907     6.8783     5.8492     5.3674     4.4437     6.6358     0.217     
2911.2     5.0411     2.5233     6.1832     6.7372     5.8134     5.2767     4.2045     6.7449     0.217     
2911.4     4.9737     2.5468     6.1605     6.673      5.8525     5.2248     4.293      6.7866     0.221     
2911.6     4.9299     2.5502     6.06       6.6441     5.9111     5.1794     4.2582     6.8444     0.221     
2911.8     4.8894     2.5098     5.914      6.6506     5.9111     5.147      4.3933     6.931      0.222     
2912       4.8489     2.4458     5.6935     6.5319     5.9111     5.0822     4.5475     7.0561     0.224     
2912.2     4.8287     2.3852     5.6287     6.3683     5.9794     5.1081     4.4062     7.162      0.222     
2912.4     4.8253     2.3919     5.6254     6.2785     6.1195     5.1859     4.1912     7.3416     0.221     
2912.6     4.8354     2.3818     5.6124     6.2272     6.2334     5.3415     4.1837     7.6721     0.221     
2912.8     4.8928     2.3751     5.6027     6.2978     6.4386     5.4906     4.4187     7.9704     0.221     
2913       4.9804     2.5031     5.9076     6.4196     6.6795     5.7109     4.4439     8.211      0.217     
2913.2     5.1018     2.5031     5.9821     6.6121     6.9498     5.873      4.4951     8.5607     0.217     
2913.4     5.1996     2.7186     6.5172     6.7564     7.181      6.0026     4.9569     8.7757     0.221     
2913.6     5.3379     2.7489     6.4848     6.9264     7.3959     6.1193     5.1762     9.0516     0.219     
2913.8     5.4626     2.759      6.6664     6.9938     7.6238     6.2489     5.4224     9.2569     0.221     
2914       5.5335     2.8263     6.9875     7.1669     7.881      6.2359     5.6903     9.3307     0.219     
2914.2     5.6312     2.9341     7.2209     7.2664     7.8322     6.1711     5.0825     9.0099     0.219     
2914.4     5.6785     3.0688     7.435      7.106      7.3926     6.0156     5.747      8.7179     0.224     
2914.6     5.7054     2.9139     7.1237     6.8302     6.9074     5.9183     6.2742     8.7661     0.224     
2914.8     5.7122     2.6714     6.8188     6.6794     6.5786     5.8924     6.1755     9.2794     0.224     
2915       5.6953     2.695      7.0329     6.7468     6.5493     5.9507     4.6635     10.0557    0.227     
2915.2     5.6211     2.5973     6.8675     6.9168     6.5753     6.1193     4.2577     10.4279    0.224     
2915.4     5.5739     2.6007     6.6015     7.0868     6.6307     6.3656     4.67       10.6717    0.222     
2915.6     5.611      2.7455     6.8739     7.292      6.6437     6.5211     4.7021     10.7391    0.229     
2915.8     5.7594     2.7085     6.7053     7.4011     6.5916     6.6767     5.031      10.6396    0.227     
2916       5.8842     2.6815     6.7377     7.446      6.4776     6.8711     5.4947     10.5273    0.231     
2916.2     6.0966     2.8061     7.0231     7.7475     6.5493     7.0785     5.36       10.5306    0.231     
2916.4     6.2922     2.961      7.6069     8.2286     6.8163     7.1563     5.8071     10.46      0.234     
2916.6     6.5316     3.1395     8.1938     8.3761     6.8358     7.2989     6.3337     10.2739    0.236     
2916.8     6.6462     2.9745     7.9247     8.2575     6.6697     7.3507     6.6906     10.6268    0.229     
2917       6.653      2.86       7.9765     8.1837     6.6111     7.3248     6.4637     11.1979    0.224     
