~Version
 VERS              .         2.0                           : CWLS LOG ASCII STANDARD - VERSION 2.0
 WRAP              .         NO                            : ONE LINE PER DEPTH STEP
 DLM               .         SPACE                         : DELIMITING CHARACTER(SPACE TAB OR COMMA)
~Well Information
#_______________________________________________________________________________
#
#PARAMETER_NAME    .UNIT     VALUE                         : DESCRIPTION
#_______________________________________________________________________________
STRT               .m        2888                          : First reference value
STOP               .m        3109                          : Last reference value
STEP               .m        0.2                           : Step increment
NULL               .         -9999                         : Missing value
COMP               .                                       : Company
WELL               .         505                           : Well name
FLD                .                                       : Field
LOC                .                                       : Location
CNTY               .                                       : County
STAT               .                                       : State
CTRY               .                                       : Country
SRVC               .                                       : Service Company
DATE               .                                       : Date
API                .                                       : API number
EREF               .m        139.4                         : 
X                  .m        230550                        : 
Y                  .m        242075                        : 
group              .         Pad5                          : 
Интер-р            .         Старостина                    : 
Куст               .         5                             : 
Статус             .         Не проверено                  : 
Тип                .         Разведка                      : 
~Parameter Information Block
#_______________________________________________________________________________
#
#PARAMETER_NAME    .UNIT     VALUE                         : DESCRIPTION
#_______________________________________________________________________________
SET                .         LAS1                          : 
REAL_CREATION_DATE .         Ср апр 11 2012-13_17_19       : 
TLFamily_DEPTH     .         Measured Depth                : 
TLFamily_KS        .         Potential Resistivity         : 
TLFamily_KS1       .         Extra Shallow Resistivity     : 
TLFamily_KS2       .         Shallow Resistivity           : 
TLFamily_KS3       .         Medium Resistivity            : 
TLFamily_KS4       .         Deep Resistivity              : 
TLFamily_KS5       .         Extra Deep Resistivity        : 
TLFamily_LLD       .         Lateral Log Resistivity       : 
TLFamily_OKS3      .         Medium Resistivity Inverted   : 
TLFamily_RM        .         Mud Resistivity               : 
group              .         INI                           : 
~Curve Information
#_______________________________________________________________________________
#
#LOGNAME           .UNIT     LOG_ID                        : DESCRIPTION
#_______________________________________________________________________________
DEPTH              .m                                      : Measured Depth 
KS                 .ohm.m                                  : Potential Resistivity 
KS1                .ohm.m                                  : Extra Shallow Resistivity 
KS2                .ohm.m                                  : Shallow Resistivity 
KS3                .ohm.m                                  : Medium Resistivity 
KS4                .ohm.m                                  : Deep Resistivity 
KS5                .ohm.m                                  : Extra Deep Resistivity 
LLD                .ohm.m                                  : Lateral Log Resistivity 
OKS3               .ohm.m                                  : Medium Resistivity Inverted 
RM                 .ohm.m                                  : Mud Resistivity 
~Ascii
# ...
3063.2     4.7983     2.4761     5.8492     4.9314     4.042      4.9137     4.2175     7.1235     0.211     
3063.4     4.8051     2.4829     5.7713     5.0276     3.9378     4.8748     4.3148     7.4571     0.207     
3063.6     4.8456     2.4694     5.7195     5.1771     3.8858     4.9785     4.1298     7.8036     0.211     
3063.8     4.9063     2.4088     5.5379     5.2906     3.8988     5.2378     4.0851     8.272      0.211     
3064       4.957      2.3818     5.4406     5.4638     4.029      5.6915     4.1679     8.9008     0.211     
3064.2     5.0142     2.3649     5.4535     5.605      4.3416     6.5859     4.2319     9.5599     0.211     
3064.4     5.1558     2.3549     5.5508     5.8744     4.9342     7.7526     4.2527     10.1007    0.214     
3064.6     5.4188     2.3482     5.7324     6.4453     6.0478     8.3489     4.9517     11.3583    0.214     
3064.8     5.8167     2.2808     5.9637     7.1958     7.2396     9.4507     7.5667     12.3785    0.207     
3065       6.2821     2.4155     6.1864     7.7924     7.9234     10.1248    9.9406     12.3464    0.207     
3065.2     6.7002     2.7792     6.7313     8.0361     7.8778     10.2415    6.1449     11.6213    0.211     
3065.4     7.179      2.988      7.3215     7.8437     7.5326     9.7878     7.4349     10.768     0.204     
3065.6     7.26       3.0082     7.088      7.4716     7.2223     9.2044     8.6257     10.2482    0.211     
3065.8     7.1723     3.2439     7.983      7.6128     7.2721     8.66       8.2039     9.9274     0.217     
3066       6.8418     3.4796     9.6694     7.9508     7.5587     8.2711     6.8425     9.9274     0.217     
3066.2     6.39       3.6951     10.545     8.2799     7.715      8.0378     4.8201     10.4921    0.211     
3066.4     5.9381     3.4594     10.2855    8.7161     7.5912     7.61       4.7578     11.4545    0.211     
3066.6     5.7223     3.291      10.0001    8.8765     6.9921     7.1433     3.9028     12.3207    0.214     
3066.8     5.7457     2.7388     8.2684     8.5237     5.9632     6.6896     3.5564     13.1869    0.214     
3067       5.8437     2.4971     6.9258     7.7218     4.9473     6.3007     3.7359     14.2436    0.211     
3067.2     6.019      2.402      6.4848     7.6384     4.4914     6.1181     4.5055     16.2732    0.217     
3067.4     6.3967     2.3549     6.1605     7.6192     4.3677     6.0544     5.2503     18.5959    0.214     
3067.6     7.0239     2.3347     6.0669     7.3818     4.2309     6.1193     6.1212     20.2449    0.211     
3067.8     7.6983     2.2876     5.7584     7.2022     4.1723     6.1841     8.1937     20.9764    0.214     
3068       8.4065     2.4694     6.0308     7.3113     4.2248     6.2359     9.5697     21.2715    0.211     
3068.2     8.9865     2.7522     6.6405     7.5935     4.3677     6.3137     10.2888    21.31      0.214     
3068.4     9.4248     3.0149     7.5355     7.8694     4.6542     6.4822     10.2034    21.3228    0.221     
3068.6     9.7486     3.1698     8.3203     8.2029     5.0319     6.6248     10.2426    21.464     0.214     
3068.8     9.9779     3.3112     9.2348     8.4937     5.7808     6.7415     9.9893     21.7592    0.211     
3069       10.133     3.3651     9.9093     8.915      6.4386     6.923      9.7374     22.343     0.214     
3069.2     10.2746    3.4122     10.3439    9.3961     7.1028     7.1563     9.3617     23.3697    0.212     
3069.4     10.3826    3.4122     10.5968    10.0889    7.6173     7.4674     9.2932     24.9096    0.217     
3069.6     10.4634    3.3954     10.6812    10.9998    8.0406     7.8822     9.0321     26.8024    0.211     
3069.8     10.6118    3.392      10.6941    11.8657    8.4053     8.4915     9.2576     28.7286    0.214     
3070       10.8074    3.318      10.6163    12.7253    8.783      8.8804     9.2256     30.8383    0.214     
3070.2     11.0434    3.2843     10.4928    13.4758    9.2779     9.7748     9.4204     34.7523    0.217     
3070.4     11.3671    3.2102     10.3634    14.0788    9.8445     10.7989    10.1357    38.878     0.214     
3070.6     11.8055    3.2169     10.3698    14.592     10.5283    11.9785    10.9453    42.1503    0.214     
3070.8     12.3383    3.1765     10.292     14.8678    11.0408    13.3785    10.6761    45.3328    0.214     
3071       12.9723    3.1429     10.2985    15.1373    11.9154    15.2841    10.6023    47.9378    0.217     
3071.2     13.7343    3.0688     10.1104    15.4452    13.2699    17.2156    10.6732    50.6898    0.217     
3071.4     14.5841    2.8331     9.8769     15.933     15.0738    18.7452    23.817     52.7488    0.204     
3071.6     15.6227    2.8735     10.1947    16.2983    16.6303    19.3674    51.4671    51.2425    0.211     
3071.8     16.7625    3.0553     10.9211    17.4979    17.9978    18.2007    61.2775    46.892     0.211     
3072       18.2125    3.3112     11.8227    17.2605    16.8712    16.6711    62.8751    37.8513    0.207     
3072.2     19.5815    2.2673     8.3268     15.5414    14.5528    16.023     55.6645    27.6365    0.201     
3072.4     19.8341    2.53       8.8781     14.8037    16.2135    14.597     60.2817    22.0158    0.197     
3072.6     19.359     3.7192     15.364     19.0759    19.8994    14.3637    49.6184    22.7409    0.207     
3072.8     18.9813    3.7692     14.443     22.8798    22.0354    16.1656    40.3316    21.9795    0.207     
3073       18.6441    3.2304     16.045     25.8434    24.8422    17.6693    22.9508    20.5208    0.217     
3073.2     17.4773    4.4022     20.3339    33.5475    31.4066    18.123     26.5677    20.4374    0.217     
3073.4     16.1555    5.271      23.2767    40.886     35.2923    19.1859    14.6259    21.3164    0.214     
3073.6     15.3732    5.0892     23.0497    43.9971    36.141     19.2378    12.4745    19.5134    0.214     
3073.8     14.7729    4.712      20.851     43.6636    35.1772    18.0452    11.3498    17.6014    0.217     
3074       14.3413    4.3686     18.6264    42.1625    33.5361    16.2044    11.3337    16.5427    0.217     
3074.2     13.9974    4.0924     16.4341    39.9366    32.0904    14.7656    11.2722    16.0358    0.211     
3074.4     13.7006    3.9578     15.4288    38.2513    31.2763    13.5989    11.3968    16.0229    0.217     
3074.6     13.4106    3.8298     14.6311    35.4912    31.4457    13.1322    11.9813    16.2796    0.217     
3074.8     13.0599    3.8567     14.5078    33.6117    33.23      13.2489    13.1385    16.8956    0.211     
3075       12.5609    4.0184     15.2278    34.9331    37.8993    13.5129    15.2473    17.9928    0.217     
3075.2     12.0146    4.3618     16.9919    37.4349    44.4767    13.7544    18.778     18.6793    0.217     
3075.4     11.6324    4.5976     18.2761    38.9808    49.6735    13.9618    12.9173    18.3713    0.221     
3075.6     11.1581    4.6886     18.088     38.9808    52.5311    13.6637    10.8074    16.9597    0.217     
3075.8     10.2139    4.6245     17.5302    36.7998    51.887     12.8341    7.3971     15.1888    0.214     
3076       9.7755     4.18       15.9088    33.0857    48.2017    11.823     6.0856     13.8029    0.217     
3076.2     9.3911     3.6884     14.3639    28.5312    42.8356    10.7081    5.9926     13.1869    0.207     
3076.4     9.1079     3.4392     12.9642    24.7273    39.3723    9.6452     6.4597     13.2383    0.214     
3076.6     8.919      3.2304     11.7448    22.1614    34.7474    8.8804     7.95       13.5783    0.217     
3076.8     8.7369     3.3786     11.8551    20.8079    31.1852    8.1804     8.466      13.3281    0.211     
3077       8.7167     3.4729     11.3751    19.557     28.1895    7.5322     6.329      12.8661    0.214     
3077.2     8.7437     3.291      10.2596    17.562     24.0542    6.9748     6.4237     12.3143    0.217     
3077.4     8.7707     2.9812     9.0402     16.0991    19.9776    6.2878     6.9209     12.2822    0.221     
3077.6     8.7369     2.9947     8.93       14.2456    17.4834    5.7952     7.5413     12.4555    0.207     
