~Version
 VERS              .         2.0                           : CWLS LOG ASCII STANDARD - VERSION 2.0
 WRAP              .         NO                            : ONE LINE PER DEPTH STEP
 DLM               .         SPACE                         : DELIMITING CHARACTER(SPACE TAB OR COMMA)
~Well Information
#_______________________________________________________________________________
#
#PARAMETER_NAME    .UNIT     VALUE                         : DESCRIPTION
#_______________________________________________________________________________
STRT               .m        2888                          : First reference value
STOP               .m        3109                          : Last reference value
STEP               .m        0.2                           : Step increment
NULL               .         -9999                         : Missing value
COMP               .                                       : Company
WELL               .         505                           : Well name
FLD                .                                       : Field
LOC                .                                       : Location
CNTY               .                                       : County
STAT               .                                       : State
CTRY               .                                       : Country
SRVC               .                                       : Service Company
DATE               .                                       : Date
API                .                                       : API number
EREF               .m        139.4                         : 
X                  .m        230550                        : 
Y                  .m        242075                        : 
group              .         Pad5                          : 
Интер-р            .         Старостина                    : 
Куст               .         5                             : 
Статус             .         Не проверено                  : 
Тип                .         Разведка                      : 
~Parameter Information Block
#_______________________________________________________________________________
#
#PARAMETER_NAME    .UNIT     VALUE                         : DESCRIPTION
#_______________________________________________________________________________
SET                .         LAS1                          : 
REAL_CREATION_DATE .         Ср апр 11 2012-13_17_19       : 
TLFamily_DEPTH     .         Measured Depth                : 
TLFamily_KS        .         Potential Resistivity         : 
TLFamily_KS1       .         Extra Shallow Resistivity     : 
TLFamily_KS2       .         Shallow Resistivity           : 
TLFamily_KS3       .         Medium Resistivity            : 
TLFamily_KS4       .         Deep Resistivity              : 
TLFamily_KS5       .         Extra Deep Resistivity        : 
TLFamily_LLD       .         Lateral Log Resistivity       : 
TLFamily_OKS3      .         Medium Resistivity Inverted   : 
TLFamily_RM        .         Mud Resistivity               : 
group              .         INI                           : 
~Curve Information
#_______________________________________________________________________________
#
#LOGNAME           .UNIT     LOG_ID                        : DESCRIPTION
#_______________________________________________________________________________
DEPTH              .m                                      : Measured Depth 
KS                 .ohm.m                                  : Potential Resistivity 
KS1                .ohm.m                                  : Extra Shallow Resistivity 
KS2                .ohm.m                                  : Shallow Resistivity 
KS3                .ohm.m                                  : Medium Resistivity 
KS4                .ohm.m                                  : Deep Resistivity 
KS5                .ohm.m                                  : Extra Deep Resistivity 
LLD                .ohm.m                                  : Lateral Log Resistivity 
OKS3               .ohm.m                                  : Medium Resistivity Inverted 
RM                 .ohm.m                                  : Mud Resistivity 
~Ascii
# ...
3077.8     8.7032     3.2237     9.5332     13.9249    16.3046    5.6396     7.9596     12.8597    0.217     
3078       8.6897     3.1024     9.2543     13.5721    15.5688    5.3674     8.3476     12.8982    0.214     
3078.2     8.7437     3.1496     9.2154     12.8087    14.3705    5.1989     7.5576     12.6512    0.217     
3078.4     8.7302     3.1092     8.917      11.994     13.055     5.0563     7.5325     12.3207    0.211     
3078.6     8.7369     3.0014     8.6641     11.3654    11.9219    4.9267     7.2866     12.3015    0.211     
3078.8     8.7032     2.9476     8.6446     11.1345    11.2446    4.9007     8.1875     12.2565    0.214     
3079       8.7234     3.0014     8.8716     11.1665    10.9255    4.9007     7.5899     12.1026    0.214     
3079.2     8.7976     2.9206     8.5927     11.1473    10.8669    5.1081     7.8536     11.7689    0.217     
3079.4     8.8786     2.9004     8.4824     11.0511    11.0688    5.4581     8.1546     11.4738    0.207     
3079.6     8.946      2.8937     8.4889     11.2371    11.694     5.9119     8.3505     11.3968    0.211     
3079.8     9.0134     2.9408     8.677      11.5193    12.5796    6.6767     8.2568     11.5508    0.214     
3080       9.0944     2.9139     8.6186     11.9171    13.6997    7.8822     8.2421     12.0961    0.211     
3080.2     9.1753     2.9071     8.6316     12.5072    15.1064    9.6193     8.5823     12.9752    0.217     
3080.4     9.2562     2.9408     8.8716     13.3347    17.0015    11.823     9.1003     14.1109    0.214     
3080.6     9.2967     3.0082     9.2997     14.4252    19.8278    13.9964    9.8449     15.3043    0.207     
3080.8     9.2866     3.1833     10.0196    15.9904    23.6375    16.2304    10.1204    16.3309    0.201     
3081       9.1888     3.3887     10.6876    18.0688    28.6779    19.4581    10.4525    17.1137    0.214     
3081.2     8.9662     3.6951     11.5632    20.5449    34.3241    23.2822    11.3856    17.2677    0.211     
3081.4     8.7437     3.9847     12.815     22.0267    37.0723    25.4081    7.9746     16.286     0.217     
3081.6     8.6358     3.9173     12.6399    21.1286    34.3501    25.5378    5.6702     14.9707    0.211     
3081.8     8.629      3.52       11.0638    18.3639    27.9095    24.397     5.6089     13.6232    0.207     
3082       8.6358     3.1429     10.078     15.7531    22.2699    21.5322    5.1856     12.5677    0.214     
3082.2     8.7302     2.9273     9.3386     13.803     18.4472    18.4341    6.0403     12.3335    0.211     
3082.4     8.9359     2.7186     8.5862     12.4431    16.1744    16.3341    9.135      12.6672    0.211     
3082.6     9.263      2.695      8.8132     12.0454    15.419     15.2711    15.3754    13.2383    0.214     
3082.8     9.3439     3.1967     9.8185     13.4726    15.7381    14.9211    18.3241    13.4307    0.204     
3083       9.2158     3.6951     11.0379    15.2142    16.1809    15.297     14.4514    12.8982    0.211     
3083.2     8.6762     4.1733     12.1859    16.8307    16.4609    15.0248    9.9558     11.7882    0.214     
3083.4     7.8669     4.6851     14.0862    17.4337    15.4125    14.2081    4.5368     10.3573    0.214     
3083.6     7.3409     4.3416     12.7696    16.2278    13.0811    13.6767    3.7632     8.5447     0.211     
3083.8     6.9261     3.3382     10.2661    13.3989    10.2287    12.5748    4.1112     7.1491     0.204     
3084       6.8418     2.5738     8.7613     11.1601    8.5746     11.3174    4.3339     7.4411     0.207     
3084.2     6.8823     2.3078     7.5615     10.0055    7.8973     11.0193    5.679      8.2143     0.207     
3084.4     6.9565     2.3616     7.0231     9.5596     7.8387     11.7841    6.639      8.9168     0.211     
3084.6     7.1419     2.3684     6.6956     10.0953    8.5029     13.197     7.5785     9.6611     0.204     
3084.8     7.2768     2.5132     7.1528     11.1088    10.5315    15.3359    9.3401     10.4664    0.207     
3085       7.2667     2.7657     7.9182     12.7317    13.0485    19.0044    8.6556     11.5026    0.207     
3085.2     7.1082     3.0957     8.6381     14.7331    16.7279    23.36      7.1903     12.6255    0.214     
3085.4     6.7508     3.1765     9.3516     18.1458    22.4197    25.5378    8.2437     15.2273    0.201     
3085.6     6.1438     3.6042     11.3654    20.872     26.5289    25.7581    4.9677     16.517     0.204     
3085.8     5.6987     3.7894     12.7177    19.6885    25.7604    24.1767    4.1882     15.1022    0.209     
3086       5.5773     3.1967     10.6909    15.644     21.0781    20.0933    4.0723     12.4747    0.211     
3086.2     5.5267     2.8566     8.9073     12.8344    16.9559    14.8044    4.228      10.7006    0.207     
3086.4     5.5706     2.4593     7.6425     10.9548    13.5011    11.2007    4.578      9.5938     0.201     
3086.6     5.611      2.4526     6.9096     9.4442     10.7367    8.7119     5.1544     8.7532     0.207     
3086.8     5.6785     2.4795     6.6469     8.5589     9.3495     7.0915     5.0635     8.0667     0.207     
3087       5.7897     2.4829     6.3421     7.818      8.1969     5.86       5.033      7.5502     0.206     
3087.2     5.8538     2.4896     6.2286     7.2824     7.2526     4.9526     5.0603     7.4379     0.207     
3087.4     5.9347     2.5031     6.3259     6.9488     6.5493     4.2656     5.3383     7.6432     0.211     
3087.6     6.0528     2.4559     6.3875     6.8975     6.0999     3.8637     5.7295     8.1148     0.201     
3087.8     6.2112     2.4694     6.6275     7.1381     5.8232     3.6563     6.4704     8.734      0.201     
3088       6.3326     2.5334     7.0037     8.1837     5.9632     3.5267     8.6411     9.3243     0.207     
3088.2     6.3596     2.8364     7.889      9.6078     6.2237     3.4748     9.8507     9.4237     0.211     
3088.4     6.2483     3.1395     8.45       10.3743    6.393      3.41       8.1128     8.6281     0.204     
3088.6     5.9887     3.4324     8.9786     10.4224    6.4483     3.2933     5.8665     7.7234     0.207     
3088.8     5.6346     3.4931     9.2575     10.0568    6.2953     3.073      4.61       7.3352     0.214     
3089       5.3446     3.1193     8.4987     9.178      5.9241     2.8007     4.2891     7.3416     0.209     
3089.2     5.1659     2.8162     7.7917     8.0907     5.3445     2.5933     3.9558     7.5726     0.201     
3089.4     5.1423     2.5064     6.9875     7.1573     4.8365     2.5544     3.7542     7.8325     0.201     
3089.6     5.2232     2.2404     6.0502     6.5479     4.6086     2.6711     4.1994     8.0346     0.207     
3089.8     5.3952     2.1529     5.6254     6.3715     4.8463     2.9822     4.5772     8.0891     0.207     
3090       5.7189     2.1461     5.4568     6.6987     6.3083     3.41       4.8764     8.102      0.204     
3090.2     6.1539     2.1933     5.6935     7.5262     7.7801     3.7989     6.8759     8.1405     0.204     
3090.4     6.6766     2.3347     6.0697     8.514      9.0076     4.097      8.8462     8.1822     0.207     
3090.6     7.2397     2.5872     6.5626     8.8989     9.2291     4.2915     8.4846     8.1854     0.214     
3090.8     7.8164     2.7219     6.6923     8.8348     8.9197     4.3044     9.9571     8.179      0.204     
3091       8.0423     3.025      7.3247     8.7065     8.555      4.1619     10.3964    8.1822     0.201     
3091.2     8.0693     3.3247     8.3981     8.6231     8.1969     3.9933     7.6726     8.1886     0.201     
3091.4     7.9546     3.1967     8.7192     8.3056     7.6108     3.8637     6.8403     8.1822     0.201     
3091.6     7.8062     3.1159     9.0013     7.9079     7.0637     3.76       6.3351     8.179      0.201     
3091.8     7.6815     3.1024     9.1959     7.9046     6.8391     3.6044     7.4819     8.1822     0.204     
3092       7.5904     3.1934     9.2705     8.0843     6.5428     3.4943     5.9923     8.1822     0.204     
3092.2     7.5533     3.2169     8.6251     8.3408     6.2562     3.423      5.4046     8.179      0.204     
