~Version
 VERS              .         2.0                           : CWLS LOG ASCII STANDARD - VERSION 2.0
 WRAP              .         NO                            : ONE LINE PER DEPTH STEP
 DLM               .         SPACE                         : DELIMITING CHARACTER(SPACE TAB OR COMMA)
~Well Information
#_______________________________________________________________________________
#
#PARAMETER_NAME    .UNIT     VALUE                         : DESCRIPTION
#_______________________________________________________________________________
STRT               .m        2888                          : First reference value
STOP               .m        3109                          : Last reference value
STEP               .m        0.2                           : Step increment
NULL               .         -9999                         : Missing value
COMP               .                                       : Company
WELL               .         505                           : Well name
FLD                .                                       : Field
LOC                .                                       : Location
CNTY               .                                       : County
STAT               .                                       : State
CTRY               .                                       : Country
SRVC               .                                       : Service Company
DATE               .                                       : Date
API                .                                       : API number
EREF               .m        139.4                         : 
X                  .m        230550                        : 
Y                  .m        242075                        : 
group              .         Pad5                          : 
Интер-р            .         Старостина                    : 
Куст               .         5                             : 
Статус             .         Не проверено                  : 
Тип                .         Разведка                      : 
~Parameter Information Block
#_______________________________________________________________________________
#
#PARAMETER_NAME    .UNIT     VALUE                         : DESCRIPTION
#_______________________________________________________________________________
SET                .         LAS3                          : 
REAL_CREATION_DATE .         Ср апр 11 2012-13_17_19       : 
TLFamily_DEPTH     .         Measured Depth                : 
TLFamily_GR        .         Gamma Ray                     : 
TLFamily_TNPH      .         Neutron Porosity              : 
group              .         INI                           : 
~Curve Information
#_______________________________________________________________________________
#
#LOGNAME           .UNIT     LOG_ID                        : DESCRIPTION
#_______________________________________________________________________________
DEPTH              .m                                      : Measured Depth 
GR                 .gAPI                                   :  
TNPH               .v/v                                    : Neutron Porosity 
~Ascii
# ...
3082.4     88.32      0.291     
3082.6     84.05      0.302     
3082.8     78.06      0.306     
3083       79.52      0.304     
3083.2     78.99001   0.291     
3083.4     68.78999   0.257     
3083.6     60.74001   0.239     
3083.8     58.38      0.234     
3084       62.65      0.232     
3084.2     74.45      0.229     
3084.4     85.31999   0.224     
3084.6     89.46      0.226     
3084.8     89.52      0.254     
3085       99.82001   0.297     
3085.2     105.45     0.316     
3085.4     97.81      0.326     
3085.6     79.48      0.271     
3085.8     66.08      0.221     
3086       62.5       0.201     
3086.2     60.78      0.19      
3086.4     58.5       0.195     
3086.6     58.22      0.201     
3086.8     61.58      0.195     
3087       63.9       0.195     
3087.2     63.95      0.199     
3087.4     66.42      0.222     
3087.6     69.83      0.237     
3087.8     73.73      0.229     
3088       83.04      0.235     
3088.2     88.66      0.247     
3088.4     85.67001   0.226     
3088.6     77.66      0.198     
3088.8     67.85      0.206     
3089       58.28      0.224     
3089.2     53.49      0.219     
3089.4     54.67      0.209     
3089.6     57.22      0.207     
3089.8     60.60001   0.219     
3090       72.86      0.247     
3090.2     96.86      0.279     
3090.4     111.59     0.297     
3090.6     106.55     0.292     
3090.8     99.64      0.27      
3091       93.24001   0.254     
3091.2     80.71      0.249     
3091.4     72.55      0.263     
3091.6     73.05      0.275     
3091.8     77.25999   0.249     
3092       81.2       0.21      
3092.2     78.91      0.197     
3092.4     73.04      0.214     
3092.6     71.73      0.233     
3092.8     72.2       0.234     
3093       67.89      0.219     
3093.2     59.96      0.216     
3093.4     54.78      0.219     
3093.6     60.19      0.219     
3093.8     71.68      0.229     
3094       79.32999   0.241     
3094.2     83.9       0.257     
3094.4     87.07      0.267     
3094.6     87.99      0.258     
3094.8     87.49      0.254     
3095       87.8       0.276     
3095.2     86.68      0.282     
3095.4     85.33      0.259     
3095.6     86.79      0.244     
3095.8     77.39999   0.287     
3096       54.32      0.359     
3096.2     27.12      0.39      
3096.4     12.56      0.456     
3096.6     21.98      0.465     
3096.8     48.43      0.325     
3097       72         0.235     
3097.2     78.49      0.217     
3097.4     73.78999   0.207     
3097.6     67.48      0.19      
3097.8     60.38      0.185     
3098       51         0.18      
3098.2     44.29      0.171     
3098.4     44.23      0.173     
3098.6     47.89      0.18      
3098.8     55.49      0.203     
3099       64.46      0.226     
3099.2     72.08      0.231     
3099.4     81.87      0.224     
3099.6     94.69      0.229     
3099.8     106.84     0.239     
3100       109.73     0.237     
3100.2     109.24     0.238     
3100.4     110.52     0.248     
3100.6     110.67     0.258     
3100.8     110.85     0.27      
3101       107.28     0.276     
3101.2     91.26      0.271     
3101.4     67.14      0.228     
3101.6     52.63      0.189     
3101.8     53.84      0.193     
3102       59.88      0.221     
3102.2     66.37      0.229     
3102.4     69.09      0.225     
3102.6     66.85001   0.213     
3102.8     66.48      0.205     
3103       72.11      0.221     
3103.2     75.47      0.238     
3103.4     79.12      0.228     
3103.6     86.79      0.219     
3103.8     93.35      0.239     
3104       99.43      0.268     
3104.2     101.71     0.292     
3104.4     101.01     0.315     
3104.6     99.61      0.304     
3104.8     96.56999   0.276     
3105       96.42      0.294     
3105.2     99.09      0.316     
3105.4     103        0.327     
3105.6     103.3      0.326     
3105.8     94.63      0.291     
3106       86.45      0.253     
3106.2     83.44      0.245     
3106.4     84.81      0.242     
3106.6     90.60001   0.252     
3106.8     93.72      0.268     
3107       94.05      0.286     
3107.2     94.68001   0.293     
3107.4     91.64      0.271     
3107.6     88.63      0.253     
3107.8     90.43999   0.264     
3108       91.24      0.275     
3108.2     92.59      0.257     
3108.4     95.88      0.23      
3108.6     93.16      0.211     
3108.8     90.36      0.204     
3109       91.09      0.205     
