~Version
 VERS              .         2.0                           : CWLS LOG ASCII STANDARD - VERSION 2.0
 WRAP              .         NO                            : ONE LINE PER DEPTH STEP
 DLM               .         SPACE                         : DELIMITING CHARACTER(SPACE TAB OR COMMA)
~Well Information
#_______________________________________________________________________________
#
#PARAMETER_NAME    .UNIT     VALUE                         : DESCRIPTION
#_______________________________________________________________________________
STRT               .m        3041.4                        : First reference value
STOP               .m        3218.800177                   : Last reference value
STEP               .m        0.2000002                     : Step increment
NULL               .         -9999                         : Missing value
COMP               .                                       : Company
WELL               .         506                           : Well name
FLD                .                                       : Field
LOC                .                                       : Location
CNTY               .                                       : County
STAT               .                                       : State
CTRY               .                                       : Country
SRVC               .                                       : Service Company
DATE               .                                       : Date
API                .                                       : API number
EREF               .m        139.4                         : 
X                  .m        230550                        : 
Y                  .m        242075                        : 
group              .         Pad5                          : 
Интер-р            .         Ярышев                        : 
Куст               .         5                             : 
Статус             .         Не проверено                  : 
Тип                .         Нагнетательные                : 
~Parameter Information Block
#_______________________________________________________________________________
#
#PARAMETER_NAME    .UNIT     VALUE                         : DESCRIPTION
#_______________________________________________________________________________
SET                .         LAS1                          : 
REAL_CREATION_DATE .         Ср апр 11 2012-13_17_20       : 
TLFamily_DEPTH     .         Measured Depth                : 
TLFamily_KS        .         Potential Resistivity         : 
TLFamily_KS1       .         Extra Shallow Resistivity     : 
TLFamily_KS2       .         Shallow Resistivity           : 
TLFamily_KS3       .         Medium Resistivity            : 
TLFamily_KS4       .         Deep Resistivity              : 
TLFamily_KS5       .         Extra Deep Resistivity        : 
TLFamily_LLD       .         Lateral Log Resistivity       : 
TLFamily_OKS3      .         Medium Resistivity Inverted   : 
TLFamily_RM        .         Mud Resistivity               : 
group              .         INI                           : 
~Curve Information
#_______________________________________________________________________________
#
#LOGNAME           .UNIT     LOG_ID                        : DESCRIPTION
#_______________________________________________________________________________
DEPTH              .m                                      : Measured Depth 
KS                 .ohm.m                                  : Potential Resistivity 
KS1                .ohm.m                                  : Extra Shallow Resistivity 
KS2                .ohm.m                                  : Shallow Resistivity 
KS3                .ohm.m                                  : Medium Resistivity 
KS4                .ohm.m                                  : Deep Resistivity 
KS5                .ohm.m                                  : Extra Deep Resistivity 
LLD                .ohm.m                                  : Lateral Log Resistivity 
OKS3               .ohm.m                                  : Medium Resistivity Inverted 
RM                 .ohm.m                                  : Mud Resistivity 
~Ascii
# ...
3070.600029 11.6032    3.5099     12.1259    20.3829    22.0729    12.6396    10.4435    25.4774    0.211     
3070.800029 11.8123    3.488      11.9864    19.804     21.4591    12.6072    10.0912    25.155     0.211     
3071.00003 11.9983    3.5251     12.0254    19.4784    21.0944    12.5878    10.0912    24.9721    0.212     
3071.20003 12.1663    3.5778     12.1924    19.3245    20.8746    12.5748    10.9347    24.7813    0.213     
3071.40003 12.2962    3.6328     12.421     19.2699    20.7281    12.5618    11.2701    24.6       0.213     
3071.60003 12.3906    3.648      12.5621    19.2298    20.5458    12.5813    11.7193    24.4893    0.212     
3071.80003 12.4631    3.6631     12.7139    19.2491    20.3748    12.6267    11.4172    24.5583    0.209     
3072.000031 12.5255    3.6547     12.8637    19.4351    20.3308    12.7304    11.4172    24.7283    0.205     
3072.200031 12.5727    3.6884     13.0615    19.7703    20.4204    12.847     11.3321    24.8759    0.203     
3072.400031 12.6216    3.7372     13.2852    20.2947    20.5962    12.9572    11.2745    24.9192    0.202     
3072.600031 12.6721    3.7591     13.3614    20.8672    20.7183    13.048     12.2826    24.8984    0.203     
3072.800031 12.7109    3.7422     13.316     21.2617    20.7216    13.1322    12.0343    24.9673    0.205     
3073.000032 12.7396    3.7271     13.3144    21.5456    20.7053    13.1841    12.0343    25.0748    0.206     
3073.200032 12.7581    3.7523     13.4604    21.9305    20.803     13.2294    11.6383    25.0924    0.207     
3073.400032 12.7885    3.7827     13.6112    22.2833    20.9853    13.2683    11.3568    24.9641    0.208     
3073.600032 12.8104    3.7911     13.6549    22.4998    21.1758    13.2683    12.3903    24.8165    0.212     
3073.800032 12.834     3.813      13.7198    22.5848    21.3386    13.1711    12.1664    24.7187    0.217     
3074.000033 12.8525    3.8045     13.6614    22.5912    21.4917    13.0285    12.1664    24.6642    0.217     
3074.200033 12.893     3.7961     13.6436    22.4468    21.5617    12.8535    12.2782    24.5711    0.217     
3074.400033 12.9537    3.7456     13.4668    22.2672    21.6545    12.6591    11.8856    24.3947    0.217     
3074.600033 12.9992    3.7271     13.4004    22.1935    21.8238    12.51      11.8505    24.215     0.217     
3074.800033 12.9874    3.7742     13.5528    22.3731    22.2031    12.3998    12.377     24.0321    0.217     
3075.000034 12.9318    3.8281     13.7133    22.6842    22.7436    12.3998    12.377     23.8846    0.216     
3075.200034 12.8475    3.8803     13.9144    22.9055    23.2256    12.4452    13.2588    23.8605    0.213     
3075.400034 12.7531    3.8668     13.9014    23.0306    23.4828    12.4776    13.016     23.96      0.21      
3075.600034 12.6705    3.8365     13.843     23.0177    23.5495    12.5294    11.8821    24.1412    0.21      
3075.800034 12.6452    3.7591     13.6355    22.8093    23.4486    12.6072    11.5794    24.3642    0.212     
3076.000035 12.7008    3.6496     13.2869    22.4581    23.2988    12.7498    11.5794    25.0957    0.212     
3076.200035 12.7902    3.4762     12.7631    22.1181    23.4291    12.9831    11.1926    26.2971    0.213     
3076.400035 12.8644    3.5065     12.7631    22.1502    24.0266    13.3591    10.9169    27.3061    0.212     
3076.600035 13.0026    3.6042     13.1555    22.7387    25.0636    13.8646    11.2071    27.6445    0.21      
3076.800035 13.1307    3.722      13.4587    23.3754    26.0405    14.4804    14.9877    27.7488    0.206     
3077.000036 13.1763    3.7675     13.5787    23.9479    26.9978    14.973     14.9877    28.06      0.202     
3077.200036 13.1527    3.8584     13.9906    24.3135    27.6295    15.1998    14.4948    28.1996    0.205     
3077.400036 13.124     3.8955     14.1916    24.3584    27.6441    15.1544    13.841     27.8723    0.207     
3077.600036 13.1105    3.8601     14.1706    23.8966    27.0792    14.8563    13.9434    27.2339    0.207     
3077.800036 13.0937    3.8163     14.0246    23.2551    26.2879    14.3637    12.9622    26.5875    0.209     
3078.000037 13.07      3.7641     13.7587    22.6697    25.5162    13.8711    12.9622    26.1126    0.212     
3078.200037 13.0566    3.7153     13.5106    22.1774    24.782     13.5081    12.5369    25.9346    0.215     
3078.400037 13.0448    3.6564     13.2561    21.8727    24.1259    13.2878    12.3529    26.0501    0.214     
3078.600037 13.0515    3.6008     13.0517    21.7781    23.6521    13.2165    11.4455    26.4335    0.21      
3078.800037 13.1173    3.5739     12.9237    21.6963    23.2646    13.3591    11.4412    26.9259    0.207     
3079.000038 13.2471    3.4846     12.5913    21.6049    23.0318    13.6961    11.4412    27.5772    0.208     
3079.200038 13.4039    3.4695     12.5086    21.6915    23.1751    14.1757    11.6696    28.3921    0.212     
3079.400038 13.5742    3.5082     12.6172    22.1405    23.753     14.9816    11.5732    29.3032    0.212     
3079.600038 13.7714    3.5436     12.7712    22.7371    24.6696    16.0878    13.4685    30.0218    0.211     
3079.800038 13.9603    3.6025     13.0209    23.4427    25.9721    17.1118    14.1718    30.5592    0.211     
3080.000039 14.0918    3.7204     13.4993    24.4033    27.6099    18.11      14.1718    31.1126    0.21      
3080.200039 14.1693    3.8399     14.0895    25.4281    29.1061    19.0174    15.1455    31.6403    0.207     
3080.400039 14.2267    3.9173     14.5694    26.161     30.1693    19.5618    16.9155    31.759     0.203     
3080.600039 14.2503    3.946      14.8224    26.4769    30.6821    19.7628    17.7879    31.3035    0.202     
3080.800039 14.2587    3.9561     14.8337    26.3294    30.7993    19.4776    17.2902    30.8014    0.205     
3081.00004 14.2452    3.914      14.8046    26.0359    30.5453    18.9785    17.2902    30.3763    0.209     
3081.20004 14.2216    3.9207     14.8743    25.8466    30.3207    18.3174    15.1009    30.1148    0.214     
3081.40004 14.2368    3.8921     14.7656    25.5371    29.8029    17.76      14.3401    29.7395    0.215     
3081.60004 14.2756    3.8281     14.4349    25.2052    29.1957    17.1961    14.1662    29.3625    0.214     
3081.80004 14.3194    3.7978     14.2889    24.9502    28.5672    16.6517    13.921     29.2342    0.212     
3082.000041 14.4054    3.754      14.0522    24.716     27.8704    16.2044    13.921     29.4716    0.21      
3082.200041 14.5403    3.6547     13.6874    24.4563    27.1883    15.9128    13.3491    29.6031    0.209     
3082.400041 14.7156    3.6193     13.5479    24.4097    26.8057    15.647     12.5627    29.4844    0.211     
3082.600041 14.8859    3.6648     13.6387    24.6519    26.708     15.4526    16.1628    29.3096    0.212     
3082.800041 15.036     3.7473     13.8301    24.9374    26.7568    15.3943    16.1628    29.1556    0.212     
3083.000042 15.1675    3.7321     13.8155    25.1394    26.9131    15.4267    16.0848    28.9936    0.211     
3083.200042 15.2686    3.781      14.0635    25.4185    27.3804    15.4526    16.1693    28.9038    0.21      
3083.400042 15.299     3.8584     14.4251    25.9188    28.1065    15.5563    17.3965    28.8011    0.209     
3083.600042 15.2889    3.9376     14.7851    26.4641    28.9287    15.7118    17.3368    28.6519    0.206     
3083.800042 15.2467    3.9813     15.0089    26.8971    29.7118    15.835     17.3368    28.5637    0.202     
3084.000043 15.2063    3.9813     15.0753    27.0334    30.2246    15.9646    16.5568    28.7065    0.202     
3084.200043 15.1945    3.9241     14.8856    26.9131    30.4916    16.1137    15.0699    29.077     0.206     
3084.400043 15.213     3.8281     14.597     26.7543    30.8172    16.2693    14.3817    29.5245    0.208     
3084.600043 15.2552    3.7877     14.4884    26.7992    31.4196    16.4637    15.4834    29.9416    0.212     
3084.800043 15.3327    3.8113     14.5322    26.9788    32.1246    16.8202    15.4834    30.1918    0.215     
3085.000044 15.4389    3.832      14.5289    27.1392    32.7058    17.3387    16.0853    30.2656    0.214     
