~Version
 VERS              .         2.0                           : CWLS LOG ASCII STANDARD - VERSION 2.0
 WRAP              .         NO                            : ONE LINE PER DEPTH STEP
 DLM               .         SPACE                         : DELIMITING CHARACTER(SPACE TAB OR COMMA)
~Well Information
#_______________________________________________________________________________
#
#PARAMETER_NAME    .UNIT     VALUE                         : DESCRIPTION
#_______________________________________________________________________________
STRT               .m        3041.4                        : First reference value
STOP               .m        3218.800177                   : Last reference value
STEP               .m        0.2000002                     : Step increment
NULL               .         -9999                         : Missing value
COMP               .                                       : Company
WELL               .         506                           : Well name
FLD                .                                       : Field
LOC                .                                       : Location
CNTY               .                                       : County
STAT               .                                       : State
CTRY               .                                       : Country
SRVC               .                                       : Service Company
DATE               .                                       : Date
API                .                                       : API number
EREF               .m        139.4                         : 
X                  .m        230550                        : 
Y                  .m        242075                        : 
group              .         Pad5                          : 
Интер-р            .         Ярышев                        : 
Куст               .         5                             : 
Статус             .         Не проверено                  : 
Тип                .         Нагнетательные                : 
~Parameter Information Block
#_______________________________________________________________________________
#
#PARAMETER_NAME    .UNIT     VALUE                         : DESCRIPTION
#_______________________________________________________________________________
SET                .         LAS1                          : 
REAL_CREATION_DATE .         Ср апр 11 2012-13_17_20       : 
TLFamily_DEPTH     .         Measured Depth                : 
TLFamily_KS        .         Potential Resistivity         : 
TLFamily_KS1       .         Extra Shallow Resistivity     : 
TLFamily_KS2       .         Shallow Resistivity           : 
TLFamily_KS3       .         Medium Resistivity            : 
TLFamily_KS4       .         Deep Resistivity              : 
TLFamily_KS5       .         Extra Deep Resistivity        : 
TLFamily_LLD       .         Lateral Log Resistivity       : 
TLFamily_OKS3      .         Medium Resistivity Inverted   : 
TLFamily_RM        .         Mud Resistivity               : 
group              .         INI                           : 
~Curve Information
#_______________________________________________________________________________
#
#LOGNAME           .UNIT     LOG_ID                        : DESCRIPTION
#_______________________________________________________________________________
DEPTH              .m                                      : Measured Depth 
KS                 .ohm.m                                  : Potential Resistivity 
KS1                .ohm.m                                  : Extra Shallow Resistivity 
KS2                .ohm.m                                  : Shallow Resistivity 
KS3                .ohm.m                                  : Medium Resistivity 
KS4                .ohm.m                                  : Deep Resistivity 
KS5                .ohm.m                                  : Extra Deep Resistivity 
LLD                .ohm.m                                  : Lateral Log Resistivity 
OKS3               .ohm.m                                  : Medium Resistivity Inverted 
RM                 .ohm.m                                  : Mud Resistivity 
~Ascii
# ...
3114.400073 6.7896     2.8465     8.0706     8.9631     9.1477     3.5461     5.8028     10.4151    0.204     
3114.600073 6.7609     2.8836     8.1338     9.0994     9.0679     3.7406     5.8028     10.4263    0.205     
3114.800073 6.7053     2.9358     8.3598     9.295      8.9816     3.9026     5.6665     10.4054    0.208     
3115.000074 6.6547     2.929      8.5214     9.4634     8.866      4.0257     5.599      10.3669    0.211     
3115.200074 6.6294     2.8651     8.3608     9.5527     8.6902     4.1424     4.8854     10.3862    0.21      
3115.400074 6.5906     2.7842     8.2279     9.5949     8.573      4.2591     5.3557     10.5017    0.209     
3115.600074 6.5653     2.7977     8.3171     9.7296     8.5274     4.4017     5.3557     10.5755    0.208     
3115.800074 6.5636     2.7994     8.2506     9.8531     8.5095     4.5637     5.412      10.5691    0.205     
3116.000075 6.567      2.8213     8.2376     9.9247     8.4313     4.7646     5.2453     10.4471    0.204     
3116.200075 6.6024     2.796      8.0901     9.8467     8.2685     5.0174     4.747      10.3316    0.205     
3116.400075 6.6378     2.7118     7.8306     9.7056     8.1008     5.3156     4.7733     10.4167    0.205     
3116.600075 6.6698     2.7203     7.8955     9.7232     8.0292     5.6785     4.7733     10.6605    0.206     
3116.800075 6.7474     2.6883     7.9036     9.789      8.1252     6.2165     5.12       10.8065    0.204     
3117.000076 6.8452     2.7371     8.0463     9.9173     8.2669     6.8128     5.8699     10.7311    0.201     
3117.200076 6.9042     2.8735     8.3333     10.0905    8.4384     7.3702     5.8553     10.4616    0.198     
3117.400076 6.9177     2.9476     8.4192     10.2043    8.5746     7.8304     5.6809     10.1135    0.199     
3117.600076 6.8654     3.0014     8.5587     10.2476    8.6137     8.1091     5.6809     9.8119     0.202     
3117.800076 6.7963     3.0132     8.6835     10.2572    8.5697     8.2193     5.4309     9.5681     0.205     
3118.000077 6.7171     2.9307     8.5911     10.2252    8.5415     8.2452     5.039      9.467      0.207     
3118.200077 6.6176     2.9358     8.7257     10.1787    8.4883     8.1739     5.1808     9.4093     0.211     
3118.400077 6.5198     2.9088     8.6965     10.1626    8.4281     8.0443     4.8259     9.3612     0.21      
3118.600077 6.4726     2.8566     8.5197     10.0343    8.3418     7.9341     4.8259     9.3451     0.206     
3118.800077 6.4186     2.8078     8.3284     9.991      8.2848     7.7785     4.8916     9.4253     0.205     
3119.000078 6.3509     2.8184     8.2786     10.0827    8.2476     7.6035     5.1919     9.5219     0.207     
3119.200078 6.31       2.8311     8.2082     10.1328    8.1438     7.4285     4.807      9.6297     0.209     
3119.400078 6.2568     2.8095     8.1014     10.0359    8.0276     7.072      4.7337     10.2643    0.207     
3119.600078 6.1354     2.764      7.9522     9.7761     7.8582     6.9294     4.7337     10.6878    0.203     
3119.800078 6.1185     2.7001     7.8031     9.5917     7.8078     6.8257     4.6155     10.8578    0.199     
3120.000079 6.1118     2.6546     7.6928     9.3961     7.7785     6.735      4.39       10.9139    0.198     
3120.200079 6.1101     2.6883     7.6895     9.2838     7.7752     6.6313     4.8284     10.9316    0.201     
3120.400079 6.1286     2.6984     7.636      9.1796     7.6873     6.5341     4.6851     10.9396    0.206     
3120.600079 6.1725     2.6731     7.4706     8.9358     7.5505     6.4304     4.6851     11.0182    0.209     
3120.800079 6.2719     2.5805     7.195      8.6231     7.4138     6.3591     4.3187     11.2315    0.208     
3121.00008 6.4979     2.4795     6.942      8.2783     7.3063     6.4044     4.0805     11.6165    0.206     
3121.20008 6.9008     2.2808     6.4783     8.0009     7.3682     6.56       4.0291     12.287     0.202     
3121.40008 7.3729     2.1865     6.3907     8.0891     7.7671     6.8798     4.8632     12.8741    0.202     
3121.60008 7.7911     2.4677     7.2161     8.862      8.4606     7.1952     4.8632     12.6463    0.207     
3121.80008 8.0372     3.0806     8.5765     10.0247    9.1184     7.3248     10.4771    11.4673    0.209     
3122.000081 7.9917     3.7153     9.8169     10.8185    9.3723     7.3248     30.7114    10.253     0.205     
3122.200081 7.6714     3.8146     10.185     10.9677    9.1346     7.1822     5.4961     9.5617     0.201     
3122.400081 7.2616     3.552      10.2336    10.8025    8.7976     6.9748     4.9154     9.4173     0.198     
3122.600081 6.9379     3.2826     10.3893    10.6582    8.5827     6.8387     4.9154     9.5296     0.197     
3122.800081 6.6901     3.1513     10.4769    10.6902    8.4834     6.7156     4.9623     9.6162     0.199     
3123.000082 6.5114     3.1058     10.1866    10.7271    8.345      6.6313     5.1535     9.6323     0.203     
3123.200082 6.4186     2.9745     9.3597     10.6261    8.0797     6.56       4.6395     9.6563     0.207     
3123.400082 6.3849     2.8196     8.5749     10.4401    7.7752     6.4887     4.221      9.8183     0.207     
3123.600082 6.4085     2.695      8.103      10.3984    7.5961     6.385      4.1128     10.1777    0.207     
3123.800082 6.5181     2.6142     7.7917     10.5058    7.5001     6.4304     4.1465     10.5306    0.202     
3124.000083 6.7053     2.5654     7.5744     10.5074    7.5147     6.4952     4.2546     10.4263    0.198     
3124.200083 6.7508     2.6529     7.6458     10.655     7.7703     6.4757     4.6737     10.0942    0.201     
3124.400083 6.6395     3.0604     8.4889     10.6181    8.0031     6.4757     6.8627     9.8841     0.204     
3124.600083 6.5535     2.9745     8.45       10.1803    7.8175     6.3072     5.9005     9.7526     0.202     
3124.800083 6.4608     2.9021     8.4549     9.8772     7.6954     6.1517     5.7801     9.6884     0.198     
3125.000084 6.395      2.8533     8.4257     9.6462     7.6222     6.0091     5.2604     9.759      0.198     
3125.200084 6.3444     2.7994     8.2327     9.4137     7.5766     5.8989     4.9229     9.9386     0.2       
3125.400084 6.331      2.7388     7.9782     9.1956     7.5929     5.7952     4.7747     10.0584    0.201     
3125.600084 6.3377     2.6849     7.7706     9.0705     7.6791     5.7174     4.6644     10.0381    0.205     
3125.800084 6.3461     2.7017     7.7431     9.0866     7.7459     5.6526     4.658      10.0766    0.21      
3126.000085 6.3647     2.6916     7.6458     9.1812     7.6971     5.6072     4.6585     10.2675    0.21      
3126.200085 6.4001     2.6899     7.6231     9.1683     7.5326     5.5878     4.6625     10.5562    0.208     
3126.400085 6.4372     2.6832     7.5696     9.109      7.4187     5.5878     4.6875     10.9701    0.204     
3126.600085 6.4473     2.7034     7.6652     9.1539     7.3796     5.5878     4.8312     11.347     0.203     
3126.800085 6.4192     2.7943     7.8517     9.1908     7.378      5.6072     4.9893     11.5941    0.205     
3127.000086 6.4422     2.8005     7.8679     9.0513     7.2461     5.7174     5.4073     11.7914    0.202     
3127.200086 6.5029     2.6411     7.5728     8.8155     7.1337     5.9054     4.8649     12.287     0.199     
3127.400086 6.5232     2.5098     7.375      8.7562     7.2558     6.0609     4.3879     12.9896    0.198     
3127.600086 6.4647     2.594      7.6728     9.1299     7.6564     6.1841     4.3879     13.1933    0.201     
3127.800086 6.4456     2.9038     8.3738     9.4779     7.8306     6.3137     4.6071     12.834     0.206     
3128.000087 6.5097     2.8347     7.7252     9.2582     7.5017     6.5665     7.2312     12.2838    0.204     
3128.200087 6.5248     2.5957     7.2453     8.5365     7.0393     6.9943     5.0724     12.5405    0.199     
3128.400087 6.54       2.3869     6.8323     8.1099     7.1712     8.1285     4.5445     13.8526    0.2       
3128.600087 6.6462     2.2589     6.7815     8.1869     8.109      9.872      4.5445     17.234     0.2       
3128.800087 6.9211     2.0838     6.8496     9.009      9.7484     11.7387    3.9186     22.0944    0.2       
