~Version
 VERS              .         2.0                           : CWLS LOG ASCII STANDARD - VERSION 2.0
 WRAP              .         NO                            : ONE LINE PER DEPTH STEP
 DLM               .         SPACE                         : DELIMITING CHARACTER(SPACE TAB OR COMMA)
~Well Information
#_______________________________________________________________________________
#
#PARAMETER_NAME    .UNIT     VALUE                         : DESCRIPTION
#_______________________________________________________________________________
STRT               .m        3041.4                        : First reference value
STOP               .m        3218.800177                   : Last reference value
STEP               .m        0.2000002                     : Step increment
NULL               .         -9999                         : Missing value
COMP               .                                       : Company
WELL               .         506                           : Well name
FLD                .                                       : Field
LOC                .                                       : Location
CNTY               .                                       : County
STAT               .                                       : State
CTRY               .                                       : Country
SRVC               .                                       : Service Company
DATE               .                                       : Date
API                .                                       : API number
EREF               .m        139.4                         : 
X                  .m        230550                        : 
Y                  .m        242075                        : 
group              .         Pad5                          : 
Интер-р            .         Ярышев                        : 
Куст               .         5                             : 
Статус             .         Не проверено                  : 
Тип                .         Нагнетательные                : 
~Parameter Information Block
#_______________________________________________________________________________
#
#PARAMETER_NAME    .UNIT     VALUE                         : DESCRIPTION
#_______________________________________________________________________________
SET                .         LAS1                          : 
REAL_CREATION_DATE .         Ср апр 11 2012-13_17_20       : 
TLFamily_DEPTH     .         Measured Depth                : 
TLFamily_KS        .         Potential Resistivity         : 
TLFamily_KS1       .         Extra Shallow Resistivity     : 
TLFamily_KS2       .         Shallow Resistivity           : 
TLFamily_KS3       .         Medium Resistivity            : 
TLFamily_KS4       .         Deep Resistivity              : 
TLFamily_KS5       .         Extra Deep Resistivity        : 
TLFamily_LLD       .         Lateral Log Resistivity       : 
TLFamily_OKS3      .         Medium Resistivity Inverted   : 
TLFamily_RM        .         Mud Resistivity               : 
group              .         INI                           : 
~Curve Information
#_______________________________________________________________________________
#
#LOGNAME           .UNIT     LOG_ID                        : DESCRIPTION
#_______________________________________________________________________________
DEPTH              .m                                      : Measured Depth 
KS                 .ohm.m                                  : Potential Resistivity 
KS1                .ohm.m                                  : Extra Shallow Resistivity 
KS2                .ohm.m                                  : Shallow Resistivity 
KS3                .ohm.m                                  : Medium Resistivity 
KS4                .ohm.m                                  : Deep Resistivity 
KS5                .ohm.m                                  : Extra Deep Resistivity 
LLD                .ohm.m                                  : Lateral Log Resistivity 
OKS3               .ohm.m                                  : Medium Resistivity Inverted 
RM                 .ohm.m                                  : Mud Resistivity 
~Ascii
# ...
3085.200044 15.5249    3.8332     14.4867    27.2627    33.1616    17.8767    16.2656    30.1148    0.212     
3085.400044 15.562     3.9005     14.6165    27.4792    33.7184    18.4341    17.9104    29.6962    0.211     
3085.600044 15.5772    3.9712     14.9175    27.7614    34.2948    19.0368    18.5339    29.223     0.209     
3085.800044 15.5536    3.9712     14.9797    27.9234    34.6692    19.672     18.5339    28.8893    0.209     
3086.000045 15.5199    3.9712     15.0591    27.9539    34.9037    20.1776    16.2604    28.7305    0.212     
3086.200045 15.4979    3.9561     15.0753    27.9491    35.1935    20.6637    15.9528    28.745     0.213     
3086.400045 15.5266    3.8938     14.8905    27.8128    35.3807    21.1498    14.3339    28.9374    0.212     
3086.600045 15.6092    3.8264     14.6748    27.5931    35.5044    21.6748    14.0259    29.1267    0.208     
3086.800045 15.7154    3.7877     14.6003    27.6262    35.8219    22.2841    14.0259    28.9439    0.203     
3087.000046 15.8048    3.8601     14.8613    28.2281    36.4894    23.01      15.1024    28.0937    0.201     
3087.200046 15.8385    4.0049     15.3315    29.24      37.5265    23.7943    18.2907    26.796     0.202     
3087.400046 15.7812    4.1413     15.7904    30.1493    38.544     24.585     20.5608    25.5111    0.205     
3087.600046 15.6143    4.2676     16.2833    30.8533    39.3613    25.2655    20.2152    24.2744    0.21      
3087.800046 15.3917    4.3366     16.6401    31.2607    39.8383    25.81      20.2152    23.2157    0.215     
3088.000047 15.1692    4.3265     16.6449    31.0859    39.7586    26.3026    19.2597    22.6334    0.217     
3088.200047 14.9483    4.1935     16.3077    30.5871    39.1741    26.7887    15.5629    22.5468    0.216     
3088.400047 14.7392    4.0958     16.0498    30.2455    38.5864    27.3137    13.5536    22.704     0.214     
3088.600047 14.5369    4.0722     16.0353    30.4701    38.6319    27.9878    15.1081    22.7441    0.212     
3088.800047 14.2739    4.1985     16.4195    31.2783    39.37      28.7785    15.1081    22.3799    0.211     
3089.000048 13.9148    4.3753     16.8736    32.2902    40.3723    29.4461    18.1781    21.5859    0.211     
3089.200048 13.4477    4.5302     17.2205    32.8868    40.6393    29.6081    19.9428    20.5192    0.212     
3089.400048 12.9756    4.5521     17.167     32.4169    39.459     29.2387    14.7939    19.5407    0.212     
3089.600048 12.5204    4.2777     16.165     31.0105    37.3458    28.3896    10.2144    19.1349    0.211     
3089.800048 12.1461    4.0823     15.4823    28.9754    34.8434    27.1257    10.2144    19.5006    0.21      
3090.000049 11.9117    3.7507     14.2889    26.9917    32.5837    25.8035    9.027      20.4117    0.208     
3090.200049 11.8595    3.4745     13.2625    25.0512    30.7879    24.8831    7.9562     21.5586    0.205     
3090.400049 11.9404    3.3398     12.5961    23.8036    29.759     24.2155    9.4231     22.6302    0.202     
3090.600049 12.1073    3.3045     12.1616    23.2904    29.4529    23.9563    10.7216    23.5429    0.202     
3090.800049 12.286     3.3954     12.1648    23.2455    29.6173    23.9563    10.7216    24.0594    0.205     
3091.00005 12.4361    3.5166     12.348     23.4588    29.9837    24.0341    12.6532    24.1541    0.207     
3091.20005 12.5069    3.6513     12.7048    23.6528    30.3516    24.073     13.506     24.0466    0.213     
3091.40005 12.4833    3.8029     13.209     23.6753    30.4656    23.9498    13.3952    23.9102    0.216     
3091.60005 12.3821    3.8854     13.5398    23.4171    30.1676    23.5415    12.9257    23.7226    0.214     
3091.80005 12.2675    3.9056     13.7101    22.5976    29.1224    22.997     11.1588    23.7097    0.212     
3092.000051 12.1815    3.7305     13.2058    21.4397    27.6409    22.3618    9.2152     24.2134    0.208     
3092.200051 12.1495    3.5587     12.7599    20.2626    26.1219    21.772     8.9627     25.6426    0.207     
3092.400051 12.2304    3.3702     12.194     19.5987    25.0929    21.2665    9.9616     27.6093    0.208     
3092.600051 12.426     3.2809     11.8292    19.2812    24.5036    21.1757    10.0081    29.6641    0.21      
3092.800051 12.7295    3.2237     11.5389    19.3405    24.3701    21.3054    10.8085    31.2987    0.209     
3093.000052 13.0599    3.2927     11.6022    19.6452    24.4971    21.5517    13.3819    32.1777    0.206     
3093.200052 13.4089    3.3988     11.8032    20.1055    24.6534    21.8865    13.8012    32.4039    0.203     
3093.400052 13.7428    3.4729     11.9313    20.3685    24.5378    22.2906    13.3438    32.6782    0.202     
3093.600052 14.0412    3.5082     12.1064    20.4486    24.3278    22.6535    13.0887    33.3743    0.202     
3093.800052 14.3261    3.4964     12.2459    20.5417    24.2496    23.023     13.1203    34.2758    0.207     
3094.000053 14.6263    3.5267     12.5767    20.7469    24.4124    23.5026    13.4856    34.98      0.211     
3094.200053 14.9652    3.5823     12.948     20.9169    24.611     24.0406    14.3761    35.3057    0.212     
3094.400053 15.3378    3.5722     12.922     21.0741    24.8829    24.7146    15.1257    35.5399    0.211     
3094.600053 15.7239    3.5823     13.0534    21.3259    25.3665    25.4017    15.3861    36.0227    0.208     
3094.800053 16.0611    3.5941     13.2155    22.1662    26.3596    26.1794    15.3861    36.2312    0.208     
3095.000054 16.3494    3.7254     13.8544    23.4107    27.6311    26.7887    16.4716    35.6377    0.209     
3095.200054 16.604     3.9258     14.6294    24.8379    28.748     27.2943    22.8422    33.8155    0.21      
3095.400054 16.8164    4.0571     15.158     25.7857    29.3113    27.6118    19.534     31.9579    0.209     
3095.600054 16.953     4.0083     15.0948    26.2123    29.4741    27.8063    16.5487    30.8832    0.21      
3095.800054 17.012     4.0015     15.2667    26.6148    29.7394    27.9618    16.5487    30.3057    0.212     
3096.000055 17.0676    4.0201     15.5958    27.3236    30.3337    28.2989    16.9827    29.6882    0.21      
3096.200055 17.13      4.0571     15.8796    28.2041    30.9833    28.772     17.9964    28.9262    0.209     
3096.400055 17.1941    4.0908     16.0417    29.0556    31.6817    29.4137    18.6164    28.2509    0.206     
3096.600055 17.2143    4.1026     16.1277    30.0531    32.8083    30.0489    18.2038    27.6205    0.202     
3096.800055 17.103     4.2137     16.6595    31.6039    34.7034    30.6193    18.2038    26.1319    0.202     
3097.000056 16.8586    4.4561     17.6081    33.7031    37.056     30.9693    20.9473    24.5219    0.203     
3097.200056 16.4573    4.707      18.5307    35.8296    39.2653    30.9693    28.6552    23.4595    0.207     
3097.400056 15.9549    4.8939     19.322     37.1061    40.5579    30.4572    21.0679    22.643     0.212     
3097.600056 15.3681    4.8147     19.1387    37.2681    40.8852    29.3165    14.1848    21.873     0.214     
3097.800056 14.6617    4.7182     18.9231    36.5576    40.3837    27.6637    14.1848    21.0084    0.212     
3098.000057 14.1525    4.5184     18.3069    35.4335    39.4264    25.8618    14.1387    20.0861    0.21      
3098.200057 13.8726    4.2356     17.206     33.655     37.7756    24.0924    11.3802    19.6995    0.209     
3098.400057 13.6382    4.0419     15.9963    31.8524    36.3266    22.4331    9.4702     19.4509    0.208     
3098.600057 13.4039    3.8971     15.1045    30.4989    35.4556    21.3054    10.1659    18.3505    0.207     
3098.800057 13.2184    3.8096     14.7413    29.9617    35.4458    20.5859    10.1659    16.7929    0.207     
3099.000058 13.0414    3.8837     14.79      29.9537    35.9359    20.1646    11.7565    15.7535    0.21      
3099.200058 12.8059    3.9982     14.8646    29.9938    36.491     19.9831    13.5772    15.1423    0.211     
3099.400058 12.4327    4.07       14.8467    29.7981    36.8541    19.7498    12.5567    14.807     0.211     
3099.600058 12.163     4.1396     15.0089    29.5287    37.0397    19.4063    12.8245    14.3643    0.211     
