~Version
 VERS              .         2.0                           : CWLS LOG ASCII STANDARD - VERSION 2.0
 WRAP              .         NO                            : ONE LINE PER DEPTH STEP
 DLM               .         SPACE                         : DELIMITING CHARACTER(SPACE TAB OR COMMA)
~Well Information
#_______________________________________________________________________________
#
#PARAMETER_NAME    .UNIT     VALUE                         : DESCRIPTION
#_______________________________________________________________________________
STRT               .m        3041.4                        : First reference value
STOP               .m        3218.800177                   : Last reference value
STEP               .m        0.2000002                     : Step increment
NULL               .         -9999                         : Missing value
COMP               .                                       : Company
WELL               .         506                           : Well name
FLD                .                                       : Field
LOC                .                                       : Location
CNTY               .                                       : County
STAT               .                                       : State
CTRY               .                                       : Country
SRVC               .                                       : Service Company
DATE               .                                       : Date
API                .                                       : API number
EREF               .m        139.4                         : 
X                  .m        230550                        : 
Y                  .m        242075                        : 
group              .         Pad5                          : 
Интер-р            .         Ярышев                        : 
Куст               .         5                             : 
Статус             .         Не проверено                  : 
Тип                .         Нагнетательные                : 
~Parameter Information Block
#_______________________________________________________________________________
#
#PARAMETER_NAME    .UNIT     VALUE                         : DESCRIPTION
#_______________________________________________________________________________
SET                .         LAS1                          : 
REAL_CREATION_DATE .         Ср апр 11 2012-13_17_20       : 
TLFamily_DEPTH     .         Measured Depth                : 
TLFamily_KS        .         Potential Resistivity         : 
TLFamily_KS1       .         Extra Shallow Resistivity     : 
TLFamily_KS2       .         Shallow Resistivity           : 
TLFamily_KS3       .         Medium Resistivity            : 
TLFamily_KS4       .         Deep Resistivity              : 
TLFamily_KS5       .         Extra Deep Resistivity        : 
TLFamily_LLD       .         Lateral Log Resistivity       : 
TLFamily_OKS3      .         Medium Resistivity Inverted   : 
TLFamily_RM        .         Mud Resistivity               : 
group              .         INI                           : 
~Curve Information
#_______________________________________________________________________________
#
#LOGNAME           .UNIT     LOG_ID                        : DESCRIPTION
#_______________________________________________________________________________
DEPTH              .m                                      : Measured Depth 
KS                 .ohm.m                                  : Potential Resistivity 
KS1                .ohm.m                                  : Extra Shallow Resistivity 
KS2                .ohm.m                                  : Shallow Resistivity 
KS3                .ohm.m                                  : Medium Resistivity 
KS4                .ohm.m                                  : Deep Resistivity 
KS5                .ohm.m                                  : Extra Deep Resistivity 
LLD                .ohm.m                                  : Lateral Log Resistivity 
OKS3               .ohm.m                                  : Medium Resistivity Inverted 
RM                 .ohm.m                                  : Mud Resistivity 
~Ascii
# ...
3172.800131 20.578     2.8465     12.1032    23.5838    33.5035    31.2804    32.0202    31.1928    0.212     
3173.000132 20.2273    3.259      14.19      28.4687    38.3649    32.4859    30.101     32.9284    0.213     
3173.200132 19.6507    4.1749     18.3183    31.745     37.6991    33.9313    30.101     32.391     0.207     
3173.400132 19.8395    3.8276     17.6908    30.5166    34.4332    34.4865    32.5304    28.6615    0.202     
3173.600132 19.9541    3.0301     13.1344    28.5986    31.7582    31.073     24.6037    23.2141    0.205     
3173.800132 19.4534    3.2759     14.5581    30.9047    34.0994    31.3257    24.6037    20.8561    0.202     
3174.000133 18.9476    3.3365     15.6104    33.5988    35.8235    32.8813    16.0425    19.2776    0.203     
3174.200133 18.0759    3.6631     16.332     37.0612    40.4418    33.8924    13.8937    19.1172    0.207     
3174.400133 17.1216    4.3871     20.4084    42.2539    46.082     33.6137    14.4471    20.1102    0.209     
3174.600133 16.5601    4.2221     19.5101    47.6054    47.2672    33.6461    16.5813    20.2289    0.207     
3174.800133 16.2415    3.9443     17.6681    47.2029    50.5168    31.9091    17.81      19.2006    0.203     
3175.000134 15.9329    3.8231     16.4893    43.8945    49.9486    29.6535    17.81      18.2334    0.204     
3175.200134 15.5839    3.8315     15.8715    41.5419    49.6881    28.3183    19.0821    17.6912    0.203     
3175.400134 15.1321    3.9005     15.9412    41.7007    48.3368    28.1952    15.234     17.4762    0.198     
3175.600134 14.5807    4.0756     16.786     43.8175    54.0351    28.4415    11.9837    17.5372    0.2       
3175.800134 13.9771    4.2928     17.9567    45.5928    61.687     28.5905    13.3931    17.8003    0.206     
3176.000135 13.3887    4.5218     18.9879    45.3923    67.9957    28.8693    13.3931    17.68      0.208     
3176.200135 12.8121    4.3635     17.8513    43.0766    69.2168    29.3554    11.8765    17.3591    0.207     
3176.400135 12.2051    4.1413     17.1654    40.4129    67.7108    28.8952    9.4708     17.1169    0.203     
3176.600135 11.5189    4.1682     17.1816    39.579     67.6294    28.2859    6.988      17.0629    0.2       
3176.800135 10.7821    4.3332     17.6124    38.9712    67.2224    27.5859    5.4314     16.7929    0.204     
3177.000136 10.0622    4.3905     17.5708    37.2793    64.0884    26.2507    5.4314     15.9668    0.206     
3177.200136 9.3877     4.1615     16.5006    34.46      57.1962    24.2933    5.593      14.5087    0.202     
3177.400136 8.8651     3.9241     15.3461    31.0185    49.5872    22.2452    6.1481     13.0409    0.203     
3177.600136 8.4655     3.5974     13.8252    27.298     44.8951    20.1906    5.7393     12.1523    0.205     
3177.800136 8.1738     3.259      12.1129    23.9447    36.9013    18.285     5.3213     11.724     0.198     
3178.000137 7.9428     2.9728     10.7298    21.2596    31.0875    16.4572    5.3213     11.4385    0.193     
3178.200137 7.7927     2.8869     10.1007    19.0214    27.0401    14.6943    5.6383     11.3133    0.194     
3178.400137 7.668      2.8768     9.6272     17.4081    23.5658    13.3072    6.6755     11.4       0.197     
3178.600137 7.5887     2.8112     9.071      15.9968    20.86      11.9656    7.0104     11.6133    0.202     
3178.800137 7.5691     2.6731     8.4873     14.7315    18.706     10.9156    7.3566     11.8892    0.205     
3179.000138 7.6056     2.5833     8.1549     13.819     17.1887    10.2933    7.3566     12.3624    0.204     
3179.200138 7.6848     2.6226     8.1776     13.4085    16.2753    9.9433     7.8015     12.865     0.202     
3179.400138 7.7658     2.7001     8.2117     13.1743    15.572     9.8331     7.8023     13.3489    0.199     
3179.600138 7.8484     2.7472     8.2003     12.8777    15.012     9.8396     7.3852     13.7628    0.197     
3179.800138 7.931      2.7657     8.2408     12.5553    14.5821    9.9174     7.3492     13.9424    0.202     
3180.000139 7.9934     2.8213     8.3949     12.2923    14.3016    10.0211    7.3648     13.9408    0.203     
3180.200139 8.0322     2.86       8.57       12.0486    14.0302    10.2156    7.1344     14.09      0.202     
3180.400139 8.0406     2.8448     8.5651     11.8449    13.8853    10.1507    7.1556     14.321     0.204     
3180.600139 8.0473     2.8768     8.7192     11.8112    13.9651    10.073     7.4711     14.6258    0.201     
3180.800139 8.0979     2.9055     8.9494     11.9197    14.3884    10.1637    7.9627     15.1696    0.198     
3181.00014 8.1704     2.8297     8.844      11.9748    14.6717    10.0924    8.5861     15.7085    0.197     
3181.20014 8.2918     2.7859     8.5797     11.9026    14.6017    9.9757     9.1152     15.9091    0.197     
3181.40014 8.4998     2.7405     8.3738     11.7439    14.4031    9.7359     12.2881    15.6636    0.2       
3181.60014 8.8499     2.727      8.3933     11.6797    14.3575    9.7748     17.9164    15.3332    0.2       
3181.80014 9.1753     2.7741     8.63       12.0261    14.6538    10.1183    9.9378     15.03      0.197     
3182.000141 9.3641     3.0048     8.9705     12.836     15.1796    10.1767    8.3496     14.4279    0.193     
3182.200141 9.4299     3.3617     9.6061     13.6859    15.5313    10.3128    7.989      13.5254    0.197     
3182.400141 9.3388     3.4981     10.6114    14.1734    15.5899    10.5007    7.9058     12.6191    0.203     
3182.600141 9.1635     3.4813     10.9357    14.2953    15.4466    10.6498    9.805      12.0512    0.204     
3182.800141 9.0067     3.3584     10.9795    14.4429    15.4711    11.1035    7.8719     11.9069    0.202     
3183.000142 8.8533     3.2658     11.093     14.7171    15.8439    12.0887    7.8719     12.1475    0.201     
3183.200142 8.7015     3.2338     11.3914    15.2158    16.7882    13.1452    7.2446     12.6496    0.2       
3183.400142 8.4587     3.291      11.9962    16.2005    18.2111    13.9424    6.2467     13.203     0.197     
3183.600142 8.1755     3.4678     12.4534    17.7272    19.3214    14.4933    5.8381     13.3553    0.197     
3183.800142 7.9664     3.5419     11.9086    18.0704    18.8851    14.6165    6.5148     12.826     0.2       
3184.000143 7.813      3.4005     11.4951    16.9382    16.8419    14.2081    6.5148     11.7288    0.2       
3184.200143 7.709      3.2169     10.6341    15.6809    14.8068    13.4693    6.3971     10.6236    0.198     
3184.400143 7.6275     3.039      9.9466     14.6802    13.4051    12.8211    6.1216     9.929      0.196     
3184.600143 7.5887     2.9122     9.5267     13.9874    12.7164    12.3674    7.1856     9.5601     0.197     
3184.800143 7.5955     2.8718     9.3386     13.4662    12.2524    12.0887    7.0885     9.297      0.199     
3185.000144 7.6427     2.8802     9.2289     12.9723    11.8323    11.9072    7.0885     9.1526     0.197     
3185.200144 7.6629     2.8129     8.8246     12.5826    11.5377    11.7063    7.4581     9.1109     0.194     
3185.400144 7.5972     2.8701     8.8019     12.2891    11.3542    11.447     6.1684     9.1302     0.198     
3185.600144 7.4977     2.9273     8.8943     12.2298    11.1486    11.1943    6.1684     9.0949     0.199     
3185.800144 7.3105     2.9812     8.9997     12.2426    10.9109    10.7989    6.1684     9.0083     0.197     
3186.000145 7.0172     3.1058     9.2608     12.2843    10.6585    10.2868    3.9169     8.912      0.197     
3186.200145 6.6951     3.153      9.2689     12.0785    10.0659    9.7554     3.7045     9.0516     0.194     
3186.400145 6.3866     3.0149     8.7986     11.2515    9.2616     9.2174     3.7045     9.5537     0.196     
3186.600145 6.1404     2.7253     7.962      10.0776    8.5323     8.7248     3.7481     10.4006    0.199     
3186.800145 6.0426     2.4071     7.1172     9.1667     8.0357     8.3554     4.0495     11.4561    0.198     
3187.000146 6.1157     2.2101     6.488      8.4707     7.6938     8.1804     5.4248     12.4234    0.197     
3187.200146 6.4102     2.0973     5.8881     7.9223     7.4984     8.2322     5.8044     13.4083    0.192     
