~Version
 VERS              .         2.0                           : CWLS LOG ASCII STANDARD - VERSION 2.0
 WRAP              .         NO                            : ONE LINE PER DEPTH STEP
 DLM               .         SPACE                         : DELIMITING CHARACTER(SPACE TAB OR COMMA)
~Well Information
#_______________________________________________________________________________
#
#PARAMETER_NAME    .UNIT     VALUE                         : DESCRIPTION
#_______________________________________________________________________________
STRT               .m        3023.52                       : First reference value
STOP               .m        3219.72                       : Last reference value
STEP               .m        0.2                           : Step increment
NULL               .         -9999                         : Missing value
COMP               .                                       : Company
WELL               .         506                           : Well name
FLD                .                                       : Field
LOC                .                                       : Location
CNTY               .                                       : County
STAT               .                                       : State
CTRY               .                                       : Country
SRVC               .                                       : Service Company
DATE               .                                       : Date
API                .                                       : API number
EREF               .m        139.4                         : 
X                  .m        230550                        : 
Y                  .m        242075                        : 
group              .         Pad5                          : 
Интер-р            .         Ярышев                        : 
Куст               .         5                             : 
Статус             .         Не проверено                  : 
Тип                .         Нагнетательные                : 
~Parameter Information Block
#_______________________________________________________________________________
#
#PARAMETER_NAME    .UNIT     VALUE                         : DESCRIPTION
#_______________________________________________________________________________
SET                .         LAS3                          : 
REAL_CREATION_DATE .         Ср апр 11 2012-13_17_20       : 
TLFamily_DEPTH     .         Measured Depth                : 
TLFamily_GR        .         Gamma Ray                     : 
TLFamily_TNPH      .         Neutron Porosity              : 
group              .         INI                           : 
~Curve Information
#_______________________________________________________________________________
#
#LOGNAME           .UNIT     LOG_ID                        : DESCRIPTION
#_______________________________________________________________________________
DEPTH              .m                                      : Measured Depth 
GR                 .gAPI                                   :  
TNPH               .v/v                                    : Neutron Porosity 
~Ascii
# ...
3169.32    105        0.261     
3169.52    108.38     0.293     
3169.72    110.75     0.307     
3169.92    111.57     0.289     
3170.12    110.62     0.266     
3170.32    108.54     0.256     
3170.52    109.15     0.251     
3170.72    108.96     0.249     
3170.92    103.73     0.281     
3171.12    94.61      0.343     
3171.32    81.95      0.404     
3171.52    61.86      0.426     
3171.72    41.07      0.418     
3171.92    27.24      0.436     
3172.12    18.12      0.476     
3172.32    12.22      0.497     
3172.52    16.23      0.483     
3172.72    31.27      0.467     
3172.92    45.86      0.45      
3173.12    49.54      0.427     
3173.32    48.59      0.408     
3173.52    53.32      0.398     
3173.72    61.96      0.368     
3173.92    67.43      0.304     
3174.12    70.75      0.274     
3174.32    78.49      0.276     
3174.52    91.11      0.272     
3174.72    100.75     0.265     
3174.92    101.52     0.28      
3175.12    96.75999   0.313     
3175.32    92.67      0.331     
3175.52    91.21001   0.336     
3175.72    88.44      0.323     
3175.92    85.4       0.312     
3176.12    89.78      0.319     
3176.32    94.36      0.311     
3176.52    90.94      0.286     
3176.72    84.12      0.261     
3176.92    80.66      0.241     
3177.12    81.1       0.237     
3177.32    81.67      0.238     
3177.52    79.91      0.223     
3177.72    83.85001   0.208     
3177.92    83.48      0.213     
3178.12    83.21999   0.225     
3178.32    86.35001   0.239     
3178.52    92.85      0.25      
3178.72    99.37      0.263     
3178.92    109.05     0.277     
3179.12    120.33     0.272     
3179.32    122.75     0.263     
3179.52    112.94     0.27      
3179.72    101.07     0.285     
3179.92    92.63      0.289     
3180.12    85.06      0.279     
3180.32    82.41      0.264     
3180.52    85.01      0.252     
3180.72    86.93      0.248     
3180.92    86.22      0.247     
3181.12    83.96      0.247     
3181.32    82.07      0.259     
3181.52    76.99001   0.276     
3181.72    72.15      0.271     
3181.92    74.39      0.252     
3182.12    82.49      0.237     
3182.32    85.87      0.235     
3182.52    80.73      0.245     
3182.72    77.04001   0.251     
3182.92    84.04      0.266     
3183.12    102.61     0.275     
3183.32    108.92     0.258     
3183.52    102.88     0.237     
3183.72    87.22      0.215     
3183.92    76.68      0.212     
3184.12    76.45      0.236     
3184.32    82.35      0.258     
3184.52    90.86      0.264     
3184.72    99.87      0.264     
3184.92    106.63     0.264     
3185.12    104.17     0.255     
3185.32    99.98      0.237     
3185.52    94.86      0.227     
3185.72    90.23      0.227     
3185.92    85.06      0.218     
3186.12    78.53      0.209     
3186.32    71.45      0.213     
3186.52    66.67      0.207     
3186.72    63.77      0.2       
3186.92    62.59      0.212     
3187.12    63.51      0.222     
3187.32    65.23      0.207     
3187.52    63.95      0.185     
3187.72    53.05      0.162     
3187.92    46.89      0.138     
3188.12    45.19      0.129     
3188.32    44.62      0.134     
3188.52    46.77      0.14      
3188.72    56         0.153     
3188.92    71.09      0.183     
3189.12    81.05      0.212     
3189.32    80.9       0.228     
3189.52    79.68001   0.239     
3189.72    85         0.269     
3189.92    98.28      0.318     
3190.12    112.27     0.32      
3190.32    102.34     0.281     
3190.52    90.91      0.27      
3190.72    58.48      0.255     
3190.92    55.7       0.226     
3191.12    57.19      0.212     
3191.32    62.26      0.203     
3191.52    62.93999   0.195     
3191.72    62.93999   0.194     
3191.92    67.62      0.198     
3192.12    65.49      0.196     
3192.32    62.97      0.192     
3192.52    64.72      0.198     
3192.72    71.99001   0.205     
3192.92    79.24      0.213     
3193.12    85.38      0.221     
3193.32    90.37      0.224     
3193.52    95.09      0.23      
3193.72    99.38      0.235     
3193.92    100.57     0.229     
3194.12    96.63      0.218     
3194.32    83.85001   0.209     
3194.52    72.14      0.202     
3194.72    73.27      0.203     
3194.92    76.44      0.21      
3195.12    79.12      0.217     
3195.32    81.51      0.218     
3195.52    82.43      0.225     
3195.72    85.19      0.238     
3195.92    91.64      0.26      
3196.12    96.86      0.287     
3196.32    102.99     0.308     
3196.52    105.57     0.319     
3196.72    102.92     0.31      
3196.92    94.53      0.289     
3197.12    85.95      0.28      
3197.32    78.16      0.282     
3197.52    75.87      0.273     
3197.72    73.06      0.257     
3197.92    69.75      0.248     
3198.12    69.94      0.247     
3198.32    74.18999   0.244     
3198.52    78.53      0.233     
3198.72    76.87      0.227     
3198.92    69.13      0.222     
3199.12    60.71      0.211     
3199.32    56.29      0.205     
3199.52    56.61      0.201     
3199.72    62.02      0.197     
3199.92    72.77      0.203     
3200.12    83.31001   0.218     
3200.32    86.54      0.234     
3200.52    85.66      0.241     
3200.72    82.35      0.236     
3200.92    79.34      0.228     
3201.12    78.34      0.238     
3201.32    78.34      0.272     
3201.52    74.94      0.277     
3201.72    62.64      0.272     
3201.92    40.92      0.446     
3202.12    21.89      0.543     
3202.32    15.51      0.441     
3202.52    19.4       0.43      
3202.72    49.37      0.413     
3202.92    63.8       0.314     
3203.12    79.96001   0.239     
3203.32    84.83      0.213     
3203.52    75.28      0.203     
3203.72    58.38      0.185     
3203.92    47.06      0.167     
3204.12    43.64      0.164     
3204.32    46.49      0.171     
3204.52    49.07      0.184     
3204.72    50.27      0.201     
3204.92    53.92      0.219     
3205.12    66.79      0.223     
3205.32    88.66      0.23      
3205.52    105.35     0.237     
3205.72    108.41     0.239     
3205.92    106.43     0.255     
3206.12    105.32     0.27      
3206.32    103.37     0.261     
3206.52    104.87     0.26      
3206.72    110.64     0.277     
3206.92    110.83     0.269     
3207.12    95.57      0.231     
3207.32    75.03      0.204     
3207.52    70.21      0.196     
3207.72    77.16      0.193     
3207.92    80.4       0.197     
3208.12    80.74001   0.21      
3208.32    81.88      0.22      
3208.52    88.21999   0.216     
3208.72    93.54      0.221     
3208.92    93.07999   0.224     
3209.12    83.21      0.219     
3209.32    70.17999   0.225     
3209.52    65.41      0.225     
3209.72    62.77      0.223     
3209.92    59.56      0.224     
3210.12    61.27      0.226     
3210.32    74.23      0.235     
3210.52    87.88      0.25      
3210.72    95.23      0.265     
3210.92    101.98     0.271     
3211.12    107.58     0.277     
3211.32    110.07     0.288     
3211.52    103.94     0.296     
3211.72    94.18999   0.296     
3211.92    91.92001   0.293     
3212.12    89.82001   0.285     
3212.32    88.49      0.283     
3212.52    88.45      0.295     
3212.72    86.75      0.312     
3212.92    90.63      0.322     
3213.12    90.57      0.327     
3213.32    86.88      0.329     
3213.52    89.54001   0.311     
3213.72    94.18999   0.286     
3213.92    94.96001   0.28      
3214.12    94.53      0.275     
3214.32    95.50999   0.25      
3214.52    94.06      0.24      
3214.72    95.45999   0.259     
3214.92    96.03      0.271     
3215.12    89.58      0.263     
3215.32    83.48      0.26      
3215.52    81.63      0.267     
3215.72    82.91      0.278     
3215.92    85.43999   0.278     
3216.12    86.14      0.26      
3216.32    87.37      0.244     
3216.52    91.46      0.244     
3216.72    95.42      0.261     
3216.92    97.01      0.286     
3217.12    93.21      0.287     
3217.32    87.45      0.268     
3217.52    89.18      0.268     
3217.72    91.38      0.272     
