~Version
 VERS              .         2.0                           : CWLS LOG ASCII STANDARD - VERSION 2.0
 WRAP              .         NO                            : ONE LINE PER DEPTH STEP
 DLM               .         SPACE                         : DELIMITING CHARACTER(SPACE TAB OR COMMA)
~Well Information
#_______________________________________________________________________________
#
#PARAMETER_NAME    .UNIT     VALUE                         : DESCRIPTION
#_______________________________________________________________________________
STRT               .m        3023.52                       : First reference value
STOP               .m        3219.72                       : Last reference value
STEP               .m        0.2                           : Step increment
NULL               .         -9999                         : Missing value
COMP               .                                       : Company
WELL               .         506                           : Well name
FLD                .                                       : Field
LOC                .                                       : Location
CNTY               .                                       : County
STAT               .                                       : State
CTRY               .                                       : Country
SRVC               .                                       : Service Company
DATE               .                                       : Date
API                .                                       : API number
EREF               .m        139.4                         : 
X                  .m        230550                        : 
Y                  .m        242075                        : 
group              .         Pad5                          : 
Интер-р            .         Ярышев                        : 
Куст               .         5                             : 
Статус             .         Не проверено                  : 
Тип                .         Нагнетательные                : 
~Parameter Information Block
#_______________________________________________________________________________
#
#PARAMETER_NAME    .UNIT     VALUE                         : DESCRIPTION
#_______________________________________________________________________________
SET                .         LAS3                          : 
REAL_CREATION_DATE .         Ср апр 11 2012-13_17_20       : 
TLFamily_DEPTH     .         Measured Depth                : 
TLFamily_GR        .         Gamma Ray                     : 
TLFamily_TNPH      .         Neutron Porosity              : 
group              .         INI                           : 
~Curve Information
#_______________________________________________________________________________
#
#LOGNAME           .UNIT     LOG_ID                        : DESCRIPTION
#_______________________________________________________________________________
DEPTH              .m                                      : Measured Depth 
GR                 .gAPI                                   :  
TNPH               .v/v                                    : Neutron Porosity 
~Ascii
# ...
3072.12    298.24     0.402     
3072.32    294.59     0.421     
3072.52    294.18     0.414     
3072.72    290.54     0.406     
3072.92    284.27     0.406     
3073.12    279.78     0.414     
3073.32    277.96     0.412     
3073.52    274.19     0.391     
3073.72    267.85     0.366     
3073.92    263.29     0.363     
3074.12    260.97     0.369     
3074.32    255.14     0.365     
3074.52    238.8      0.352     
3074.72    213.93     0.336     
3074.92    190.7      0.336     
3075.12    177.82     0.351     
3075.32    176.63     0.372     
3075.52    183.35     0.389     
3075.72    192.74     0.387     
3075.92    196.91     0.369     
3076.12    193.68     0.354     
3076.32    186.48     0.353     
3076.52    181.47     0.359     
3076.72    180.03     0.357     
3076.92    180.59     0.343     
3077.12    180.04     0.327     
3077.32    178.86     0.319     
3077.52    175.47     0.316     
3077.72    170.25     0.326     
3077.92    163.76     0.336     
3078.12    155.01     0.323     
3078.32    142.34     0.302     
3078.52    130.66     0.291     
3078.72    127.42     0.287     
3078.92    133.18     0.294     
3079.12    144.53     0.314     
3079.32    151.81     0.342     
3079.52    151.96     0.355     
3079.72    150.92     0.344     
3079.92    154.89     0.321     
3080.12    162.9      0.307     
3080.32    174.85     0.304     
3080.52    190.3      0.298     
3080.72    196.62     0.297     
3080.92    183.02     0.293     
3081.12    160.19     0.288     
3081.32    147.13     0.287     
3081.52    145.31     0.285     
3081.72    142.49     0.287     
3081.92    136.27     0.284     
3082.12    131.71     0.274     
3082.32    130.61     0.275     
3082.52    129.31     0.288     
3082.72    126.9      0.296     
3082.92    127.08     0.294     
3083.12    129.26     0.284     
3083.32    126        0.272     
3083.52    116.58     0.267     
3083.72    108.14     0.262     
3083.92    105.61     0.257     
3084.12    108.12     0.261     
3084.32    111.77     0.278     
3084.52    114.04     0.305     
3084.72    113.57     0.319     
3084.92    114.74     0.315     
3085.12    124.71     0.305     
3085.32    135.32     0.286     
3085.52    137.36     0.271     
3085.72    131.91     0.267     
3085.92    127.24     0.273     
3086.12    124.56     0.289     
3086.32    124.05     0.304     
3086.52    124.73     0.306     
3086.72    126.81     0.3       
3086.92    131.91     0.304     
3087.12    139.06     0.327     
3087.32    144.51     0.351     
3087.52    146.28     0.354     
3087.72    146.85     0.347     
3087.92    145.23     0.34      
3088.12    137.55     0.327     
3088.32    124.58     0.316     
3088.52    113.61     0.319     
3088.72    113.64     0.333     
3088.92    123.9      0.348     
3089.12    135.41     0.341     
3089.32    140.16     0.315     
3089.52    139.17     0.292     
3089.72    131.18     0.284     
3089.92    120        0.284     
3090.12    111.67     0.287     
3090.32    109.5      0.295     
3090.52    109.47     0.304     
3090.72    105.59     0.31      
3090.92    105.87     0.333     
3091.12    114.7      0.362     
3091.32    128.38     0.361     
3091.52    140.24     0.338     
3091.72    142.3      0.316     
3091.92    135.19     0.306     
3092.12    122.32     0.299     
3092.32    113.35     0.294     
3092.52    110.01     0.299     
3092.72    108.45     0.299     
3092.92    109.29     0.299     
3093.12    115.54     0.307     
3093.32    126.7      0.322     
3093.52    137.3      0.339     
3093.72    141.61     0.345     
3093.92    142.37     0.346     
3094.12    144.89     0.359     
3094.32    147.82     0.372     
3094.52    144.94     0.373     
3094.72    138.35     0.353     
3094.92    138.9      0.337     
3095.12    152.8      0.349     
3095.32    166.25     0.367     
3095.52    164.2      0.369     
3095.72    149.33     0.366     
3095.92    133.59     0.374     
3096.12    126.85     0.392     
3096.32    131.45     0.412     
3096.52    142.85     0.423     
3096.72    157.28     0.42      
3096.92    175.8      0.419     
3097.12    195.16     0.403     
3097.32    205.13     0.351     
3097.52    198.03     0.305     
3097.72    180        0.303     
3097.92    161.68     0.324     
3098.12    147.33     0.325     
3098.32    135.37     0.322     
3098.52    125.9      0.334     
3098.72    122.55     0.34      
3098.92    125.12     0.353     
3099.12    130.09     0.375     
3099.32    134.93     0.375     
3099.52    133.39     0.351     
3099.72    127.81     0.332     
3099.92    126.14     0.327     
3100.12    126.85     0.324     
3100.32    126.3      0.321     
3100.52    125.03     0.323     
3100.72    122.82     0.329     
3100.92    122.69     0.32      
3101.12    121.66     0.281     
3101.32    115.72     0.239     
3101.52    108.3      0.223     
3101.72    109.41     0.217     
3101.92    121.66     0.215     
3102.12    139.14     0.241     
3102.32    156.31     0.256     
3102.52    168.89     0.249     
3102.72    168.22     0.253     
3102.92    155.68     0.255     
3103.12    145.92     0.252     
3103.32    139.98     0.247     
3103.52    132.84     0.248     
3103.72    126.97     0.264     
3103.92    126.43     0.281     
3104.12    129.43     0.283     
3104.32    131.18     0.285     
3104.52    132.66     0.302     
3104.72    133.24     0.314     
3104.92    131.27     0.313     
3105.12    126.04     0.31      
3105.32    123.05     0.31      
3105.52    124.92     0.317     
3105.72    127.11     0.335     
3105.92    123.57     0.356     
3106.12    116.31     0.353     
3106.32    112.8      0.33      
3106.52    116.02     0.303     
3106.72    122.05     0.283     
3106.92    126.66     0.281     
3107.12    129.02     0.292     
3107.32    129.03     0.3       
3107.52    128.81     0.301     
3107.72    130.31     0.308     
3107.92    130.22     0.312     
3108.12    121.46     0.261     
3108.32    98.13      0.207     
3108.52    70.01      0.207     
3108.72    54.6       0.203     
3108.92    80.07      0.204     
3109.12    86.17      0.253     
3109.32    122.88     0.294     
3109.52    129.29     0.305     
3109.72    129.31     0.309     
3109.92    126.6      0.305     
3110.12    125.04     0.301     
3110.32    125.59     0.294     
3110.52    126.18     0.281     
3110.72    125.06     0.274     
3110.92    123.44     0.277     
3111.12    123.4      0.285     
3111.32    123        0.293     
3111.52    118.47     0.3       
3111.72    118.47     0.31      
3111.92    117.22     0.32      
3112.12    118.69     0.34      
3112.32    119.9      0.359     
3112.52    118.59     0.35      
3112.72    116.67     0.32      
3112.92    115.69     0.302     
3113.12    116.41     0.297     
3113.32    117.86     0.294     
3113.52    119.35     0.294     
3113.72    121.08     0.293     
3113.92    124.58     0.286     
3114.12    129.81     0.28      
3114.32    134.84     0.287     
3114.52    137.61     0.301     
3114.72    137.72     0.314     
3114.92    135.92     0.319     
3115.12    135.13     0.322     
3115.32    137        0.324     
3115.52    140.82     0.322     
3115.72    142.25     0.323     
3115.92    140.3      0.315     
3116.12    136.72     0.304     
3116.32    134.75     0.302     
3116.52    135.73     0.315     
3116.72    139.32     0.33      
3116.92    143.21     0.331     
3117.12    141.89     0.324     
3117.32    136.18     0.324     
3117.52    129.76     0.321     
3117.72    124.84     0.319     
3117.92    121.15     0.326     
3118.12    119.69     0.336     
3118.32    122.17     0.341     
3118.52    125.71     0.342     
3118.72    127.08     0.333     
3118.92    128.19     0.313     
3119.12    127.96     0.294     
3119.32    125.74     0.287     
3119.52    122.69     0.288     
3119.72    120.03     0.287     
3119.92    116.51     0.281     
3120.12    115.26     0.281     
3120.32    117.72     0.285     
3120.52    118.66     0.284     
