~Version
 VERS              .         2.0                           : CWLS LOG ASCII STANDARD - VERSION 2.0
 WRAP              .         NO                            : ONE LINE PER DEPTH STEP
 DLM               .         SPACE                         : DELIMITING CHARACTER(SPACE TAB OR COMMA)
~Well Information
#_______________________________________________________________________________
#
#PARAMETER_NAME    .UNIT     VALUE                         : DESCRIPTION
#_______________________________________________________________________________
STRT               .m        3041.4                        : First reference value
STOP               .m        3218.800177                   : Last reference value
STEP               .m        0.2000002                     : Step increment
NULL               .         -9999                         : Missing value
COMP               .                                       : Company
WELL               .         506                           : Well name
FLD                .                                       : Field
LOC                .                                       : Location
CNTY               .                                       : County
STAT               .                                       : State
CTRY               .                                       : Country
SRVC               .                                       : Service Company
DATE               .                                       : Date
API                .                                       : API number
EREF               .m        139.4                         : 
X                  .m        230550                        : 
Y                  .m        242075                        : 
group              .         Pad5                          : 
Интер-р            .         Ярышев                        : 
Куст               .         5                             : 
Статус             .         Не проверено                  : 
Тип                .         Нагнетательные                : 
~Parameter Information Block
#_______________________________________________________________________________
#
#PARAMETER_NAME    .UNIT     VALUE                         : DESCRIPTION
#_______________________________________________________________________________
SET                .         LAS1                          : 
REAL_CREATION_DATE .         Ср апр 11 2012-13_17_20       : 
TLFamily_DEPTH     .         Measured Depth                : 
TLFamily_KS        .         Potential Resistivity         : 
TLFamily_KS1       .         Extra Shallow Resistivity     : 
TLFamily_KS2       .         Shallow Resistivity           : 
TLFamily_KS3       .         Medium Resistivity            : 
TLFamily_KS4       .         Deep Resistivity              : 
TLFamily_KS5       .         Extra Deep Resistivity        : 
TLFamily_LLD       .         Lateral Log Resistivity       : 
TLFamily_OKS3      .         Medium Resistivity Inverted   : 
TLFamily_RM        .         Mud Resistivity               : 
group              .         INI                           : 
~Curve Information
#_______________________________________________________________________________
#
#LOGNAME           .UNIT     LOG_ID                        : DESCRIPTION
#_______________________________________________________________________________
DEPTH              .m                                      : Measured Depth 
KS                 .ohm.m                                  : Potential Resistivity 
KS1                .ohm.m                                  : Extra Shallow Resistivity 
KS2                .ohm.m                                  : Shallow Resistivity 
KS3                .ohm.m                                  : Medium Resistivity 
KS4                .ohm.m                                  : Deep Resistivity 
KS5                .ohm.m                                  : Extra Deep Resistivity 
LLD                .ohm.m                                  : Lateral Log Resistivity 
OKS3               .ohm.m                                  : Medium Resistivity Inverted 
RM                 .ohm.m                                  : Mud Resistivity 
~Ascii
# ...
3099.800058 11.9977    4.0672     15.2342    28.8584    36.7515    18.9785    12.8245    13.9553    0.21      
3100.000059 11.8123    4.0739     14.9348    27.9539    36.0026    18.4341    11.2098    13.466     0.208     
3100.200059 11.5661    4.0621     14.5824    27.2082    35.0323    17.7146    10.5901    12.9255    0.205     
3100.400059 11.1952    3.9881     14.2516    26.44      33.9806    17.0665    9.1714     12.4282    0.204     
3100.600059 10.7147    3.8955     14.1171    25.4409    32.9614    16.4507    9.0597     11.9325    0.207     
3100.800059 10.1599    3.7776     14.0522    24.6022    32.0301    16.0748    9.0525     11.408     0.212     
3101.00006 9.4282     3.7439     13.7701    23.9992    31.2014    15.9906    8.1597     10.9861    0.213     
3101.20006 8.6526     4.052      13.4652    24.2504    31.177     15.8544    17.3694    10.375     0.213     
3101.40006 8.103      3.7439     13.9711    24.5685    31.4001    15.5498    9.3591     9.5392     0.212     
3101.60006 7.8315     3.3314     13.3533    23.5887    30.3386    15.148     9.3591     8.7404     0.209     
3101.80006 7.6663     3.2052     11.44      22.4372    27.0238    14.5128    6.1007     8.3073     0.21      
3102.000061 7.5786     3.0991     10.4104    21.135     23.8849    13.5341    5.217      8.2993     0.212     
3102.200061 7.4623     2.9829     9.8121     19.6115    22.1494    12.7304    4.6075     8.6794     0.21      
3102.400061 7.383      2.9021     9.7829     17.8635    20.7802    12.2313    5.2754     9.2361     0.207     
3102.600061 7.3055     2.897      9.8558     16.425     19.5689    12.0757    5.2754     9.6708     0.205     
3102.800061 7.2077     2.9728     9.7148     15.4179    18.7174    11.9396    6.1525     9.8681     0.207     
3103.000062 7.088      3.1075     9.3305     13.7004    17.9913    11.7387    6.5079     9.8536     0.208     
3103.200062 6.9936     3.062      8.9348     11.7615    16.4479    11.4859    4.5828     9.8568     0.209     
3103.400062 6.9177     2.8836     8.4403     10.8779    14.4649    11.1813    4.4019     10.0846    0.211     
3103.600062 6.8991     2.6647     7.9003     10.5587    13.55      10.8831    4.4019     10.7118    0.208     
3103.800062 6.8991     2.5519     7.615      10.3615    13.2829    10.6952    4.4113     11.5652    0.206     
3104.000063 6.9615     2.6243     7.7885     10.1225    13.0208    10.6304    5.5566     12.1346    0.203     
3104.200063 7.0812     2.6007     7.5663     9.7906     12.7669    10.6693    5.4917     12.4282    0.202     
3104.400063 7.1689     2.6546     7.4593     9.5997     12.2296    10.6952    5.722      12.68      0.202     
3104.600063 7.2397     2.6765     7.3798     9.3961     11.4042    10.6433    5.722      12.9367    0.199     
3104.800063 7.3257     2.6916     7.3296     9.1475     10.6471    10.7211    5.6566     13.2463    0.2       
3105.000064 7.4303     2.631      7.255      8.9294     10.6357    10.948     5.3705     13.8093    0.202     
3105.200064 7.5618     2.6041     7.2453     8.7626     11.7672    11.4989    5.0754     14.7974    0.202     
3105.400064 7.759      2.5014     7.0669     8.7546     13.1722    12.523     5.5954     16.3197    0.202     
3105.600064 8.0136     2.4424     7.1593     9.0801     13.646     13.9165    5.5954     18.227     0.207     
3105.800064 8.2935     2.4896     7.4901     9.9189     13.703     15.2776    6.1385     20.5144    0.212     
3106.000065 8.5683     2.6748     8.2198     10.918     13.55      16.5501    9.3828     22.266     0.213     
3106.200065 8.9258     3.0031     8.9819     11.5274    13.1169    17.2998    8.7318     22.4249    0.212     
3106.400065 9.263      3.0688     8.9332     11.5017    12.6268    17.4748    8.2286     21.209     0.207     
3106.600065 9.4586     3.121      9.0337     11.3189    12.1189    17.3517    8.2286     19.7508    0.207     
3106.800065 9.5833     3.089      9.1262     11.2034    11.707     17.0535    7.7797     18.6793    0.207     
3107.000066 9.6828     3.057      9.3353     11.1585    11.5963    17.2868    7.4966     18.1099    0.208     
3107.200066 9.8042     3.0149     9.4959     11.1906    11.7737    18.3433    7.7472     17.6912    0.21      
3107.400066 9.9542     2.9896     9.5559     11.4039    12.2524    20.2489    8.268      17.372     0.209     
3107.600066 10.1431    2.9846     9.6434     11.8673    13.068     24.276     8.268      17.1506    0.207     
3107.800066 10.3994    3.0048     9.7504     12.5601    14.351     27.6313    8.3414     17.0961    0.204     
3108.000067 10.7416    2.9374     9.7034     13.641     16.36      29.5174    7.6548     17.5468    0.2       
3108.200067 11.0923    2.8667     9.8834     15.4869    18.7679    31.4554    16.4029    18.1596    0.199     
3108.400067 11.4009    3.0873     10.9422    18.1442    20.829     33.7304    64.6468    18.0297    0.202     
3108.600067 11.5644    3.5604     12.5523    21.0356    22.4294    36.4331    64.6468    16.6886    0.208     
3108.800067 11.4026    4.2457     14.5694    23.3385    23.3118    36.673     51.6233    14.791     0.213     
3109.000068 10.8967    4.7238     15.805     24.2702    23.0204    32.2915    12.5656    13.0169    0.214     
3109.200068 10.1077    4.6986     15.9347    24.1179    21.8401    24.7859    7.874      11.6085    0.212     
3109.400068 9.236      4.5706     16.3109    23.4556    20.3488    18.2656    5.6782     10.5257    0.208     
3109.600068 8.4941     4.2642     15.9623    22.4356    18.7337    14.2211    5.6782     9.7157     0.207     
3109.800068 7.8265     3.8887     14.7575    21.0067    17.1236    12.4063    5.2714     9.0917     0.207     
3110.000069 7.3004     3.621      13.5414    19.6484    15.7983    11.2915    4.953      8.681      0.208     
3110.200069 6.9244     3.3213     12.0481    18.3639    14.6082    10.6433    4.3465     8.4533     0.209     
3110.400069 6.6547     3.1041     10.793     17.1563    13.5076    9.6387     4.2121     8.3682     0.209     
3110.600069 6.4692     2.9391     9.7488     16.2582    12.4331    8.9193     4.2121     8.4132     0.207     
3110.800069 6.3748     2.8095     8.9056     15.3361    11.4286    8.0248     4.0415     8.657      0.202     
3111.00007 6.3377     2.6681     8.2311     14.3242    10.6813    7.0267     4.3991     8.9452     0.198     
3111.20007 6.2955     2.6748     8.1079     13.5031    10.302     6.1517     5.2396     9.0115     0.199     
3111.40007 6.2719     2.7943     8.2003     12.8632    10.0529    5.5554     4.6383     8.9281     0.201     
3111.60007 6.2399     2.8179     8.0025     12.0919    9.7305     5.0174     4.6383     8.8832     0.203     
3111.80007 6.1472     2.8179     7.8582     11.2419    9.413      4.4989     4.6666     8.9815     0.208     
3112.000071 6.0477     2.8179     7.8582     10.5427    9.2079     4.1035     4.5321     9.1703     0.211     
3112.200071 5.9769     2.7489     7.7268     9.9381     9.0467     3.7859     4.291      9.39       0.21      
3112.400071 5.9297     2.6664     7.5987     9.4201     8.9816     3.5396     4.275      9.6531     0.207     
3112.600071 5.9398     2.6091     7.4042     9.0176     9.0809     3.3906     4.275      9.8761     0.204     
3112.800071 6.0055     2.5283     7.1318     8.7001     9.2112     3.2804     4.32       10.1247    0.203     
3113.000072 6.0915     2.498      6.9875     8.5477     9.3593     3.1896     4.7279     10.3252    0.206     
3113.200072 6.2062     2.5569     7.0491     8.5349     9.4668     3.1572     5.1044     10.4808    0.207     
3113.400072 6.368      2.5962     7.0847     8.5766     9.4472     3.1637     5.1033     10.5707    0.205     
3113.600072 6.5232     2.6074     7.0896     8.6055     9.3723     3.1572     5.1033     10.6412    0.202     
3113.800072 6.599      2.6681     7.2047     8.6375     9.317      3.1896     5.6646     10.6156    0.199     
3114.000073 6.6856     2.732      7.489      8.7193     9.2828     3.2804     5.8457     10.5241    0.2       
3114.200073 6.771      2.7893     7.7917     8.838      9.2209     3.3776     5.7845     10.4648    0.202     
