~Version
 VERS              .         2.0                           : CWLS LOG ASCII STANDARD - VERSION 2.0
 WRAP              .         NO                            : ONE LINE PER DEPTH STEP
 DLM               .         SPACE                         : DELIMITING CHARACTER(SPACE TAB OR COMMA)
~Well Information
#_______________________________________________________________________________
#
#PARAMETER_NAME    .UNIT     VALUE                         : DESCRIPTION
#_______________________________________________________________________________
STRT               .m        3041.4                        : First reference value
STOP               .m        3218.800177                   : Last reference value
STEP               .m        0.2000002                     : Step increment
NULL               .         -9999                         : Missing value
COMP               .                                       : Company
WELL               .         506                           : Well name
FLD                .                                       : Field
LOC                .                                       : Location
CNTY               .                                       : County
STAT               .                                       : State
CTRY               .                                       : Country
SRVC               .                                       : Service Company
DATE               .                                       : Date
API                .                                       : API number
EREF               .m        139.4                         : 
X                  .m        230550                        : 
Y                  .m        242075                        : 
group              .         Pad5                          : 
Интер-р            .         Ярышев                        : 
Куст               .         5                             : 
Статус             .         Не проверено                  : 
Тип                .         Нагнетательные                : 
~Parameter Information Block
#_______________________________________________________________________________
#
#PARAMETER_NAME    .UNIT     VALUE                         : DESCRIPTION
#_______________________________________________________________________________
SET                .         LAS1                          : 
REAL_CREATION_DATE .         Ср апр 11 2012-13_17_20       : 
TLFamily_DEPTH     .         Measured Depth                : 
TLFamily_KS        .         Potential Resistivity         : 
TLFamily_KS1       .         Extra Shallow Resistivity     : 
TLFamily_KS2       .         Shallow Resistivity           : 
TLFamily_KS3       .         Medium Resistivity            : 
TLFamily_KS4       .         Deep Resistivity              : 
TLFamily_KS5       .         Extra Deep Resistivity        : 
TLFamily_LLD       .         Lateral Log Resistivity       : 
TLFamily_OKS3      .         Medium Resistivity Inverted   : 
TLFamily_RM        .         Mud Resistivity               : 
group              .         INI                           : 
~Curve Information
#_______________________________________________________________________________
#
#LOGNAME           .UNIT     LOG_ID                        : DESCRIPTION
#_______________________________________________________________________________
DEPTH              .m                                      : Measured Depth 
KS                 .ohm.m                                  : Potential Resistivity 
KS1                .ohm.m                                  : Extra Shallow Resistivity 
KS2                .ohm.m                                  : Shallow Resistivity 
KS3                .ohm.m                                  : Medium Resistivity 
KS4                .ohm.m                                  : Deep Resistivity 
KS5                .ohm.m                                  : Extra Deep Resistivity 
LLD                .ohm.m                                  : Lateral Log Resistivity 
OKS3               .ohm.m                                  : Medium Resistivity Inverted 
RM                 .ohm.m                                  : Mud Resistivity 
~Ascii
# ...
3187.400146 6.8435     2.0401     5.4        7.5053     7.4382     8.5433     5.8044     14.3157    0.192     
3187.600146 7.3173     2.0704     5.2055     7.3401     7.6954     9.0878     6.1372     15.0974    0.198     
3187.800146 7.8231     2.0855     5.2179     7.4011     8.2913     9.8656     7.3435     15.9877    0.2       
3188.000147 8.3593     2.1108     5.5346     7.6432     9.1558     10.9868    15.6734    16.6742    0.197     
3188.200147 8.9224     2.2539     6.2189     8.0249     10.1896    12.173     21.3249    16.6036    0.197     
3188.400147 9.4434     2.5283     7.1934     8.5221     11.3179    13.21      21.3249    15.7358    0.198     
3188.600147 9.8143     2.8499     8.2846     9.1427     12.3224    14.2017    24.4177    14.1959    0.195     
3188.800147 9.9424     3.2641     9.6418     9.9509     13.1185    15.0702    13.4991    12.4089    0.195     
3189.000148 9.7738     3.6901     11.1335    11.0334    13.8365    15.9063    6.3657     10.7279    0.2       
3189.200148 9.44       4.0318     12.1405    12.047     14.2028    17.06      7.2994     9.6162     0.2       
3189.400148 9.0994     3.8247     11.6735    12.395     14.281     18.3757    7.2994     9.3692     0.197     
3189.600148 8.7678     3.3819     11.1141    12.7125    14.6408    19.873     8.6074     9.8542     0.197     
3189.800148 8.4284     3.1821     11.0265    13.6202    15.7511    23.5069    8.3753     10.6428    0.198     
3190.000149 8.0962     3.1883     11.1514    14.7556    17.1496    29.6405    6.7708     11.4       0.197     
3190.200149 7.7961     3.2691     11.2665    16.053     18.8167    37.8072    6.7187     12.3239    0.197     
3190.400149 7.3578     3.2759     10.9676    17.623     21.2979    44.697     6.7187     14.3948    0.195     
3190.600149 6.7896     3.4223     11.5551    19.8521    25.0864    47.9572    5.928      17.0672    0.194     
3190.800149 6.3023     3.5352     12.4972    21.9433    28.4028    47.7887    5.4208     18.7034    0.193     
3191.00015 5.9887     3.3601     12.0043    22.2335    27.941     45.0017    3.7822     18.6055    0.193     
3191.20015 5.8117     3.1109     10.5871    20.3348    22.6948    39.5507    4.0699     16.841     0.196     
3191.40015 5.7257     2.8129     9.0062     17.3215    17.1056    33.4646    4.0699     14.7685    0.197     
3191.60015 5.7004     2.5148     7.7122     14.2264    13.4441    26.1989    4.4304     13.4307    0.193     
3191.80015 5.7437     2.3263     6.9875     11.282     10.9906    20.2489    4.8419     12.7249    0.195     
3192.000151 5.8673     2.2516     6.5205     9.3255     9.3805     16.0035    5.1723     12.418     0.197     
3192.200151 6.0292     2.2286     6.1978     8.2799     8.2848     13.0868    5.4222     12.3362    0.192     
3192.400151 6.2028     2.2438     5.9675     7.5695     7.5782     10.922     5.4222     12.3576    0.192     
3192.600151 6.3664     2.264      5.854      7.1974     7.0979     9.1267     5.7136     12.5827    0.195     
3192.800151 6.5367     2.2993     5.9951     7.1253     6.7593     7.7007     6.0786     13.0369    0.196     
3193.000152 6.7676     2.3235     6.12       7.26       6.5021     6.9035     6.7926     13.6385    0.197     
3193.200152 6.9981     2.3431     6.3032     7.5807     6.3409     6.3461     8.6049     14.179     0.197     
3193.400152 7.292      2.3207     6.5237     7.9608     6.3018     5.9831     8.6049     14.6394    0.194     
3193.600152 7.6348     2.3515     6.7091     8.4387     6.4527     5.685      10.7369    15.3439    0.195     
3193.800152 7.963      2.5008     7.3393     9.0433     6.8407     5.4322     10.5718    15.9267    0.199     
3194.000153 8.3149     2.6899     7.8031     9.643      7.2331     5.2054     10.1982    15.2369    0.197     
3194.200153 8.5695     2.8291     8.129      10.0087    7.4724     4.9396     10.4253    14.3354    0.197     
3194.400153 8.7302     2.9633     8.6078     10.2845    7.7492     4.6674     10.4253    13.9919    0.197     
3194.600153 8.8246     3.0441     9.05       10.5748    8.1252     4.4276     10.0438    13.8983    0.198     
3194.800153 8.8313     3.094      9.6088     10.9201    8.6478     4.2461     9.7039     13.7826    0.2       
3195.000154 8.7594     3.1928     10.0455    11.4889    9.387      4.11       7.1676     13.4454    0.198     
3195.200154 8.5987     3.2562     10.3482    12.0566    10.2124    4.0063     6.1605     13.0706    0.194     
3195.400154 8.3559     3.3685     10.8238    12.4222    10.6943    3.9328     6.1605     12.7324    0.198     
3195.600154 8.2084     3.3157     10.7374    12.4447    10.7367    3.9544     6.1853     12.6581    0.198     
3195.800154 8.1707     3.0334     9.8002     12.0694    10.442     4.0322     6.7967     13.057     0.196     
3196.000155 8.2457     2.828      9.0816     11.9294    10.3801    4.2591     9.5591     13.7577    0.196     
3196.200155 8.5026     2.6669     8.5632     12.0592    10.7318    4.6091     9.7748     14.5079    0.196     
3196.400155 8.9893     2.6487     8.3244     12.3971    11.5116    5.1406     9.7748     14.9707    0.196     
3196.600155 9.3731     2.9041     8.4751     12.9603    12.6545    5.7239     10.2259    15.3353    0.194     
3196.800155 9.5311     3.2057     8.9256     13.8963    14.0774    6.3591     9.7865     15.5289    0.194     
3197.000156 9.5367     3.3567     9.6037     14.994     15.5264    7.0591     9.3855     15.5808    0.195     
3197.200156 9.5215     3.4858     10.7447    15.7867    16.4805    7.6618     7.2665     15.6171    0.197     
3197.400156 9.4729     3.566      11.36      16.3619    17.1317    8.0054     7.2665     15.7203    0.194     
3197.600156 9.361      3.6143     10.5052    16.6968    17.2967    8.0831     6.5036     15.8035    0.191     
3197.800156 9.263      3.4874     10.3252    16.599     16.5212    8.0183     6.7933     15.8232    0.195     
3198.000157 9.1913     3.2001     10.2877    15.6825    15.2513    7.6316     7.2548     15.824     0.199     
3198.200157 9.1289     3.0199     10.1558    14.1823    14.2305    7.2017     6.7386     15.824     0.197     
3198.400157 9.0952     2.9201     9.7915     12.8068    13.4685    7.072      6.7386     15.824     0.191     
3198.600157 9.0722     2.908      9.4953     12.3297    12.8515    7.1498     6.5276     15.824     0.191     
3198.800157 9.0483     2.8064     9.1124     12.4126    12.1449    7.4285     6.9536     15.824     0.195     
3199.000158 9.0202     2.7859     8.8665     12.5024    11.5312    7.8952     8.1596     15.824     0.197     
3199.200158 9.0067     2.8162     8.9697     12.5682    11.2202    8.5757     7.1901     15.824     0.197     
3199.400158 9.0067     2.8331     9.1227     12.6788    11.0791    9.5026     7.1901     15.824     0.196     
3199.600158 9.0033     2.8549     9.0543     12.7665    10.9442    10.3452    6.4617     15.824     0.194     
3199.800158 8.9943     2.8617     8.7451     12.4987    10.7223    11.1618    6.7202     15.824     0.193     
3200.000159 8.9966     2.8701     8.4414     11.9604    10.4284    11.985     6.4276     15.824     0.193     
3200.200159 8.9932     2.8836     8.3535     11.5284    10.3598    13.1927    6.8047     15.824     0.192     
3200.400159 8.9932     2.8937     8.3379     11.1657    11.1472    14.8498    6.8047     15.824     0.192     
3200.600159 8.9932     2.8937     8.3138     10.8691    13.0105    16.8267    7.7643     15.824     0.192     
3200.800159 8.9932     2.8937     8.2846     10.942     15.1096    19.3415    8.9344     15.824     0.192     
3201.00016 8.9932     2.8937     8.2749     11.1545    15.7044    22.2906    11.1403    15.824     0.191     
3201.20016 8.9932     2.8937     8.2749     11.3539    16.0648    26.6569    12.2131    15.824     0.191     
3201.40016 8.9932     2.8937     8.2749     11.4311    17.0405    31.1054    12.2131    15.8216    0.192     
3201.60016 8.9932     2.8937     8.2749     11.4547    19.6042    35.4847    15.1095    15.8232    0.191     
3201.80016 8.9921     2.8937     8.2749     11.4958    23.365     40.5489    18.4514    15.824     0.191     
