~Version
 VERS              .         2.0                           : CWLS LOG ASCII STANDARD - VERSION 2.0
 WRAP              .         NO                            : ONE LINE PER DEPTH STEP
 DLM               .         SPACE                         : DELIMITING CHARACTER(SPACE TAB OR COMMA)
~Well Information
#_______________________________________________________________________________
#
#PARAMETER_NAME    .UNIT     VALUE                         : DESCRIPTION
#_______________________________________________________________________________
STRT               .m        3041.4                        : First reference value
STOP               .m        3218.800177                   : Last reference value
STEP               .m        0.2000002                     : Step increment
NULL               .         -9999                         : Missing value
COMP               .                                       : Company
WELL               .         506                           : Well name
FLD                .                                       : Field
LOC                .                                       : Location
CNTY               .                                       : County
STAT               .                                       : State
CTRY               .                                       : Country
SRVC               .                                       : Service Company
DATE               .                                       : Date
API                .                                       : API number
EREF               .m        139.4                         : 
X                  .m        230550                        : 
Y                  .m        242075                        : 
group              .         Pad5                          : 
Интер-р            .         Ярышев                        : 
Куст               .         5                             : 
Статус             .         Не проверено                  : 
Тип                .         Нагнетательные                : 
~Parameter Information Block
#_______________________________________________________________________________
#
#PARAMETER_NAME    .UNIT     VALUE                         : DESCRIPTION
#_______________________________________________________________________________
SET                .         LAS1                          : 
REAL_CREATION_DATE .         Ср апр 11 2012-13_17_20       : 
TLFamily_DEPTH     .         Measured Depth                : 
TLFamily_KS        .         Potential Resistivity         : 
TLFamily_KS1       .         Extra Shallow Resistivity     : 
TLFamily_KS2       .         Shallow Resistivity           : 
TLFamily_KS3       .         Medium Resistivity            : 
TLFamily_KS4       .         Deep Resistivity              : 
TLFamily_KS5       .         Extra Deep Resistivity        : 
TLFamily_LLD       .         Lateral Log Resistivity       : 
TLFamily_OKS3      .         Medium Resistivity Inverted   : 
TLFamily_RM        .         Mud Resistivity               : 
group              .         INI                           : 
~Curve Information
#_______________________________________________________________________________
#
#LOGNAME           .UNIT     LOG_ID                        : DESCRIPTION
#_______________________________________________________________________________
DEPTH              .m                                      : Measured Depth 
KS                 .ohm.m                                  : Potential Resistivity 
KS1                .ohm.m                                  : Extra Shallow Resistivity 
KS2                .ohm.m                                  : Shallow Resistivity 
KS3                .ohm.m                                  : Medium Resistivity 
KS4                .ohm.m                                  : Deep Resistivity 
KS5                .ohm.m                                  : Extra Deep Resistivity 
LLD                .ohm.m                                  : Lateral Log Resistivity 
OKS3               .ohm.m                                  : Medium Resistivity Inverted 
RM                 .ohm.m                                  : Mud Resistivity 
~Ascii
# ...
3158.200117 7.1099     3.4223     10.2677    14.4519    12.2003    7.2924     4.722      9.4879     0.202     
3158.400117 6.9008     3.1765     9.611      13.5127    11.1893    7.2276     4.6284     9.8199     0.199     
3158.600117 6.7542     2.9172     9.0597     12.4142    10.3996    7.1628     5.1374     10.4327    0.196     
3158.800117 6.6833     2.791      8.737      11.7551    9.9861     7.2146     5.156      10.9861    0.196     
3159.000118 6.6659     2.7337     8.4225     11.266     9.7484     7.5279     6.3724     11.5379    0.201     
3159.200118 6.7053     2.6956     8.0349     10.9067    9.6345     7.8822     6.3724     11.8475    0.205     
3159.400118 6.7255     2.7287     7.8971     10.6742    9.5938     7.9924     5.2253     11.8443    0.202     
3159.600118 6.7946     2.8314     8.0317     10.4224    9.3902     7.9535     4.6482     11.6962    0.197     
3159.800118 6.8705     2.7236     7.629      9.9365     8.9767     7.785      4.9885     11.8507    0.197     
3160.000119 7.0458     2.562      7.1691     9.2533     8.5257     7.5646     6.0476     12.2918    0.197     
3160.200119 7.3679     2.4307     6.8302     8.6808     8.2696     7.3183     6.0476     12.8549    0.196     
3160.400119 7.8315     2.3431     6.668      8.2558     8.2229     7.26       8.5929     13.2366    0.197     
3160.600119 8.3104     2.3583     6.6956     8.15       8.4671     7.3183     14.6427    13.2527    0.197     
3160.800119 8.7336     2.6091     7.3247     8.429      8.91       7.4544     12.8975    12.7843    0.194     
3161.00012 8.914      3.0503     8.5619     9.1855     9.4423     7.5581     7.5456     11.9325    0.194     
3161.20012 8.8263     3.584      10.065     10.3487    9.8054     7.6359     7.5456     10.9861    0.197     
3161.40012 8.5919     3.8534     10.7201    11.1024    9.8298     7.6294     6.5402     10.2723    0.198     
3161.60012 8.2716     3.6766     10.772     11.2018    9.6068     7.6316     6.2597     9.8921     0.2       
3161.80012 7.9085     3.5015     10.8125    11.0783    9.3837     7.61       5.6097     9.7028     0.201     
3162.000121 7.5297     3.3297     10.7022    11.003     9.2388     7.772      5.2277     9.6836     0.201     
3162.200121 7.2498     3.121      10.2336    10.9436    9.1216     8.1674     5.2277     9.8392     0.201     
3162.400121 7.0829     2.9661     9.7034     10.9981    9.0858     8.848      5.147      10.3685    0.202     
3162.600121 6.9598     2.8549     9.0651     11.1489    9.2291     9.9304     5.1349     11.1941    0.202     
3162.800121 6.9093     2.7792     8.5949     11.3269    9.4537     9.9304     5.5664     11.416     0.199     
3163.000122 6.8941     2.764      8.4873     11.4167    9.597      11.3952    5.5664     12.056     0.201     
3163.200122 6.8368     2.7522     8.2214     11.7856    10.3139    13.2813    4.95       12.919     0.2       
3163.400122 6.8047     2.8347     8.3268     12.1592    11.5995    15.9581    4.7709     13.7082    0.197     
3163.600122 6.8334     2.7674     8.1063     12.4254    13.4751    19.7368    5.4151     14.799     0.196     
3163.800122 6.9177     2.7102     8.0592     12.6628    16.0344    23.4313    9.2264     16.9325    0.197     
3164.000123 7.061      2.6428     8.1971     13.2358    18.7533    26.5554    10.6414    19.3627    0.199     
3164.200123 7.3358     2.6479     8.3722     13.9233    20.0752    28.9924    10.6414    20.4069    0.203     
3164.400123 7.7455     2.7102     8.5262     13.8479    19.5298    29.9063    10.2478    19.4942    0.205     
3164.600123 8.1047     2.8634     8.724      13.2818    18.1737    28.8304    9.5593     17.6158    0.202     
3164.800123 8.2868     3.0705     9.0694     12.767     16.9868    25.8359    7.715      15.7695    0.201     
3165.000124 8.2671     3.2119     9.5024     12.4928    15.9872    22.8804    5.2775     14.2071    0.2       
3165.200124 7.9546     3.3758     10.2742    12.5088    15.2806    20.4887    5.2775     12.7987    0.197     
3165.400124 7.5044     3.5772     11.2438    12.7013    14.6782    18.1618    4.7583     11.8149    0.194     
3165.600124 7.1166     3.5958     11.7189    12.674     13.6769    16.0359    4.6115     11.4192    0.194     
3165.800124 6.7879     3.318      11.1438    12.2602    12.2524    13.748     4.6379     11.3246    0.197     
3166.000125 6.5805     3.0082     9.8591     11.4616    10.3231    11.6026    4.8282     11.4385    0.202     
3166.200125 6.4894     2.7691     8.7062     10.7784    8.2327     9.6128     4.8282     11.894     0.205     
3166.400125 6.449      2.626      7.9311     10.3839    6.743      8.0572     4.8572     12.5565    0.205     
3166.600125 6.481      2.5182     7.2582     10.0616    5.8834     6.9619     4.5226     13.2751    0.203     
3166.800125 6.5619     2.4829     6.8058     9.6735     5.2631     6.1906     4.3166     14.1927    0.204     
3167.000126 6.6884     2.4509     6.4816     9.1528     4.8756     5.7433     4.9976     15.3717    0.205     
3167.200126 6.8503     2.3179     6.0259     8.4691     4.6737     5.5489     4.9976     16.9966    0.202     
3167.400126 7.1082     2.1731     5.6919     7.972      4.7047     5.4906     7.6502     19.6386    0.198     
3167.600126 7.5651     2.0417     5.5184     7.7796     4.9489     5.5705     12.1659    23.0392    0.198     
3167.800126 8.3829     1.9677     5.4665     7.7523     5.3738     5.8017     15.0674    26.3067    0.204     
3168.000127 9.4113     2.1057     5.7227     7.9399     6.0364     5.9961     15.5994    27.8344    0.208     
3168.200127 10.2915    2.4391     6.2173     8.3553     7.0149     6.1517     15.5994    27.9301    0.207     
3168.400127 11.0097    2.7085     6.8399     8.8572     8.288      6.3267     15.4227    27.505     0.205     
3168.600127 11.5408    2.929      7.8144     9.3544     9.641      6.5341     14.9643    27.0238    0.207     
3168.800127 11.9337    3.1075     9.0175     9.89       10.8441    6.7674     14.1964    26.7559    0.21      
3169.000128 12.2017    3.2287     9.9823     10.4561    11.8209    6.9813     13.7125    26.7062    0.209     
3169.200128 12.3821    3.3163     10.7784    11.035     12.6561    7.2341     13.7125    26.8794    0.208     
3169.400128 12.5457    3.3584     11.3249    11.6637    13.2357    7.5776     13.3182    27.1826    0.207     
3169.600128 12.6772    3.3853     11.6735    12.4938    13.6069    7.973      13.126     28.1306    0.202     
3169.800128 12.8222    3.4005     11.8356    13.8094    13.9423    8.4461     12.6986    29.5358    0.203     
3170.000129 12.9773    3.3786     11.8551    15.3906    14.3054    8.9322     11.441     30.9041    0.209     
3170.200129 13.1364    3.3584     11.8616    16.7473    14.771     9.6063     11.441     32.7953    0.21      
3170.400129 13.3044    3.3746     11.9427    18.003     15.4727    10.8118    11.3294    35.6971    0.209     
3170.600129 13.4882    3.4207     12.1648    18.9989    16.5244    12.4841    12.7115    39.9222    0.206     
3170.800129 13.7698    3.3702     12.1762    19.6019    17.8464    14.3378    13.2489    44.8805    0.204     
3171.00013 14.1643    3.2287     11.7886    19.9419    19.3084    16.9498    17.7235    48.8388    0.21      
3171.20013 14.6802    3.1748     11.4935    20.4086    21.0944    18.2656    17.7235    49.5082    0.211     
3171.40013 15.3007    3.1698     11.5114    20.8143    22.7795    19.6656    28.2909    52.0796    0.21      
3171.60013 16.2314    3.0284     11.0282    19.9146    22.7556    21.3248    56.8399    48.7511    0.208     
3171.80013 17.4167    2.3768     8.6462     18.7279    22.8495    22.2193    69.1891    48.7142    0.204     
3172.000131 18.4485    2.4559     9.9337     18.5755    25.0067    22.6276    69.4449    47.5866    0.208     
3172.200131 19.0403    3.0385     11.5584    20.037     27.1622    23.1461    69.4449    45.3649    0.211     
3172.400131 19.5545    2.9156     11.4951    21.406     27.1541    25.0452    56.4695    39.348     0.209     
3172.600131 20.2627    3.0452     12.2572    21.6081    28.704     27.7155    37.7724    33.8203    0.212     
