~Version
 VERS              .         2.0                           : CWLS LOG ASCII STANDARD - VERSION 2.0
 WRAP              .         NO                            : ONE LINE PER DEPTH STEP
 DLM               .         SPACE                         : DELIMITING CHARACTER(SPACE TAB OR COMMA)
~Well Information
#_______________________________________________________________________________
#
#PARAMETER_NAME    .UNIT     VALUE                         : DESCRIPTION
#_______________________________________________________________________________
STRT               .m        3041.4                        : First reference value
STOP               .m        3218.800177                   : Last reference value
STEP               .m        0.2000002                     : Step increment
NULL               .         -9999                         : Missing value
COMP               .                                       : Company
WELL               .         506                           : Well name
FLD                .                                       : Field
LOC                .                                       : Location
CNTY               .                                       : County
STAT               .                                       : State
CTRY               .                                       : Country
SRVC               .                                       : Service Company
DATE               .                                       : Date
API                .                                       : API number
EREF               .m        139.4                         : 
X                  .m        230550                        : 
Y                  .m        242075                        : 
group              .         Pad5                          : 
Интер-р            .         Ярышев                        : 
Куст               .         5                             : 
Статус             .         Не проверено                  : 
Тип                .         Нагнетательные                : 
~Parameter Information Block
#_______________________________________________________________________________
#
#PARAMETER_NAME    .UNIT     VALUE                         : DESCRIPTION
#_______________________________________________________________________________
SET                .         LAS1                          : 
REAL_CREATION_DATE .         Ср апр 11 2012-13_17_20       : 
TLFamily_DEPTH     .         Measured Depth                : 
TLFamily_KS        .         Potential Resistivity         : 
TLFamily_KS1       .         Extra Shallow Resistivity     : 
TLFamily_KS2       .         Shallow Resistivity           : 
TLFamily_KS3       .         Medium Resistivity            : 
TLFamily_KS4       .         Deep Resistivity              : 
TLFamily_KS5       .         Extra Deep Resistivity        : 
TLFamily_LLD       .         Lateral Log Resistivity       : 
TLFamily_OKS3      .         Medium Resistivity Inverted   : 
TLFamily_RM        .         Mud Resistivity               : 
group              .         INI                           : 
~Curve Information
#_______________________________________________________________________________
#
#LOGNAME           .UNIT     LOG_ID                        : DESCRIPTION
#_______________________________________________________________________________
DEPTH              .m                                      : Measured Depth 
KS                 .ohm.m                                  : Potential Resistivity 
KS1                .ohm.m                                  : Extra Shallow Resistivity 
KS2                .ohm.m                                  : Shallow Resistivity 
KS3                .ohm.m                                  : Medium Resistivity 
KS4                .ohm.m                                  : Deep Resistivity 
KS5                .ohm.m                                  : Extra Deep Resistivity 
LLD                .ohm.m                                  : Lateral Log Resistivity 
OKS3               .ohm.m                                  : Medium Resistivity Inverted 
RM                 .ohm.m                                  : Mud Resistivity 
~Ascii
# ...
3129.000088 7.3578     2.2135     7.5242     10.5972    11.6516    13.0998    3.7732     25.7261    0.202     
3129.200088 8.0339     2.5788     8.3576     11.9796    12.985     13.9489    8.0119     25.5737    0.202     
3129.400088 8.774      2.8853     8.4987     12.3372    13.0794    13.8257    19.3559    22.866     0.199     
3129.600088 9.2529     3.0671     8.463      12.2047    12.2508    12.9702    19.3559    19.9016    0.196     
3129.800088 9.4771     3.094      8.5959     11.7583    11.1876    11.6609    11.9178    17.7169    0.193     
3130.000089 9.5681     3.1361     9.2559     11.4793    10.3313    10.4878    9.577      16.3341    0.194     
3130.200089 9.5479     3.1816     10.0358    11.2708    9.7468     9.3924     7.745      15.3957    0.197     
3130.400089 9.5361     3.2489     10.4833    10.9709    9.2779     8.4915     7.9477     14.5039    0.202     
3130.600089 9.5243     3.2085     10.2077    10.6293    8.7179     7.7072     7.9477     13.5125    0.202     
3130.800089 9.4316     3.1614     9.945      10.4946    8.1453     7.0591     9.0159     12.8581    0.2       
3131.00009 9.3152     3.1412     9.7537     10.8362    7.6905     6.4174     7.5899     12.5902    0.201     
3131.20009 9.1888     3.0705     9.5656     11.614     7.3942     5.9378     6.7257     12.579     0.201     
3131.40009 9.118      2.9779     9.3418     12.4302    7.2461     5.5554     6.7157     12.6672    0.202     
3131.60009 9.0843     2.9038     9.0516     12.8504    7.182      5.2767     6.7157     12.7939    0.202     
3131.80009 9.0809     2.8263     8.7435     12.9562    7.2917     5.1081     6.6236     12.972     0.202     
3132.000091 9.1112     2.7994     8.557      12.953     7.5603     5.0498     6.5195     13.1308    0.202     
3132.200091 9.1466     2.7842     8.4646     12.9835    7.855      5.1146     6.9334     13.3072    0.199     
3132.400091 9.1584     2.8213     8.5765     13.1792    8.249      5.2378     7.2001     13.5029    0.196     
3132.600091 9.1534     2.9004     8.7986     13.4149    8.7244     5.4193     7.2001     13.6296    0.194     
3132.800091 9.177      2.9206     8.8003     13.3796    9.3349     5.6656     7.435      13.6409    0.196     
3133.000092 9.209      2.8549     8.6381     13.099     10.1831    5.9313     8.0839     13.5543    0.202     
3133.200092 9.2427     2.8465     8.6365     12.8007    11.5312    6.2424     7.0816     13.3104    0.205     
3133.400092 9.2832     2.8752     8.7013     12.7093    13.2471    6.6572     7.9        12.9158    0.202     
3133.600092 9.263      2.929      8.7954     12.7798    14.8329    7.2276     7.9        12.5774    0.2       
3133.800092 9.1804     3.0284     9.0159     12.9675    16.0572    8.0443     8.0108     12.2934    0.2       
3134.000093 9.0893     3.0587     9.1424     13.2321    17.3287    9.2174     8.3537     12.0801    0.202     
3134.200093 8.9915     3.0183     9.1683     13.5721    18.8037    10.8572    7.3249     12.1234    0.204     
3134.400093 8.914      2.9795     9.2056     14.0548    20.65      13.0609    6.9068     12.4907    0.203     
3134.600093 8.8752     2.9425     9.2348     14.7652    23.3509    16.2563    6.9068     13.3682    0.2       
3134.800093 8.8583     2.9172     9.3953     15.9567    27.3446    20.6831    7.2507     14.937     0.196     
3135.000094 8.8516     2.9543     9.8834     17.9469    32.7204    25.4276    6.8736     17.2517    0.195     
3135.200094 8.9055     2.9981     10.5855    20.3524    38.2363    30.2693    6.8526     19.1381    0.198     
3135.400094 8.9578     3.1883     11.3654    22.3538    41.3703    32.8813    8.0441     19.4621    0.202     
3135.600094 8.9409     3.6025     12.3026    23.0835    40.387     33.0563    8.0441     18.2029    0.204     
3135.800094 8.6189     3.8113     12.4178    22.6313    37.3034    32.3757    20.9348    16.2587    0.202     
3136.000095 7.9344     4.0083     12.9431    21.8166    34.4071    29.1631    12.4921    14.3755    0.2       
3136.200095 7.2212     4.148      13.7895    20.9137    31.1168    24.9544    7.1174     12.7634    0.198     
3136.400095 6.6597     3.7978     13.2463    19.0342    26.5696    21.3378    7.1174     11.2139    0.199     
3136.600095 6.223      3.2877     11.5795    16.4362    21.5486    17.3776    4.3824     9.7718     0.2       
3136.800095 5.9634     2.8785     9.9401     14.0724    17.4541    13.91      3.8105     8.6506     0.198     
3137.000096 5.815      2.6159     8.6868     12.2859    14.2337    11.3498    3.8219     7.9367     0.196     
3137.200096 5.7341     2.5064     7.8874     11.1569    11.8486    9.5933     4.1233     7.5822     0.193     
3137.400096 5.6818     2.5031     7.3474     10.6213    10.1978    8.6989     4.1233     7.4876     0.193     
3137.600096 5.6599     2.5115     6.9615     10.3422    8.853      8.1026     4.3609     7.6742     0.194     
3137.800096 5.6532     2.4778     6.655      9.9606     7.8338     7.5452     4.373      7.9175     0.197     
3138.000097 5.6431     2.4845     6.574      9.5196     7.1354     6.9878     4.8746     8.1164     0.201     
3138.200097 5.6093     2.53       6.6129     9.2293     6.7137     6.398      5.5098     8.2159     0.203     
3138.400097 5.525      2.6681     6.8188     8.9278     6.4402     5.8211     5.5098     8.2961     0.202     
3138.600097 5.407      2.7102     6.8221     8.4691     6.1813     5.3026     5.2777     8.3602     0.201     
3138.800097 5.2839     2.6512     6.6145     7.9287     5.916      4.7776     4.7587     8.6056     0.199     
3139.000098 5.1996     2.4913     6.274      7.377      5.7434     4.3369     3.7767     9.2264     0.197     
3139.200098 5.2165     2.2556     5.7957     6.9825     5.9094     4.0193     3.4973     10.3653    0.199     
3139.400098 5.3665     2.0367     5.4389     6.8382     6.616      3.8183     3.5396     11.9405    0.199     
3139.600098 5.6936     1.8919     5.2233     6.9392     7.7801     3.7924     4.1487     13.1388    0.195     
3139.800098 6.2202     1.8835     5.1763     7.199      9.0532     3.8443     9.3667     13.466     0.191     
3140.000099 6.8317     2.1366     5.4876     7.5983     10.2743    3.8961     10.2511    13.1709    0.192     
3140.200099 7.2077     2.5553     6.0746     8.1163     11.2332    3.9415     10.2511    12.7041    0.195     
3140.400099 7.3611     2.8129     6.7653     8.4868     11.7298    3.9674     8.3847     12.3239    0.197     
3140.600099 7.3628     2.9004     7.4236     8.745      11.9691    3.9415     8.0608     12.1362    0.202     
3140.800099 7.292      3.0991     8.5181     8.9102     11.8877    3.8767     7.4717     12.0159    0.202     
3141.0001  7.2077     3.0923     8.9332     9.0048     11.5425    3.8054     7.2549     11.9582    0.199     
3141.2001  7.0492     3.1041     9.0613     8.9085     10.9597    3.7211     7.2549     12.0737    0.198     
3141.4001  6.8873     3.0738     9.0143     8.8524     10.3541    3.598      6.8647     12.4474    0.198     
3141.6001  6.7339     2.956      8.6641     8.9037     9.7207     3.5137     6.1208     12.9768    0.2       
3141.8001  6.5518     2.9189     8.5732     9.1502     9.1379     3.41       6.342      13.4339    0.2       
3142.000101 6.4085     2.8785     8.3138     9.4602     8.586      3.3581     4.9973     13.9585    0.198     
3142.200101 6.3293     2.7219     7.6782     9.3303     7.9917     3.3646     4.9973     14.6996    0.195     
3142.400101 6.3023     2.5199     7.0847     8.939      7.4984     3.4554     4.5328     16.055     0.193     
3142.600101 6.4085     2.3212     6.5075     8.5654     7.2786     3.6887     4.3536     18.2783    0.196     
3142.800101 6.7373     2.1175     5.953      8.3152     7.3894     4.097      4.2528     21.841     0.198     
3143.000102 7.3392     1.8751     5.4665     8.3376     7.8843     4.7193     6.7272     26.0629    0.201     
3143.200102 8.2868     1.7033     5.2427     8.6022     8.5534     5.5943     6.7272     28.4418    0.2       
3143.400102 9.6626     1.7757     5.4325     9.1202     9.2763     6.7285     17.9535    27.667     0.197     
