~Version
 VERS              .         2.0                           : CWLS LOG ASCII STANDARD - VERSION 2.0
 WRAP              .         NO                            : ONE LINE PER DEPTH STEP
 DLM               .         SPACE                         : DELIMITING CHARACTER(SPACE TAB OR COMMA)
~Well Information
#_______________________________________________________________________________
#
#PARAMETER_NAME    .UNIT     VALUE                         : DESCRIPTION
#_______________________________________________________________________________
STRT               .m        3041.4                        : First reference value
STOP               .m        3218.800177                   : Last reference value
STEP               .m        0.2000002                     : Step increment
NULL               .         -9999                         : Missing value
COMP               .                                       : Company
WELL               .         506                           : Well name
FLD                .                                       : Field
LOC                .                                       : Location
CNTY               .                                       : County
STAT               .                                       : State
CTRY               .                                       : Country
SRVC               .                                       : Service Company
DATE               .                                       : Date
API                .                                       : API number
EREF               .m        139.4                         : 
X                  .m        230550                        : 
Y                  .m        242075                        : 
group              .         Pad5                          : 
Интер-р            .         Ярышев                        : 
Куст               .         5                             : 
Статус             .         Не проверено                  : 
Тип                .         Нагнетательные                : 
~Parameter Information Block
#_______________________________________________________________________________
#
#PARAMETER_NAME    .UNIT     VALUE                         : DESCRIPTION
#_______________________________________________________________________________
SET                .         LAS1                          : 
REAL_CREATION_DATE .         Ср апр 11 2012-13_17_20       : 
TLFamily_DEPTH     .         Measured Depth                : 
TLFamily_KS        .         Potential Resistivity         : 
TLFamily_KS1       .         Extra Shallow Resistivity     : 
TLFamily_KS2       .         Shallow Resistivity           : 
TLFamily_KS3       .         Medium Resistivity            : 
TLFamily_KS4       .         Deep Resistivity              : 
TLFamily_KS5       .         Extra Deep Resistivity        : 
TLFamily_LLD       .         Lateral Log Resistivity       : 
TLFamily_OKS3      .         Medium Resistivity Inverted   : 
TLFamily_RM        .         Mud Resistivity               : 
group              .         INI                           : 
~Curve Information
#_______________________________________________________________________________
#
#LOGNAME           .UNIT     LOG_ID                        : DESCRIPTION
#_______________________________________________________________________________
DEPTH              .m                                      : Measured Depth 
KS                 .ohm.m                                  : Potential Resistivity 
KS1                .ohm.m                                  : Extra Shallow Resistivity 
KS2                .ohm.m                                  : Shallow Resistivity 
KS3                .ohm.m                                  : Medium Resistivity 
KS4                .ohm.m                                  : Deep Resistivity 
KS5                .ohm.m                                  : Extra Deep Resistivity 
LLD                .ohm.m                                  : Lateral Log Resistivity 
OKS3               .ohm.m                                  : Medium Resistivity Inverted 
RM                 .ohm.m                                  : Mud Resistivity 
~Ascii
# ...
3056.000015 7.931      3.3062     10.5904    13.1391    9.9747     8.0183     6.5659     12.2742    0.214     
3056.200015 7.8518     3.19       10.1866    12.9595    9.667      7.7656     6.2829     12.3833    0.213     
3056.400015 7.813      3.1159     9.8558     12.8745    9.4977     7.5646     5.9067     12.6255    0.212     
3056.600015 7.7725     3.0839     9.6969     12.9739    9.4749     7.5193     5.6425     12.7987    0.209     
3056.800015 7.7809     3.0957     9.6467     13.1102    9.5058     7.5387     6.088      12.8918    0.206     
3057.000016 7.7978     3.0688     9.5024     13.2144    9.6361     7.5646     6.088      12.9158    0.202     
3057.200016 7.7708     3.126      9.5915     13.3075    9.8477     7.5711     6.2371     12.9174    0.201     
3057.400016 7.7658     3.1664     9.6337     13.2834    10.0333    7.5776     6.0417     12.8982    0.201     
3057.600016 7.7691     3.1294     9.5348     13.0621    10.1343    7.5776     6.236      12.9206    0.202     
3057.800016 7.7826     3.1109     9.5494     12.8584    10.2841    7.5063     6.1117     12.9206    0.203     
3058.000017 7.7978     3.1193     9.5223     12.6307    10.3687    7.3831     6.0884     12.9511    0.204     
3058.200017 7.8164     3.126      9.5072     12.4286    10.4159    7.2081     6.2327     13.0105    0.204     
3058.400017 7.8265     3.1176     9.4505     12.2282    10.4208    7.0202     6.3265     13.1324    0.204     
3058.600017 7.8164     3.1277     9.5007     12.0919    10.4778    6.8257     6.3391     13.2976    0.204     
3058.800017 7.7742     3.1513     9.6061     12.0758    10.5836    6.6443     6.5576     13.4083    0.204     
3059.000018 7.7118     3.1951     9.7358     12.156     10.6553    6.4369     6.6812     13.4211    0.206     
3059.200018 7.609      3.2506     9.8737     12.2239    10.6162    6.2165     6.5755     13.3698    0.207     
3059.400018 7.5247     3.2203     9.7699     12.0822    10.3622    5.9702     6.1984     13.3778    0.207     
3059.600018 7.4522     3.0991     9.4002     11.7006    9.9242     5.7369     5.6674     13.6842    0.207     
3059.800018 7.4033     2.993      9.1116     11.3718    9.4944     5.51       5.6394     14.3274    0.211     
3060.000019 7.4387     2.9088     8.9105     11.0655    9.1672     5.3544     5.2211     15.014     0.215     
3060.200019 7.5769     2.7809     8.4743     10.8298    8.8709     5.2961     5.3592     15.577     0.215     
3060.400019 7.7675     2.7455     8.2522     10.6277    8.6788     5.3156     5.5937     16.1753    0.214     
3060.600019 7.9748     2.7573     8.1938     10.6694    8.7065     5.4063     5.9631     16.8507    0.212     
3060.800019 8.2143     2.8129     8.2781     10.8731    8.936      5.5878     6.1628     17.5484    0.21      
3061.00002 8.4436     2.9038     8.5376     11.205     9.3023     5.8211     6.3358     18.2093    0.21      
3061.20002 8.6661     3.0149     8.8911     11.5739    9.7484     6.0998     6.805      18.8189    0.212     
3061.40002 8.8668     3.0923     9.1716     11.8545    10.2792    6.4044     7.3594     19.4878    0.213     
3061.60002 9.064      3.1378     9.4018     12.0021    10.7204    6.735      7.8224     20.2048    0.214     
3061.80002 9.2579     3.1277     9.5656     12.148     11.1372    7.1174     7.769      20.8865    0.213     
3062.000021 9.413      3.1681     9.9061     12.4976    11.7005    7.5128     7.769      21.5875    0.211     
3062.200021 9.5226     3.291      10.459     13.1439    12.3175    7.8887     7.5873     22.1891    0.208     
3062.400021 9.6187     3.4409     11.0168    13.7581    12.7148    8.148      8.1615     22.3783    0.205     
3062.600021 9.7199     3.4527     11.0963    14.0002    12.6334    8.2387     9.6824     22.1634    0.202     
3062.800021 9.8261     3.3853     10.926     13.8719    12.1645    8.1933     8.9323     22.1441    0.201     
3063.000022 9.9559     3.2725     10.6374    13.7084    11.7086    8.0443     8.9323     22.4954    0.202     
3063.200022 10.1397    3.1732     10.4396    13.6154    11.3667    7.8952     8.1487     22.9911    0.204     
3063.400022 10.428     3.1227     10.3407    13.5769    11.1241    7.8369     7.2762     23.5573    0.204     
3063.600022 10.7467    3.0385     10.0601    13.7757    11.1127    7.8693     8.1945     23.7466    0.206     
3063.800022 10.9928    3.2321     10.6341    14.3996    11.3863    7.9146     8.4722     23.3568    0.207     
3064.000023 11.234     3.4914     11.3038    15.2768    11.733     7.9665     8.4722     22.7842    0.207     
3064.200023 11.4059    3.52       11.3719    15.7819    11.8796    8.0637     15.5249    22.643     0.207     
3064.400023 11.5121    3.4846     11.487     16.0963    12.0472    8.1415     12.4193    22.813     0.21      
3064.600023 11.6352    3.4476     11.6719    16.5709    12.4022    8.1544     9.7269     22.9125    0.214     
3064.800023 11.7583    3.4947     12.0643    17.1274    12.8987    8.2063     10.297     22.6189    0.215     
3065.000024 11.8494    3.5857     12.3983    17.6967    13.4995    8.2776     10.297     22.1891    0.213     
3065.200024 11.873     3.6766     12.6739    18.2725    14.1181    8.3554     11.7757    21.8971    0.212     
3065.400024 11.8443    3.7187     12.841     18.8402    14.7352    8.4072     12.6034    21.8987    0.21      
3065.600024 11.8139    3.7069     12.9415    19.278     15.2285    8.4785     10.7801    21.9773    0.21      
3065.800024 11.8072    3.6951     12.9918    19.6677    15.6876    8.5174     10.7098    21.9917    0.212     
3066.000025 11.8443    3.6547     12.862     19.9082    16.0718    8.5693     10.7098    21.8891    0.214     
3066.200025 11.8797    3.6008     12.6545    20.006     16.544     8.6081     10.6646    21.7832    0.212     
3066.400025 11.8797    3.6311     12.7518    20.1552    17.1919    8.66       10.3367    21.7303    0.211     
3066.600025 11.878     3.6682     12.8864    20.447     17.8953    8.7378     10.8337    21.6629    0.21      
3066.800025 11.8713    3.6934     12.9999    20.7389    18.4667    8.8156     10.9846    21.4993    0.207     
3067.000026 11.8628    3.7119     13.055     20.9618    18.8916    8.8544     10.9846    21.2731    0.204     
3067.200026 11.8527    3.7136     13.042     21.0035    19.1717    8.8933     11.047     21.0165    0.204     
3067.400026 11.8527    3.6816     12.922     20.8512    19.4029    8.9193     10.9111    20.8256    0.204     
3067.600026 11.851     3.6564     12.8361    20.6908    19.634     8.9646     10.334     20.7839    0.205     
3067.800026 11.8443    3.6379     12.7874    20.6587    20.0117    9.0165     10.1793    20.8512    0.207     
3068.000027 11.8376    3.6429     12.8637    20.8015    20.5506    9.0748     10.1793    20.8496    0.207     
3068.200027 11.8241    3.6934     13.055     21.0035    20.9967    9.1526     10.3408    20.6924    0.207     
3068.400027 11.7802    3.7187     13.0955    21.1751    21.2768    9.2433     11.0866    20.508     0.207     
3068.600027 11.6993    3.7574     13.188     21.2761    21.4884    9.3406     11.1117    20.378     0.209     
3068.800027 11.5863    3.7843     13.2755    21.3467    21.6691    9.4507     11.2258    20.4732    0.209     
3069.000028 11.438     3.7843     13.2755    21.366     21.8156    9.6193     11.2258    20.755     0.207     
3069.200028 11.3014    3.7574     13.2447    21.2713    21.8482    9.8526     10.853     21.2539    0.208     
3069.400028 11.2053    3.7052     13.0971    21.0837    21.7701    10.1507    9.9782     21.995     0.211     
3069.600028 11.1446    3.6311     12.8377    20.7694    21.6235    10.585     9.1878     22.8981    0.213     
3069.800028 11.1564    3.5368     12.4664    20.4631    21.6398    11.1294    8.9547     23.9744    0.215     
3070.000029 11.2019    3.4661     12.2199    20.3653    21.985     11.6285    8.9547     25.1743    0.217     
3070.200029 11.2592    3.4964     12.374     20.6411    22.5564    12.0693    8.7362     25.8367    0.217     
3070.400029 11.3924    3.5705     12.528     20.7614    22.6541    12.4322    9.1152     25.8351    0.213     
