~Version
 VERS              .         2.0                           : CWLS LOG ASCII STANDARD - VERSION 2.0
 WRAP              .         NO                            : ONE LINE PER DEPTH STEP
 DLM               .         SPACE                         : DELIMITING CHARACTER(SPACE TAB OR COMMA)
~Well Information
#_______________________________________________________________________________
#
#PARAMETER_NAME    .UNIT     VALUE                         : DESCRIPTION
#_______________________________________________________________________________
STRT               .m        3023.52                       : First reference value
STOP               .m        3219.72                       : Last reference value
STEP               .m        0.2                           : Step increment
NULL               .         -9999                         : Missing value
COMP               .                                       : Company
WELL               .         506                           : Well name
FLD                .                                       : Field
LOC                .                                       : Location
CNTY               .                                       : County
STAT               .                                       : State
CTRY               .                                       : Country
SRVC               .                                       : Service Company
DATE               .                                       : Date
API                .                                       : API number
EREF               .m        139.4                         : 
X                  .m        230550                        : 
Y                  .m        242075                        : 
group              .         Pad5                          : 
Интер-р            .         Ярышев                        : 
Куст               .         5                             : 
Статус             .         Не проверено                  : 
Тип                .         Нагнетательные                : 
~Parameter Information Block
#_______________________________________________________________________________
#
#PARAMETER_NAME    .UNIT     VALUE                         : DESCRIPTION
#_______________________________________________________________________________
SET                .         LAS3                          : 
REAL_CREATION_DATE .         Ср апр 11 2012-13_17_20       : 
TLFamily_DEPTH     .         Measured Depth                : 
TLFamily_GR        .         Gamma Ray                     : 
TLFamily_TNPH      .         Neutron Porosity              : 
group              .         INI                           : 
~Curve Information
#_______________________________________________________________________________
#
#LOGNAME           .UNIT     LOG_ID                        : DESCRIPTION
#_______________________________________________________________________________
DEPTH              .m                                      : Measured Depth 
GR                 .gAPI                                   :  
TNPH               .v/v                                    : Neutron Porosity 
~Ascii
3023.52    61.81      -9999     
3023.72    57.89      -9999     
3023.92    58.69      -9999     
3024.12    58.34      -9999     
3024.32    56.61      -9999     
3024.52    54.31      -9999     
3024.72    49.4       -9999     
3024.92    39.3       -9999     
3025.12    29.37      -9999     
3025.32    28.15      -9999     
3025.52    37.38      -9999     
3025.72    50.7       -9999     
3025.92    59.95      -9999     
3026.12    63.6       -9999     
3026.32    64.2       -9999     
3026.52    62.91      -9999     
3026.72    59.43      -9999     
3026.92    56.84      -9999     
3027.12    57.8       -9999     
3027.32    59.98      -9999     
3027.52    60.22      -9999     
3027.72    60.23      -9999     
3027.92    61.62      -9999     
3028.12    61.89      -9999     
3028.32    60.67001   -9999     
3028.52    61.32      -9999     
3028.72    62.62      -9999     
3028.92    63.21999   -9999     
3029.12    64.73      -9999     
3029.32    64.97      -9999     
3029.52    59.71      -9999     
3029.72    51.54      -9999     
3029.92    48.03      -9999     
3030.12    49.65      -9999     
3030.32    52.18      -9999     
3030.52    54.03      -9999     
3030.72    57.04      -9999     
3030.92    61.14      -9999     
3031.12    63.2       -9999     
3031.32    61.8       -9999     
3031.52    59.46      0.351     
3031.72    58.58      0.35      
3031.92    59.13      0.35      
3032.12    60.4       0.357     
3032.32    62.18      0.355     
3032.52    65.77      0.337     
3032.72    68.31001   0.324     
3032.92    68.19      0.333     
3033.12    66.63      0.35      
3033.32    67.1       0.353     
3033.52    69.77      0.346     
3033.72    69.87      0.331     
3033.92    66.82999   0.313     
3034.12    63.97      0.294     
3034.32    62.46      0.288     
3034.52    60.45      0.311     
3034.72    58.29      0.345     
3034.92    59.46      0.358     
3035.12    63.93      0.347     
3035.32    67.13      0.332     
3035.52    64.91      0.319     
3035.72    58.6       0.309     
3035.92    53.72      0.3       
3036.12    52.96      0.304     
3036.32    52.46      0.321     
3036.52    50.62      0.329     
3036.72    50.21      0.336     
3036.92    50.66      0.343     
3037.12    46.68      0.372     
3037.32    39.48      0.408     
3037.52    36.19      0.408     
3037.72    43.35      0.395     
3037.92    61.66      0.348     
3038.12    77.42      0.267     
3038.32    79.48      0.212     
3038.52    73.27      0.19      
3038.72    68.07      0.184     
3038.92    65.93001   0.182     
3039.12    68.41      0.191     
3039.32    75.55      0.201     
3039.52    81.51      0.201     
3039.72    81.45      0.2       
3039.92    76.6       0.201     
3040.12    72.84      0.206     
3040.32    73.8       0.211     
3040.52    76.59      0.209     
3040.72    76.74      0.207     
3040.92    75.05      0.207     
3041.12    74.14      0.207     
3041.32    75.13      0.207     
3041.52    76.70999   0.205     
3041.72    78.77      0.205     
3041.92    81.26      0.22      
3042.12    84.08      0.23      
3042.32    84.25999   0.217     
3042.52    81.16      0.2       
3042.72    80.02      0.191     
3042.92    82.56      0.19      
3043.12    87.67999   0.206     
3043.32    94.06999   0.232     
3043.52    98.64      0.25      
3043.72    98.98      0.263     
3043.92    96.62      0.269     
3044.12    96.46      0.256     
3044.32    100.45     0.247     
3044.52    105.68     0.257     
3044.72    111.2      0.274     
3044.92    118.08     0.293     
3045.12    125.46     0.309     
3045.32    131.04     0.318     
3045.52    133.09     0.326     
3045.72    132        0.33      
3045.92    130.43     0.323     
3046.12    135.3      0.304     
3046.32    146.88     0.288     
3046.52    153.97     0.288     
3046.72    150.66     0.299     
3046.92    142.69     0.299     
3047.12    135.71     0.279     
3047.32    131.32     0.263     
3047.52    129.12     0.268     
3047.72    128.27     0.284     
3047.92    124.55     0.297     
3048.12    119.58     0.303     
3048.32    116.69     0.305     
3048.52    119.02     0.307     
3048.72    123.53     0.322     
3048.92    127.98     0.336     
3049.12    128.55     0.312     
3049.32    122.39     0.279     
3049.52    113.91     0.271     
3049.72    108.74     0.267     
3049.92    108.21     0.267     
3050.12    108.2      0.259     
3050.32    106.94     0.243     
3050.52    108.07     0.235     
3050.72    111.33     0.235     
3050.92    113.66     0.236     
3051.12    113.33     0.237     
3051.32    112.44     0.241     
3051.52    113.34     0.24      
3051.72    111.87     0.236     
3051.92    109.04     0.231     
3052.12    109.8      0.236     
3052.32    114.8      0.249     
3052.52    121.87     0.26      
3052.72    128.9      0.264     
3052.92    138.35     0.264     
3053.12    146.89     0.267     
3053.32    152.71     0.274     
3053.52    158.87     0.285     
3053.72    167.03     0.298     
3053.92    175.57     0.308     
3054.12    177.82     0.31      
3054.32    172.47     0.308     
3054.52    165.93     0.311     
3054.72    163.99     0.317     
3054.92    168.19     0.311     
3055.12    180.03     0.306     
3055.32    201.39     0.32      
3055.52    220.95     0.347     
3055.72    226.37     0.358     
3055.92    219.48     0.345     
3056.12    207.62     0.317     
3056.32    194.33     0.29      
3056.52    184.57     0.28      
3056.72    185.6      0.291     
3056.92    191.24     0.311     
3057.12    194.74     0.319     
3057.32    200.28     0.307     
3057.52    210.98     0.282     
3057.72    222.03     0.27      
3057.92    236.15     0.289     
3058.12    252.78     0.323     
3058.32    264.26     0.346     
3058.52    265.43     0.36      
3058.72    259.36     0.371     
3058.92    249.93     0.37      
3059.12    237.13     0.349     
3059.32    221.71     0.326     
3059.52    205.83     0.305     
3059.72    191.08     0.284     
3059.92    180.1      0.273     
3060.12    174.83     0.268     
3060.32    172.51     0.266     
3060.52    169.98     0.266     
3060.72    167.79     0.274     
3060.92    167.55     0.293     
3061.12    173.51     0.315     
3061.32    190.44     0.323     
3061.52    217.62     0.321     
3061.72    241.92     0.318     
3061.92    254.93     0.319     
3062.12    259.88     0.328     
3062.32    269.51     0.337     
3062.52    298.64     0.334     
3062.72    342.45     0.329     
3062.92    386.1      0.34      
3063.12    414.77     0.376     
3063.32    414.78     0.405     
3063.52    392.65     0.376     
3063.72    357.92     0.324     
3063.92    315.55     0.287     
3064.12    272.95     0.277     
3064.32    245.41     0.288     
3064.52    240.75     0.294     
3064.72    259.05     0.3       
3064.92    295.75     0.324     
3065.12    334.16     0.352     
3065.32    353.01     0.342     
3065.52    351.3      0.315     
3065.72    341.49     0.313     
3065.92    330.55     0.342     
3066.12    315.12     0.373     
3066.32    302.07     0.376     
3066.52    299.11     0.361     
3066.72    304.03     0.349     
3066.92    306.14     0.352     
3067.12    312.97     0.374     
3067.32    329.45     0.397     
3067.52    345.25     0.399     
3067.72    350.68     0.382     
3067.92    345.2      0.352     
3068.12    334.27     0.319     
3068.32    320.63     0.298     
3068.52    308.48     0.291     
3068.72    298.35     0.293     
3068.92    287.95     0.302     
3069.12    279.43     0.334     
3069.32    277.7      0.365     
3069.52    282.48     0.382     
3069.72    286.19     0.398     
3069.92    282.05     0.388     
3070.12    277.28     0.369     
3070.32    288.22     0.358     
3070.52    317.72     0.347     
3070.72    339.08     0.342     
3070.92    337.01     0.348     
3071.12    327.94     0.355     
3071.32    329.13     0.352     
3071.52    333.29     0.343     
3071.72    326.98     0.349     
3071.92    310.98     0.371     
