~Version
 VERS              .         2.0                           : CWLS LOG ASCII STANDARD - VERSION 2.0
 WRAP              .         NO                            : ONE LINE PER DEPTH STEP
 DLM               .         SPACE                         : DELIMITING CHARACTER(SPACE TAB OR COMMA)
~Well Information
#_______________________________________________________________________________
#
#PARAMETER_NAME    .UNIT     VALUE                         : DESCRIPTION
#_______________________________________________________________________________
STRT               .m        3023.52                       : First reference value
STOP               .m        3219.72                       : Last reference value
STEP               .m        0.2                           : Step increment
NULL               .         -9999                         : Missing value
COMP               .                                       : Company
WELL               .         506                           : Well name
FLD                .                                       : Field
LOC                .                                       : Location
CNTY               .                                       : County
STAT               .                                       : State
CTRY               .                                       : Country
SRVC               .                                       : Service Company
DATE               .                                       : Date
API                .                                       : API number
EREF               .m        139.4                         : 
X                  .m        230550                        : 
Y                  .m        242075                        : 
group              .         Pad5                          : 
Интер-р            .         Ярышев                        : 
Куст               .         5                             : 
Статус             .         Не проверено                  : 
Тип                .         Нагнетательные                : 
~Parameter Information Block
#_______________________________________________________________________________
#
#PARAMETER_NAME    .UNIT     VALUE                         : DESCRIPTION
#_______________________________________________________________________________
SET                .         LAS3                          : 
REAL_CREATION_DATE .         Ср апр 11 2012-13_17_20       : 
TLFamily_DEPTH     .         Measured Depth                : 
TLFamily_GR        .         Gamma Ray                     : 
TLFamily_TNPH      .         Neutron Porosity              : 
group              .         INI                           : 
~Curve Information
#_______________________________________________________________________________
#
#LOGNAME           .UNIT     LOG_ID                        : DESCRIPTION
#_______________________________________________________________________________
DEPTH              .m                                      : Measured Depth 
GR                 .gAPI                                   :  
TNPH               .v/v                                    : Neutron Porosity 
~Ascii
# ...
3120.72    118.39     0.278     
3120.92    119.99     0.288     
3121.12    124.81     0.301     
3121.32    126.85     0.291     
3121.52    119.96     0.262     
3121.72    100.29     0.223     
3121.92    76.59      0.194     
3122.12    80.73      0.216     
3122.32    97.17      0.263     
3122.52    127.73     0.293     
3122.72    139.96     0.305     
3122.92    142.06     0.284     
3123.12    137.97     0.263     
3123.32    127.81     0.277     
3123.52    120.2      0.319     
3123.72    118.63     0.338     
3123.92    118.26     0.327     
3124.12    117.79     0.321     
3124.32    121.21     0.319     
3124.52    125.97     0.317     
3124.72    122.8      0.316     
3124.92    123.42     0.316     
3125.12    131.16     0.311     
3125.32    140.25     0.308     
3125.52    142.73     0.311     
3125.72    143.08     0.318     
3125.92    142.04     0.327     
3126.12    137.59     0.348     
3126.32    131.92     0.374     
3126.52    131.1      0.383     
3126.72    131.17     0.383     
3126.92    128.21     0.378     
3127.12    123.33     0.362     
3127.32    118.48     0.337     
3127.52    115.06     0.317     
3127.72    117.77     0.297     
3127.92    132.18     0.258     
3128.12    163.26     0.219     
3128.32    205.62     0.189     
3128.52    223.04     0.173     
3128.72    188.85     0.15      
3128.92    127.97     0.107     
3129.12    86.36      0.08      
3129.32    71.35001   0.083     
3129.52    66.93      0.096     
3129.72    62.43      0.124     
3129.92    56.58      0.157     
3130.12    48.22      0.162     
3130.32    46.73      0.157     
3130.52    47.95      0.16      
3130.72    47.92      0.17      
3130.92    43.66      0.181     
3131.12    38.51      0.188     
3131.32    35.04      0.189     
3131.52    32.57      0.185     
3131.72    30.6       0.18      
3131.92    30.44      0.183     
3132.12    33.45      0.193     
3132.32    36.74      0.198     
3132.52    37.32      0.193     
3132.72    35.07      0.193     
3132.92    32.96      0.198     
3133.12    34.61      0.201     
3133.32    40.14      0.201     
3133.52    44.99      0.19      
3133.72    46.61      0.182     
3133.92    46.73      0.186     
3134.12    46.14      0.19      
3134.32    44.19      0.195     
3134.52    40.08      0.201     
3134.72    36.86      0.201     
3134.92    38.25      0.233     
3135.12    47.91      0.295     
3135.32    65.92      0.347     
3135.52    86.1       0.389     
3135.72    88.06      0.384     
3135.92    78.7       0.31      
3136.12    63.06      0.239     
3136.32    48.51      0.2       
3136.52    38.76      0.178     
3136.72    34         0.171     
3136.92    32.47      0.167     
3137.12    32.17      0.171     
3137.32    31.96      0.176     
3137.52    31.83      0.173     
3137.72    32.38      0.17      
3137.92    32.38      0.17      
3138.12    32.7       0.17      
3138.32    32.01      0.169     
3138.52    32.01      0.162     
3138.72    32.02      0.157     
3138.92    33.8       0.154     
3139.12    36.46      0.154     
3139.32    35.77      0.162     
3139.52    36.25      0.164     
3139.72    54.63      0.17      
3139.92    65.82      0.193     
3140.12    75.03999   0.201     
3140.32    69.27      0.19      
3140.52    59.42      0.183     
3140.72    53.36      0.175     
3140.92    50.48      0.169     
3141.12    50.51      0.177     
3141.32    53.44      0.183     
3141.52    54.18      0.182     
3141.72    50.02      0.175     
3141.92    43.1       0.175     
3142.12    40.61      0.184     
3142.32    43.29      0.187     
3142.52    47.68      0.178     
3142.72    48.72      0.17      
3142.92    44.74      0.148     
3143.12    43.39      0.118     
3143.32    45.4       0.094     
3143.52    46.92      0.075     
3143.72    44.48      0.071     
3143.92    42.8       0.076     
3144.12    44.89      0.088     
3144.32    48.56      0.104     
3144.52    52.89      0.12      
3144.72    58.75      0.146     
3144.92    66.62      0.205     
3145.12    76.49001   0.266     
3145.32    85.3       0.288     
3145.52    88.41      0.301     
3145.72    86.07001   0.296     
3145.92    82.99      0.244     
3146.12    78.84      0.192     
3146.32    70.64      0.174     
3146.52    64.39      0.172     
3146.72    69.66      0.18      
3146.92    83.92999   0.215     
3147.12    100.51     0.249     
3147.32    113.78     0.259     
3147.52    115.06     0.268     
3147.72    86.12      0.263     
3147.92    72.37      0.226     
3148.12    66.85001   0.195     
3148.32    66.63      0.195     
3148.52    66.63      0.195     
3148.72    74.18      0.203     
3148.92    81.14      0.229     
3149.12    105.41     0.243     
3149.32    105.15     0.24      
3149.52    103.34     0.237     
3149.72    110.81     0.242     
3149.92    127.06     0.287     
3150.12    136.95     0.314     
3150.32    116.53     0.288     
3150.52    100.63     0.269     
3150.72    91.21001   0.237     
3150.92    89.25999   0.197     
3151.12    89.25999   0.191     
3151.32    91.62      0.203     
3151.52    93.94      0.212     
3151.72    96.37      0.211     
3151.92    97.58      0.208     
3152.12    95.25      0.207     
3152.32    86.52      0.203     
3152.52    76.55      0.198     
3152.72    69.39      0.199     
3152.92    67.04001   0.207     
3153.12    71.94      0.214     
3153.32    83.37      0.221     
3153.52    92.61      0.221     
3153.72    92.8       0.21      
3153.92    89.18      0.208     
3154.12    90.21      0.233     
3154.32    94.79      0.266     
3154.52    98.10001   0.277     
3154.72    97.42      0.285     
3154.92    96.84      0.298     
3155.12    96.39      0.291     
3155.32    97.37      0.278     
3155.52    100.61     0.275     
3155.72    103.26     0.27      
3155.92    106.43     0.259     
3156.12    107.73     0.244     
3156.32    101.34     0.221     
3156.52    88.44      0.208     
3156.72    81.22      0.213     
3156.92    81.22      0.224     
3157.12    84.09      0.235     
3157.32    93.14      0.238     
3157.52    98.21      0.234     
3157.72    93.64999   0.235     
3157.92    81.56      0.224     
3158.12    68.94      0.209     
3158.32    63.72      0.208     
3158.52    66.46      0.209     
3158.72    68.58      0.212     
3158.92    68.10001   0.218     
3159.12    67.58      0.22      
3159.32    65.12      0.217     
3159.52    65.12      0.213     
3159.72    62.22      0.21      
3159.92    64.01      0.209     
3160.12    60.71      0.199     
3160.32    58.69      0.177     
3160.52    59.05      0.166     
3160.72    54.92      0.162     
3160.92    48.22      0.158     
3161.12    48.54      0.161     
3161.32    54.49      0.168     
3161.52    58.35      0.175     
3161.72    57.87      0.183     
3161.92    54.14      0.19      
3162.12    49.67      0.193     
3162.32    48.55      0.192     
3162.52    53.08      0.183     
3162.72    58.79      0.183     
3162.92    61.14      0.199     
3163.12    58.22      0.217     
3163.32    59.12      0.233     
3163.52    71.61      0.235     
3163.72    97.39999   0.261     
3163.92    106.19     0.3       
3164.12    107.82     0.286     
3164.32    105.03     0.253     
3164.52    101.72     0.245     
3164.72    98.31001   0.242     
3164.92    93.39      0.231     
3165.12    85.57      0.228     
3165.32    75.50999   0.225     
3165.52    64.84      0.214     
3165.72    55.35      0.205     
3165.92    48.81      0.209     
3166.12    46.3       0.21      
3166.32    46.65      0.201     
3166.52    47.85      0.193     
3166.72    47.44      0.198     
3166.92    46.02      0.207     
3167.12    49.09      0.221     
3167.32    56.77      0.236     
3167.52    67.48      0.237     
3167.72    77.97      0.25      
3167.92    91.96999   0.281     
3168.12    97.62      0.3       
3168.32    106.06     0.307     
3168.52    108.41     0.301     
3168.72    108.53     0.278     
3168.92    105.32     0.25      
3169.12    103.74     0.243     
