~Version
 VERS              .         2.0                           : CWLS LOG ASCII STANDARD - VERSION 2.0
 WRAP              .         NO                            : ONE LINE PER DEPTH STEP
 DLM               .         SPACE                         : DELIMITING CHARACTER(SPACE TAB OR COMMA)
~Well Information
#_______________________________________________________________________________
#
#PARAMETER_NAME    .UNIT     VALUE                         : DESCRIPTION
#_______________________________________________________________________________
STRT               .m        3041.4                        : First reference value
STOP               .m        3218.800177                   : Last reference value
STEP               .m        0.2000002                     : Step increment
NULL               .         -9999                         : Missing value
COMP               .                                       : Company
WELL               .         506                           : Well name
FLD                .                                       : Field
LOC                .                                       : Location
CNTY               .                                       : County
STAT               .                                       : State
CTRY               .                                       : Country
SRVC               .                                       : Service Company
DATE               .                                       : Date
API                .                                       : API number
EREF               .m        139.4                         : 
X                  .m        230550                        : 
Y                  .m        242075                        : 
group              .         Pad5                          : 
Интер-р            .         Ярышев                        : 
Куст               .         5                             : 
Статус             .         Не проверено                  : 
Тип                .         Нагнетательные                : 
~Parameter Information Block
#_______________________________________________________________________________
#
#PARAMETER_NAME    .UNIT     VALUE                         : DESCRIPTION
#_______________________________________________________________________________
SET                .         LAS1                          : 
REAL_CREATION_DATE .         Ср апр 11 2012-13_17_20       : 
TLFamily_DEPTH     .         Measured Depth                : 
TLFamily_KS        .         Potential Resistivity         : 
TLFamily_KS1       .         Extra Shallow Resistivity     : 
TLFamily_KS2       .         Shallow Resistivity           : 
TLFamily_KS3       .         Medium Resistivity            : 
TLFamily_KS4       .         Deep Resistivity              : 
TLFamily_KS5       .         Extra Deep Resistivity        : 
TLFamily_LLD       .         Lateral Log Resistivity       : 
TLFamily_OKS3      .         Medium Resistivity Inverted   : 
TLFamily_RM        .         Mud Resistivity               : 
group              .         INI                           : 
~Curve Information
#_______________________________________________________________________________
#
#LOGNAME           .UNIT     LOG_ID                        : DESCRIPTION
#_______________________________________________________________________________
DEPTH              .m                                      : Measured Depth 
KS                 .ohm.m                                  : Potential Resistivity 
KS1                .ohm.m                                  : Extra Shallow Resistivity 
KS2                .ohm.m                                  : Shallow Resistivity 
KS3                .ohm.m                                  : Medium Resistivity 
KS4                .ohm.m                                  : Deep Resistivity 
KS5                .ohm.m                                  : Extra Deep Resistivity 
LLD                .ohm.m                                  : Lateral Log Resistivity 
OKS3               .ohm.m                                  : Medium Resistivity Inverted 
RM                 .ohm.m                                  : Mud Resistivity 
~Ascii
# ...
3143.600102 11.1682    2.2084     6.2173     9.9157     10.0757    8.2193     51.312     24.7428    0.2       
3143.800102 12.2287    2.892      7.5047     10.926     11.256     10.0211    79.6874    21.5827    0.204     
3144.000103 12.5946    3.5907     9.2332     12.1769    12.9557    11.8165    62.3088    19.0579    0.204     
3144.200103 12.2877    4.3248     11.9216    13.5689    14.6212    13.2359    62.3088    17.0881    0.202     
3144.400103 11.7347    4.8232     14.9699    14.6417    15.3408    14.0267    17.8768    15.9957    0.2       
3144.600103 11.2963    4.3551     15.5861    14.8005    15.0478    14.435     7.2401     16.0502    0.195     
3144.800103 10.9912    3.7608     14.2095    14.3226    14.2012    14.5517    10.382     16.7159    0.192     
3145.000104 10.7888    3.557      13.6793    14.4429    14.014     14.3443    12.6759    17.4297    0.196     
3145.200104 10.5882    3.6076     13.702     15.7707    14.307     14.1757    12.6759    17.804     0.2       
3145.400104 10.3033    3.7742     13.8349    18.1746    14.5984    13.9165    12.8639    17.7842    0.203     
3145.600104 9.9374     3.919      13.8106    20.6651    14.4747    13.3202    10.57      17.6928    0.202     
3145.800104 9.6356     3.8567     13.1798    21.3708    13.6346    12.4581    5.7138     17.9318    0.202     
3146.000105 9.5091     3.4527     11.6605    19.7751    12.2312    11.4989    5.9545     18.4852    0.201     
3146.200105 9.5024     2.9762     10.2839    17.5861    11.0151    10.5785    5.9545     19.1942    0.198     
3146.400105 9.613      2.8369     9.8459     16.2969    10.5099    9.7813     7.0486     19.5807    0.2       
3146.600105 9.7515     2.912      9.7287     15.6046    10.5562    9.3146     9.3689     19.4749    0.202     
3146.800105 9.8565     3.0031     9.7196     15.2303    10.6585    9.1072     7.3374     19.0226    0.202     
3147.000106 10.0386    3.0233     9.4342     14.5952    10.8132    9.023      7.292      18.6793    0.199     
3147.200106 10.2122    2.8617     9.024      14.0131    11.1779    9.0554     7.292      18.8638    0.195     
3147.400106 10.4589    2.7623     8.9073     13.7388    12.1059    9.2498     7.856      19.4589    0.194     
3147.600106 10.836     2.7118     8.9656     13.8062    13.5255    9.6193     9.6832     20.1246    0.199     
3147.800106 11.2542    2.823      9.3224     14.1349    15.0347    10.1702    14.7014    20.0877    0.205     
3148.000107 11.6015    3.0351     9.7326     14.685     16.474     10.8443    17.7293    19.09      0.207     
3148.200107 11.787     3.2994     10.3969    15.4436    17.7292    11.7711    17.7293    17.4629    0.207     
3148.400107 11.7667    3.6042     11.5081    16.4908    18.7451    12.7174    20.9247    15.9748    0.203     
3148.600107 11.5543    3.8668     12.6431    17.6486    19.3768    13.6702    18.603     14.6916    0.202     
3148.800107 11.2407    4.0571     13.4117    18.5547    19.7692    14.9017    8.3082     13.8847    0.202     
3149.000108 10.9052    3.7641     12.8361    18.9829    20.365     16.697     8.4268     13.8109    0.203     
3149.200108 10.6118    3.5756     12.7566    19.0037    21.3875    19.0368    8.4268     14.3274    0.203     
3149.400108 10.3859    3.392      12.4194    19.3389    22.8837    22.2128    8.7397     15.3171    0.197     
3149.600108 10.2004    3.3213     12.3772    20.3508    24.9366    26.0628    9.6559     16.44      0.195     
3149.800108 9.9795     3.387      12.6156    22.2897    27.9111    29.5239    10.5904    17.7858    0.2       
3150.000109 9.7182     3.5251     13.1669    24.4402    31.2226    32.0128    10.5517    19.1124    0.206     
3150.200109 9.3928     3.6682     13.6906    25.8787    33.5263    33.3091    10.5517    20.0091    0.205     
3150.400109 9.1129     3.7911     13.783     26.0263    33.6761    32.7193    7.2969     20.277     0.202     
3150.600109 8.892      3.6642     13.3112    24.2895    31.2096    30.2174    6.6086     19.5808    0.203     
3150.800109 8.7841     3.3836     12.2037    22.0491    27.9095    26.5359    7.4582     18.0938    0.204     
3151.00011 8.7588     3.1732     11.3152    19.7061    24.3294    22.8091    6.8181     16.533     0.199     
3151.20011 8.7369     3.1277     10.8736    18.0415    21.7375    19.2637    6.8181     15.4246    0.197     
3151.40011 8.71       3.0604     10.3407    16.5645    19.3763    16.7748    6.5249     14.8552    0.202     
3151.60011 8.688      2.9762     9.825      15.3265    17.1561    14.8433    6.5927     14.6113    0.206     
3151.80011 8.683      2.9172     9.6548     14.4942    15.7739    13.3915    8.1732     14.4317    0.205     
3152.000111 8.683      2.924      9.5802     14.0067    15.0575    12.2378    8.3084     14.1847    0.202     
3152.200111 8.6678     3.0048     9.7099     13.896     14.5089    11.2331    8.3084     13.9007    0.204     
3152.400111 8.5953     3.0923     9.8104     13.9404    13.9651    10.2544    7.8823     13.5879    0.205     
3152.600111 8.4941     3.0907     9.7083     13.9329    13.2862    9.3794     7.6093     13.2671    0.202     
3152.800111 8.42       3.0772     9.6629     13.6971    12.4445    8.6017     6.2344     12.9415    0.198     
3153.000112 8.3756     2.9273     9.2608     13.3924    11.6012    8.0248     6.3689     12.7586    0.195     
3153.200112 8.3727     2.8028     8.964      13.0958    11.0248    7.5646     6.3689     13.0233    0.196     
3153.400112 8.4267     2.7304     8.8651     12.9595    10.7904    7.3248     6.9628     13.5799    0.197     
3153.600112 8.5397     2.7438     8.7889     13.0188    10.9125    7.2146     7.755      14.066     0.202     
3153.800112 8.6745     2.8213     8.8575     13.2417    11.2723    7.2146     8.9053     14.0793    0.206     
3154.000113 8.8195     2.9021     9.0597     13.556     11.8226    7.2859     9.1931     13.8494    0.204     
3154.200113 8.9072     2.9795     9.1894     13.9297    12.565     7.4091     9.1931     13.596     0.201     
3154.400113 8.8904     3.1075     9.6191     14.3659    13.6509    7.597      9.3657     13.4949    0.201     
3154.600113 8.7909     3.227      10.1639    14.9544    15.4369    7.9017     9.3509     13.4773    0.205     
3154.800113 8.6897     3.2978     10.5579    15.3489    16.9559    7.9017     8.9436     13.4757    0.207     
3155.000114 8.6257     3.3247     10.7282    15.5286    17.3645    8.1933     5.45       13.5286    0.205     
3155.200114 8.4132     3.4426     11.2519    16.1043    18.7728    8.4137     5.45       13.7387    0.202     
3155.400114 8.3491     3.419      10.9714    16.0016    19.2433    8.5693     6.5309     14.2167    0.2       
3155.600114 8.3475     2.9863     9.9645     15.2222    18.8835    8.6924     8.8714     14.4461    0.196     
3155.800114 8.3862     2.9189     9.9077     14.9192    18.5449    8.6665     8.8714     14.1109    0.194     
3156.000115 8.4233     3.0469     10.3293    15.3826    18.7419    8.5433     7.8047     13.4404    0.194     
3156.200115 8.3986     3.2809     10.7541    15.7001    18.7109    8.4591     7.8047     12.6897    0.194     
3156.400115 8.3104     3.3196     10.5628    15.4788    17.9441    8.3294     7.8679     11.947     0.195     
3156.600115 8.1316     3.2944     10.3909    15.041     16.7638    8.0443     7.4885     11.0711    0.197     
3156.800115 7.9529     3.3112     10.6001    14.7043    15.7723    7.7202     5.2107     10.2808    0.202     
3157.000116 7.7978     3.2304     10.5152    14.2312    14.8703    7.4998     5.8684     10.0365    0.205     
3157.200116 7.6916     3.0604     10.0245    13.6506    13.9076    7.3702     5.8684     10.1953    0.204     
3157.400116 7.6258     2.9105     9.6272     13.2962    13.1234    7.3054     7.6817     10.322     0.203     
3157.600116 7.6022     2.9476     9.872      13.3748    12.9297    7.3119     8.8617     10.176     0.203     
3157.800116 7.5297     3.1462     10.2353    13.9185    13.0566    7.3248     5.1291     9.8023     0.203     
3158.000117 7.3325     3.3584     10.4347    14.5375    12.8971    7.3443     4.722      9.5184     0.202     
