~Version
 VERS              .         2.0                           : CWLS LOG ASCII STANDARD - VERSION 2.0
 WRAP              .         NO                            : ONE LINE PER DEPTH STEP
 DLM               .         SPACE                         : DELIMITING CHARACTER(SPACE TAB OR COMMA)
~Well Information
#_______________________________________________________________________________
#
#PARAMETER_NAME    .UNIT     VALUE                         : DESCRIPTION
#_______________________________________________________________________________
STRT               .m        3041.4                        : First reference value
STOP               .m        3218.800177                   : Last reference value
STEP               .m        0.2000002                     : Step increment
NULL               .         -9999                         : Missing value
COMP               .                                       : Company
WELL               .         506                           : Well name
FLD                .                                       : Field
LOC                .                                       : Location
CNTY               .                                       : County
STAT               .                                       : State
CTRY               .                                       : Country
SRVC               .                                       : Service Company
DATE               .                                       : Date
API                .                                       : API number
EREF               .m        139.4                         : 
X                  .m        230550                        : 
Y                  .m        242075                        : 
group              .         Pad5                          : 
Интер-р            .         Ярышев                        : 
Куст               .         5                             : 
Статус             .         Не проверено                  : 
Тип                .         Нагнетательные                : 
~Parameter Information Block
#_______________________________________________________________________________
#
#PARAMETER_NAME    .UNIT     VALUE                         : DESCRIPTION
#_______________________________________________________________________________
SET                .         LAS1                          : 
REAL_CREATION_DATE .         Ср апр 11 2012-13_17_20       : 
TLFamily_DEPTH     .         Measured Depth                : 
TLFamily_KS        .         Potential Resistivity         : 
TLFamily_KS1       .         Extra Shallow Resistivity     : 
TLFamily_KS2       .         Shallow Resistivity           : 
TLFamily_KS3       .         Medium Resistivity            : 
TLFamily_KS4       .         Deep Resistivity              : 
TLFamily_KS5       .         Extra Deep Resistivity        : 
TLFamily_LLD       .         Lateral Log Resistivity       : 
TLFamily_OKS3      .         Medium Resistivity Inverted   : 
TLFamily_RM        .         Mud Resistivity               : 
group              .         INI                           : 
~Curve Information
#_______________________________________________________________________________
#
#LOGNAME           .UNIT     LOG_ID                        : DESCRIPTION
#_______________________________________________________________________________
DEPTH              .m                                      : Measured Depth 
KS                 .ohm.m                                  : Potential Resistivity 
KS1                .ohm.m                                  : Extra Shallow Resistivity 
KS2                .ohm.m                                  : Shallow Resistivity 
KS3                .ohm.m                                  : Medium Resistivity 
KS4                .ohm.m                                  : Deep Resistivity 
KS5                .ohm.m                                  : Extra Deep Resistivity 
LLD                .ohm.m                                  : Lateral Log Resistivity 
OKS3               .ohm.m                                  : Medium Resistivity Inverted 
RM                 .ohm.m                                  : Mud Resistivity 
~Ascii
3041.3999023 -9999      -9999      -9999      -9999      -9999      -9999      9.0171     -9999      -9999     
3041.6     -9999      -9999      -9999      -9999      -9999      -9999      7.7522     -9999      -9999     
3041.8     -9999      -9999      -9999      -9999      -9999      -9999      7.5808     -9999      -9999     
3042.000001 -9999      -9999      -9999      -9999      -9999      -9999      7.5808     -9999      -9999     
3042.200001 -9999      -9999      -9999      -9999      -9999      -9999      7.2475     -9999      -9999     
3042.400001 -9999      -9999      -9999      -9999      -9999      -9999      7.0059     -9999      -9999     
3042.600001 -9999      -9999      -9999      -9999      -9999      -9999      9.8934     -9999      -9999     
3042.800001 -9999      -9999      -9999      -9999      -9999      -9999      8.5313     -9999      -9999     
3043.000002 -9999      -9999      -9999      -9999      -9999      -9999      8.5313     -9999      -9999     
3043.200002 -9999      -9999      -9999      -9999      -9999      -9999      9.2219     -9999      -9999     
3043.400002 -9999      -9999      -9999      -9999      -9999      -9999      6.9151     -9999      -9999     
3043.600002 -9999      -9999      -9999      -9999      -9999      -9999      5.349      -9999      -9999     
3043.800002 -9999      -9999      -9999      -9999      -9999      -9999      5.2497     -9999      -9999     
3044.000003 -9999      -9999      -9999      -9999      -9999      -9999      5.2497     -9999      -9999     
3044.200003 -9999      -9999      -9999      -9999      -9999      -9999      5.1087     -9999      -9999     
3044.400003 -9999      -9999      -9999      -9999      -9999      -9999      5.3416     -9999      -9999     
3044.600003 -9999      -9999      -9999      -9999      -9999      -9999      5.0111     -9999      -9999     
3044.800003 -9999      -9999      -9999      -9999      -9999      -9999      4.8222     -9999      -9999     
3045.000004 -9999      -9999      -9999      -9999      -9999      -9999      4.8222     -9999      -9999     
3045.200004 -9999      -9999      -9999      -9999      -9999      -9999      4.8572     -9999      -9999     
3045.400004 -9999      -9999      -9999      -9999      -9999      -9999      4.9755     -9999      -9999     
3045.600004 -9999      -9999      -9999      -9999      -9999      -9999      5.1871     -9999      -9999     
3045.800004 -9999      -9999      -9999      -9999      -9999      -9999      5.3416     -9999      -9999     
3046.000005 -9999      -9999      -9999      -9999      -9999      -9999      5.3416     -9999      -9999     
3046.200005 -9999      -9999      -9999      -9999      -9999      -9999      5.3287     -9999      -9999     
3046.400005 -9999      -9999      -9999      -9999      -9999      -9999      5.4889     -9999      -9999     
3046.600005 -9999      -9999      -9999      -9999      -9999      -9999      5.8133     -9999      -9999     
3046.800005 -9999      -9999      -9999      -9999      -9999      -9999      5.6651     -9999      -9999     
3047.000006 -9999      -9999      -9999      -9999      -9999      -9999      5.6651     -9999      -9999     
3047.200006 -9999      -9999      -9999      -9999      -9999      5.8038     5.888      -9999      -9999     
3047.400006 7.0374     2.9492     8.6527     10.2428    9.8211     6.4131     5.7671     11.5042    0.204     
3047.600006 7.0357     2.9088     8.5943     10.1995    9.54       6.7285     5.4522     11.4705    0.204     
3047.800006 7.0368     2.9004     8.5846     10.2156    9.3392     6.8884     5.4016     11.5459    0.204     
3048.000007 7.0745     2.9038     8.5522     10.2621    9.2063     6.9748     5.4016     11.6951    0.204     
3048.200007 7.147      2.8583     8.4176     10.3315    9.1281     7.0526     5.4984     11.886     0.205     
3048.400007 7.2262     2.8819     8.4695     10.4561    9.1064     7.2514     5.4213     12.0079    0.207     
3048.600007 7.3847     2.8802     8.5078     10.5395    9.0923     7.5063     5.7835     12.1715    0.207     
3048.800007 7.6056     2.7708     8.2571     10.5219    9.126      7.7828     5.6385     12.5742    0.208     
3049.000008 7.7641     2.7489     8.2425     10.7432    9.4407     7.9989     5.6385     12.8228    0.213     
3049.200008 7.7944     3.0839     9.2218     11.5017    9.9943     8.0939     5.0571     12.3271    0.217     
3049.400008 7.754      3.5554     10.3309    12.2875    10.3231    8.0723     5.7459     11.4208    0.217     
3049.600008 7.6123     3.6193     10.2888    12.3982    10.1229    7.9211     14.49      10.8129    0.214     
3049.800008 7.3594     3.3819     9.7845     11.9427    9.5954     7.5798     6.0368     10.5995    0.209     
3050.000009 7.1605     3.19       9.6904     11.3445    9.1086     7.1628     6.0368     10.5594    0.208     
3050.200009 7.0425     3.0536     9.6207     10.9998    8.7721     6.8365     4.909      10.5995    0.21      
3050.400009 6.9632     2.9913     9.3953     10.8105    8.529      6.5514     5.2499     10.715     0.212     
3050.600009 6.9177     2.9273     8.9462     10.6774    8.3282     6.3915     5.0975     10.8546    0.215     
3050.800009 6.9042     2.8819     8.6203     10.578     8.1838     6.3007     5.0588     11.0006    0.216     
3051.00001 6.9126     2.8634     8.4484     10.5331    8.0666     6.2554     5.0588     11.1674    0.215     
3051.20001 6.9278     2.8516     8.3025     10.5844    7.9673     6.2186     5.2242     11.3262    0.214     
3051.40001 6.9464     2.8482     8.2263     10.6758    7.9022     6.21       5.2859     11.4609    0.212     
3051.60001 6.9565     2.8634     8.2392     10.6646    7.9038     6.197      5.4708     11.57      0.209     
3051.80001 6.9598     2.8954     8.3073     10.4866    7.9299     6.197      5.6086     11.716     0.207     
3052.000011 6.9767     2.8836     8.2733     10.2524    7.9461     6.197      5.6086     11.963     0.205     
3052.200011 7.0104     2.8196     8.1322     10.0183    7.9527     6.2316     5.6274     12.3015    0.203     
3052.400011 7.0661     2.7741     8.0155     9.8531     8.0601     6.3202     5.3833     12.7426    0.202     
3052.600011 7.1301     2.7708     8.0544     9.8531     8.3336     6.4563     5.2772     13.2639    0.202     
3052.800011 7.2161     2.8044     8.1711     9.9814     8.7081     6.6983     5.4237     13.7596    0.204     
3053.000012 7.3459     2.7943     8.1565     10.0857    9.0549     7.0267     5.4237     14.1012    0.204     
3053.200012 7.496      2.7893     8.1484     10.222     9.5172     7.4156     5.6338     14.406     0.204     
3053.400012 7.6275     2.8465     8.3365     10.5267    10.1343    7.7656     5.7289     14.7188    0.204     
3053.600012 7.7523     2.9425     8.6414     10.8811    10.652     8.0507     6.2027     14.9274    0.204     
3053.800012 7.9007     2.993      8.8424     11.0719    10.8262    8.3705     6.5532     14.884     0.206     
3054.000013 8.0861     3.0014     8.8862     11.0863    10.8181    8.6211     6.5532     14.8359    0.208     
3054.200013 8.253      2.9745     8.8829     11.0912    10.8457    8.7853     6.8412     14.9787    0.212     
3054.400013 8.4048     2.9913     9.0435     11.2483    10.989     8.9646     6.3872     15.0669    0.214     
3054.600013 8.5751     3.1092     9.4667     11.5193    11.1176    9.1483     6.8923     14.9065    0.214     
3054.800013 8.6745     3.1951     9.7796     11.9636    11.2658    9.2498     7.8814     14.3354    0.216     
3055.000014 8.6509     3.424      10.4266    12.504     11.3863    9.2001     7.8814     13.5371    0.217     
3055.200014 8.5582     3.5251     10.7655    12.9498    11.3146    9.0943     8.8457     12.9623    0.214     
3055.400014 8.398      3.5251     10.8725    13.1166    11.0313    8.8588     9.1114     12.6191    0.212     
3055.600014 8.2092     3.4644     10.9033    13.1759    10.6992    8.5368     6.7112     12.4442    0.211     
3055.800014 8.0507     3.3988     10.8547    13.2257    10.3524    8.2581     6.5659     12.3335    0.212     
