~Version
 VERS              .         2.0                           : CWLS LOG ASCII STANDARD - VERSION 2.0
 WRAP              .         NO                            : ONE LINE PER DEPTH STEP
 DLM               .         SPACE                         : DELIMITING CHARACTER(SPACE TAB OR COMMA)
~Well Information
#_______________________________________________________________________________
#
#PARAMETER_NAME    .UNIT     VALUE                         : DESCRIPTION
#_______________________________________________________________________________
STRT               .m        2703                          : First reference value
STOP               .m        2966                          : Last reference value
STEP               .m        0.2                           : Step increment
NULL               .         -9999                         : Missing value
COMP               .                                       : Company
WELL               .         507                           : Well name
FLD                .                                       : Field
LOC                .                                       : Location
CNTY               .                                       : County
STAT               .                                       : State
CTRY               .                                       : Country
SRVC               .                                       : Service Company
DATE               .                                       : Date
API                .                                       : API number
EREF               .m        139.4                         : 
X                  .m        230550                        : 
Y                  .m        242075                        : 
group              .         Pad5                          : 
Интер-р            .         Пузин                         : 
Куст               .         5                             : 
Статус             .         Не проверено                  : 
Тип                .         Разведка                      : 
~Parameter Information Block
#_______________________________________________________________________________
#
#PARAMETER_NAME    .UNIT     VALUE                         : DESCRIPTION
#_______________________________________________________________________________
SET                .         LAS1                          : 
REAL_CREATION_DATE .         Ср апр 11 2012-13_17_21       : 
TLFamily_DEPTH     .         Measured Depth                : 
TLFamily_KS        .         Potential Resistivity         : 
TLFamily_KS1       .         Extra Shallow Resistivity     : 
TLFamily_KS2       .         Shallow Resistivity           : 
TLFamily_KS3       .         Medium Resistivity            : 
TLFamily_KS4       .         Deep Resistivity              : 
TLFamily_KS5       .         Extra Deep Resistivity        : 
TLFamily_LLD       .         Lateral Log Resistivity       : 
TLFamily_OKS3      .         Medium Resistivity Inverted   : 
TLFamily_RM        .         Mud Resistivity               : 
group              .         INI                           : 
~Curve Information
#_______________________________________________________________________________
#
#LOGNAME           .UNIT     LOG_ID                        : DESCRIPTION
#_______________________________________________________________________________
DEPTH              .m                                      : Measured Depth 
KS                 .ohm.m                                  : Potential Resistivity 
KS1                .ohm.m                                  : Extra Shallow Resistivity 
KS2                .ohm.m                                  : Shallow Resistivity 
KS3                .ohm.m                                  : Medium Resistivity 
KS4                .ohm.m                                  : Deep Resistivity 
KS5                .ohm.m                                  : Extra Deep Resistivity 
LLD                .ohm.m                                  : Lateral Log Resistivity 
OKS3               .ohm.m                                  : Medium Resistivity Inverted 
RM                 .ohm.m                                  : Mud Resistivity 
~Ascii
# ...
2849       12.5888    2.8336     11.4384    23.3091    33.6816    21.0192    16.2845    22.8406    0.158     
2849.2     12.6294    2.7794     11.3336    23.0704    33.452     21.6976    18.9974    22.7049    0.155     
2849.4     12.6565    2.7997     11.3991    23.193     33.7472    22.4673    17.9681    22.2462    0.155     
2849.6     12.6701    2.8877     11.6415    23.722     34.4292    23.4065    17.4713    21.3805    0.155     
2849.8     12.6091    2.996      12.0674    24.5479    35.3801    24.2414    15.0299    20.3726    0.153     
2850       12.5482    3.0569     12.3033    24.9543    35.8523    24.6067    11.5931    19.9204    0.155     
2850.2     12.4531    3.1449     12.6963    25.5866    36.4163    25.1546    11.5352    19.1451    0.155     
2850.4     12.3043    3.172      12.8339    25.7673    36.3667    25.5851    13.2018    18.6606    0.155     
2850.6     12.1282    3.1449     12.6177    25.5802    35.9703    25.8982    16.3818    18.5895    0.158     
2850.8     11.9047    3.0569     12.4932    25.2576    35.4522    26.2504    15.2481    18.6283    0.158     
2851       11.6608    3.0163     12.4736    25.3221    35.426     26.6809    14.1026    18.4409    0.158     
2851.2     11.3763    3.0839     12.6308    25.8576    35.7933    27.0941    9.3094     17.9047    0.162     
2851.4     11.0376    3.2058     12.9977    26.4834    36.3048    27.3984    7.7283     17.4802    0.162     
2851.6     10.6922    3.287      13.1943    26.5092    36.2523    27.581     6.8031     16.7676    0.165     
2851.8     10.4144    3.1584     12.9322    25.7479    35.026     27.4506    6.8628     16.2378    0.162     
2852       10.1706    2.996      12.0805    24.3672    32.8881    26.9548    7.8739     16.5092    0.158     
2852.2     10.008     2.7997     11.1698    23.4262    30.7501    26.0678    8.9094     17.5558    0.158     
2852.4     9.9403     2.5967     10.4491    22.1026    29.1106    25.0763    11.2457    18.9901    0.155     
2852.6     9.9877     2.5088     10.1281    20.9026    28.186     24.5415    12.046     19.8881    0.152     
2852.8     10.0893    2.5088     9.9316     20.2768    27.8843    24.3719    11.9641    20.3532    0.152     
2853       10.1977    2.6441     9.9971     20.1606    27.9695    24.2675    11.2428    20.476     0.152     
2853.2     10.2044    2.7388     10.1871    20.2122    27.9564    24.2023    8.1925     20.4308    0.155     
2853.4     10.1367    2.7794     10.3771    20.2058    27.9433    23.837     7.81       20.4566    0.155     
2853.6     10.069     2.8674     10.6522    19.709     27.281     23.3544    7.7164     20.6375    0.155     
2853.8     10.052     2.6982     10.0757    18.9477    26.153     22.7282    7.3378     21.3869    0.158     
2854       10.0419    2.6611     9.7874     17.7412    24.948     22.1281    8.7832     22.9116    0.162     
2854.2     10.1232    2.5223     9.3485     16.7799    24.2905    21.6063    8.9283     24.3717    0.158     
2854.4     10.3264    2.3802     9.0864     16.167     23.2937    21.4758    12.1542    25.5411    0.158     
2854.6     10.5635    2.3396     8.9321     16.2895    22.9658    21.4758    12.0982    26.1107    0.162     
2854.8     10.848     2.4546     9.165      16.7154    23.1166    21.5802    11.2653    26.3616    0.158     
2855       11.1121    2.4885     9.3092     16.9799    23.0904    21.8541    11.1826    26.4133    0.158     
2855.2     11.356     2.4952     9.3092     17.038     22.9002    22.0498    11.9602    26.6394    0.158     
2855.4     11.6134    2.4885     9.355      17.096     22.8149    22.2455    13.8056    27.0464    0.158     
2855.6     11.8437    2.4817     9.4795     17.1993    22.8149    22.3629    12.3863    27.5181    0.155     
2855.8     11.9656    2.5155     9.6367     17.2412    22.7494    22.5195    12.8136    27.5956    0.155     
2856       12.2772    2.4885     9.5974     17.2251    22.5854    23.0543    15.3212    27.3759    0.152     
2856.2     12.5414    2.502      9.8071     17.3605    22.7559    23.7196    21.2443    27.6667    0.152     
2856.4     12.7446    2.59       10.2002    17.9025    23.5626    24.4371    20.417     27.5052    0.152     
2856.6     12.9614    2.6982     10.6785    19.0638    24.7955    25.1285    14.4629    26.3293    0.152     
2856.8     13.1849    2.8674     11.2943    20.2703    25.7792    25.7155    14.3274    25.5282    0.155     
2857       13.3407    2.8945     11.4253    21.0832    26.3038    26.0678    15.199     25.4248    0.155     
2857.2     13.4017    2.9012     11.4909    21.4833    26.6579    26.3156    16.3493    25.4054    0.158     
2857.4     13.4287    2.9284     11.7333    22.0704    27.176     26.4983    15.8132    25.399     0.158     
2857.6     13.4423    2.9689     12.1919    22.7736    27.8515    26.9157    16.5907    25.0114    0.158     
2857.8     13.4626    3.0366     12.4343    23.4575    28.4695    27.5419    24.4677    23.4866    0.162     
2858       13.4491    3.0433     12.7303    24.4253    28.9926    28.1941    24.8328    21.3999    0.158     
2858.2     13.3339    3.1042     13.1812    25.7544    30.2583    28.6507    21.353     18.4981    0.155     
2858.4     13.0833    3.2802     13.8036    27.1673    32.0224    28.7356    12.5428    15.5013    0.158     
2858.6     12.6091    3.4629     14.1836    28.1222    33.2291    28.742     12.2893    14.6033    0.155     
2858.8     12.013     3.4223     14.5701    28.5609    33.5898    28.3898    9.6282     14.0348    0.148     
2859       11.5185    3.402      14.0591    28.206     33.4783    27.3201    8.1239     13.505     0.152     
2859.2     11.2679    3.1381     14.2098    27.4387    32.8159    25.6503    8.5715     13.3887    0.152     
2859.4     11.1934    2.9621     12.8994    26.5479    31.4322    24.1371    10.1681    13.3758    0.152     
2859.6     11.1866    2.9486     12.1984    25.5931    30.6977    22.8325    11.8682    13.2595    0.152     
2859.8     11.1866    2.9418     12.0805    25.1672    30.842     21.8933    11.445     12.8589    0.152     
2860       11.1731    2.9418     12.1002    25.1092    31.3404    21.3976    10.5258    12.2839    0.152     
2860.2     10.9089    2.9418     12.0936    25.2963    31.8388    21.0192    10.8708    11.7348    0.158     
2860.4     10.2925    2.908      12.087     25.4769    32.2585    20.6409    9.0115     11.457     0.153     
2860.6     9.4578     3.0636     12.087     25.4898    32.711     20.1061    9.0222     11.1275    0.155     
2860.8     8.6804     3.0606     12.0739    24.7221    32.7372    19.4799    7.9802     10.7915    0.158     
2861       7.4475     2.9824     12.0477    23.5414    32.029     18.932     7.9314     10.2747    0.158     
2861.2     6.9056     2.8133     11.8971    22.9349    31.431     18.2928    7.9915     9.6674     0.155     
2861.4     6.6618     2.5967     11.4826    22.7736    31.078     17.6797    6.9658     9.0988     0.155     
2861.6     6.5805     2.4479     11.0978    22.7736    30.7108    17.1709    6.7785     8.6724     0.155     
2861.8     6.567      2.3667     9.2043     22.7543    30.1665    16.5839    5.2223     8.2008     0.155     
2862       6.567      2.3531     7.6516     22.722     29.1959    15.8011    4.9398     7.7615     0.158     
2862.2     6.4789     2.3531     7.5861     21.9478    27.8187    15.3576    4.2112     7.5095     0.155     
2862.4     6.3773     2.2787     7.514      19.18      25.3726    14.3401    3.7842     7.3122     0.155     
2862.6     6.235      2.2043     7.4944     15.2785    22.0411    13.166     3.8398     7.264      0.152     
2862.8     6.1741     2.1028     7.4944     13.6249    19.6933    12.2659    4.6436     7.4514     0.152     
2863       6.1402     2.1163     7.4878     10.9152    18.5326    11.7571    5.3839     8.1814     0.152     
2863.2     6.1131     2.1298     7.5337     9.7345     18.1325    11.4701    4.6003     8.9438     0.152     
2863.4     6.0657     2.1907     7.1471     9.4055     18.0276    11.2353    3.8714     9.1247     0.152     
