~Version
 VERS              .         2.0                           : CWLS LOG ASCII STANDARD - VERSION 2.0
 WRAP              .         NO                            : ONE LINE PER DEPTH STEP
 DLM               .         SPACE                         : DELIMITING CHARACTER(SPACE TAB OR COMMA)
~Well Information
#_______________________________________________________________________________
#
#PARAMETER_NAME    .UNIT     VALUE                         : DESCRIPTION
#_______________________________________________________________________________
STRT               .m        2703                          : First reference value
STOP               .m        2966                          : Last reference value
STEP               .m        0.2                           : Step increment
NULL               .         -9999                         : Missing value
COMP               .                                       : Company
WELL               .         507                           : Well name
FLD                .                                       : Field
LOC                .                                       : Location
CNTY               .                                       : County
STAT               .                                       : State
CTRY               .                                       : Country
SRVC               .                                       : Service Company
DATE               .                                       : Date
API                .                                       : API number
EREF               .m        139.4                         : 
X                  .m        230550                        : 
Y                  .m        242075                        : 
group              .         Pad5                          : 
Интер-р            .         Пузин                         : 
Куст               .         5                             : 
Статус             .         Не проверено                  : 
Тип                .         Разведка                      : 
~Parameter Information Block
#_______________________________________________________________________________
#
#PARAMETER_NAME    .UNIT     VALUE                         : DESCRIPTION
#_______________________________________________________________________________
SET                .         LAS1                          : 
REAL_CREATION_DATE .         Ср апр 11 2012-13_17_21       : 
TLFamily_DEPTH     .         Measured Depth                : 
TLFamily_KS        .         Potential Resistivity         : 
TLFamily_KS1       .         Extra Shallow Resistivity     : 
TLFamily_KS2       .         Shallow Resistivity           : 
TLFamily_KS3       .         Medium Resistivity            : 
TLFamily_KS4       .         Deep Resistivity              : 
TLFamily_KS5       .         Extra Deep Resistivity        : 
TLFamily_LLD       .         Lateral Log Resistivity       : 
TLFamily_OKS3      .         Medium Resistivity Inverted   : 
TLFamily_RM        .         Mud Resistivity               : 
group              .         INI                           : 
~Curve Information
#_______________________________________________________________________________
#
#LOGNAME           .UNIT     LOG_ID                        : DESCRIPTION
#_______________________________________________________________________________
DEPTH              .m                                      : Measured Depth 
KS                 .ohm.m                                  : Potential Resistivity 
KS1                .ohm.m                                  : Extra Shallow Resistivity 
KS2                .ohm.m                                  : Shallow Resistivity 
KS3                .ohm.m                                  : Medium Resistivity 
KS4                .ohm.m                                  : Deep Resistivity 
KS5                .ohm.m                                  : Extra Deep Resistivity 
LLD                .ohm.m                                  : Lateral Log Resistivity 
OKS3               .ohm.m                                  : Medium Resistivity Inverted 
RM                 .ohm.m                                  : Mud Resistivity 
~Ascii
# ...
2892.8     4.3755     1.717      4.7427     7.1409     13.1353    10.6091    2.9117     5.875      0.148     
2893       4.3045     1.7613     4.8213     8.1086     16.7226    14.9402    3.0568     7.2576     0.148     
2893.2     4.2097     1.8998     5.5747     10.3023    23.0445    18.8016    3.7838     9.6609     0.148     
2893.4     4.2029     2.0013     6.8523     12.612     28.3821    22.0107    7.4109     12.0513    0.148     
2893.6     4.2503     2.0757     6.8041     13.5991    30.4419    23.9414    6.0145     12.6134    0.138     
2893.8     4.1826     2.1975     7.573      13.4895    30.6846    23.6674    3.0761     11.6896    0.131     
2894       3.9659     2.6576     6.6492     12.5088    27.3728    21.0062    2.5418     10.1713    0.142     
2894.2     3.6881     2.3193     6.1906     10.5216    22.31      19.3755    2.6339     8.6078     0.145     
2894.4     3.5391     2.0013     5.8434     7.657      16.1586    15.9055    2.4745     7.0554     0.148     
2894.6     3.4307     1.805      5.542      5.515      11.6663    11.6528    2.3683     6.3725     0.152     
2894.8     3.3765     1.7035     4.9916     4.2808     8.466      8.548      2.3965     5.5584     0.152     
2895       3.3427     1.5073     4.0679     3.7537     6.1707     6.4346     2.435      5.1708     0.145     
2895.2     3.3427     1.4802     3.7534     3.4375     4.5181     5.0388     2.4321     5.0933     0.148     
2895.4     3.3291     1.4058     3.4062     3.3149     3.5606     4.1517     2.5967     5.2806     0.152     
2895.6     3.3494     1.4058     3.3341     3.3343     2.9048     3.6038     2.6024     5.5713     0.155     
2895.8     3.4036     1.3652     3.1637     3.3924     2.4392     3.2125     2.4142     5.9784     0.152     
2896       3.5052     1.3313     3.0655     3.373      2.131      2.9646     2.2521     6.6115     0.155     
2896.2     3.6475     1.2907     2.9737     3.373      1.9539     2.8602     2.3282     7.7873     0.152     
2896.4     3.8439     1.2772     3.0524     3.6762     2.072      2.8472     2.9046     9.816      0.152     
2896.6     4.142      1.2975     3.2948     4.0698     2.3867     2.8863     3.8622     11.6056    0.142     
2896.8     4.6297     1.4058     3.5306     4.373      2.564      2.9124     4.5195     13.169     0.138     
2897       4.9521     1.5343     3.6682     4.4182     2.6622     2.9124     6.663      13.5567    0.152     
2897.2     5.4087     1.4868     3.583      4.3085     3.0491     2.9124     10.1149    12.8654    0.142     
2897.4     5.8354     1.6629     4.5396     4.4956     3.5147     2.8342     6.9989     12.1806    0.138     
2897.6     5.9235     2.3261     5.6272     4.9214     4.1115     2.7689     6.3177     12.0384    0.155     
2897.8     5.8422     2.3058     5.8537     5.1666     4.7345     2.7559     6.9002     11.2308    0.152     
2898       5.8354     2.3937     6.492      5.2053     5.187      2.7167     4.5396     9.7901     0.155     
2898.2     5.8693     2.299      6.6689     5.2311     5.5608     2.6646     3.9023     8.9761     0.148     
2898.4     5.8896     2.1231     6.2299     5.3924     6.1445     2.7037     4.0999     8.905      0.145     
2898.6     5.9573     1.9877     5.9744     5.8699     7.1347     2.8863     4.1075     9.2733     0.148     
2898.8     6.2621     1.8118     5.7254     6.7409     8.5119     3.1864     4.984      10.0938    0.145     
2899       6.8379     1.602      5.5027     7.2679     9.8301     3.5125     14.2001    10.6688    0.142     
2899.2     7.5221     1.6764     5.6206     8.2506     10.7876    3.7995     54.0532    10.4556    0.148     
2899.4     8.0301     2.0892     6.4723     9.87       11.4958    4.0995     105.4559   9.3314     0.145     
2899.6     8.1181     2.6035     7.7433     11.5023    12.2762    4.3735     73.7284    8.1298     0.145     
2899.8     7.5627     3.1922     9.6826     13.5927    13.5157    4.5039     16.0577    7.0637     0.152     
2900       6.5805     4.0922     13.1812    15.9863    14.1977    4.4518     6.0108     6.2562     0.158     
2900.2     5.6186     4.0584     14.0722    17.0767    13.1747    4.3474     3.2797     5.4744     0.155     
2900.4     4.8668     3.3817     12.6308    15.7863    11.1548    3.9821     3.2044     4.5699     0.152     
2900.6     4.2774     2.8539     11.0847    13.5024    9.1677     3.2777     2.2422     3.8464     0.152     
2900.8     3.9621     2.2922     8.8899     11.4571    7.725      2.6124     1.9666     3.4975     0.148     
2901       3.8168     1.9333     6.9637     9.6635     6.8309     2.2993     2.099      3.5039     0.148     
2901.2     3.6339     1.7509     5.6075     8.7538     6.1379     2.2863     2.4012     3.8787     0.145     
2901.4     3.5256     1.602      5.4765     8.6054     5.8625     2.3906     2.8153     4.402      0.155     
2901.6     3.4646     1.6967     5.1718     8.8441     5.9018     2.5341     3.1711     4.977      0.155     
2901.8     3.3562     1.8185     5.1882     8.9087     5.9543     2.6646     2.6915     5.4228     0.152     
2902       3.2478     2.0757     5.3847     8.2957     5.7313     2.8472     2.2192     5.5649     0.152     
2902.2     3.214      1.8592     4.5854     6.7473     4.9313     2.9646     2.0909     5.5132     0.152     
2902.4     3.2072     1.6426     3.8648     5.2247     3.9344     2.8602     2.1151     5.5685     0.152     
2902.6     3.2072     1.4937     3.5437     4.1795     3.2393     2.7167     2.1652     6.0042     0.152     
2902.8     3.2275     1.4058     3.3275     3.553      2.8655     2.6385     2.2051     6.9927     0.152     
2903       3.3156     1.311      3.1179     3.2633     2.7212     2.7167     2.29       8.3171     0.148     
2903.2     3.4375     1.2907     2.9606     2.8569     2.7802     3.0168     2.1922     10.0938    0.152     
2903.4     3.5865     1.2501     2.8034     2.7214     3.0819     3.5256     2.3086     12.594     0.152     
2903.6     3.8439     1.1892     2.7706     2.8117     3.659      4.2952     2.6595     16.2831    0.152     
2903.8     4.2503     1.1148     2.7903     3.2246     4.6755     4.8562     3.8331     21.5808    0.152     
2904       4.9887     1.1757     3.1375     3.6827     5.528      5.2867     9.6016     25.7866    0.148     
2904.2     6.0589     1.108      2.8951     3.9988     5.9084     5.5084     19.3079    25.4765    0.152     
2904.4     7.2037     1.4396     3.3275     4.0827     6.0068     5.4302     13.0923    22.0265    0.152     
2904.6     7.8811     1.7712     3.8779     4.315      6.1314     5.1953     10.3052    19.8687    0.148     
2904.8     8.3177     1.9607     4.6772     4.4763     6.0361     5.1301     8.5528     18.6089    0.145     
2905       8.6465     1.9275     5.3454     4.573      5.9412     5.1953     12.3334    17.7948    0.148     
2905.2     9.1003     1.8524     6.2561     4.8763     5.8166     5.2673     23.2869    17.1036    0.152     
2905.4     9.3916     2.0892     7.6844     5.6053     6.0527     5.3649     29.314     16.4187    0.152     
2905.6     9.5271     2.4682     8.7263     6.7086     6.4199     5.5998     26.727     15.1072    0.152     
2905.8     9.4729     2.7794     9.3616     8.1667     6.7413     5.8346     15.271     13.5954    0.145     
2906       9.2426     3.0704     10.5278    9.999      6.997      5.9911     9.2884     12.6025    0.148     
2906.2     8.9039     3.0569     10.7374    12.0378    7.1347     6.252      7.5376     12.1676    0.155     
2906.4     8.5652     2.8742     10.5278    13.7991    7.2069     6.6042     6.8621     11.8446    0.155     
2906.6     8.301      2.6576     10.1478    14.3863    7.2593     7.0478     6.475      11.8834    0.152     
2906.8     8.1249     2.4682     9.6236     14.5268    7.4167     7.7522     6.604      12.0643    0.148     
2907       8.003      2.3328     9.0602     14.625     7.8627     8.7828     6.445      12.439     0.145     
2907.2     7.9149     2.3328     8.8047     14.896     8.5972     10.3221    6.6243     13.0334    0.152     
