~Version
 VERS              .         2.0                           : CWLS LOG ASCII STANDARD - VERSION 2.0
 WRAP              .         NO                            : ONE LINE PER DEPTH STEP
 DLM               .         SPACE                         : DELIMITING CHARACTER(SPACE TAB OR COMMA)
~Well Information
#_______________________________________________________________________________
#
#PARAMETER_NAME    .UNIT     VALUE                         : DESCRIPTION
#_______________________________________________________________________________
STRT               .m        2703                          : First reference value
STOP               .m        2966                          : Last reference value
STEP               .m        0.2                           : Step increment
NULL               .         -9999                         : Missing value
COMP               .                                       : Company
WELL               .         507                           : Well name
FLD                .                                       : Field
LOC                .                                       : Location
CNTY               .                                       : County
STAT               .                                       : State
CTRY               .                                       : Country
SRVC               .                                       : Service Company
DATE               .                                       : Date
API                .                                       : API number
EREF               .m        139.4                         : 
X                  .m        230550                        : 
Y                  .m        242075                        : 
group              .         Pad5                          : 
Интер-р            .         Пузин                         : 
Куст               .         5                             : 
Статус             .         Не проверено                  : 
Тип                .         Разведка                      : 
~Parameter Information Block
#_______________________________________________________________________________
#
#PARAMETER_NAME    .UNIT     VALUE                         : DESCRIPTION
#_______________________________________________________________________________
SET                .         LAS1                          : 
REAL_CREATION_DATE .         Ср апр 11 2012-13_17_21       : 
TLFamily_DEPTH     .         Measured Depth                : 
TLFamily_KS        .         Potential Resistivity         : 
TLFamily_KS1       .         Extra Shallow Resistivity     : 
TLFamily_KS2       .         Shallow Resistivity           : 
TLFamily_KS3       .         Medium Resistivity            : 
TLFamily_KS4       .         Deep Resistivity              : 
TLFamily_KS5       .         Extra Deep Resistivity        : 
TLFamily_LLD       .         Lateral Log Resistivity       : 
TLFamily_OKS3      .         Medium Resistivity Inverted   : 
TLFamily_RM        .         Mud Resistivity               : 
group              .         INI                           : 
~Curve Information
#_______________________________________________________________________________
#
#LOGNAME           .UNIT     LOG_ID                        : DESCRIPTION
#_______________________________________________________________________________
DEPTH              .m                                      : Measured Depth 
KS                 .ohm.m                                  : Potential Resistivity 
KS1                .ohm.m                                  : Extra Shallow Resistivity 
KS2                .ohm.m                                  : Shallow Resistivity 
KS3                .ohm.m                                  : Medium Resistivity 
KS4                .ohm.m                                  : Deep Resistivity 
KS5                .ohm.m                                  : Extra Deep Resistivity 
LLD                .ohm.m                                  : Lateral Log Resistivity 
OKS3               .ohm.m                                  : Medium Resistivity Inverted 
RM                 .ohm.m                                  : Mud Resistivity 
~Ascii
# ...
2936.6     6.1741     1.8795     5.4925     8.4248     10.9646    8.9132     6.1223     11.0435    0.152     
2936.8     6.2825     1.8659     5.4044     8.2635     10.8794    8.7567     6.1634     11.3601    0.148     
2937       6.4315     1.9133     5.6075     8.1215     10.7744    8.6263     6.3091     11.6572    0.155     
2937.2     6.6144     1.9268     5.7123     8.0377     10.7679    8.6132     6.776      11.9351    0.155     
2937.4     6.7499     1.9336     5.804      7.9667     10.7941    8.7437     7.1115     12.271     0.155     
2937.6     6.8989     1.9742     6.0006     7.9925     10.9384    8.7567     8.0048     12.3581    0.152     
2937.8     7.0411     2.0148     6.184      8.0604     11.122     8.7306     7.2349     12.2581    0.155     
2938       7.1901     2.0757     6.4592     8.1409     11.3319    8.9915     8.1911     12.1418    0.155     
2938.2     7.2917     2.0825     6.492      8.4183     11.7057    9.5394     8.5075     12.1999    0.148     
2938.4     7.3392     2.1434     6.7737     8.8506     12.3352    10.4004    7.3557     12.3744    0.152     
2938.6     7.3663     2.2313     7.1799     9.4119     13.1812    11.4179    7.2373     12.7426    0.158     
2938.8     7.4001     2.2855     7.5599     9.9926     13.9879    12.6833    7.9647     13.3499    0.155     
2939       7.4679     2.2178     7.4944     10.5474    14.7814    14.5097    7.4271     13.8022    0.148     
2939.2     7.5898     2.2178     7.6057     11.0507    16.0143    16.923     7.385      14.2092    0.155     
2939.4     7.6575     2.1637     7.5009     11.7733    18.1588    19.9756    9.602      14.8359    0.155     
2939.6     7.6508     2.2652     7.9333     12.8894    20.9525    23.3544    10.2621    15.4238    0.148     
2939.8     7.644      2.4343     8.713      14.4508    22.59      26.0156    6.5741     15.3656    0.152     
2940       7.7253     2.4682     8.9816     15.1089    22.6248    27.5452    6.5561     14.7131    0.155     
2940.2     7.8102     2.2787     8.2806     14.3992    21.0836    28.8594    7.9066     13.9314    0.155     
2940.4     7.9014     2.2076     8.084      13.7733    19.6015    29.4595    13.1301    13.5631    0.148     
2940.6     7.9217     2.2719     8.6212     14.0959    19.3589    29.1204    8.8694     13.2466    0.152     
2940.8     7.8743     2.5088     9.1978     14.3024    18.9654    28.9769    8.1236     12.7103    0.155     
2941       7.8675     2.5155     9.0136     13.9475    17.7063    28.3637    8.0378     11.7477    0.155     
2941.2     7.7388     2.4479     8.7457     13.554     16.2373    26.4983    7.5168     10.8238    0.148     
2941.4     7.495      2.4885     8.8702     13.4249    15.2798    24.5284    6.2023     10.4103    0.152     
2941.6     7.163      2.4614     8.9554     13.554     14.742     23.3544    6.8611     10.6106    0.152     
2941.8     6.7295     2.5155     9.1978     14.4572    14.8929    21.8541    7.827      11.1727    0.155     
2942       6.357      2.8268     10.495     15.3024    15.1224    19.8843    4.3499     11.2502    0.155     
2942.2     6.1809     2.5494     9.4467     15.1659    13.7518    17.7058    3.6306     10.6494    0.148     
2942.4     6.1131     2.0351     7.2388     13.5927    11.2269    15.0576    3.8574     9.732      0.148     
2942.6     6.0589     1.8795     6.754      11.5862    9.6924     12.2789    4.1859     9.2733     0.152     
2942.8     6.0589     1.8118     6.2233     10.5603    8.9054     10.9483    4.5842     9.0988     0.152     
2943       6.1538     1.7306     5.7778     9.8055     8.3283     10.3874    5.121      8.9761     0.145     
2943.2     6.2757     1.7509     5.5616     9.2313     8.1971     10.1656    6.2122     8.7306     0.148     
2943.4     6.3908     1.805      5.5682     8.999      8.3808     10.296     6.4831     8.5691     0.158     
2943.6     6.506      1.9201     5.7582     9.0506     8.8595     10.857     6.656      8.5271     0.155     
2943.8     6.5873     1.9607     5.9023     9.27       9.7383     11.6528    7.6449     8.6208     0.148     
2944       6.5873     2.0216     6.2758     9.7861     10.9777    13.0486    8.1614     8.9373     0.155     
2944.2     6.5331     2.1704     6.8392     10.4765    11.8758    13.9357    7.8764     9.2216     0.152     
2944.4     6.3841     2.2855     7.0489     11.3604    13.6075    16.2838    6.3407     9.438      0.138     
2944.6     6.1673     2.299      7.7761     12.7475    16.3356    19.9104    5.9419     10.181     0.145     
2944.8     5.8964     2.3667     8.3133     14.7734    20.7885    22.5455    8.2323     12.2969    0.158     
2945       5.5577     2.5561     9.8005     17.1347    26.6579    23.7588    5.1315     14.9715    0.145     
2945.2     5.3477     2.6779     9.5516     17.6057    27.8449    23.7066    4.0457     15.6079    0.158     
2945.4     5.2258     2.4208     8.4837     15.9476    23.4576    22.0237    3.8632     15.1137    0.148     
2945.6     5.158      2.2516     7.4878     13.6572    18.8605    18.1884    3.8426     13.4856    0.152     
2945.8     5.07       2.0283     6.8523     11.67      15.6077    14.6401    3.5308     11.5087    0.148     
2946       5.0632     1.8862     6.4199     9.9345     13.214     11.5875    3.6433     10.4846    0.148     
2946.2     5.0869     1.7779     5.9023     8.4699     11.1286    9.3046     4.2901     10.3134    0.153     
2946.4     5.1309     1.7001     5.4208     7.5602     9.6465     7.6609     4.4233     10.3005    0.148     
2946.6     5.219      1.7103     5.1292     6.9925     8.3873     6.4346     4.3104     10.3005    0.145     
2946.8     5.3003     1.7407     5.0244     6.5925     7.3118     5.6128     4.4999     10.3005    0.153     
2947       5.412      1.7272     4.8377     6.3021     6.5249     5.0649     4.8794     10.3005    0.15      
2947.2     5.5882     1.6934     4.8344     6.2183     6.0527     4.6735     5.2402     10.3005    0.152     
2947.4     5.8456     1.6934     4.9327     6.3667     5.8363     4.5039     5.7374     10.3005    0.148     
2947.6     6.0793     1.7204     5.0015     6.6634     5.7904     4.4648     6.3756     10.3005    0.147     
2947.8     6.2723     1.7137     5.0997     7.1602     6.0068     4.53       8.5494     10.3005    0.148     
2948       6.445      1.7982     5.4601     7.6506     6.433      4.6735     9.6824     10.3005    0.155     
2948.2     6.7092     1.9268     6.1611     8.1441     6.8134     4.8823     10.3706    10.2992    0.152     
2948.4     6.9429     2.0622     6.5182     8.4183     7.0888     5.0462     8.3452     10.3005    0.148     
2948.6     7.0445     2.2381     6.8392     8.6764     7.2659     5.1953     6.7902     10.3005    0.15      
2948.8     7.0479     2.2652     7.0849     8.828      7.4692     5.4563     6.3375     -9999      0.152     
2949       7.0411     2.2076     7.2126     8.928      7.7643     5.8215     6.4768     -9999      0.152     
2949.2     7.0411     2.184      7.2388     9.1054     8.4267     6.4607     6.8778     -9999      0.152     
2949.4     7.0377     2.1772     7.2421     9.57       9.5678     7.4913     7.213      -9999      0.152     
2949.6     7.0377     2.1772     7.3666     10.2442    11.5122    8.6393     8.1127     -9999      0.152     
2949.8     7.0276     2.1704     7.4682     11.07      14.4994    9.709      10.1691    -9999      0.152     
2950       7.0276     2.1637     7.4976     12.0539    16.7029    10.3352    11.3002    -9999      0.152     
2950.2     7.0276     2.1603     7.5042     13.8895    18.1358    10.6222    9.729      -9999      0.152     
2950.4     7.0276     2.1637     7.5402     15.2637    18.2539    10.5309    8.4534     -9999      0.152     
2950.6     7.0276     2.1637     7.5861     15.5573    17.644     9.9569     4.4474     -9999      0.152     
2950.8     7.0276     2.1637     7.5861     15.196     17.0472    9.135      4.0633     -9999      0.152     
2951       7.0276     2.1623     7.5894     14.9637    15.7913    8.2479     4.5876     -9999      0.152     
