~Version
 VERS              .         2.0                           : CWLS LOG ASCII STANDARD - VERSION 2.0
 WRAP              .         NO                            : ONE LINE PER DEPTH STEP
 DLM               .         SPACE                         : DELIMITING CHARACTER(SPACE TAB OR COMMA)
~Well Information
#_______________________________________________________________________________
#
#PARAMETER_NAME    .UNIT     VALUE                         : DESCRIPTION
#_______________________________________________________________________________
STRT               .m        2701                          : First reference value
STOP               .m        2966                          : Last reference value
STEP               .m        0.2                           : Step increment
NULL               .         -9999                         : Missing value
COMP               .                                       : Company
WELL               .         507                           : Well name
FLD                .                                       : Field
LOC                .                                       : Location
CNTY               .                                       : County
STAT               .                                       : State
CTRY               .                                       : Country
SRVC               .                                       : Service Company
DATE               .                                       : Date
API                .                                       : API number
EREF               .m        139.4                         : 
X                  .m        230550                        : 
Y                  .m        242075                        : 
group              .         Pad5                          : 
Интер-р            .         Пузин                         : 
Куст               .         5                             : 
Статус             .         Не проверено                  : 
Тип                .         Разведка                      : 
~Parameter Information Block
#_______________________________________________________________________________
#
#PARAMETER_NAME    .UNIT     VALUE                         : DESCRIPTION
#_______________________________________________________________________________
SET                .         LAS3                          : 
REAL_CREATION_DATE .         Ср апр 11 2012-13_17_21       : 
TLFamily_DEPTH     .         Measured Depth                : 
TLFamily_GR        .         Gamma Ray                     : 
TLFamily_TNPH      .         Neutron Porosity              : 
group              .         INI                           : 
~Curve Information
#_______________________________________________________________________________
#
#LOGNAME           .UNIT     LOG_ID                        : DESCRIPTION
#_______________________________________________________________________________
DEPTH              .m                                      : Measured Depth 
GR                 .gAPI                                   :  
TNPH               .v/v                                    : Neutron Porosity 
~Ascii
# ...
2798.2     96.22      0.255     
2798.4     97.12      0.261     
2798.6     98.31001   0.288     
2798.8     95.54      0.292     
2799       87.15      0.28      
2799.2     85.69      0.266     
2799.4     91.98      0.248     
2799.6     98.33      0.245     
2799.8     102.16     0.273     
2800       105.88     0.3       
2800.2     112.12     0.302     
2800.4     113.96     0.293     
2800.6     113.53     0.276     
2800.8     115.08     0.261     
2801       108.63     0.263     
2801.2     96.63      0.26      
2801.4     94.54001   0.252     
2801.6     99.13      0.254     
2801.8     101.52     0.26      
2802       102.53     0.26      
2802.2     101        0.255     
2802.4     93.49      0.25      
2802.6     83.76      0.241     
2802.8     79.58      0.24      
2803       85.50999   0.247     
2803.2     94.49001   0.261     
2803.4     102.99     0.27      
2803.6     109.76     0.278     
2803.8     112.16     0.286     
2804       108.76     0.287     
2804.2     102.8      0.267     
2804.4     96.96      0.261     
2804.6     87.91      0.246     
2804.8     77.1       0.198     
2805       69.87      0.18      
2805.2     64.93      0.179     
2805.4     61.79      0.171     
2805.6     67.22      0.182     
2805.8     78.52      0.201     
2806       85.88      0.219     
2806.2     88         0.244     
2806.4     86.14      0.263     
2806.6     82.38      0.246     
2806.8     85.17      0.227     
2807       86.82      0.216     
2807.2     81.1       0.208     
2807.4     70.69      0.206     
2807.6     65.24001   0.207     
2807.8     68.52      0.202     
2808       75.79001   0.198     
2808.2     80.78      0.204     
2808.4     79.95      0.211     
2808.6     76.21001   0.199     
2808.8     72.09      0.19      
2809       74.61      0.193     
2809.2     87.53      0.22      
2809.4     100.56     0.244     
2809.6     103.91     0.235     
2809.8     102.49     0.228     
2810       105.25     0.231     
2810.2     112.78     0.23      
2810.4     119.71     0.236     
2810.6     127.86     0.274     
2810.8     134.49     0.318     
2811       136.53     0.31      
2811.2     139.85     0.289     
2811.4     145.36     0.285     
2811.6     147.5      0.303     
2811.8     147.26     0.324     
2812       141.6      0.314     
2812.2     135.17     0.301     
2812.4     131.99     0.293     
2812.6     129.88     0.287     
2812.8     129.36     0.286     
2813       128.02     0.299     
2813.2     128.53     0.299     
2813.4     135.21     0.296     
2813.6     138.13     0.294     
2813.8     134.48     0.303     
2814       132.14     0.324     
2814.2     129.33     0.319     
2814.4     123.91     0.282     
2814.6     120.56     0.262     
2814.8     110.96     0.258     
2815       100.07     0.272     
2815.2     99.89      0.299     
2815.4     103.1      0.299     
2815.6     107.5      0.261     
2815.8     115.16     0.242     
2816       118.87     0.26      
2816.2     116.92     0.283     
2816.4     112.31     0.281     
2816.6     109.97     0.272     
2816.8     110.45     0.282     
2817       108.05     0.299     
2817.2     111.13     0.295     
2817.4     119.94     0.268     
2817.6     125.87     0.251     
2817.8     125.37     0.251     
2818       128.51     0.26      
2818.2     142.76     0.274     
2818.4     155.75     0.283     
2818.6     169.13     0.287     
2818.8     181.55     0.283     
2819       181.79     0.289     
2819.2     173.03     0.287     
2819.4     172.15     0.289     
2819.6     179.83     0.297     
2819.8     177.32     0.299     
2820       167.61     0.276     
2820.2     176.42     0.275     
2820.4     208.58     0.305     
2820.6     228.88     0.337     
2820.8     219.34     0.34      
2821       198.84     0.313     
2821.2     185.85     0.304     
2821.4     183.02     0.323     
2821.6     187.34     0.351     
2821.8     194.72     0.359     
2822       197.95     0.357     
2822.2     204.94     0.351     
2822.4     222.99     0.328     
2822.6     237.17     0.315     
2822.8     245.83     0.314     
2823       259.3      0.305     
2823.2     267.08     0.307     
2823.4     255.66     0.322     
2823.6     241.06     0.339     
2823.8     233.75     0.352     
2824       226.26     0.325     
2824.2     217.54     0.282     
2824.4     204.53     0.265     
2824.6     187.24     0.258     
2824.8     174.14     0.256     
2825       164.12     0.259     
2825.2     155.37     0.262     
2825.4     158.33     0.265     
2825.6     173.44     0.284     
2825.8     193.12     0.332     
2826       212.04     0.368     
2826.2     235.6      0.364     
2826.4     254.52     0.36      
2826.6     259.88     0.366     
2826.8     268.95     0.358     
2827       298.5      0.346     
2827.2     362.15     0.354     
2827.4     427.98     0.371     
2827.6     434.79     0.355     
2827.8     390.97     0.315     
2828       350.67     0.3       
2828.2     316.38     0.322     
2828.4     278.95     0.344     
2828.6     248.54     0.292     
2828.8     252.91     0.291     
2829       292.12     0.298     
2829.2     329.19     0.34      
2829.4     337.27     0.381     
2829.6     323.55     0.379     
2829.8     303.34     0.354     
2830       289.08     0.328     
2830.2     285.48     0.325     
2830.4     290.16     0.333     
2830.6     295.01     0.346     
2830.8     302.67     0.391     
2831       310.57     0.447     
2831.2     314.88     0.42      
2831.4     315.64     0.381     
2831.6     312.22     0.371     
2831.8     314.77     0.369     
2832       323.25     0.35      
2832.2     316.19     0.31      
2832.4     297.65     0.285     
2832.6     279.38     0.283     
2832.8     264.96     0.303     
2833       264.85     0.34      
2833.2     276.13     0.355     
2833.4     273.42     0.345     
2833.6     261.52     0.352     
2833.8     261.63     0.369     
2834       279.94     0.358     
2834.2     317.06     0.336     
2834.4     333.74     0.366     
2834.6     320.42     0.41      
2834.8     318.33     0.408     
2835       324.88     0.405     
2835.2     316.69     0.399     
2835.4     298.08     0.392     
2835.6     290.5      0.41      
2835.8     294.49     0.401     
2836       296.93     0.391     
2836.2     298.1      0.412     
2836.4     292.82     0.425     
2836.6     279.18     0.4       
2836.8     272.53     0.382     
2837       278.28     0.387     
2837.2     281.37     0.371     
2837.4     269.73     0.345     
2837.6     245.33     0.341     
2837.8     218.95     0.354     
2838       198        0.366     
2838.2     181.11     0.368     
2838.4     171.27     0.362     
2838.6     177.09     0.347     
2838.8     186.29     0.329     
2839       185.15     0.327     
2839.2     180.32     0.342     
2839.4     180.46     0.341     
2839.6     183.99     0.331     
2839.8     191.82     0.37      
2840       194.54     0.408     
2840.2     184.72     0.385     
2840.4     172.05     0.353     
2840.6     163.13     0.348     
2840.8     153.99     0.362     
2841       142.3      0.371     
2841.2     130.3      0.355     
2841.4     128.96     0.34      
2841.6     136.97     0.322     
2841.8     142.6      0.302     
2842       145.87     0.294     
2842.2     148.48     0.297     
2842.4     152.44     0.304     
2842.6     150.72     0.294     
2842.8     134.21     0.272     
2843       126.86     0.271     
2843.2     145.31     0.273     
2843.4     146.88     0.266     
2843.6     102.3      0.23      
2843.8     60.19      0.194     
2844       68.29001   0.192     
2844.2     107.55     0.213     
2844.4     137.32     0.266     
2844.6     142.62     0.289     
2844.8     132.92     0.292     
2845       122.31     0.274     
2845.2     120.25     0.264     
2845.4     122.8      0.264     
2845.6     122.91     0.288     
2845.8     124.28     0.317     
2846       125.05     0.296     
2846.2     124.04     0.274     
2846.4     125.85     0.274     
2846.6     129.64     0.284     
