~Version
 VERS              .         2.0                           : CWLS LOG ASCII STANDARD - VERSION 2.0
 WRAP              .         NO                            : ONE LINE PER DEPTH STEP
 DLM               .         SPACE                         : DELIMITING CHARACTER(SPACE TAB OR COMMA)
~Well Information
#_______________________________________________________________________________
#
#PARAMETER_NAME    .UNIT     VALUE                         : DESCRIPTION
#_______________________________________________________________________________
STRT               .m        2703                          : First reference value
STOP               .m        2966                          : Last reference value
STEP               .m        0.2                           : Step increment
NULL               .         -9999                         : Missing value
COMP               .                                       : Company
WELL               .         507                           : Well name
FLD                .                                       : Field
LOC                .                                       : Location
CNTY               .                                       : County
STAT               .                                       : State
CTRY               .                                       : Country
SRVC               .                                       : Service Company
DATE               .                                       : Date
API                .                                       : API number
EREF               .m        139.4                         : 
X                  .m        230550                        : 
Y                  .m        242075                        : 
group              .         Pad5                          : 
Интер-р            .         Пузин                         : 
Куст               .         5                             : 
Статус             .         Не проверено                  : 
Тип                .         Разведка                      : 
~Parameter Information Block
#_______________________________________________________________________________
#
#PARAMETER_NAME    .UNIT     VALUE                         : DESCRIPTION
#_______________________________________________________________________________
SET                .         LAS1                          : 
REAL_CREATION_DATE .         Ср апр 11 2012-13_17_21       : 
TLFamily_DEPTH     .         Measured Depth                : 
TLFamily_KS        .         Potential Resistivity         : 
TLFamily_KS1       .         Extra Shallow Resistivity     : 
TLFamily_KS2       .         Shallow Resistivity           : 
TLFamily_KS3       .         Medium Resistivity            : 
TLFamily_KS4       .         Deep Resistivity              : 
TLFamily_KS5       .         Extra Deep Resistivity        : 
TLFamily_LLD       .         Lateral Log Resistivity       : 
TLFamily_OKS3      .         Medium Resistivity Inverted   : 
TLFamily_RM        .         Mud Resistivity               : 
group              .         INI                           : 
~Curve Information
#_______________________________________________________________________________
#
#LOGNAME           .UNIT     LOG_ID                        : DESCRIPTION
#_______________________________________________________________________________
DEPTH              .m                                      : Measured Depth 
KS                 .ohm.m                                  : Potential Resistivity 
KS1                .ohm.m                                  : Extra Shallow Resistivity 
KS2                .ohm.m                                  : Shallow Resistivity 
KS3                .ohm.m                                  : Medium Resistivity 
KS4                .ohm.m                                  : Deep Resistivity 
KS5                .ohm.m                                  : Extra Deep Resistivity 
LLD                .ohm.m                                  : Lateral Log Resistivity 
OKS3               .ohm.m                                  : Medium Resistivity Inverted 
RM                 .ohm.m                                  : Mud Resistivity 
~Ascii
# ...
2922       6.8176     2.3328     7.5009     9.1404     13.1812    24.0197    6.459      16.1022    0.152     
2922.2     6.7702     2.3193     7.6057     8.9474     11.7844    21.1758    5.4936     15.2494    0.155     
2922.4     6.716      2.2855     7.7171     8.5861     10.3351    18.5015    4.5795     15.3786    0.158     
2922.6     6.7431     2.1366     7.2978     8.2377     9.0956     16.1142    4.8673     16.2895    0.152     
2922.8     6.8311     1.9945     6.8589     7.9473     7.843      14.1053    4.7318     17.685     0.155     
2923       7.0479     1.9201     6.4985     7.9732     6.8921     12.6442    5.2837     19.2743    0.158     
2923.2     7.3798     1.7779     6.0596     8.3861     6.3347     11.5093    7.2291     20.3726    0.155     
2923.4     7.8336     1.893      5.994      8.8248     6.0133     10.6352    6.892      21.303     0.152     
2923.6     8.2604     1.8524     5.8892     9.1345     5.8691     10.0743    7.8532     21.794     0.152     
2923.8     8.6749     1.8456     5.8499     9.1603     5.751      9.7612     9.2515     22.2785    0.148     
2924       8.9513     1.9238     6.2365     9.3151     5.8924     9.3959     10.7959    22.44      0.152     
2924.2     9.3577     2.008      6.7671     9.6506     6.0986     9.2785     13.0061    22.4659    0.155     
2924.4     9.7574     2.1028     7.193      9.9861     6.5642     9.2133     13.7318    22.3108    0.152     
2924.6     10.1232    2.211      7.7024     10.4184    7.2397     9.1545     13.9928    22.1816    0.148     
2924.8     10.3873    2.3464     8.0119     10.9991    8.1381     9.122      13.8627    22.1558    0.155     
2925       10.5838    2.4208     8.3985     11.6894    9.312      9.1089     13.555     22.2397    0.158     
2925.2     10.726     2.4885     8.8374     12.541     11.0105    9.2263     13.2394    22.4538    0.158     
2925.4     10.8344    2.5291     9.2305     13.4636    12.65      9.3959     12.8877    22.9827    0.155     
2925.6     10.9292    2.5494     9.4467     14.1798    13.9879    9.6177     12.2724    24.6108    0.148     
2925.8     11.0308    2.5494     9.5843     14.856     15.0765    9.9569     12.0492    26.1613    0.152     
2926       11.1663    2.5358     9.6433     15.2895    16.0864    10.4395    12.0527    27.7377    0.158     
2926.2     11.295     2.5358     9.7547     15.9347    17.1357    11.0396    11.8199    29.5467    0.158     
2926.4     11.4779    2.5358     9.7088     16.6057    18.2243    11.7441    12.6317    31.3363    0.152     
2926.6     11.6811    2.4749     9.5843     17.2573    19.595     12.5398    13.19      32.7318    0.152     
2926.8     11.8776    2.5155     9.7285     17.9348    21.3984    13.6617    13.3365    34.3082    0.155     
2927       12.0875    2.5223     9.7678     18.7993    23.8577    14.4836    13.0186    37.1702    0.158     
2927.2     12.3585    2.5494     9.9316     19.2574    25.0184    14.0661    13.1457    40.9239    0.152     
2927.4     13.0426    2.3464     9.5516     16.8702    21.8968    14.3662    23.3425    38.5076    0.145     
2927.6     14.0519    1.3652     5.5682     13.9217    19.5097    14.7184    45.9614    30.2897    0.138     
2927.8     14.5236    1.5005     6.4133     13.6959    21.4551    14.327     59.4058    25.8706    0.138     
2928       14.5803    1.9889     9.0668     16.8121    24.4741    15.0967    62.285     27.4535    0.145     
2928.2     14.5464    2.1772     9.4205     18.7412    27.3531    17.5492    66.2763    27.04      0.148     
2928.4     14.6616    2.0757     9.9054     20.3671    29.373     18.358     37.889     25.063     0.152     
2928.6     14.4516    2.4546     11.3803    24.1027    34.2456    17.8884    20.8314    25.1599    0.158     
2928.8     14.2687    2.9892     13.4956    24.1995    33.7144    17.6144    16.2777    23.59      0.152     
2929       14.6412    2.2178     10.056     20.0832    26.3432    18.7494    20.7008    18.0856    0.135     
2929.2     15.0409    1.3787     6.682      17.8767    25.3857    20.1583    24.9894    14.7372    0.142     
2929.4     14.5396    1.8659     9.0668     23.8059    33.9045    21.7106    19.2404    16.4187    0.152     
2929.6     13.7336    2.7997     13.0043    31.0513    40.6921    26.8244    14.7788    19.7912    0.155     
2929.8     13.3339    2.8606     13.8036    33.3579    42.4627    31.625     14.2733    20.3403    0.152     
2930       13.1239    2.7456     13.345     33.032     42.4234    33.2557    13.5053    18.7833    0.152     
2930.2     12.8462    2.8065     12.9846    32.1675    42.7579    32.9818    12.7512    17.4783    0.158     
2930.4     12.6091    2.8268     12.395     31.8384    42.7447    32.3034    12.6678    16.464     0.155     
2930.6     12.3991    2.7659     11.694     30.7352    42.2004    31.4815    12.5185    15.7145    0.152     
2930.8     12.1959    2.7794     11.4974    29.4383    42.2135    30.164     12.3903    15.2364    0.158     
2931       11.9385    2.7794     11.3795    28.6835    42.7382    29.2639    12.4561    15.1524    0.152     
2931.2     11.6879    2.793      11.4122    28.3286    43.9449    29.1464    13.4229    15.2881    0.158     
2931.4     11.3628    2.7862     11.4712    27.7351    46.4041    29.7857    14.6759    15.6564    0.155     
2931.6     10.9767    2.8742     11.956     27.9157    50.8636    31.6903    17.4718    16.2701    0.152     
2931.8     10.7223    2.9621     12.6112    29.3158    54.3253    33.5949    23.9932    16.6642    0.152     
2932       10.2112    2.9418     13.0501    32.3094    58.9389    34.9646    21.7076    16.8128    0.148     
2932.2     9.5203     3.402      14.937     34.7353    63.4401    35.2777    9.7952     16.2637    0.158     
2932.4     8.8836     3.5306     14.7601    34.2127    64.061     35.082     6.7018     15.2106    0.152     
2932.6     8.3823     3.2396     13.7759    31.3481    59.2493    33.9471    6.2953     13.9443    0.155     
2932.8     7.9353     2.9351     12.4605    27.8899    52.5577    30.7771    5.342      12.6328    0.158     
2933       7.6372     2.705      11.3533    24.6124    46.4828    26.994     6.0745     11.5733    0.155     
2933.2     7.4611     2.4479     10.0298    21.8704    40.8757    23.9936    6.7064     10.6559    0.148     
2933.4     7.3324     2.3531     9.3681     19.6058    35.2096    21.528     6.962      10.1795    0.152     
2933.6     7.2782     2.3328     8.9226     18.2444    30.9993    19.8843    7.0735     9.7191     0.158     
2933.8     7.2443     2.3464     8.6933     17.5596    28.2056    18.7755    7.3169     9.312      0.155     
2934       7.163      2.3667     8.5164     16.8315    26.271     17.7971    7.1945     8.9761     0.152     
2934.2     7.0276     2.414      8.4509     16.1992    24.4545    16.8448    6.3156     8.6595     0.152     
2934.4     6.9056     2.4208     8.464      15.5089    22.5067    16.049     6.033      8.3688     0.155     
2934.6     6.7905     2.3058     8.1102     14.6637    20.7164    15.3185    6.8191     8.1814     0.155     
2934.8     6.6212     2.3261     7.9923     13.9282    19.3523    14.6532    7.0074     8.1039     0.155     
2935       6.4315     2.387      8.2216     13.6701    18.5785    14.1314    6.2185     8.0651     0.152     
2935.2     6.1809     2.4343     8.3068     13.4959    17.8309    13.5704    4.4231     7.9359     0.152     
2935.4     5.9235     2.4749     8.1757     12.9088    16.2766    12.8529    3.4889     7.9101     0.158     
2935.6     5.7812     2.1772     7.1144     11.7991    14.1453    12.0311    3.4458     8.2719     0.153     
2935.8     5.761      1.8524     6.302      10.3539    12.799     11.157     4.3157     9.1182     0.152     
2936       5.8083     1.6865     5.7582     9.2764     11.627     10.5089    5.4323     9.732      0.148     
2936.2     5.9302     1.7103     5.6403     8.8054     11.0827    9.8395     5.4921     10.0938    0.152     
2936.4     6.0657     1.8185     5.5223     8.6506     11.0105    9.122      5.2669     10.4879    0.155     
