~Version
 VERS              .         2.0                           : CWLS LOG ASCII STANDARD - VERSION 2.0
 WRAP              .         NO                            : ONE LINE PER DEPTH STEP
 DLM               .         SPACE                         : DELIMITING CHARACTER(SPACE TAB OR COMMA)
~Well Information
#_______________________________________________________________________________
#
#PARAMETER_NAME    .UNIT     VALUE                         : DESCRIPTION
#_______________________________________________________________________________
STRT               .m        2703                          : First reference value
STOP               .m        2966                          : Last reference value
STEP               .m        0.2                           : Step increment
NULL               .         -9999                         : Missing value
COMP               .                                       : Company
WELL               .         507                           : Well name
FLD                .                                       : Field
LOC                .                                       : Location
CNTY               .                                       : County
STAT               .                                       : State
CTRY               .                                       : Country
SRVC               .                                       : Service Company
DATE               .                                       : Date
API                .                                       : API number
EREF               .m        139.4                         : 
X                  .m        230550                        : 
Y                  .m        242075                        : 
group              .         Pad5                          : 
Интер-р            .         Пузин                         : 
Куст               .         5                             : 
Статус             .         Не проверено                  : 
Тип                .         Разведка                      : 
~Parameter Information Block
#_______________________________________________________________________________
#
#PARAMETER_NAME    .UNIT     VALUE                         : DESCRIPTION
#_______________________________________________________________________________
SET                .         LAS1                          : 
REAL_CREATION_DATE .         Ср апр 11 2012-13_17_21       : 
TLFamily_DEPTH     .         Measured Depth                : 
TLFamily_KS        .         Potential Resistivity         : 
TLFamily_KS1       .         Extra Shallow Resistivity     : 
TLFamily_KS2       .         Shallow Resistivity           : 
TLFamily_KS3       .         Medium Resistivity            : 
TLFamily_KS4       .         Deep Resistivity              : 
TLFamily_KS5       .         Extra Deep Resistivity        : 
TLFamily_LLD       .         Lateral Log Resistivity       : 
TLFamily_OKS3      .         Medium Resistivity Inverted   : 
TLFamily_RM        .         Mud Resistivity               : 
group              .         INI                           : 
~Curve Information
#_______________________________________________________________________________
#
#LOGNAME           .UNIT     LOG_ID                        : DESCRIPTION
#_______________________________________________________________________________
DEPTH              .m                                      : Measured Depth 
KS                 .ohm.m                                  : Potential Resistivity 
KS1                .ohm.m                                  : Extra Shallow Resistivity 
KS2                .ohm.m                                  : Shallow Resistivity 
KS3                .ohm.m                                  : Medium Resistivity 
KS4                .ohm.m                                  : Deep Resistivity 
KS5                .ohm.m                                  : Extra Deep Resistivity 
LLD                .ohm.m                                  : Lateral Log Resistivity 
OKS3               .ohm.m                                  : Medium Resistivity Inverted 
RM                 .ohm.m                                  : Mud Resistivity 
~Ascii
# ...
2761.4     6.445      2.2922     7.5599     11.7281    13.3255    7.9218     4.99       10.8561    0.165     
2761.6     6.4383     2.2855     7.5926     11.47      13.2468    7.8305     5.2033     10.8497    0.162     
2761.8     6.4044     2.2787     7.573      11.2184    13.1353    7.7914     5.2961     10.8529    0.158     
2762       6.3976     2.2787     7.573      10.87      12.7681    7.7522     5.032      10.8626    0.158     
2762.2     6.435      2.2246     7.5861     10.6247    12.3156    7.7        4.6864     11.0176    0.158     
2762.4     6.4721     2.2517     7.5533     10.6055    12.1184    7.6739     5.0713     11.2567    0.158     
2762.6     6.4857     2.2719     7.3371     10.599     11.9024    7.6739     5.3573     11.1533    0.162     
2762.8     6.4857     2.2516     7.4157     10.5732    11.7057    7.6739     5.4356     11.205     0.162     
2763       6.4992     2.2584     7.4553     10.5668    11.5221    7.687      5.2689     11.2179    0.162     
2763.2     6.4924     2.2584     7.4419     10.5668    11.3319    7.687      5.2128     11.2179    0.162     
2763.4     6.4992     2.2584     7.4682     10.5603    11.1548    7.6739     5.2561     11.2179    0.158     
2763.6     6.4992     2.2516     7.5206     10.5345    10.9318    7.6739     5.2313     11.2179    0.158     
2763.8     6.5128     2.2652     7.5075     10.4829    10.6957    7.6479     5.1574     11.2115    0.158     
2764       6.5128     2.2855     7.5206     10.4184    10.4793    7.6739     5.2365     11.1727    0.158     
2764.2     6.5263     2.2787     7.5271     10.6129    10.3843    7.7261     5.4375     11.0629    0.158     
2764.4     6.5331     2.2414     7.6188     10.6829    10.4072    7.8174     5.1375     10.8691    0.158     
2764.6     6.5466     2.2381     7.6582     10.6636    10.4072    7.8957     5.7154     10.798     0.162     
2764.8     6.5195     2.2787     7.6385     10.67      10.3088    7.9609     5.4927     10.8109    0.168     
2765       6.4721     2.3125     7.6188     10.67      10.2892    8.0523     5.1075     10.8044    0.165     
2765.2     6.4857     2.2787     7.5926     10.67      10.2892    8.1566     5.1015     10.8044    0.162     
2765.4     6.5128     2.2584     7.5861     10.67      10.2892    8.3001     5.1802     10.798     0.162     
2765.6     6.5128     2.3261     7.5402     10.7023    10.2564    8.4828     5.0837     10.8011    0.162     
2765.8     6.5128     2.3396     7.5271     10.7345    10.2236    8.6132     4.9966     10.8755    0.162     
2766       6.5128     2.3396     7.7433     10.741     10.5121    8.835      5.1195     11.0564    0.162     
2766.2     6.5128     2.3396     7.7499     10.783     10.6828    9.0046     5.2995     11.0823    0.162     
2766.4     6.5128     2.3396     7.7761     10.8313    10.4072    9.0698     5.6068     10.6688    0.165     
2766.6     6.4924     2.3599     7.7826     10.9991    10.1842    9.0369     5.6818     10.4297    0.162     
2766.8     6.4044     2.3599     7.7924     11.1023    10.1711    8.9132     5.5364     10.3393    0.158     
2767       6.3231     2.3193     7.7826     10.8184    10.1711    8.7176     5.1235     10.3328    0.158     
2767.2     6.2215     2.3125     7.763      10.6055    10.1711    8.561      5.1286     10.3522    0.158     
2767.4     6.1876     2.2922     7.6909     10.3474    10.1645    8.4045     5.0268     10.3812    0.158     
2767.6     6.1876     2.1975     7.5795     10.3474    10.0334    8.261      5.0034     10.4103    0.158     
2767.8     6.1809     2.1772     7.2913     10.3474    9.9547     8.1044     4.4327     10.4879    0.158     
2768       6.1741     2.1907     7.252      10.3474    9.9285     7.974      4.6613     10.5589    0.158     
2768.2     6.1741     2.1907     7.134      10.3474    9.8726     7.8305     4.9062     10.5589    0.158     
2768.4     6.1876     2.1975     7.1275     10.3539    9.8235     7.6739     4.9694     10.5008    0.158     
2768.6     6.2147     2.1975     7.3895     10.4442    9.7448     7.6348     5.0583     10.4879    0.158     
2768.8     6.2215     2.2652     7.5934     10.3216    9.7514     7.5304     5.7902     10.223     0.158     
2769       6.2215     2.211      7.3764     10.0829    9.3973     7.4        4.9811     10.0163    0.158     
2769.2     6.2012     2.1163     7.1668     9.9861     9.6071     7.3478     4.8836     9.9323     0.162     
2769.4     6.1402     2.299      7.1864     10.1474    9.8039     7.3478     4.8312     9.8095     0.155     
2769.6     6.0996     2.2855     7.3044     10.1732    9.7907     7.3478     4.8312     9.8847     0.158     
2769.8     6.0725     2.2719     7.5271     10.3539    9.7907     7.3217     5.1048     10.0227    0.165     
2770       6.0657     2.2584     7.442      10.4796    9.8039     7.2956     4.7122     10.2747    0.165     
2770.2     6.0657     2.2584     7.3371     10.4765    9.8039     7.2956     4.8694     10.4168    0.165     
2770.4     6.0657     2.2584     7.2716     10.4248    9.7842     7.0532     4.8787     10.3457    0.165     
2770.6     6.0793     2.2652     7.2388     10.3152    9.6661     6.9043     4.8729     10.2553    0.165     
2770.8     6.0657     2.2652     7.2094     10.141     9.4169     6.9173     4.7883     10.2682    0.165     
2771       6.0657     2.2652     7.193      9.8377     9.253      6.9434     4.6822     10.307     0.165     
2771.2     6.0725     2.2246     7.1275     9.7474     9.2071     6.9304     4.6632     10.3393    0.165     
2771.4     6.086      2.1975     7.1078     9.7539     9.253      6.9434     4.6686     10.3684    0.162     
2771.6     6.0996     2.211      7.1733     9.741      9.253      6.9434     4.7831     10.3845    0.162     
2771.8     6.1063     2.2246     7.1275     9.741      9.2792     6.9565     4.834      10.4103    0.16      
2772       6.1098     2.2584     7.3109     9.7698     9.2923     6.9695     5.0054     10.391     0.162     
2772.2     6.1199     2.2449     7.2585     9.8184     9.3054     6.9695     4.7862     10.307     0.162     
2772.4     6.1334     2.2449     7.2323     9.8119     9.2792     6.9825     4.7779     10.2424    0.162     
2772.6     6.1334     2.2381     7.3044     9.8571     9.2595     6.9825     5.0022     10.0356    0.158     
2772.8     6.1334     2.2584     7.321      9.9022     9.2333     6.9695     4.9776     9.9516     0.158     
2773       6.147      2.2652     7.3437     9.87       9.1349     6.9173     4.8912     9.9193     0.155     
2773.2     6.1267     2.2584     7.2651     9.8506     9.1153     6.8782     4.7248     9.9129     0.158     
2773.4     6.1131     2.2584     7.3306     9.8635     9.1284     6.8521     4.8912     9.9096     0.158     
2773.6     6.086      2.2922     7.3437     9.9281     9.1022     6.7738     4.9031     9.9        0.155     
2773.8     6.0725     2.3464     7.4944     10.0442    9.1022     6.7477     4.913      9.8612     0.155     
2774       6.0555     2.3193     7.4485     10.1251    9.125      6.7477     5.1664     9.6803     0.155     
2774.2     6.0454     2.3125     7.3961     10.141     9.0628     6.7477     4.5572     9.5769     0.155     
2774.4     6.0115     2.3058     7.324      10.0635    8.9972     6.7477     4.5108     9.6932     0.158     
2774.6     5.9506     2.2787     7.2716     9.9926     8.9251     6.7477     4.5006     9.8289     0.155     
2774.8     5.9167     2.2381     7.2388     9.8958     8.8595     6.7216     4.6334     9.9904     0.158     
2775       5.8557     2.2516     7.2257     9.8829     8.8333     6.6564     4.6963     10.0421    0.158     
2775.2     5.7744     2.2516     7.2651     9.8442     8.807      6.6042     4.6139     10.0421    0.158     
2775.4     5.7406     2.2313     7.2454     9.7861     8.7808     6.539      4.4524     10.0801    0.155     
2775.6     5.7406     2.2043     7.1799     9.741      8.7283     6.4607     4.3734     10.1648    0.155     
2775.8     5.7406     2.1772     7.0489     9.6829     8.6496     6.4607     4.4125     10.3974    0.155     
