~Version
 VERS              .         2.0                           : CWLS LOG ASCII STANDARD - VERSION 2.0
 WRAP              .         NO                            : ONE LINE PER DEPTH STEP
 DLM               .         SPACE                         : DELIMITING CHARACTER(SPACE TAB OR COMMA)
~Well Information
#_______________________________________________________________________________
#
#PARAMETER_NAME    .UNIT     VALUE                         : DESCRIPTION
#_______________________________________________________________________________
STRT               .m        2701                          : First reference value
STOP               .m        2966                          : Last reference value
STEP               .m        0.2                           : Step increment
NULL               .         -9999                         : Missing value
COMP               .                                       : Company
WELL               .         507                           : Well name
FLD                .                                       : Field
LOC                .                                       : Location
CNTY               .                                       : County
STAT               .                                       : State
CTRY               .                                       : Country
SRVC               .                                       : Service Company
DATE               .                                       : Date
API                .                                       : API number
EREF               .m        139.4                         : 
X                  .m        230550                        : 
Y                  .m        242075                        : 
group              .         Pad5                          : 
Интер-р            .         Пузин                         : 
Куст               .         5                             : 
Статус             .         Не проверено                  : 
Тип                .         Разведка                      : 
~Parameter Information Block
#_______________________________________________________________________________
#
#PARAMETER_NAME    .UNIT     VALUE                         : DESCRIPTION
#_______________________________________________________________________________
SET                .         LAS3                          : 
REAL_CREATION_DATE .         Ср апр 11 2012-13_17_21       : 
TLFamily_DEPTH     .         Measured Depth                : 
TLFamily_GR        .         Gamma Ray                     : 
TLFamily_TNPH      .         Neutron Porosity              : 
group              .         INI                           : 
~Curve Information
#_______________________________________________________________________________
#
#LOGNAME           .UNIT     LOG_ID                        : DESCRIPTION
#_______________________________________________________________________________
DEPTH              .m                                      : Measured Depth 
GR                 .gAPI                                   :  
TNPH               .v/v                                    : Neutron Porosity 
~Ascii
2701.0     62.07      0.282     
2701.2     62.74      0.267     
2701.4     65.45999   0.265     
2701.6     66.09      0.277     
2701.8     59.19      0.291     
2702       46.14      0.285     
2702.2     31.04      0.291     
2702.4     29.64      0.319     
2702.6     54.03      0.297     
2702.8     80.37      0.266     
2703       92.93999   0.244     
2703.2     91.51      0.241     
2703.4     85.61      0.202     
2703.6     81.28999   0.189     
2703.8     83.50999   0.204     
2704       88.78      0.227     
2704.2     91.89999   0.227     
2704.4     94.98      0.22      
2704.6     98.14      0.237     
2704.8     97.11      0.261     
2705       96.42      0.252     
2705.2     99.03      0.237     
2705.4     102.09     0.243     
2705.6     104.54     0.253     
2705.8     107.42     0.255     
2706       109.85     0.257     
2706.2     109.62     0.248     
2706.4     106.77     0.225     
2706.6     101.69     0.21      
2706.8     95.96      0.221     
2707       101.12     0.24      
2707.2     107.37     0.243     
2707.4     108.17     0.237     
2707.6     104.3      0.234     
2707.8     102.22     0.233     
2708       102.38     0.23      
2708.2     103.62     0.229     
2708.4     101.77     0.222     
2708.6     95.98      0.214     
2708.8     94.49001   0.22      
2709       96.13      0.227     
2709.2     95.84      0.228     
2709.4     97.14      0.22      
2709.6     101.79     0.217     
2709.8     102.78     0.23      
2710       101.32     0.243     
2710.2     105.21     0.225     
2710.4     108.33     0.199     
2710.6     106.88     0.206     
2710.8     104.13     0.237     
2711       101.65     0.259     
2711.2     97.71      0.262     
2711.4     95.25      0.254     
2711.6     95.96      0.244     
2711.8     96.49001   0.238     
2712       94.32999   0.241     
2712.2     90.59      0.243     
2712.4     86.95      0.234     
2712.6     83.55      0.222     
2712.8     82.60001   0.224     
2713       87.17      0.231     
2713.2     96         0.243     
2713.4     98.67      0.254     
2713.6     90.42      0.251     
2713.8     82.73      0.256     
2714       84.12      0.262     
2714.2     88.23      0.249     
2714.4     88.57001   0.206     
2714.6     76.72      0.172     
2714.8     66.11      0.147     
2715       62.91      0.137     
2715.2     62.19      0.136     
2715.4     61.21      0.15      
2715.6     64.43      0.17      
2715.8     73.12      0.204     
2716       78.21      0.215     
2716.2     74.78      0.216     
2716.4     72.92      0.234     
2716.6     81.6       0.256     
2716.8     95.99      0.254     
2717       105.89     0.243     
2717.2     104.65     0.232     
2717.4     101.6      0.233     
2717.6     103.73     0.244     
2717.8     103.44     0.251     
2718       100.12     0.251     
2718.2     100.15     0.259     
2718.4     100.69     0.266     
2718.6     96.73      0.26      
2718.8     93.99001   0.253     
2719       99.32999   0.256     
2719.2     104.62     0.264     
2719.4     105.57     0.262     
2719.6     104.29     0.25      
2719.8     101.4      0.233     
2720       97.97      0.227     
2720.2     100.25     0.235     
2720.4     105.7      0.235     
2720.6     107.96     0.233     
2720.8     108.94     0.234     
2721       111.77     0.23      
2721.2     112.67     0.225     
2721.4     109.71     0.226     
2721.6     105.29     0.223     
2721.8     97.89      0.215     
2722       91.61      0.206     
2722.2     90.82      0.207     
2722.4     93.83      0.215     
2722.6     97.32001   0.234     
2722.8     97.51      0.245     
2723       97.77      0.24      
2723.2     102.06     0.254     
2723.4     107.66     0.262     
2723.6     111.01     0.229     
2723.8     108.3      0.21      
2724       105.5      0.219     
2724.2     107.61     0.241     
2724.4     105.84     0.252     
2724.6     100.02     0.236     
2724.8     99.06999   0.23      
2725       98.84      0.242     
2725.2     98.53      0.24      
2725.4     100.53     0.232     
2725.6     101.06     0.24      
2725.8     98.62      0.25      
2726       98.33      0.252     
2726.2     102        0.247     
2726.4     105.18     0.23      
2726.6     105.06     0.215     
2726.8     107.42     0.221     
2727       109.62     0.228     
2727.2     110.99     0.231     
2727.4     111.13     0.241     
2727.6     107.89     0.238     
2727.8     103.39     0.227     
2728       100.48     0.238     
2728.2     99.92      0.252     
2728.4     99.75999   0.254     
2728.6     99.89      0.249     
2728.8     101.47     0.245     
2729       104.93     0.231     
2729.2     104.16     0.212     
2729.4     101.93     0.212     
2729.6     102.83     0.22      
2729.8     102.68     0.222     
2730       102.27     0.224     
2730.2     99.36      0.227     
2730.4     91.32      0.231     
2730.6     87.88      0.234     
2730.8     91.87      0.237     
2731       96.48      0.249     
2731.2     94.6       0.248     
2731.4     90.2       0.243     
2731.6     94.04      0.242     
2731.8     100.2      0.244     
2732       100.62     0.243     
2732.2     96.58      0.237     
2732.4     92.41      0.235     
2732.6     93.87      0.229     
2732.8     95.91      0.224     
2733       91.96      0.222     
2733.2     95.38      0.228     
2733.4     105.07     0.23      
2733.6     109.25     0.233     
2733.8     107.05     0.243     
2734       101.44     0.229     
2734.2     91.68999   0.206     
2734.4     77.51      0.188     
2734.6     71.05      0.173     
2734.8     79.12      0.179     
2735       89.27      0.224     
2735.2     94.44      0.251     
2735.4     95.31999   0.251     
2735.6     95.54      0.243     
2735.8     94.94      0.225     
2736       92.67      0.215     
2736.2     94.25      0.216     
2736.4     96.93      0.235     
2736.6     93.06      0.257     
2736.8     87.11      0.256     
2737       87.81      0.232     
2737.2     95.71      0.217     
2737.4     99.61      0.218     
2737.6     100.83     0.219     
2737.8     102.43     0.22      
2738       102.08     0.225     
2738.2     99.28001   0.231     
2738.4     98.14      0.236     
2738.6     102.12     0.229     
2738.8     101.58     0.223     
2739       97.36      0.222     
2739.2     101.85     0.222     
2739.4     108.51     0.223     
2739.6     111.6      0.231     
2739.8     114.01     0.236     
2740       116.4      0.235     
2740.2     116.12     0.231     
2740.4     113.92     0.237     
2740.6     106.67     0.256     
2740.8     90.94      0.253     
2741       76.75      0.226     
2741.2     73.16      0.214     
2741.4     71.88      0.206     
2741.6     67.49      0.198     
2741.8     61.59      0.184     
2742       55.61      0.162     
2742.2     51.71      0.157     
2742.4     51.09      0.152     
2742.6     52.23      0.135     
2742.8     52.02      0.116     
2743       50.31      0.1       
2743.2     47.36      0.088     
2743.4     45.09      0.077     
2743.6     46.62      0.068     
2743.8     48.65      0.06      
2744       47.67      0.059     
2744.2     46.67      0.061     
2744.4     47.24      0.066     
2744.6     45.29      0.069     
2744.8     41.84      0.068     
2745       41.56      0.062     
2745.2     44.08      0.063     
2745.4     47.35      0.072     
2745.6     48.86      0.077     
2745.8     49.33      0.081     
2746       49.51      0.088     
2746.2     49.57      0.089     
2746.4     51.89      0.087     
2746.6     54.15      0.099     
2746.8     54.5       0.122     
2747       59.51      0.146     
2747.2     67.16      0.163     
2747.4     72.28      0.18      
2747.6     72.57      0.194     
2747.8     72.9       0.202     
2748       73.92      0.213     
2748.2     70.81001   0.216     
2748.4     66.35001   0.21      
2748.6     69.06      0.211     
2748.8     75.47      0.213     
2749       75.68      0.221     
2749.2     72.36      0.24      
2749.4     75.39      0.256     
