~Version
 VERS              .         2.0                           : CWLS LOG ASCII STANDARD - VERSION 2.0
 WRAP              .         NO                            : ONE LINE PER DEPTH STEP
 DLM               .         SPACE                         : DELIMITING CHARACTER(SPACE TAB OR COMMA)
~Well Information
#_______________________________________________________________________________
#
#PARAMETER_NAME    .UNIT     VALUE                         : DESCRIPTION
#_______________________________________________________________________________
STRT               .m        2703                          : First reference value
STOP               .m        2966                          : Last reference value
STEP               .m        0.2                           : Step increment
NULL               .         -9999                         : Missing value
COMP               .                                       : Company
WELL               .         507                           : Well name
FLD                .                                       : Field
LOC                .                                       : Location
CNTY               .                                       : County
STAT               .                                       : State
CTRY               .                                       : Country
SRVC               .                                       : Service Company
DATE               .                                       : Date
API                .                                       : API number
EREF               .m        139.4                         : 
X                  .m        230550                        : 
Y                  .m        242075                        : 
group              .         Pad5                          : 
Интер-р            .         Пузин                         : 
Куст               .         5                             : 
Статус             .         Не проверено                  : 
Тип                .         Разведка                      : 
~Parameter Information Block
#_______________________________________________________________________________
#
#PARAMETER_NAME    .UNIT     VALUE                         : DESCRIPTION
#_______________________________________________________________________________
SET                .         LAS1                          : 
REAL_CREATION_DATE .         Ср апр 11 2012-13_17_21       : 
TLFamily_DEPTH     .         Measured Depth                : 
TLFamily_KS        .         Potential Resistivity         : 
TLFamily_KS1       .         Extra Shallow Resistivity     : 
TLFamily_KS2       .         Shallow Resistivity           : 
TLFamily_KS3       .         Medium Resistivity            : 
TLFamily_KS4       .         Deep Resistivity              : 
TLFamily_KS5       .         Extra Deep Resistivity        : 
TLFamily_LLD       .         Lateral Log Resistivity       : 
TLFamily_OKS3      .         Medium Resistivity Inverted   : 
TLFamily_RM        .         Mud Resistivity               : 
group              .         INI                           : 
~Curve Information
#_______________________________________________________________________________
#
#LOGNAME           .UNIT     LOG_ID                        : DESCRIPTION
#_______________________________________________________________________________
DEPTH              .m                                      : Measured Depth 
KS                 .ohm.m                                  : Potential Resistivity 
KS1                .ohm.m                                  : Extra Shallow Resistivity 
KS2                .ohm.m                                  : Shallow Resistivity 
KS3                .ohm.m                                  : Medium Resistivity 
KS4                .ohm.m                                  : Deep Resistivity 
KS5                .ohm.m                                  : Extra Deep Resistivity 
LLD                .ohm.m                                  : Lateral Log Resistivity 
OKS3               .ohm.m                                  : Medium Resistivity Inverted 
RM                 .ohm.m                                  : Mud Resistivity 
~Ascii
# ...
2834.4     9.1003     2.4682     9.3878     17.0251    20.0671    10.0873    9.308      20.4308    0.165     
2834.6     9.1748     2.4749     9.4227     17.1218    20.4803    10.4135    8.4919     21.1221    0.162     
2834.8     9.2968     2.5223     9.5974     17.1928    20.618     10.6874    9.3643     21.3482    0.165     
2835       9.4322     2.4682     9.2633     16.9863    20.2508    10.9092    9.5831     21.0962    0.162     
2835.2     9.5542     2.4885     9.283      16.6508    19.9163    10.9483    9.7254     20.694     0.162     
2835.4     9.6761     2.4952     9.2961     16.4315    19.6737    10.9874    9.562      20.4502    0.158     
2835.6     9.7845     2.5155     9.4009     16.2315    19.4769    11.1049    9.5112     20.2757    0.158     
2835.8     9.8424     2.5494     9.5385     16.209     19.3323    11.2875    9.4348     20.2693    0.155     
2836       9.8861     2.5596     9.6433     16.2186    19.2671    11.5223    10.1289    20.3726    0.155     
2836.2     9.9403     2.5629     9.735      16.3024    19.2605    11.7388    10.361     20.476     0.155     
2836.4     9.9877     2.5764     9.866      16.5412    19.3261    11.9397    10.0113    20.5794    0.155     
2836.6     10.008     2.617      10.0368    16.9025    19.4769    12.1615    9.7888     20.5858    0.155     
2836.8     10.0283    2.6306     10.0888    17.2122    19.6015    12.3572    9.6453     20.5406    0.155     
2837       10.0554    2.6306     10.0364    17.438     19.5556    12.5529    9.9302     20.4954    0.158     
2837.2     10.069     2.5967     10.0691    17.6831    19.6015    12.7094    10.3979    20.5308    0.158     
2837.4     10.069     2.6441     10.2395    18.0251    19.7524    12.8399    10.1417    20.5148    0.162     
2837.6     10.0961    2.6509     10.2591    18.2638    19.7327    12.9312    10.4174    20.4114    0.162     
2837.8     10.1131    2.6373     10.2002    18.3281    19.7158    12.9312    10.066     20.2693    0.162     
2838       10.1367    2.6168     10.2264    18.309     19.6605    12.866     9.985      20.1594    0.158     
2838.2     10.157     2.6306     10.1478    18.2703    19.595     12.8268    9.7982     20.153     0.162     
2838.4     10.1706    2.5967     10.0823    18.2638    19.6409    12.7616    11.0122    20.153     0.158     
2838.6     10.1706    2.6035     10.1384    18.2961    19.8442    12.7094    10.766     20.1013    0.158     
2838.8     10.1841    2.6306     10.2067    18.438     20.2901    12.6964    10.0811    19.8752    0.155     
2839       10.1638    2.6644     10.4229    18.6509    20.7951    12.7616    9.6979     19.8493    0.155     
2839.2     10.1164    2.6982     10.3836    18.8187    21.2082    12.8138    9.8039     20.069     0.155     
2839.4     10.0419    2.6712     10.2854    18.909     21.5165    12.8529    9.703      20.4049    0.155     
2839.6     10.0487    2.6915     10.4754    18.7606    21.5493    12.8529    8.8939     20.715     0.158     
2839.8     10.0691    2.5764     10.0626    18.4483    21.374     12.9181    8.4153     21.303     0.158     
2840       10.1299    2.5288     9.8267     18.1928    21.2607    13.0355    10.7945    22.2333    0.158     
2840.2     10.1977    2.4682     9.6564     18.3154    21.6279    13.1269    12.0638    23.1442    0.158     
2840.4     10.2586    2.5561     10.0364    18.7219    22.487     13.5052    11.5025    23.8242    0.158     
2840.6     10.3128    2.6238     10.204     19.1477    23.3134    13.8835    11.5527    24.3201    0.158     
2840.8     10.3264    2.6847     10.4295    19.509     23.8118    14.1183    11.5098    25.1341    0.162     
2841       10.3467    2.6982     10.5081    19.6509    24.061     14.1444    10.6563    25.7737    0.165     
2841.2     10.3806    2.6915     10.4557    19.3606    23.8052    13.9096    10.0334    26.1226    0.165     
2841.4     10.428     2.6576     10.3902    18.7477    22.992     13.4921    9.3431     26.2841    0.165     
2841.6     10.4957    2.5629     10.0167    18.0896    21.9034    13.0225    9.373      26.7299    0.158     
2841.8     10.5973    2.5291     9.8923     17.6233    21.3699    12.5659    9.5048     27.8282    0.158     
2842       10.7193    2.4411     9.5647     17.2122    20.7623    12.2267    9.5324     28.9265    0.158     
2842.2     10.9428    2.387      9.3878     16.7025    20.1393    12.1876    9.5927     29.6501    0.158     
2842.4     11.2273    2.2922     9.034      16.3218    19.6999    12.1224    10.3042    30.3155    0.155     
2842.6     11.5998    2.2246     8.7392     16.0831    19.4769    12.2398    11.1031    31.0843    0.152     
2842.8     12.0604    2.184      8.654      15.9799    19.4376    12.5659    12.0062    31.8402    0.152     
2843       12.4139    2.1095     8.4181     15.9089    19.4769    13.1921    22.5067    32.5961    0.155     
2843.2     12.9343    2.062      8.3002     16.2444    20.1524    13.8313    75.9635    33.0031    0.158     
2843.4     13.4423    2.1975     9.4664     17.4251    21.7132    14.2618    25.1462    31.8467    0.162     
2843.6     14.0316    2.5291     9.925      18.3735    22.5723    15.2532    63.271     29.004     0.158     
2843.8     14.6548    2.4411     9.4645     19.0961    23.3929    16.349     186.9111   27.782     0.152     
2844       14.8339    2.7127     10.963     21.3403    26.1644    17.4318    59.6677    27.3177    0.155     
2844.2     14.6345    3.3073     13.2663    25.5802    30.7698    18.6841    16.0111    25.6768    0.158     
2844.4     14.3906    3.6253     14.8191    27.3867    32.5602    19.5451    12.9439    23.6934    0.155     
2844.6     13.9977    3.6456     15.2449    28.1286    33.3209    19.6625    11.9215    22.8341    0.155     
2844.8     13.571     3.5576     15.1204    28.1251    33.1635    19.4277    10.8557    22.847     0.158     
2845       13.2865    3.3208     14.4391    27.9544    32.5995    19.0494    11.9413    23.1184    0.158     
2845.2     13.1239    3.1381     13.7643    27.406     31.7142    18.6581    13.9728    23.5319    0.162     
2845.4     13.0155    2.9689     12.9388    26.9544    31.0912    18.2406    13.8661    23.8549    0.162     
2845.6     12.9614    2.9554     12.6701    26.9996    30.9469    17.9014    14.0986    23.913     0.165     
2845.8     12.9275    2.9418     12.3622    27.077     31.1371    17.8623    14.9271    23.9195    0.158     
2846       12.8936    2.9283     12.1853    26.8125    31.2092    17.9406    14.6996    23.842     0.158     
2846.2     12.8461    2.9554     12.1264    26.6512    31.642     17.9667    14.3933    23.7774    0.158     
2846.4     12.8056    2.9892     12.2639    26.6641    32.1667    18.0188    13.7954    23.6482    0.158     
2846.6     12.7243    2.9892     12.2639    26.335     32.6585    18.0058    12.1425    23.4802    0.155     
2846.8     12.6498    2.996      12.2246    25.6769    32.9903    18.0058    12.0558    23.5642    0.155     
2847       12.6091    2.9486     11.9522    24.9027    33.1176    17.9927    13.1125    23.8807    0.155     
2847.2     12.5753    2.8742     11.7529    24.1608    33.1832    18.0188    13.8194    24.2232    0.152     
2847.4     12.5685    2.8268     11.6088    23.7801    33.557     18.058     13.6079    24.3911    0.155     
2847.6     12.582     2.8539     11.694     23.7736    34.3702    18.2406    14.109     24.4137    0.158     
2847.8     12.6023    2.8539     11.6481    23.7285    34.8948    18.6189    14.8559    24.3717    0.162     
2848       12.6091    2.8539     11.5367    23.6511    34.9145    18.7885    13.9269    24.165     0.162     
2848.2     12.6023    2.8877     11.6153    23.6414    34.9276    19.1538    13.9362    23.7774    0.162     
2848.4     12.5956    2.8809     11.6022    23.664     35.026     19.5712    12.548     23.4091    0.158     
2848.6     12.5685    2.8877     11.6481    23.6446    34.803     19.9887    12.1895    23.1895    0.162     
2848.8     12.5549    2.9012     11.694     23.5607    34.2521    20.4583    12.6336    22.9698    0.158     
