~Version
 VERS              .         2.0                           : CWLS LOG ASCII STANDARD - VERSION 2.0
 WRAP              .         NO                            : ONE LINE PER DEPTH STEP
 DLM               .         SPACE                         : DELIMITING CHARACTER(SPACE TAB OR COMMA)
~Well Information
#_______________________________________________________________________________
#
#PARAMETER_NAME    .UNIT     VALUE                         : DESCRIPTION
#_______________________________________________________________________________
STRT               .m        2703                          : First reference value
STOP               .m        2966                          : Last reference value
STEP               .m        0.2                           : Step increment
NULL               .         -9999                         : Missing value
COMP               .                                       : Company
WELL               .         507                           : Well name
FLD                .                                       : Field
LOC                .                                       : Location
CNTY               .                                       : County
STAT               .                                       : State
CTRY               .                                       : Country
SRVC               .                                       : Service Company
DATE               .                                       : Date
API                .                                       : API number
EREF               .m        139.4                         : 
X                  .m        230550                        : 
Y                  .m        242075                        : 
group              .         Pad5                          : 
Интер-р            .         Пузин                         : 
Куст               .         5                             : 
Статус             .         Не проверено                  : 
Тип                .         Разведка                      : 
~Parameter Information Block
#_______________________________________________________________________________
#
#PARAMETER_NAME    .UNIT     VALUE                         : DESCRIPTION
#_______________________________________________________________________________
SET                .         LAS1                          : 
REAL_CREATION_DATE .         Ср апр 11 2012-13_17_21       : 
TLFamily_DEPTH     .         Measured Depth                : 
TLFamily_KS        .         Potential Resistivity         : 
TLFamily_KS1       .         Extra Shallow Resistivity     : 
TLFamily_KS2       .         Shallow Resistivity           : 
TLFamily_KS3       .         Medium Resistivity            : 
TLFamily_KS4       .         Deep Resistivity              : 
TLFamily_KS5       .         Extra Deep Resistivity        : 
TLFamily_LLD       .         Lateral Log Resistivity       : 
TLFamily_OKS3      .         Medium Resistivity Inverted   : 
TLFamily_RM        .         Mud Resistivity               : 
group              .         INI                           : 
~Curve Information
#_______________________________________________________________________________
#
#LOGNAME           .UNIT     LOG_ID                        : DESCRIPTION
#_______________________________________________________________________________
DEPTH              .m                                      : Measured Depth 
KS                 .ohm.m                                  : Potential Resistivity 
KS1                .ohm.m                                  : Extra Shallow Resistivity 
KS2                .ohm.m                                  : Shallow Resistivity 
KS3                .ohm.m                                  : Medium Resistivity 
KS4                .ohm.m                                  : Deep Resistivity 
KS5                .ohm.m                                  : Extra Deep Resistivity 
LLD                .ohm.m                                  : Lateral Log Resistivity 
OKS3               .ohm.m                                  : Medium Resistivity Inverted 
RM                 .ohm.m                                  : Mud Resistivity 
~Ascii
# ...
2717.6     6.6923     2.3937     8.2249     14.0669    12.8894    8.2218     5.4302     11.1727    0.168     
2717.8     6.6516     2.3497     8.0185     13.4636    12.6959    8.0066     5.4026     11.3471    0.168     
2718       6.6144     2.3159     7.8711     12.8798    12.5648    7.8174     5.4519     11.4634    0.168     
2718.2     6.6212     2.3261     7.8875     12.3668    12.4205    7.6609     5.5134     11.4182    0.165     
2718.4     6.5873     2.2246     7.4878     11.9668    12.4599    7.5696     5.6433     11.5474    0.16      
2718.6     6.5839     2.3396     7.7957     11.7088    12.614     7.4261     5.5271     11.7219    0.165     
2718.8     6.5737     2.2719     7.5468     11.4829    12.7943    7.3478     5.5588     11.948     0.165     
2719       6.6212     2.211      7.4157     11.1152    12.7386    7.3609     5.3997     12.103     0.165     
2719.2     6.6482     2.211      7.383      10.9862    12.8337    7.2956     5.435      12.3162    0.165     
2719.4     6.6482     2.2787     7.5599     11.0249    12.9451    7.2435     5.7866     12.4019    0.165     
2719.6     6.6686     2.3125     7.5926     10.9991    12.7255    7.1782     6.2118     12.4002    0.165     
2719.8     6.7499     2.2652     7.4747     10.7313    12.2303    7.2043     6.043      12.0384    0.165     
2720       6.7905     2.1501     7.1209     10.5797    11.886     7.1782     5.8944     12.0643    0.162     
2720.2     6.7634     2.2922     7.5992     10.6732    11.8467    7.1913     5.6413     12.4325    0.168     
2720.4     6.7566     2.2787     7.6451     10.941     11.9352    7.2956     5.5046     12.7943    0.165     
2720.6     6.8379     2.2787     7.6844     10.9378    11.7713    7.413      5.788      12.8202    0.168     
2720.8     6.926      2.299      7.7106     10.941     11.6467    7.4913     6.0026     12.9235    0.168     
2721       7.0276     2.2787     7.573      10.9216    11.4827    7.6022     5.9558     13.0204    0.165     
2721.2     7.1495     2.2652     7.442      10.8765    11.3679    7.7522     5.8541     13.0398    0.165     
2721.4     7.2579     2.2922     7.5926     11.012     11.4565    7.974      6.0984     13.1497    0.165     
2721.6     7.3053     2.3599     7.8809     11.3539    11.8204    8.1631     6.643      13.1949    0.165     
2721.8     7.309      2.4952     8.3199     11.8442    12.1418    8.2871     6.6699     12.8848    0.165     
2722       7.2985     2.6164     8.7457     12.2314    12.1975    8.3523     8.8483     12.2775    0.165     
2722.2     7.2376     2.6103     8.6474     12.1797    12.0041    8.3001     8.4534     11.8381    0.165     
2722.4     7.1292     2.5426     8.5295     11.8636    11.5483    8.2218     6.8738     11.541     0.165     
2722.6     7.0005     2.4885     8.5181     11.8184    11.3089    8.124      6.0241     11.3342    0.165     
2722.8     6.9192     2.4546     8.6474     11.741     11.0302    8.1044     6.0244     11.4828    0.165     
2723       6.865      2.3396     8.1757     11.6249    10.8859    8.2349     5.9696     11.7154    0.165     
2723.2     6.8447     2.3125     8.0447     11.5668    10.7351    8.4306     4.9108     11.8633    0.165     
2723.4     6.8582     2.2922     7.9137     11.6894    10.781     8.6263     5.5161     11.9867    0.165     
2723.6     6.8549     2.3599     8.0316     11.9217    10.9646    8.8219     5.7405     12.103     0.165     
2723.8     6.8786     2.3734     7.9268     12.022     11.0827    8.9654     6.0284     12.1224    0.165     
2724       6.9395     2.3328     7.7302     11.9475    10.9581    9.0567     6.0287     12.0901    0.165     
2724.2     7.014      2.2787     7.573      11.7539    10.8466    9.1154     5.6963     12.1095    0.165     
2724.4     7.0208     2.3058     7.7797     11.8378    11.0564    9.1481     5.6834     12.0837    0.165     
2724.6     6.9937     2.4614     8.0775     12.1023    11.4696    9.135      6.7245     11.9157    0.165     
2724.8     6.9598     2.5088     8.3854     12.1281    11.6204    9.1154     7.4604     11.7348    0.165     
2725       6.8989     2.4614     8.2281     11.8507    11.5024    9.0046     6.8957     11.6185    0.165     
2725.2     6.8311     2.4411     8.1954     11.6184    11.3581    8.7437     5.8953     11.5651    0.165     
2725.4     6.7702     2.3802     8.0709     11.4636    11.2269    8.5415     5.711      11.5087    0.165     
2725.6     6.7258     2.3599     8.0447     11.3409    11.1286    8.3784     5.6606     11.541     0.165     
2725.8     6.7024     2.3224     7.8875     11.2829    11.0922    8.2153     5.7013     11.6443    0.165     
2726       6.6753     2.3125     7.7892     11.212     11.1023    8.1305     5.5169     11.8058    0.165     
2726.2     6.6618     2.299      7.6647     11.1474    11.0564    8.0914     5.6312     11.9803    0.165     
2726.4     6.6753     2.2719     7.5659     11.0765    10.9581    8.1175     5.5676     12.2129    0.165     
2726.6     6.6957     2.2652     7.5206     11.0442    10.9056    8.2218     5.5865     12.6134    0.165     
2726.8     6.7363     2.2449     7.4354     11.0313    10.9253    8.3653     5.5115     13.0246    0.165     
2727       6.7905     2.2246     7.4092     11.0765    11.1089    8.7045     5.523      13.4339    0.165     
2727.2     6.8311     2.2516     7.5402     11.3152    11.5352    8.9393     5.7476     13.9817    0.165     
2727.4     6.8853     2.3261     7.8482     11.5926    11.909     9.1089     5.8844     14.3707    0.165     
2727.6     6.9675     2.3261     7.8088     11.646     11.9646    9.2133     6.3775     14.2221    0.165     
2727.8     7.0073     2.3587     7.835      11.5668    11.8827    9.1611     6.5833     13.7699    0.165     
2728       7.075      2.3937     7.894      11.3862    11.6598    8.9393     6.7441     13.2789    0.165     
2728.2     7.1156     2.3531     7.7892     11.1733    11.3647    8.6915     6.4474     12.9171    0.165     
2728.4     7.136      2.3531     7.8182     10.9926    11.122     8.4697     6.1742     12.6522    0.165     
2728.6     7.163      2.3396     7.8416     10.8958    10.9646    8.2871     6.2162     12.6263    0.165     
2728.8     7.1766     2.3125     7.8219     10.8829    10.9056    8.261      6.1853     12.6778    0.165     
2729       7.1969     2.3328     7.9071     10.9732    10.9187    8.3132     5.9922     12.8589    0.165     
2729.2     7.2376     2.3396     7.9726     11.1604    10.9909    8.4697     6.4023     13.0492    0.165     
2729.4     7.2545     2.3328     7.9202     11.4571    11.1745    8.7306     6.3616     13.3629    0.165     
2729.6     7.2821     2.3633     8.0906     11.9316    11.5016    9.135      6.3215     13.7505    0.165     
2729.8     7.3053     2.4099     8.274      12.2894    11.8368    9.5394     6.7396     14.319     0.165     
2730       7.2917     2.414      8.4837     12.9281    12.4664    9.7873     6.7126     14.894     0.165     
2730.2     7.2714     2.5291     8.7198     13.3217    12.8009    9.8525     6.6262     14.978     0.165     
2730.4     7.2917     2.5223     8.7325     13.3862    12.6172    9.8003     7.9462     14.5516    0.165     
2730.6     7.2782     2.4885     8.5754     13.0185    12.1844    9.4611     7.5558     14.164     0.165     
2730.8     7.2647     2.4343     8.405      12.541     11.7385    8.9654     6.4212     13.996     0.165     
2731       7.224      2.3599     8.1757     12.283     11.5089    8.4958     6.0269     13.9443    0.163     
2731.2     7.2172     2.4208     8.464      12.1023    11.3515    8.0914     5.8112     13.757     0.168     
2731.4     7.2308     2.3465     8.1757     11.9761    11.0892    7.7392     6.8945     13.6213    0.165     
2731.6     7.2848     2.3261     7.9726     11.5829    10.8235    7.4261     5.8921     13.4727    0.165     
2731.8     7.3324     2.2776     7.7433     11.3668    10.7154    7.1        6.1811     13.4016    0.162     
2732       7.4137     2.2449     7.6645     11.2507    10.5843    6.9565     6.4024     13.4856    0.162     
