~Version
 VERS              .         2.0                           : CWLS LOG ASCII STANDARD - VERSION 2.0
 WRAP              .         NO                            : ONE LINE PER DEPTH STEP
 DLM               .         SPACE                         : DELIMITING CHARACTER(SPACE TAB OR COMMA)
~Well Information
#_______________________________________________________________________________
#
#PARAMETER_NAME    .UNIT     VALUE                         : DESCRIPTION
#_______________________________________________________________________________
STRT               .m        2703                          : First reference value
STOP               .m        2966                          : Last reference value
STEP               .m        0.2                           : Step increment
NULL               .         -9999                         : Missing value
COMP               .                                       : Company
WELL               .         507                           : Well name
FLD                .                                       : Field
LOC                .                                       : Location
CNTY               .                                       : County
STAT               .                                       : State
CTRY               .                                       : Country
SRVC               .                                       : Service Company
DATE               .                                       : Date
API                .                                       : API number
EREF               .m        139.4                         : 
X                  .m        230550                        : 
Y                  .m        242075                        : 
group              .         Pad5                          : 
Интер-р            .         Пузин                         : 
Куст               .         5                             : 
Статус             .         Не проверено                  : 
Тип                .         Разведка                      : 
~Parameter Information Block
#_______________________________________________________________________________
#
#PARAMETER_NAME    .UNIT     VALUE                         : DESCRIPTION
#_______________________________________________________________________________
SET                .         LAS1                          : 
REAL_CREATION_DATE .         Ср апр 11 2012-13_17_21       : 
TLFamily_DEPTH     .         Measured Depth                : 
TLFamily_KS        .         Potential Resistivity         : 
TLFamily_KS1       .         Extra Shallow Resistivity     : 
TLFamily_KS2       .         Shallow Resistivity           : 
TLFamily_KS3       .         Medium Resistivity            : 
TLFamily_KS4       .         Deep Resistivity              : 
TLFamily_KS5       .         Extra Deep Resistivity        : 
TLFamily_LLD       .         Lateral Log Resistivity       : 
TLFamily_OKS3      .         Medium Resistivity Inverted   : 
TLFamily_RM        .         Mud Resistivity               : 
group              .         INI                           : 
~Curve Information
#_______________________________________________________________________________
#
#LOGNAME           .UNIT     LOG_ID                        : DESCRIPTION
#_______________________________________________________________________________
DEPTH              .m                                      : Measured Depth 
KS                 .ohm.m                                  : Potential Resistivity 
KS1                .ohm.m                                  : Extra Shallow Resistivity 
KS2                .ohm.m                                  : Shallow Resistivity 
KS3                .ohm.m                                  : Medium Resistivity 
KS4                .ohm.m                                  : Deep Resistivity 
KS5                .ohm.m                                  : Extra Deep Resistivity 
LLD                .ohm.m                                  : Lateral Log Resistivity 
OKS3               .ohm.m                                  : Medium Resistivity Inverted 
RM                 .ohm.m                                  : Mud Resistivity 
~Ascii
# ...
2746.8     10.7394    5.5674     27.5227    74.09      113.5762   26.42      32.3806    6.0042     0.168     
2747       9.3239     5.163      24.8037    71.1724    112.6431   25.4807    13.6885    6.2045     0.165     
2747.2     8.1452     4.329      19.1628    61.4617    102.0885   23.9153    9.9614     6.605      0.165     
2747.4     7.1698     3.5238     15.1073    50.2082    87.1879    22.128     4.573      7.1477     0.165     
2747.6     6.5399     2.908      13.2023    40.7161    74.3051    20.1583    3.7326     7.7292     0.162     
2747.8     6.1131     2.5629     11.2812    33.0965    63.9058    17.7318    3.6591     8.3753     0.165     
2748       5.8354     2.3734     9.735      27.2318    55.0585    15.7881    3.664      8.9837     0.162     
2748.2     5.7067     2.2246     8.3526     22.2639    46.6205    14.4575    3.7206     9.3443     0.162     
2748.4     5.6525     2.1366     7.4354     18.4961    39.7674    13.4791    3.781      9.8483     0.162     
2748.6     5.6525     2.0825     6.7999     15.7734    34.4489    12.7094    3.9159     10.4039    0.162     
2748.8     5.6695     2.0486     6.4199     14.4246    30.9368    12.1876    3.9418     10.9207    0.162     
2749       5.7067     2.0419     6.3216     12.9798    28.9467    11.8093    4.0275     11.2825    0.162     
2749.2     5.8151     2.0486     6.1513     11.6894    26.048     11.6397    4.3485     11.6185    0.158     
2749.4     5.9776     2.008      6.0727     10.4958    23.5757    11.6397    4.5096     11.9867    0.158     
2749.6     6.1673     1.9607     6.0006     9.6764     21.4706    11.7441    4.2593     12.2904    0.158     
2749.8     6.4044     1.981      6.053      9.1732     19.5753    12.0702    4.7809     12.187     0.158     
2750       6.5737     2.0757     6.302      9.0377     18.2375    12.7094    5.7458     12.0228    0.158     
2750.2     6.6279     2.1975     6.6558     9.2571     17.3325    13.4269    6.4996     12.0061    0.158     
2750.4     6.6618     2.3396     7.2323     9.4829     16.3553    14.1705    6.6625     12.1999    0.158     
2750.6     6.6753     2.2719     7.3175     9.5732     15.1945    14.8619    6.4022     12.1935    0.158     
2750.8     6.716      2.2584     7.4354     9.651      14.583     15.3576    5.8536     12.1418    0.158     
2751       6.7024     2.3667     7.8416     9.8377     13.8633    15.6055    6.3201     12.0772    0.158     
2751.2     6.6753     2.3734     7.8088     10.1861    13.2468    15.6837    6.414      12.3033    0.155     
2751.4     6.6957     2.3531     7.8085     10.3023    12.3746    15.8011    5.8072     12.4131    0.158     
2751.6     6.7431     2.2652     7.5664     10.3023    11.5876    15.6185    5.2222     12.4584    0.158     
2751.8     6.8582     2.2043     7.3502     10.2829    10.8072    15.4881    5.4616     12.1676    0.158     
2752       6.9327     2.211      7.3306     10.4636    10.4597    15.175     5.686      12.155     0.158     
2752.2     6.9937     2.3058     7.6319     10.67      10.3351    15.0054    6.2514     12.1547    0.158     
2752.4     6.9869     2.2922     7.5075     10.9087    10.3482    14.8358    6.3932     12.3615    0.158     
2752.6     6.9937     2.353      7.763      10.9896    10.3482    14.6532    6.043      12.4648    0.158     
2752.8     7.014      2.3734     7.9268     11.1733    10.3614    14.3401    6.2403     12.5424    0.158     
2753       7.0343     2.3261     7.8154     11.2442    10.3285    14.04      6.1101     12.6263    0.158     
2753.2     7.0073     2.3734     7.93       11.2958    10.3875    13.8052    6.2053     12.6909    0.158     
2753.4     6.9802     2.3937     7.9595     11.3797    10.4793    13.3617    6.3234     12.8072    0.158     
2753.6     6.9734     2.3734     7.9595     11.341     10.4597    13.0486    6.2204     13.0915    0.158     
2753.8     6.9395     2.2922     7.7695     11.3668    10.5515    12.6964    6.0638     13.6277    0.158     
2754       6.9124     2.3125     7.8023     11.3281    10.6498    12.3311    5.0805     14.0412    0.158     
2754.2     6.9463     2.2652     7.6844     11.3152    10.7351    12.0311    5.6479     14.5774    0.158     
2754.4     7.0176     2.2246     7.5992     11.1605    10.7023    11.7571    5.5697     15.2494    0.158     
2754.6     7.0953     2.1907     7.4419     11.0958    10.6957    11.3527    5.4449     15.7468    0.158     
2754.8     7.224      2.1975     7.3699     10.9345    10.7023    11.0918    5.5425     16.0828    0.158     
2755       7.4001     2.1434     7.1668     10.7668    10.558     10.9279    5.8679     16.1151    0.158     
2755.2     7.5085     2.1569     7.2039     10.7539    10.5908    10.7657    6.4684     16.5156    0.158     
2755.4     7.5695     2.2313     7.4354     10.8636    10.8138    10.57      6.4023     16.942     0.158     
2755.6     7.6914     2.1501     7.2323     10.7861    10.8597    10.6091    6.0839     16.7676    0.158     
2755.8     7.8811     2.0892     7.3895     10.8571    11.0892    10.7004    6.2818     16.6637    0.158     
2756       8.0098     2.2381     7.8875     11.2958    11.627     10.7265    6.9484     16.3993    0.162     
2756.2     8.1181     2.3464     7.9988     11.9668    12.3025    10.87      7.4245     15.8631    0.162     
2756.4     8.2265     2.4817     8.4575     12.1631    12.5022    11.0135    9.8728     15.7727    0.158     
2756.6     8.4094     2.3227     8.084      11.9346    12.5189    11.0918    10.1806    16.4381    0.155     
2756.8     8.7955     2.0892     7.5337     11.7281    12.4861    11.3266    5.9374     16.8645    0.158     
2757       9.1952     2.0554     7.5009     11.9088    12.9255    11.6544    5.097      16.5609    0.158     
2757.2     9.4255     2.211      7.6385     12.8507    14.3027    11.9919    7.6891     15.7274    0.158     
2757.4     9.4255     2.6712     9.2174     13.9282    15.9159    12.592     12.1676    14.8165    0.165     
2757.6     9.229      3.023      11.0584    15.9476    17.2603    12.9573    17.0111    13.0463    0.165     
2757.8     8.9513     3.3885     12.1984    17.6251    18.0145    13.1138    35.5322    11.8063    0.162     
2758       8.5381     3.3343     11.9233    18.2703    17.6997    12.6703    36.3989    11.1081    0.162     
2758.2     8.1317     3.0433     11.124     17.0057    16.1782    12.0311    6.1824     11.1339    0.165     
2758.4     7.9518     2.5967     10.1871    16.1573    15.0462    11.2744    5.0191     11.3342    0.158     
2758.6     7.7591     2.4848     9.8333     15.5411    14.9191    10.6613    4.8347     11.3342    0.162     
2758.8     7.6101     2.5358     9.8923     15.8573    15.1618    10.3669    5.9454     11.3213    0.165     
2759       7.4679     2.6441     9.7154     16.296     15.411     10.2178    8.8694     11.3213    0.165     
2759.2     7.2985     2.6373     9.479      16.3347    15.2929    10.009     7.045      11.1275    0.165     
2759.4     7.1292     2.5764     9.1454     16.0573    15.0765    9.709      5.7901     10.3264    0.168     
2759.6     6.9666     2.5223     8.9292     15.6766    14.7092    9.4611     5.3166     10.4334    0.165     
2759.8     6.8311     2.4208     8.6081     15.2443    14.4338    9.2394     5.1227     10.5266    0.168     
2760       6.7092     2.3599     8.4706     14.6766    14.2371    9.0698     5.2349     10.7205    0.165     
2760.2     6.6107     2.3667     8.4181     13.9862    14.1321    8.848      5.3382     10.8368    0.165     
2760.4     6.567      2.3261     8.1626     13.5238    13.9977    8.6784     5.2394     10.8368    0.162     
2760.6     6.5128     2.3193     7.9595     12.9669    13.7321    8.4697     5.1479     10.8368    0.162     
2760.8     6.4654     2.3058     7.8416     12.6249    13.5222    8.3653     5.094      10.8432    0.162     
2761       6.4518     2.299      7.7197     12.3475    13.4829    8.1697     5.0123     10.8497    0.162     
2761.2     6.4518     2.299      7.6254     12.0249    13.437     8.0523     5.0447     10.8561    0.162     
