~Version
 VERS              .         2.0                           : CWLS LOG ASCII STANDARD - VERSION 2.0
 WRAP              .         NO                            : ONE LINE PER DEPTH STEP
 DLM               .         SPACE                         : DELIMITING CHARACTER(SPACE TAB OR COMMA)
~Well Information
#_______________________________________________________________________________
#
#PARAMETER_NAME    .UNIT     VALUE                         : DESCRIPTION
#_______________________________________________________________________________
STRT               .m        2703                          : First reference value
STOP               .m        2966                          : Last reference value
STEP               .m        0.2                           : Step increment
NULL               .         -9999                         : Missing value
COMP               .                                       : Company
WELL               .         507                           : Well name
FLD                .                                       : Field
LOC                .                                       : Location
CNTY               .                                       : County
STAT               .                                       : State
CTRY               .                                       : Country
SRVC               .                                       : Service Company
DATE               .                                       : Date
API                .                                       : API number
EREF               .m        139.4                         : 
X                  .m        230550                        : 
Y                  .m        242075                        : 
group              .         Pad5                          : 
Интер-р            .         Пузин                         : 
Куст               .         5                             : 
Статус             .         Не проверено                  : 
Тип                .         Разведка                      : 
~Parameter Information Block
#_______________________________________________________________________________
#
#PARAMETER_NAME    .UNIT     VALUE                         : DESCRIPTION
#_______________________________________________________________________________
SET                .         LAS1                          : 
REAL_CREATION_DATE .         Ср апр 11 2012-13_17_21       : 
TLFamily_DEPTH     .         Measured Depth                : 
TLFamily_KS        .         Potential Resistivity         : 
TLFamily_KS1       .         Extra Shallow Resistivity     : 
TLFamily_KS2       .         Shallow Resistivity           : 
TLFamily_KS3       .         Medium Resistivity            : 
TLFamily_KS4       .         Deep Resistivity              : 
TLFamily_KS5       .         Extra Deep Resistivity        : 
TLFamily_LLD       .         Lateral Log Resistivity       : 
TLFamily_OKS3      .         Medium Resistivity Inverted   : 
TLFamily_RM        .         Mud Resistivity               : 
group              .         INI                           : 
~Curve Information
#_______________________________________________________________________________
#
#LOGNAME           .UNIT     LOG_ID                        : DESCRIPTION
#_______________________________________________________________________________
DEPTH              .m                                      : Measured Depth 
KS                 .ohm.m                                  : Potential Resistivity 
KS1                .ohm.m                                  : Extra Shallow Resistivity 
KS2                .ohm.m                                  : Shallow Resistivity 
KS3                .ohm.m                                  : Medium Resistivity 
KS4                .ohm.m                                  : Deep Resistivity 
KS5                .ohm.m                                  : Extra Deep Resistivity 
LLD                .ohm.m                                  : Lateral Log Resistivity 
OKS3               .ohm.m                                  : Medium Resistivity Inverted 
RM                 .ohm.m                                  : Mud Resistivity 
~Ascii
# ...
2863.6     6.0115     2.2719     6.8392     9.3022     18.0276    10.9614    3.7068     9.2216     0.152     
2863.8     5.9709     2.1907     6.6033     9.2893     18.0276    10.6222    3.9897     9.5123     0.155     
2864       5.9506     2.0351     6.3675     9.2893     17.9948    10.3221    4.7811     9.8224     0.158     
2864.2     5.9302     1.9201     6.1709     9.1087     16.6176    10.0351    4.3175     10.0873    0.158     
2864.4     5.9709     1.981      6.374      8.8829     13.155     9.9047     4.6544     10.2876    0.158     
2864.6     6.0251     1.9674     6.2561     8.5732     11.7544    9.8916     4.888      10.475     0.158     
2864.8     6.0657     1.9742     6.1644     8.3345     10.8466    9.9177     4.4607     10.9337    0.155     
2865       6.0861     2.0013     6.1185     8.2312     12.1123    10.1004    4.4761     11.6637    0.155     
2865.2     6.1605     2.0046     5.9154     8.0957     12.8664    10.5309    4.3236     12.8072    0.152     
2865.4     6.2892     1.9607     5.9154     7.9796     12.368     11.1831    5.2869     15.8114    0.152     
2865.6     6.4721     1.9404     5.8761     8.0506     12.1188    11.6788    6.4144     17.5555    0.155     
2865.8     6.7363     1.8592     5.7776     8.3345     12.0992    12.7094    9.6383     17.3555    0.158     
2866       6.9937     1.9201     5.9678     9.0893     12.0926    13.5182    6.9108     16.5802    0.158     
2866.2     7.2511     2.211      6.3151     9.7087     11.8565    14.3792    6.3989     16.0117    0.155     
2866.4     7.4204     2.2516     7.1275     9.87       11.6008    15.188     6.1522     15.6564    0.155     
2866.6     7.5017     2.2246     7.1078     9.728      11.2794    15.8533    6.1561     15.2171    0.155     
2866.8     7.5695     2.1975     7.0816     9.6313     11.2597    16.3621    6.214      14.4095    0.155     
2867       7.6237     2.1704     7.2651     9.5698     11.3253    17.771     6.8259     13.5954    0.152     
2867.2     7.6846     2.1637     7.2782     9.5926     11.6073    19.9365    6.8564     13.2207    0.152     
2867.4     7.8404     2.1637     7.4223     9.7926     12.0992    22.4412    6.2908     13.1561    0.152     
2867.6     7.9556     2.1298     7.5337     10.0377    12.5189    23.2891    11.2224    13.1884    0.155     
2867.8     8.2875     2.184      7.6778     10.8636    13.8567    23.6413    24.7472    13.4985    0.162     
2868       8.4952     2.1998     7.7259     12.5585    16.126     23.6283    78.2912    14.289     0.16      
2868.2     8.1446     3.2667     8.0513     16.4896    19.2802    23.6413    45.3812    14.2609    0.158     
2868.4     7.8336     3.2258     10.3312    18.1735    20.4541    25.7155    9.0803     13.3112    0.158     
2868.6     7.5288     3.2261     11.5498    18.8832    20.6115    33.1253    6.7989     11.7671    0.158     
2868.8     7.3798     3.2125     11.2157    19.1154    20.0409    26.9548    4.8753     10.3264    0.155     
2869       7.2579     3.1516     10.589     19.1219    19.4189    20.5888    4.329      9.1247     0.155     
2869.2     6.9937     3.0772     10.1478    18.767     18.3358    11.1962    3.8667     8.3688     0.152     
2869.4     6.5466     2.8945     9.5057     17.5541    16.5652    8.3393     3.4985     7.8842     0.152     
2869.6     6.0996     2.6982     9.2043     15.2379    14.0862    7.4783     3.4806     7.6283     0.155     
2869.8     5.788      2.4479     8.9816     13.1411    12.1123    7.113      3.3887     7.5095     0.155     
2870       5.5035     2.2516     8.5164     11.9797    10.9318    7.0608     3.399      7.4578     0.155     
2870.2     5.3748     2.1163     7.9857     11.7244    10.2432    7.0608     4.3233     7.5741     0.155     
2870.4     5.3206     1.9877     7.2716     11.5539    9.9875     6.8521     4.3607     7.8842     0.158     
2870.6     5.2596     2.0486     6.7213     11.2958    9.8235     6.3042     3.8621     8.1879     0.158     
2870.8     5.2393     2.1095     6.6689     11.1474    9.7448     5.5084     3.875      8.1362     0.158     
2871       5.1648     2.1163     6.5116     10.7926    9.5612     5.3128     3.489      8.1362     0.158     
2871.2     5.1242     2.096      6.3937     10.1281    8.9907     4.9475     3.6843     8.1814     0.155     
2871.4     5.0835     2.0216     6.243      9.3861     8.3283     4.6605     3.576      8.2783     0.155     
2871.6     5.0835     2.0013     6.2496     8.7345     8.0398     4.2952     3.6393     8.4463     0.152     
2871.8     5.1174     1.9336     6.053      8.1603     8.4332     3.956      4.0255     8.7112     0.152     
2872       5.1506     1.9065     5.9089     7.857      8.6171     3.7082     4.2362     9.0859     0.152     
2872.2     5.1987     1.9262     5.9416     7.7538     8.7283     3.5256     4.2264     9.325      0.152     
2872.4     5.28       1.9471     5.9351     7.7151     8.8005     3.4342     4.633      9.4542     0.155     
2872.6     5.4087     1.9674     5.922      7.7538     8.8202     3.3821     4.8058     9.4541     0.155     
2872.8     5.5035     1.9877     5.9695     7.8699     8.8398     3.356      4.9868     9.4348     0.158     
2873       5.5983     2.0689     6.1382     7.9603     8.8726     3.3299     4.8562     9.4348     0.158     
2873.2     5.6525     2.0892     6.2889     8.0183     8.8267     3.3168     4.7262     9.4348     0.158     
2873.4     5.6525     2.1434     6.4658     8.1344     8.6759     3.3299     4.7142     9.4121     0.158     
2873.6     5.6322     2.1772     6.7802     8.3022     8.5185     3.356      4.5453     9.2733     0.155     
2873.8     5.5848     2.211      6.9375     8.3761     8.2824     3.4342     4.2741     9.1311     0.155     
2874       5.5577     2.2043     6.7671     8.3861     8.0463     3.5516     4.0857     9.2539     0.152     
2874.2     5.5306     2.1095     6.7016     8.3603     7.9086     3.7082     4.541      9.2733     0.152     
2874.4     5.517      2.0892     6.7475     8.4183     7.8561     3.8126     4.4633     9.4542     0.155     
2874.6     5.5306     2.0825     6.7082     8.5667     7.8168     3.8778     3.9751     9.4025     0.155     
2874.8     5.5509     2.1095     6.6492     8.6764     7.7643     3.943      4.2692     9.2927     0.157     
2875       5.5984     2.0283     6.682      8.7087     7.6791     3.9952     4.5252     9.2797     0.158     
2875.2     5.6186     2.0148     6.4658     8.6441     7.5938     4.0995     4.7593     9.2087     0.158     
2875.4     5.6186     2.0148     6.5182     8.6635     7.6397     4.3996     5.0797     9.157      0.158     
2875.6     5.6186     2.0148     6.8589     8.7409     7.7446     4.8431     5.2421     9.1182     0.158     
2875.8     5.6289     2.0148     6.9245     8.8635     7.8352     5.4693     4.7325     8.989      0.158     
2876       5.6593     2.0148     6.9506     9.0313     7.8824     6.1607     4.2547     8.8275     0.155     
2876.2     5.6661     2.1569     6.9571     9.0442     7.8824     6.4346     4.2692     8.6594     0.152     
2876.4     5.517      2.1975     6.9605     8.9861     7.843      6.5912     4.458      8.6078     0.158     
2876.6     5.3748     2.1434     6.9833     8.9667     7.8233     6.6564     4.5173     8.5562     0.155     
2876.8     5.28       2.1163     6.9768     8.9087     7.8233     6.6956     4.3743     8.582      0.155     
2877       5.2596     2.0486     6.944      8.9119     7.8037     6.7608     4.1967     8.6531     0.158     
2877.2     5.2529     2.0283     6.7802     8.928      7.8102     6.826      3.9132     8.7887     0.155     
2877.4     5.2596     2.008      6.4592     8.9151     7.7971     6.813      3.9719     8.9115     0.155     
2877.6     5.2529     2.0148     6.4264     8.928      7.7315     6.7347     3.9762     9.2022     0.155     
2877.8     5.2529     2.0013     6.3413     8.9409     7.62       6.5651     3.9009     9.4865     0.155     
2878       5.2529     2.008      6.2692     8.9538     7.4823     6.4086     4.0589     9.5834     0.155     
