~Version
 VERS              .         2.0                           : CWLS LOG ASCII STANDARD - VERSION 2.0
 WRAP              .         NO                            : ONE LINE PER DEPTH STEP
 DLM               .         SPACE                         : DELIMITING CHARACTER(SPACE TAB OR COMMA)
~Well Information
#_______________________________________________________________________________
#
#PARAMETER_NAME    .UNIT     VALUE                         : DESCRIPTION
#_______________________________________________________________________________
STRT               .m        2703                          : First reference value
STOP               .m        2966                          : Last reference value
STEP               .m        0.2                           : Step increment
NULL               .         -9999                         : Missing value
COMP               .                                       : Company
WELL               .         507                           : Well name
FLD                .                                       : Field
LOC                .                                       : Location
CNTY               .                                       : County
STAT               .                                       : State
CTRY               .                                       : Country
SRVC               .                                       : Service Company
DATE               .                                       : Date
API                .                                       : API number
EREF               .m        139.4                         : 
X                  .m        230550                        : 
Y                  .m        242075                        : 
group              .         Pad5                          : 
Интер-р            .         Пузин                         : 
Куст               .         5                             : 
Статус             .         Не проверено                  : 
Тип                .         Разведка                      : 
~Parameter Information Block
#_______________________________________________________________________________
#
#PARAMETER_NAME    .UNIT     VALUE                         : DESCRIPTION
#_______________________________________________________________________________
SET                .         LAS1                          : 
REAL_CREATION_DATE .         Ср апр 11 2012-13_17_21       : 
TLFamily_DEPTH     .         Measured Depth                : 
TLFamily_KS        .         Potential Resistivity         : 
TLFamily_KS1       .         Extra Shallow Resistivity     : 
TLFamily_KS2       .         Shallow Resistivity           : 
TLFamily_KS3       .         Medium Resistivity            : 
TLFamily_KS4       .         Deep Resistivity              : 
TLFamily_KS5       .         Extra Deep Resistivity        : 
TLFamily_LLD       .         Lateral Log Resistivity       : 
TLFamily_OKS3      .         Medium Resistivity Inverted   : 
TLFamily_RM        .         Mud Resistivity               : 
group              .         INI                           : 
~Curve Information
#_______________________________________________________________________________
#
#LOGNAME           .UNIT     LOG_ID                        : DESCRIPTION
#_______________________________________________________________________________
DEPTH              .m                                      : Measured Depth 
KS                 .ohm.m                                  : Potential Resistivity 
KS1                .ohm.m                                  : Extra Shallow Resistivity 
KS2                .ohm.m                                  : Shallow Resistivity 
KS3                .ohm.m                                  : Medium Resistivity 
KS4                .ohm.m                                  : Deep Resistivity 
KS5                .ohm.m                                  : Extra Deep Resistivity 
LLD                .ohm.m                                  : Lateral Log Resistivity 
OKS3               .ohm.m                                  : Medium Resistivity Inverted 
RM                 .ohm.m                                  : Mud Resistivity 
~Ascii
2703.0     4.4705     1.081      0.0648     0          0          0.1925     76.0962    19.4165    0.162     
2703.2     5.1682     1.6223     0.589      0          0          0.2121     76.4002    17.8853    0.165     
2703.4     5.7338     1.8964     2.5905     0          0          0.2251     78.4678    16.1797    0.162     
2703.6     6.0183     2.0825     4.271      0          0          0.2512     59.4692    15.1137    0.162     
2703.8     6.1741     2.1467     5.4306     0          0          0.2642     84.4329    14.1446    0.158     
2704       6.3028     2.1704     6.1971     0          0          0.2773     95.736     13.4242    0.163     
2704.2     6.3705     2.2043     6.8064     0          0          0.2903     145.826    12.9558    0.165     
2704.4     6.4247     2.2381     7.1373     0.5865     0          0.2903     122.921    12.6005    0.165     
2704.6     6.4518     2.2584     7.3109     3.2053     0          0.2903     129.6686   12.3615    0.165     
2704.8     6.4586     2.2719     7.4682     5.515      0          0.3034     0          12.2129    0.165     
2705       6.445      2.2922     7.5566     7.2506     0          0.3034     0          12.0837    0.165     
2705.2     6.445      2.3193     7.6582     8.4732     0          0.3034     0          12.032     0.165     
2705.4     6.445      2.2888     7.5926     9.4377     0          0.3034     0          12.032     0.165     
2705.6     6.445      2.2753     7.5468     9.9216     0          0.3034     0.119      12.1676    0.165     
2705.8     6.445      2.2922     7.6188     10.2119    0          0.3034     5.496      12.2387    0.165     
2706       6.4518     2.2753     7.5763     10.4055    0          0.3034     4.8823     12.3227    0.165     
2706.2     6.4755     2.2652     7.5042     10.4539    0          0.3034     4.9271     12.2064    0.163     
2706.4     6.506      2.255      7.4419     10.4894    0.449      0.3034     5.2941     12.1483    0.162     
2706.6     6.506      2.2821     7.5501     10.5797    2.5573     0.3034     5.3887     12.0966    0.165     
2706.8     6.4924     2.3125     7.6319     10.6249    4.5115     0.3034     5.4211     12.1353    0.165     
2707       6.5162     2.2618     7.5042     10.5797    5.9773     0.3034     5.51       12.1644    0.162     
2707.2     6.5399     2.2415     7.4714     10.5023    7.0331     0.3034     4.9966     12.2193    0.165     
2707.4     6.6008     2.2381     7.4682     10.4571    7.9545     0.3034     5.41       12.0901    0.165     
2707.6     6.6889     2.211      7.3568     10.2635    8.4037     0.3034     5.586      11.8511    0.162     
2707.8     6.7431     2.1501     7.1471     10.3055    8.7808     0.3034     5.5823     11.9706    0.158     
2708       6.7295     2.2787     7.5664     10.4894    9.3054     0.3034     5.3572     12.1256    0.165     
2708.2     6.7363     2.3328     7.7761     10.8765    9.6432     0.3034     6.002      12.2387    0.165     
2708.4     6.7803     2.3396     7.8449     11.0087    9.8301     0.3034     6.3342     12.1418    0.165     
2708.6     6.7837     2.3599     7.835      11.1023    9.9973     0.3034     6.0621     12.1612    0.165     
2708.8     6.7837     2.3937     7.9464     11.1797    10.1088    0.3164     5.8441     12.1224    0.165     
2709       6.7803     2.387      7.9202     11.2216    10.1514    0.3099     6.1387     12.0707    0.165     
2709.2     6.804      2.3768     7.9268     11.0765    10.0465    0.3164     6.0158     12.0384    0.165     
2709.4     6.7905     2.2956     7.6778     11.0571    10.0236    0.3164     5.613      12.1483    0.162     
2709.6     6.7871     2.3599     7.9202     11.0668    10.0399    0.3164     5.514      12.3033    0.165     
2709.8     6.7939     2.3091     7.7957     11.1345    10.1154    0.3164     5.7581     12.5553    0.165     
2710       6.8108     2.2956     7.7564     11.0507    10.1318    0.3164     5.5447     12.7782    0.165     
2710.2     6.8277     2.3125     7.7695     11.0636    10.1908    0.3164     5.6443     12.9623    0.165     
2710.4     6.8718     2.299      7.6909     11.0797    10.2039    0.3164     5.6998     13.0269    0.165     
2710.6     6.9158     2.299      7.6287     11.0152    10.158     0.3556     5.801      13.0495    0.165     
2710.8     6.9632     2.2922     7.5926     10.9345    10.0957    1.3731     5.9726     13.0075    0.165     
2711       7.0073     2.3024     7.5861     10.9184    10.099     2.5211     5.895      13.0657    0.165     
2711.2     7.0479     2.3125     7.6188     10.8797    10.0859    3.2973     6.0455     13.1141    0.168     
2711.4     7.0919     2.2821     7.5828     10.8055    10.1154    3.9821     5.9654     13.3209    0.165     
2711.6     7.136      2.2753     7.609      10.7636    10.1547    4.6996     5.8358     13.6407    0.168     
2711.8     7.2172     2.2719     7.6188     10.7249    10.1777    5.2214     5.9686     13.9508    0.165     
2712       7.3019     2.2482     7.5468     10.7474    10.2334    5.6519     6.1096     14.4805    0.165     
2712.2     7.3459     2.2821     7.6516     10.9184    10.4465    6.0563     6.0688     15.1718    0.167     
2712.4     7.3798     2.4073     8.0185     11.2507    10.7712    6.3042     6.3726     15.7307    0.165     
2712.6     7.4543     2.4039     7.9726     11.4313    10.8958    6.6564     7.4245     15.9665    0.165     
2712.8     7.4916     2.3734     7.9497     11.4668    10.9187    6.8651     6.8478     16.0731    0.165     
2713       7.5085     2.4174     8.0578     11.5217    11.04      7.0869     6.7634     15.9891    0.165     
2713.2     7.5085     2.3971     8.0087     11.5958    11.1417    7.3739     6.8108     15.9406    0.165     
2713.4     7.5492     2.4479     8.2347     11.5313    11.1679    7.5826     6.6159     16.1215    0.168     
2713.6     7.6372     2.2787     7.7663     11.3539    11.1187    7.8566     6.0149     16.3477    0.162     
2713.8     7.8607     2.1975     7.5861     11.0087    11.04      8.3132     5.6314     16.3057    0.162     
2714       8.1486     2.1095     7.2585     10.9023    11.2269    8.8024     5.9128     16.4672    0.162     
2714.2     8.4297     2.0317     7.062      10.9668    11.6532    9.4351     6.0314     17.0712    0.162     
2714.4     8.8091     2.0486     7.1864     11.3668    12.4533    10.1982    6.2624     17.3717    0.163     
2714.6     9.1477     2.1941     7.763      12.2765    13.6272    11.0396    7.6386     17.1229    0.162     
2714.8     9.4593     2.4411     8.69       13.6024    14.8962    11.9658    11.5082    16.2184    0.162     
2715       9.5372     2.7794     9.6564     14.8992    16.3225    12.4746    18.504     15.0458    0.163     
2715.2     9.3713     3.1279     10.7702    16.3799    17.3718    12.7486    24.3702    13.4145    0.168     
2715.4     9.0461     3.3377     11.6677    17.1638    17.68      12.7355    24.7601    12.032     0.165     
2715.6     8.5957     3.2734     11.8381    17.2928    17.4177    12.4811    14.0123    11.5151    0.168     
2715.8     8.1859     3.1415     11.8708    17.3283    17.0439    11.9658    8.1672     11.2308    0.168     
2716       7.7795     3.0907     11.8217    16.9863    16.4471    11.1962    6.3852     11.121     0.167     
2716.2     7.5661     2.8268     10.8816    16.4379    15.4306    10.5896    7.2053     10.9724    0.165     
2716.4     7.3663     2.59       9.7219     15.5992    14.5322    9.983      5.3069     10.798     0.165     
2716.6     7.2308     2.4952     9.3288     15.2863    13.9354    9.4677     5.4675     10.6817    0.168     
2716.8     7.0953     2.4919     8.9914     15.4185    13.7911    9.1089     5.9049     10.7334    0.168     
2717       6.9666     2.4919     8.8604     15.4185    13.6305    8.8611     5.927      10.8755    0.168     
2717.2     6.8481     2.4682     8.6474     15.2411    13.4436    8.6589     5.7928     10.9789    0.168     
2717.4     6.7702     2.4309     8.4542     14.7798    13.1747    8.4697     5.6825     11.0693    0.168     
