~Version
 VERS              .         2.0                           : CWLS LOG ASCII STANDARD - VERSION 2.0
 WRAP              .         NO                            : ONE LINE PER DEPTH STEP
 DLM               .         SPACE                         : DELIMITING CHARACTER(SPACE TAB OR COMMA)
~Well Information
#_______________________________________________________________________________
#
#PARAMETER_NAME    .UNIT     VALUE                         : DESCRIPTION
#_______________________________________________________________________________
STRT               .m        2701                          : First reference value
STOP               .m        2966                          : Last reference value
STEP               .m        0.2                           : Step increment
NULL               .         -9999                         : Missing value
COMP               .                                       : Company
WELL               .         507                           : Well name
FLD                .                                       : Field
LOC                .                                       : Location
CNTY               .                                       : County
STAT               .                                       : State
CTRY               .                                       : Country
SRVC               .                                       : Service Company
DATE               .                                       : Date
API                .                                       : API number
EREF               .m        139.4                         : 
X                  .m        230550                        : 
Y                  .m        242075                        : 
group              .         Pad5                          : 
Интер-р            .         Пузин                         : 
Куст               .         5                             : 
Статус             .         Не проверено                  : 
Тип                .         Разведка                      : 
~Parameter Information Block
#_______________________________________________________________________________
#
#PARAMETER_NAME    .UNIT     VALUE                         : DESCRIPTION
#_______________________________________________________________________________
SET                .         LAS3                          : 
REAL_CREATION_DATE .         Ср апр 11 2012-13_17_21       : 
TLFamily_DEPTH     .         Measured Depth                : 
TLFamily_GR        .         Gamma Ray                     : 
TLFamily_TNPH      .         Neutron Porosity              : 
group              .         INI                           : 
~Curve Information
#_______________________________________________________________________________
#
#LOGNAME           .UNIT     LOG_ID                        : DESCRIPTION
#_______________________________________________________________________________
DEPTH              .m                                      : Measured Depth 
GR                 .gAPI                                   :  
TNPH               .v/v                                    : Neutron Porosity 
~Ascii
# ...
2895.4     31.09      0.195     
2895.6     35.99      0.201     
2895.8     40.24      0.206     
2896       39.66      0.198     
2896.2     41.33      0.2       
2896.4     52.86      0.219     
2896.6     74.14      0.229     
2896.8     81.53      0.238     
2897       75.59      0.24      
2897.2     70.41      0.252     
2897.4     66.31      0.246     
2897.6     61.2       0.235     
2897.8     56.63      0.225     
2898       55.46      0.212     
2898.2     55.75      0.199     
2898.4     55.21      0.194     
2898.6     55.11      0.203     
2898.8     49.42      0.19      
2899       41.48      0.14      
2899.2     35.89      0.107     
2899.4     28.96      0.093     
2899.6     26.15      0.097     
2899.8     31.94      0.108     
2900       42.45      0.127     
2900.2     52.56      0.159     
2900.4     56.06      0.181     
2900.6     50.63      0.199     
2900.8     43.44      0.201     
2901       41.62      0.184     
2901.2     46.81      0.186     
2901.4     52.43      0.221     
2901.6     52.25      0.25      
2901.8     49.5       0.251     
2902       50.42      0.239     
2902.2     51.18      0.231     
2902.4     47.95      0.229     
2902.6     46.09      0.213     
2902.8     46.45      0.193     
2903       43.49      0.184     
2903.2     41.08      0.18      
2903.4     43.52      0.195     
2903.6     46.77      0.233     
2903.8     49.84      0.23      
2904       51.75      0.188     
2904.2     57.14      0.182     
2904.4     74.79      0.214     
2904.6     90.21      0.257     
2904.8     87.25      0.276     
2905       75.9       0.249     
2905.2     66.3       0.208     
2905.4     62.66      0.181     
2905.6     69.15      0.199     
2905.8     80.9       0.24      
2906       94.34      0.273     
2906.2     102.87     0.278     
2906.4     104.49     0.269     
2906.6     105.72     0.26      
2906.8     108.57     0.257     
2907       113.2      0.258     
2907.2     119.25     0.264     
2907.4     132.92     0.289     
2907.6     162.84     0.316     
2907.8     187.42     0.355     
2908       184.88     0.403     
2908.2     158.09     0.366     
2908.4     126.47     0.241     
2908.6     105.22     0.199     
2908.8     96.73      0.215     
2909       93.21      0.243     
2909.2     89.17      0.231     
2909.4     88.76      0.225     
2909.6     94.88      0.24      
2909.8     103.67     0.261     
2910       108.11     0.258     
2910.2     100.48     0.24      
2910.4     85.71999   0.238     
2910.6     77.05      0.242     
2910.8     73.17001   0.244     
2911       68.50999   0.25      
2911.2     68.43001   0.248     
2911.4     73.18      0.246     
2911.6     76         0.238     
2911.8     74.86      0.245     
2912       75.22      0.246     
2912.2     80.03      0.232     
2912.4     84.43      0.238     
2912.6     89.53      0.254     
2912.8     95.87      0.251     
2913       98.2       0.244     
2913.2     98.57001   0.239     
2913.4     100.39     0.247     
2913.6     97.5       0.262     
2913.8     95.55      0.267     
2914       98.46      0.266     
2914.2     98.47      0.25      
2914.4     95.68      0.245     
2914.6     93.36      0.25      
2914.8     88.26      0.246     
2915       81.75      0.246     
2915.2     76.96999   0.245     
2915.4     76.09      0.233     
2915.6     76.41      0.235     
2915.8     72.44      0.268     
2916       68.4       0.284     
2916.2     64.59      0.259     
2916.4     58.9       0.236     
2916.6     55.62      0.221     
2916.8     57.18      0.217     
2917       57.56      0.222     
2917.2     55.83      0.227     
2917.4     55.33      0.254     
2917.6     58.75      0.287     
2917.8     61.71      0.267     
2918       63.45      0.232     
2918.2     62.98      0.209     
2918.4     58.13      0.193     
2918.6     52.72      0.192     
2918.8     52.03      0.208     
2919       56.79      0.214     
2919.2     61.68999   0.214     
2919.4     61.82      0.216     
2919.6     60.2       0.223     
2919.8     59.63      0.233     
2920       62         0.245     
2920.2     66.18      0.239     
2920.4     68.92999   0.229     
2920.6     78.07999   0.234     
2920.8     96.07001   0.261     
2921       104.89     0.313     
2921.2     102.65     0.343     
2921.4     100.07     0.291     
2921.6     96.87      0.253     
2921.8     90.28      0.249     
2922       78.04      0.25      
2922.2     65.82      0.235     
2922.4     56.44      0.225     
2922.6     51.56      0.223     
2922.8     56.16      0.217     
2923       69.46999   0.227     
2923.2     81.74      0.238     
2923.4     85.14      0.245     
2923.6     86.17      0.262     
2923.8     96.14      0.285     
2924       107.59     0.3       
2924.2     111.52     0.3       
2924.4     110.25     0.3       
2924.6     108.36     0.3       
2924.8     105.84     0.306     
2925       102.84     0.326     
2925.2     102.78     0.328     
2925.4     107.38     0.314     
2925.6     109.68     0.319     
2925.8     109.71     0.316     
2926       113.03     0.307     
2926.2     111.85     0.299     
2926.4     104.55     0.289     
2926.6     100.38     0.283     
2926.8     95.92      0.273     
2927       79.05      0.299     
2927.2     53.38      0.343     
2927.4     33.41      0.427     
2927.6     23.44      0.514     
2927.8     16.03      0.538     
2928       13.15      0.505     
2928.2     19.96      0.472     
2928.4     33.08      0.43      
2928.6     42.88      0.44      
2928.8     43.48      0.464     
2929       45.48      0.459     
2929.2     58.19      0.469     
2929.4     70.03      0.493     
2929.6     76.52      0.446     
2929.8     85.77      0.339     
2930       92.31      0.288     
2930.2     93.24001   0.264     
2930.4     94.02      0.263     
2930.6     96.3       0.268     
2930.8     95.15      0.274     
2931       93.09      0.271     
2931.2     90.83      0.261     
2931.4     86.13      0.268     
2931.6     77.23      0.312     
2931.8     70.71      0.333     
2932       76.23      0.292     
2932.2     86.27      0.277     
2932.4     89.88      0.248     
2932.6     88.8       0.215     
2932.8     88.48      0.208     
2933       94.01      0.23      
2933.2     100.39     0.238     
2933.4     103.41     0.227     
2933.6     104.88     0.221     
2933.8     101.2      0.232     
2934       95.85      0.252     
2934.2     88.03001   0.25      
2934.4     78.75      0.248     
2934.6     79.36      0.264     
2934.8     93.06      0.271     
2935       108.47     0.246     
2935.2     101.3      0.213     
2935.4     73.78      0.201     
2935.6     65.41      0.203     
2935.8     68.81      0.215     
2936       77.58      0.229     
2936.2     82.33      0.233     
2936.4     83.05      0.241     
2936.6     84.13      0.247     
2936.8     83.28      0.262     
2937       82.56      0.28      
2937.2     85.97      0.269     
2937.4     89.11      0.245     
2937.6     89.62      0.24      
2937.8     86.41      0.244     
2938       90.41      0.24      
2938.2     91.82999   0.248     
2938.4     81.18      0.263     
2938.6     75.47      0.261     
2938.8     74.39      0.242     
2939       71.81      0.246     
2939.2     76         0.259     
2939.4     95.49      0.289     
2939.6     103.81     0.298     
2939.8     98.06      0.307     
2940       84.05      0.284     
2940.2     84.63      0.277     
2940.4     96.56      0.316     
2940.6     100.22     0.36      
2940.8     101.63     0.353     
2941       98.59      0.304     
2941.2     93.59      0.277     
2941.4     87.9       0.255     
2941.6     87.25      0.267     
2941.8     83.6       0.292     
2942       75.82      0.306     
2942.2     68.16      0.277     
2942.4     65.56      0.258     
2942.6     65.64      0.258     
2942.8     65.43      0.244     
2943       69.58      0.246     
2943.2     79.31      0.258     
2943.4     84.01      0.259     
2943.6     86.63      0.255     
2943.8     95.5       0.257     
