~Version
 VERS              .         2.0                           : CWLS LOG ASCII STANDARD - VERSION 2.0
 WRAP              .         NO                            : ONE LINE PER DEPTH STEP
 DLM               .         SPACE                         : DELIMITING CHARACTER(SPACE TAB OR COMMA)
~Well Information
#_______________________________________________________________________________
#
#PARAMETER_NAME    .UNIT     VALUE                         : DESCRIPTION
#_______________________________________________________________________________
STRT               .m        2701                          : First reference value
STOP               .m        2966                          : Last reference value
STEP               .m        0.2                           : Step increment
NULL               .         -9999                         : Missing value
COMP               .                                       : Company
WELL               .         507                           : Well name
FLD                .                                       : Field
LOC                .                                       : Location
CNTY               .                                       : County
STAT               .                                       : State
CTRY               .                                       : Country
SRVC               .                                       : Service Company
DATE               .                                       : Date
API                .                                       : API number
EREF               .m        139.4                         : 
X                  .m        230550                        : 
Y                  .m        242075                        : 
group              .         Pad5                          : 
Интер-р            .         Пузин                         : 
Куст               .         5                             : 
Статус             .         Не проверено                  : 
Тип                .         Разведка                      : 
~Parameter Information Block
#_______________________________________________________________________________
#
#PARAMETER_NAME    .UNIT     VALUE                         : DESCRIPTION
#_______________________________________________________________________________
SET                .         LAS3                          : 
REAL_CREATION_DATE .         Ср апр 11 2012-13_17_21       : 
TLFamily_DEPTH     .         Measured Depth                : 
TLFamily_GR        .         Gamma Ray                     : 
TLFamily_TNPH      .         Neutron Porosity              : 
group              .         INI                           : 
~Curve Information
#_______________________________________________________________________________
#
#LOGNAME           .UNIT     LOG_ID                        : DESCRIPTION
#_______________________________________________________________________________
DEPTH              .m                                      : Measured Depth 
GR                 .gAPI                                   :  
TNPH               .v/v                                    : Neutron Porosity 
~Ascii
# ...
2846.8     125.33     0.3       
2847       117.18     0.297     
2847.2     122.14     0.282     
2847.4     135.17     0.289     
2847.6     135.09     0.298     
2847.8     128.08     0.288     
2848       124.69     0.288     
2848.2     123.06     0.289     
2848.4     125.73     0.294     
2848.6     129.23     0.311     
2848.8     131.24     0.326     
2849       135.33     0.325     
2849.2     138.42     0.328     
2849.4     142.57     0.35      
2849.6     146.19     0.371     
2849.8     140.72     0.372     
2850       121.95     0.328     
2850.2     108.01     0.306     
2850.4     115.84     0.311     
2850.6     133.72     0.328     
2850.8     144.55     0.345     
2851       138.94     0.347     
2851.2     126.61     0.317     
2851.4     116.65     0.281     
2851.6     107.36     0.278     
2851.8     101.54     0.285     
2852       106.66     0.29      
2852.2     117.99     0.308     
2852.4     124.55     0.308     
2852.6     132.79     0.296     
2852.8     142.23     0.301     
2853       141.87     0.316     
2853.2     133.54     0.323     
2853.4     122.11     0.317     
2853.6     109.74     0.302     
2853.8     104.1      0.287     
2854       110.77     0.291     
2854.2     122.39     0.303     
2854.4     130.05     0.301     
2854.6     136.06     0.305     
2854.8     140.56     0.331     
2855       146.85     0.365     
2855.2     156.53     0.386     
2855.4     157.96     0.381     
2855.6     146.92     0.365     
2855.8     138.14     0.35      
2856       147.09     0.341     
2856.2     166.68     0.367     
2856.4     166.93     0.381     
2856.6     145.07     0.364     
2856.8     124.71     0.367     
2857       121.98     0.4       
2857.2     130.78     0.438     
2857.4     145.13     0.447     
2857.6     172.3      0.442     
2857.8     199.93     0.401     
2858       204.78     0.337     
2858.2     184.39     0.325     
2858.4     164.26     0.352     
2858.6     152.73     0.354     
2858.8     136.49     0.327     
2859       119.3      0.298     
2859.2     117.74     0.304     
2859.4     125.68     0.322     
2859.6     133.17     0.328     
2859.8     138.7      0.315     
2860       139.06     0.333     
2860.2     130.45     0.358     
2860.4     122.27     0.344     
2860.6     118.78     0.31      
2860.8     118.72     0.292     
2861       124.45     0.285     
2861.2     129.53     0.288     
2861.4     126.47     0.302     
2861.6     123.71     0.287     
2861.8     126        0.259     
2862       131.13     0.252     
2862.2     143.92     0.275     
2862.4     157.3      0.293     
2862.6     155.12     0.306     
2862.8     145.77     0.313     
2863       141.27     0.305     
2863.2     137.2      0.292     
2863.4     129.4      0.29      
2863.6     121.47     0.303     
2863.8     119.25     0.333     
2864       120.67     0.357     
2864.2     124.01     0.349     
2864.4     129.47     0.329     
2864.6     132.16     0.297     
2864.8     130.3      0.279     
2865       127.93     0.298     
2865.2     128.91     0.318     
2865.4     131.73     0.312     
2865.6     131.3      0.311     
2865.8     128.1      0.31      
2866       123.39     0.308     
2866.2     120.18     0.306     
2866.4     122.37     0.318     
2866.6     127.84     0.329     
2866.8     133.74     0.31      
2867       137.16     0.276     
2867.2     136.9      0.255     
2867.4     131.17     0.259     
2867.6     108.37     0.254     
2867.8     71.21001   0.236     
2868       54.32      0.231     
2868.2     77.53999   0.242     
2868.4     119.98     0.245     
2868.6     143.56     0.291     
2868.8     146.82     0.324     
2869       141.01     0.296     
2869.2     133.66     0.252     
2869.4     129.3      0.259     
2869.6     129.77     0.315     
2869.8     132.31     0.339     
2870       132.12     0.298     
2870.2     131.44     0.271     
2870.4     132.07     0.28      
2870.6     127.05     0.286     
2870.8     119.8      0.295     
2871       114.34     0.308     
2871.2     112.31     0.289     
2871.4     115.97     0.268     
2871.6     120.26     0.277     
2871.8     126.22     0.3       
2872       130.49     0.318     
2872.2     127.74     0.336     
2872.4     127.16     0.341     
2872.6     131.19     0.325     
2872.8     131.87     0.314     
2873       132.57     0.325     
2873.2     133.39     0.363     
2873.4     129.31     0.375     
2873.6     124.97     0.344     
2873.8     130.58     0.328     
2874       141.66     0.322     
2874.2     150        0.306     
2874.4     148.22     0.309     
2874.6     141.96     0.33      
2874.8     141.95     0.321     
2875       145.4      0.291     
2875.2     144.68     0.276     
2875.4     140.42     0.273     
2875.6     137.19     0.276     
2875.8     136.43     0.293     
2876       134.4      0.299     
2876.2     129.55     0.299     
2876.4     127.01     0.316     
2876.6     127.34     0.312     
2876.8     124.94     0.309     
2877       123.01     0.322     
2877.2     124.74     0.317     
2877.4     124.39     0.292     
2877.6     121.5      0.273     
2877.8     121.82     0.28      
2878       121.63     0.304     
2878.2     123.2      0.315     
2878.4     125.04     0.309     
2878.6     121.06     0.304     
2878.8     122.06     0.302     
2879       123.54     0.306     
2879.2     120.94     0.303     
2879.4     116.02     0.3       
2879.6     98.23      0.289     
2879.8     69.28001   0.249     
2880       61.34      0.208     
2880.2     84.04      0.233     
2880.4     112.93     0.281     
2880.6     130.23     0.319     
2880.8     136.05     0.32      
2881       133.89     0.322     
2881.2     129.86     0.325     
2881.4     128.74     0.336     
2881.6     130.89     0.344     
2881.8     134.24     0.347     
2882       133.48     0.352     
2882.2     130.53     0.389     
2882.4     135.9      0.397     
2882.6     142.15     0.332     
2882.8     141.85     0.306     
2883       141.26     0.313     
2883.2     138.6      0.321     
2883.4     133.09     0.321     
2883.6     131.69     0.327     
2883.8     133.94     0.337     
2884       137.65     0.342     
2884.2     141.04     0.332     
2884.4     139.75     0.316     
2884.6     133.34     0.321     
2884.8     127.42     0.339     
2885       126.01     0.337     
2885.2     120.12     0.336     
2885.4     107.81     0.324     
2885.6     103.38     0.298     
2885.8     113.94     0.275     
2886       140.4      0.234     
2886.2     182.46     0.21      
2886.4     199.46     0.232     
2886.6     153.98     0.232     
2886.8     88.33      0.213     
2887       56.79      0.177     
2887.2     48.73      0.137     
2887.4     41.61      0.112     
2887.6     33.19      0.095     
2887.8     29.64      0.088     
2888       29.45      0.084     
2888.2     28.91      0.074     
2888.4     29.8       0.072     
2888.6     32.33      0.093     
2888.8     36.55      0.124     
2889       40.37      0.146     
2889.2     45.28      0.176     
2889.4     53.32      0.183     
2889.6     60.63      0.183     
2889.8     59.45      0.192     
2890       51.29      0.196     
2890.2     43.98      0.195     
2890.4     39         0.203     
2890.6     37.46      0.214     
2890.8     38.74      0.21      
2891       39.11      0.209     
2891.2     38.82      0.22      
2891.4     38.99      0.213     
2891.6     39.17      0.19      
2891.8     38.79      0.182     
2892       37.38      0.188     
2892.2     35.77      0.189     
2892.4     34.85      0.184     
2892.6     35.95      0.183     
2892.8     37.52      0.192     
2893       37.16      0.215     
2893.2     35.54      0.241     
2893.4     37.12      0.298     
2893.6     47.74      0.368     
2893.8     61.65      0.353     
2894       63.77      0.276     
2894.2     55.51      0.231     
2894.4     45.18      0.207     
2894.6     36.97      0.193     
2894.8     32.4       0.193     
2895       28.79      0.199     
2895.2     28.37      0.196     
