~Version
 VERS              .         2.0                           : CWLS LOG ASCII STANDARD - VERSION 2.0
 WRAP              .         NO                            : ONE LINE PER DEPTH STEP
 DLM               .         SPACE                         : DELIMITING CHARACTER(SPACE TAB OR COMMA)
~Well Information
#_______________________________________________________________________________
#
#PARAMETER_NAME    .UNIT     VALUE                         : DESCRIPTION
#_______________________________________________________________________________
STRT               .m        2703                          : First reference value
STOP               .m        2966                          : Last reference value
STEP               .m        0.2                           : Step increment
NULL               .         -9999                         : Missing value
COMP               .                                       : Company
WELL               .         507                           : Well name
FLD                .                                       : Field
LOC                .                                       : Location
CNTY               .                                       : County
STAT               .                                       : State
CTRY               .                                       : Country
SRVC               .                                       : Service Company
DATE               .                                       : Date
API                .                                       : API number
EREF               .m        139.4                         : 
X                  .m        230550                        : 
Y                  .m        242075                        : 
group              .         Pad5                          : 
Интер-р            .         Пузин                         : 
Куст               .         5                             : 
Статус             .         Не проверено                  : 
Тип                .         Разведка                      : 
~Parameter Information Block
#_______________________________________________________________________________
#
#PARAMETER_NAME    .UNIT     VALUE                         : DESCRIPTION
#_______________________________________________________________________________
SET                .         LAS1                          : 
REAL_CREATION_DATE .         Ср апр 11 2012-13_17_21       : 
TLFamily_DEPTH     .         Measured Depth                : 
TLFamily_KS        .         Potential Resistivity         : 
TLFamily_KS1       .         Extra Shallow Resistivity     : 
TLFamily_KS2       .         Shallow Resistivity           : 
TLFamily_KS3       .         Medium Resistivity            : 
TLFamily_KS4       .         Deep Resistivity              : 
TLFamily_KS5       .         Extra Deep Resistivity        : 
TLFamily_LLD       .         Lateral Log Resistivity       : 
TLFamily_OKS3      .         Medium Resistivity Inverted   : 
TLFamily_RM        .         Mud Resistivity               : 
group              .         INI                           : 
~Curve Information
#_______________________________________________________________________________
#
#LOGNAME           .UNIT     LOG_ID                        : DESCRIPTION
#_______________________________________________________________________________
DEPTH              .m                                      : Measured Depth 
KS                 .ohm.m                                  : Potential Resistivity 
KS1                .ohm.m                                  : Extra Shallow Resistivity 
KS2                .ohm.m                                  : Shallow Resistivity 
KS3                .ohm.m                                  : Medium Resistivity 
KS4                .ohm.m                                  : Deep Resistivity 
KS5                .ohm.m                                  : Extra Deep Resistivity 
LLD                .ohm.m                                  : Lateral Log Resistivity 
OKS3               .ohm.m                                  : Medium Resistivity Inverted 
RM                 .ohm.m                                  : Mud Resistivity 
~Ascii
# ...
2790.6     6.2283     2.3531     7.9988     11.3475    9.8104     6.5129     4.7094     9.6415     0.165     
2790.8     6.1605     2.2922     7.8023     11.2765    9.7973     6.5129     4.5916     9.6513     0.165     
2791       6.1063     2.2787     7.6451     11.1733    9.7842     6.4868     4.5511     9.6932     0.165     
2791.2     6.0522     2.2516     7.5075     11.0894    9.7776     6.4868     4.5227     9.8483     0.165     
2791.4     6.008      2.2381     7.4288     11.0116    9.7907     6.4868     4.5127     10.0809    0.165     
2791.6     5.9573     2.2313     7.3568     10.9216    9.8138     6.5129     4.4992     10.2682    0.165     
2791.8     5.8964     2.2246     7.3437     10.7797    9.8563     6.539      4.3602     10.4491    0.165     
2792       5.8354     2.2313     7.3109     10.6378    9.8694     6.539      4.2871     10.6171    0.165     
2792.2     5.8015     2.211      7.2156     10.3926    9.7973     6.526      4.2781     10.7269    0.162     
2792.4     5.7948     2.1637     7.0751     10.0829    9.6596     6.4999     4.2559     10.7915    0.162     
2792.6     5.8151     2.1298     6.9047     9.7797     9.4956     6.4477     4.2383     10.7721    0.162     
2792.8     5.8625     2.0757     6.7671     9.4829     9.2989     6.3955     4.1517     10.7853    0.162     
2793       5.9438     2.0013     6.4985     9.1603     9.0825     6.3694     4.0636     10.7915    0.162     
2793.2     6.0694     1.9607     6.3544     8.9087     8.9054     6.3694     4.7443     10.4685    0.162     
2793.4     6.147      1.9473     6.3806     8.8764     8.9484     6.3825     5.1531     10.3457    0.158     
2793.6     6.2147     2.0351     6.7802     9.0183     9.0825     6.4607     5.3385     10.391     0.162     
2793.8     6.2215     2.1569     7.0357     9.3796     9.3448     6.6042     5.2466     10.2488    0.162     
2794       6.2757     2.1907     7.1275     9.5668     9.3841     6.6906     5.5488     10.1325    0.158     
2794.2     6.3028     2.1772     7.1209     9.6184     9.2989     6.7608     5.487      10.0356    0.158     
2794.4     6.2554     2.2043     7.2061     9.8313     9.3448     6.8391     5.4416     9.9        0.158     
2794.6     6.1673     2.3531     7.4747     10.1797    9.535      6.8782     5.3169     9.7514     0.158     
2794.8     6.0793     2.3464     7.7171     10.4571    9.6793     6.9173     5.0707     9.7578     0.158     
2795       6.0115     2.2922     7.6254     10.4442    9.5547     6.8912     4.663      10.055     0.155     
2795.2     5.9674     2.2584     7.4682     10.4054    9.4301     6.8521     4.354      10.4362    0.158     
2795.4     5.9506     2.2143     7.3371     10.3668    9.3281     6.813      4.6085     10.5008    0.158     
2795.6     5.9641     2.1975     7.1864     10.2184    9.1808     6.7477     4.5958     10.6494    0.155     
2795.8     5.9844     2.1772     7.0489     10.0506    9.0562     6.7149     4.5468     10.7786    0.155     
2796       5.9844     2.184      7.0489     9.9797     8.9972     6.6956     4.5043     10.8626    0.158     
2796.2     5.9844     2.1907     7.0226     9.9345     8.971      6.6695     4.4942     10.9014    0.155     
2796.4     5.9912     2.184      7.0423     9.8506     8.9513     6.6564     4.4553     10.9078    0.155     
2796.6     5.998      2.1772     7.0292     9.7539     8.9251     6.6303     4.4842     10.937     0.155     
2796.8     5.998      2.1637     6.9375     9.599      8.8726     6.6042     4.4966     11.0758    0.155     
2797       6.0183     2.1637     6.9047     9.47       8.8267     6.5912     4.5607     11.2761    0.155     
2797.2     6.0352     2.1434     6.9244     9.3955     8.8268     6.5912     4.919      11.2632    0.155     
2797.4     6.1131     2.1264     6.9768     9.3861     8.8726     6.5781     5.0812     11.1016    0.158     
2797.6     6.208      2.1569     7.0095     9.5216     8.9513     6.5912     5.1267     10.8561    0.158     
2797.8     6.2892     2.2178     7.0685     9.6119     8.9316     6.5912     5.0302     10.6171    0.158     
2798       6.3163     2.2178     7.0751     9.6184     8.912      6.5651     4.913      10.4814    0.162     
2798.2     6.4112     2.1975     7.134      9.6635     8.8989     6.539      4.9112     10.3264    0.162     
2798.4     6.4992     2.1028     7.2126     9.6893     8.8792     6.526      4.6432     10.1713    0.162     
2798.6     6.5128     2.2449     7.1668     9.7087     8.8857     6.5129     4.5067     10.1682    0.162     
2798.8     6.5128     2.3599     7.8023     9.7345     8.8464     6.5781     4.5182     10.3651    0.162     
2799       6.5128     2.4005     8.1626     9.7216     8.8529     6.6564     5.3887     10.5589    0.162     
2799.2     6.5128     2.4176     8.1364     9.7151     9.0774     6.6956     8.901      9.7707     0.165     
2799.4     6.5128     2.4749     8.1364     10.1281    9.3448     6.7216     7.6706     9.5123     0.165     
2799.6     6.4383     2.5697     8.1233     11.0636    9.6727     6.7413     5.1389     9.6157     0.162     
2799.8     6.2012     2.5629     8.12       10.8507    9.5612     6.7086     4.5781     9.6738     0.162     
2800       6.0386     2.4343     8.0971     10.3345    9.3317     6.6303     4.3108     9.7707     0.162     
2800.2     5.937      2.3125     7.9661     9.9474     9.1612     6.526      4.2374     9.9129     0.158     
2800.4     5.8896     2.2652     7.8482     9.7668     9.0825     6.4477     4.2195     10.0102    0.162     
2800.6     5.8557     2.2246     7.4551     9.7151     9.0366     6.3694     4.0533     10.1584    0.158     
2800.8     5.8286     2.1975     7.1668     9.6893     8.9841     6.3172     4.0087     10.3393    0.157     
2801       5.8253     2.1569     6.8916     9.6861     8.912      6.2912     4.2421     10.4814    0.155     
2801.2     5.8489     2.089      6.7737     9.67       8.8169     6.2912     4.4297     10.5912    0.155     
2801.4     5.937      2.0757     6.7606     9.6893     8.6628     6.3042     4.6346     10.7269    0.158     
2801.6     6.0251     2.1434     6.8261     9.7668     8.7415     6.3172     4.7053     10.8949    0.158     
2801.8     6.0928     2.1975     6.8557     9.6119     8.7742     6.3694     4.6609     11.05      0.158     
2802       6.1741     2.1772     6.8785     9.4635     8.7546     6.4086     4.5746     11.3213    0.158     
2802.2     6.2486     2.1298     6.9178     9.3216     8.8857     6.4999     4.4434     11.7735    0.158     
2802.4     6.2757     2.1907     6.8851     9.2313     8.8857     6.5912     4.4182     12.1978    0.158     
2802.6     6.3434     2.1907     7.1013     9.2119     8.8989     6.6434     5.1939     12.8331    0.158     
2802.8     6.3943     2.2516     7.3764     9.2377     8.9054     6.6564     5.6549     13.2853    0.158     
2803       6.4044     2.3531     7.3633     9.39       8.912      6.6434     6.1027     13.2789    0.165     
2803.2     6.4044     2.3464     7.3044     9.4958     8.8923     6.6042     5.1474     13.0786    0.162     
2803.4     6.3976     2.3125     7.2454     9.4958     8.7677     6.539      4.6357     13.0204    0.165     
2803.6     6.357      2.2652     7.2485     9.27       8.5841     6.5129     4.5191     13.3629    0.165     
2803.8     6.3367     2.2246     7.1864     8.999      8.3152     6.4607     4.3771     13.9831    0.162     
2804       6.3841     2.1434     7.062      8.7022     8.0988     6.6434     4.3087     14.8165    0.162     
2804.2     6.5399     2.0216     6.7213     8.5667     7.9873     7.0347     4.0773     15.5004    0.162     
2804.4     6.7905     1.9133     6.4002     8.5667     7.9611     7.6739     4.3728     16.5544    0.158     
2804.6     7.1901     1.7982     6.0334     8.8377     8.0201     8.1175     4.7162     17.9757    0.158     
2804.8     7.5768     1.7576     5.8696     9.5112     8.3349     8.3523     6.6516     19.0934    0.158     
2805       7.8269     2.0153     6.6033     10.1152    9.0866     8.5219     13.2991    19.6943    0.158     
