~Version
 VERS              .         2.0                           : CWLS LOG ASCII STANDARD - VERSION 2.0
 WRAP              .         NO                            : ONE LINE PER DEPTH STEP
 DLM               .         SPACE                         : DELIMITING CHARACTER(SPACE TAB OR COMMA)
~Well Information
#_______________________________________________________________________________
#
#PARAMETER_NAME    .UNIT     VALUE                         : DESCRIPTION
#_______________________________________________________________________________
STRT               .m        2703                          : First reference value
STOP               .m        2966                          : Last reference value
STEP               .m        0.2                           : Step increment
NULL               .         -9999                         : Missing value
COMP               .                                       : Company
WELL               .         507                           : Well name
FLD                .                                       : Field
LOC                .                                       : Location
CNTY               .                                       : County
STAT               .                                       : State
CTRY               .                                       : Country
SRVC               .                                       : Service Company
DATE               .                                       : Date
API                .                                       : API number
EREF               .m        139.4                         : 
X                  .m        230550                        : 
Y                  .m        242075                        : 
group              .         Pad5                          : 
Интер-р            .         Пузин                         : 
Куст               .         5                             : 
Статус             .         Не проверено                  : 
Тип                .         Разведка                      : 
~Parameter Information Block
#_______________________________________________________________________________
#
#PARAMETER_NAME    .UNIT     VALUE                         : DESCRIPTION
#_______________________________________________________________________________
SET                .         LAS1                          : 
REAL_CREATION_DATE .         Ср апр 11 2012-13_17_21       : 
TLFamily_DEPTH     .         Measured Depth                : 
TLFamily_KS        .         Potential Resistivity         : 
TLFamily_KS1       .         Extra Shallow Resistivity     : 
TLFamily_KS2       .         Shallow Resistivity           : 
TLFamily_KS3       .         Medium Resistivity            : 
TLFamily_KS4       .         Deep Resistivity              : 
TLFamily_KS5       .         Extra Deep Resistivity        : 
TLFamily_LLD       .         Lateral Log Resistivity       : 
TLFamily_OKS3      .         Medium Resistivity Inverted   : 
TLFamily_RM        .         Mud Resistivity               : 
group              .         INI                           : 
~Curve Information
#_______________________________________________________________________________
#
#LOGNAME           .UNIT     LOG_ID                        : DESCRIPTION
#_______________________________________________________________________________
DEPTH              .m                                      : Measured Depth 
KS                 .ohm.m                                  : Potential Resistivity 
KS1                .ohm.m                                  : Extra Shallow Resistivity 
KS2                .ohm.m                                  : Shallow Resistivity 
KS3                .ohm.m                                  : Medium Resistivity 
KS4                .ohm.m                                  : Deep Resistivity 
KS5                .ohm.m                                  : Extra Deep Resistivity 
LLD                .ohm.m                                  : Lateral Log Resistivity 
OKS3               .ohm.m                                  : Medium Resistivity Inverted 
RM                 .ohm.m                                  : Mud Resistivity 
~Ascii
# ...
2732.2     7.5085     2.2516     7.6975     11.1474    10.4072    6.813      6.3408     13.3693    0.162     
2732.4     7.5966     2.1501     7.4514     11.2894    10.4203    6.813      6.6549     13.3564    0.158     
2732.6     7.5966     2.2922     7.7761     11.7023    10.7417    6.8782     6.6733     13.5114    0.162     
2732.8     7.5424     2.414      8.2085     12.3668    11.3188    6.9956     7.3577     13.6447    0.162     
2733       7.5153     2.5223     8.6474     12.8443    11.7122    7.1782     7.949      13.6277    0.162     
2733.2     7.4543     2.5291     8.6999     13.0669    11.9221    7.2695     8.0772     13.7117    0.162     
2733.4     7.434      2.4851     8.523      13.0314    11.9385    7.3478     6.6325     13.9895    0.162     
2733.6     7.4475     2.3937     8.1299     12.7697    11.9261    7.4261     5.9322     14.2932    0.162     
2733.8     7.5627     2.2922     7.8809     12.4701    11.9483    7.5826     5.6768     14.5904    0.162     
2734       7.7524     2.1704     7.5632     12.2701    12.2369    7.7        5.8785     14.9005    0.162     
2734.2     7.8878     2.1434     7.5533     12.612     13.0829    7.9088     5.949      14.7906    0.158     
2734.4     7.9556     2.4885     8.4312     13.4895    14.1125    8.0523     9.4835     14.0025    0.165     
2734.6     7.9623     2.6509     9.0143     13.9217    14.624     8.1175     14.0106    13.3015    0.165     
2734.8     7.9014     2.6238     8.9488     13.6895    14.4338    8.1175     8.7116     12.9365    0.165     
2735       7.7862     2.5832     8.9488     13.4895    14.1781    8.0131     7.0654     12.7168    0.167     
2735.2     7.691      2.5155     8.975      13.3572    14.0502    8.0131     6.6749     12.7685    0.165     
2735.4     7.6304     2.4749     8.9619     13.3411    14.0928    8.1044     6.5701     12.9365    0.165     
2735.6     7.5017     2.4885     9.1847     13.5862    14.4353    8.1958     6.6898     13.0075    0.165     
2735.8     7.373      2.6103     9.3747     13.9475    14.624     8.3132     7.2156     12.9558    0.165     
2736       7.2782     2.5764     9.0652     14.0056    14.3813    8.3393     7.3337     12.9365    0.165     
2736.2     7.1901     2.4817     8.8112     13.7217    13.8108    8.3001     5.9049     13.0204    0.165     
2736.4     7.1427     2.3937     8.5164     13.5217    13.3124    8.1566     5.7051     12.9817    0.165     
2736.6     7.1156     2.3464     8.3264     13.3991    12.9714    8.0653     6.0538     12.8294    0.162     
2736.8     7.075      2.3937     8.3002     13.3346    12.8402    7.9479     6.5242     12.7814    0.165     
2737       7.0479     2.414      8.3592     13.1088    12.7025    7.8696     6.6535     12.8072    0.162     
2737.2     7.0411     2.3261     8.1102     12.7685    12.4566    7.8174     5.9505     12.9106    0.165     
2737.4     7.0479     2.3125     7.9595     12.5152    12.2959    7.8044     6.0169     12.9494    0.165     
2737.6     7.0682     2.3058     7.9661     12.3023    12.191     7.8373     6.2397     12.9817    0.162     
2737.8     7.0614     2.3328     8.0578     12.3023    12.3156    7.9609     6.4894     13.1497    0.162     
2738       7.0343     2.387      8.1364     12.4249    12.591     8.0914     6.5921     13.3693    0.165     
2738.2     7.014      2.4005     8.2281     12.5152    12.8533    8.3262     6.5343     13.5438    0.165     
2738.4     6.9937     2.3937     8.2216     12.5604    13.1353    8.548      6.5802     13.6665    0.165     
2738.6     6.9734     2.4411     8.3657     12.6443    13.3321    8.7697     6.5221     13.8388    0.165     
2738.8     6.9666     2.4073     8.333      12.6572    13.3583    8.9654     6.7171     14.2027    0.165     
2739       6.9463     2.4343     8.3068     12.5604    13.2206    9.0828     6.304      14.7777    0.165     
2739.2     6.9463     2.4343     8.3395     12.5185    13.0724    9.0698     6.6667     15.6887    0.168     
2739.4     6.9531     2.4241     8.2478     12.4443    12.9255    9.0307     6.4101     16.942     0.168     
2739.6     6.9869     2.3937     8.1299     12.2507    12.6435    8.9785     6.2523     18.5055    0.165     
2739.8     7.0479     2.3599     8.0709     12.083     12.3877    8.8415     6.2966     20.2563    0.162     
2740       7.1224     2.3531     8.061      11.9991    12.2369    8.7437     6.4591     22.272     0.162     
2740.2     7.1969     2.3937     8.1495     12.012     12.086     8.6263     6.8409     24.4945    0.162     
2740.4     7.2308     2.4343     8.1954     12.0378    11.968     8.4045     6.9925     26.1495    0.162     
2740.6     7.3595     2.4682     8.3919     11.6378    11.4696    8.1566     7.084      29.2883    0.162     
2740.8     7.6169     2.2246     7.6319     10.87      10.558     7.9088     6.0985     34.0691    0.16      
2741       8.0013     2.0486     7.0882     10.0119    9.6071     7.6479     4.81       39.7674    0.162     
2741.2     8.3688     1.8277     6.2954     9.5025     9.1218     7.5304     5.1876     46.732     0.158     
2741.4     9.1816     1.69       5.6272     8.7861     8.571      7.5304     5.1867     54.8848    0.158     
2741.6     10.2451    1.6088     5.3258     8.1667     8.2299     7.5435     6.2236     61.4641    0.158     
2741.8     11.5931    1.5614     5.1677     7.8699     8.0988     7.6479     9.0338     66.0543    0.155     
2742       13.151     1.4802     5.0179     7.6377     8.0135     7.8305     10.9173    68.5024    0.155     
2742.2     14.8715    1.4261     4.913      7.6183     8.1775     8.0523     13.6335    69.1144    0.155     
2742.4     16.5447    1.5073     5.2078     7.9861     8.6956     8.3262     15.9369    68.8831    0.155     
2742.6     18.2313    1.6291     5.8368     8.7409     9.5415     8.6784     24.9296    68.0434    0.157     
2742.8     19.6221    1.8388     6.7737     9.8248     10.4531    9.0437     42.7528    65.5953    0.158     
2743       20.5344    2.0117     7.7957     10.971     11.3712    9.4351     66.5269    62.2291    0.158     
2743.2     21.8756    2.1163     8.654      11.8765    12.0676    9.8656     108.6611   57.486     0.158     
2743.4     22.9526    2.3531     10.0823    13.8701    13.1812    10.283     144.2258   52.421     0.162     
2743.6     23.8332    2.5764     11.0764    16.4315    14.8601    10.5309    172.422    46.9387    0.162     
2743.8     24.5918    2.7456     11.7464    19.3606    16.7226    11.1049    197.7725   41.1112    0.162     
2744       25.1744    2.9554     12.9388    22.793     18.8474    11.6788    220.5311   35.8393    0.165     
2744.2     25.5131    3.1922     14.1508    26.806     21.4443    12.292     251.3919   31.5572    0.165     
2744.4     25.5943    3.4561     15.3235    30.8448    24.2971    12.9573    289.6598   28.6939    0.168     
2744.6     25.4521    3.6253     16.5356    34.9934    27.1498    13.9226    275.1203   24.249     0.165     
2744.8     25.0437    3.896      17.289     39.3269    31.3272    15.0054    268.579    20.0496    0.165     
2745       24.646     4.245      19.8311    42.6452    36.0916    16.1273    265.825    16.5673    0.168     
2745.2     23.8399    4.3629     21.0759    48.2067    39.7871    17.4709    234.4616   14.0283    0.165     
2745.4     22.9187    4.5659     22.419     52.7288    46.5418    18.4754    189.0299   11.7994    0.165     
2745.6     21.7536    4.8027     23.727     57.454     55.6794    19.3495    155.275    10.1455    0.168     
2745.8     20.2702    5.0463     24.4237    61.7699    65.3027    20.6931    134.3839   8.8404     0.168     
2746       18.5564    5.1614     25.0199    65.9317    75.7021    22.1672    127.4453   7.7615     0.168     
2746.2     16.4498    5.3102     25.7341    69.6311    87.1879    23.6283    110.3208   7.0593     0.168     
2746.4     14.2416    5.5065     26.6054    72.4056    97.5873    25.285     88.7911    6.6438     0.168     
2746.6     12.0401    5.52       26.7758    74.5635    108.1419   26.4069    66.2859    6.198      0.165     
