~Version
 VERS              .         2.0                           : CWLS LOG ASCII STANDARD - VERSION 2.0
 WRAP              .         NO                            : ONE LINE PER DEPTH STEP
 DLM               .         SPACE                         : DELIMITING CHARACTER(SPACE TAB OR COMMA)
~Well Information
#_______________________________________________________________________________
#
#PARAMETER_NAME    .UNIT     VALUE                         : DESCRIPTION
#_______________________________________________________________________________
STRT               .m        2703                          : First reference value
STOP               .m        2966                          : Last reference value
STEP               .m        0.2                           : Step increment
NULL               .         -9999                         : Missing value
COMP               .                                       : Company
WELL               .         507                           : Well name
FLD                .                                       : Field
LOC                .                                       : Location
CNTY               .                                       : County
STAT               .                                       : State
CTRY               .                                       : Country
SRVC               .                                       : Service Company
DATE               .                                       : Date
API                .                                       : API number
EREF               .m        139.4                         : 
X                  .m        230550                        : 
Y                  .m        242075                        : 
group              .         Pad5                          : 
Интер-р            .         Пузин                         : 
Куст               .         5                             : 
Статус             .         Не проверено                  : 
Тип                .         Разведка                      : 
~Parameter Information Block
#_______________________________________________________________________________
#
#PARAMETER_NAME    .UNIT     VALUE                         : DESCRIPTION
#_______________________________________________________________________________
SET                .         LAS1                          : 
REAL_CREATION_DATE .         Ср апр 11 2012-13_17_21       : 
TLFamily_DEPTH     .         Measured Depth                : 
TLFamily_KS        .         Potential Resistivity         : 
TLFamily_KS1       .         Extra Shallow Resistivity     : 
TLFamily_KS2       .         Shallow Resistivity           : 
TLFamily_KS3       .         Medium Resistivity            : 
TLFamily_KS4       .         Deep Resistivity              : 
TLFamily_KS5       .         Extra Deep Resistivity        : 
TLFamily_LLD       .         Lateral Log Resistivity       : 
TLFamily_OKS3      .         Medium Resistivity Inverted   : 
TLFamily_RM        .         Mud Resistivity               : 
group              .         INI                           : 
~Curve Information
#_______________________________________________________________________________
#
#LOGNAME           .UNIT     LOG_ID                        : DESCRIPTION
#_______________________________________________________________________________
DEPTH              .m                                      : Measured Depth 
KS                 .ohm.m                                  : Potential Resistivity 
KS1                .ohm.m                                  : Extra Shallow Resistivity 
KS2                .ohm.m                                  : Shallow Resistivity 
KS3                .ohm.m                                  : Medium Resistivity 
KS4                .ohm.m                                  : Deep Resistivity 
KS5                .ohm.m                                  : Extra Deep Resistivity 
LLD                .ohm.m                                  : Lateral Log Resistivity 
OKS3               .ohm.m                                  : Medium Resistivity Inverted 
RM                 .ohm.m                                  : Mud Resistivity 
~Ascii
# ...
2805.2     8.1791     2.1637     7.3437     10.9152    9.8563     8.7567     14.5497    19.5069    0.155     
2805.4     8.4297     2.4546     8.1692     11.7346    11.2073    9.0633     11.9725    18.499     0.158     
2805.6     8.5313     2.6915     8.8994     12.2055    11.3975    9.3568     8.1395     17.0519    0.158     
2805.8     8.5246     2.705      8.9161     12.341     11.0302    9.2002     6.9235     15.8179    0.158     
2806       8.423      2.6915     9.1781     12.212     10.7154    8.3132     6.3738     15.1847    0.158     
2806.2     8.3552     2.6035     9.3026     12.0442    10.4334    7.8435     5.7574     15.0814    0.155     
2806.4     8.3281     2.414      8.9554     11.9088    10.4728    7.8435     6.7754     15.1072    0.158     
2806.6     8.3653     2.3193     8.8178     11.9088    10.7285    8.1044     6.4777     14.7906    0.158     
2806.8     8.362      2.2832     8.4443     12.3871    11.0907    8.2349     6.7837     14.9069    0.155     
2807       8.3349     2.4479     8.8768     12.812     11.3909    8.2871     6.3782     15.1395    0.162     
2807.2     8.3891     2.3328     8.4902     13.5411    11.4762    8.2871     7.1111     15.2623    0.162     
2807.4     8.5381     2.299      8.4407     13.8766    11.6794    8.3393     7.9642     14.9522    0.158     
2807.6     8.6397     2.299      8.4181     14.625     12.3221    8.5088     13.2073    14.823     0.158     
2807.8     8.6533     2.5494     9.2633     15.7605    13.273     8.6654     9.2803     14.0218    0.165     
2808       8.7142     2.7321     9.7154     16.3154    13.7518    8.7828     6.4655     13.2952    0.165     
2808.2     8.7684     2.617      9.2764     15.8186    13.6337    8.7567     7.3588     12.5036    0.162     
2808.4     8.7075     2.5832     9.2567     15.5605    13.9026    8.6523     7.7403     12.1483    0.162     
2808.6     8.6193     2.6441     9.5647     15.8096    14.683     8.6393     9.2803     11.8188    0.158     
2808.8     8.5584     2.7016     9.9316     16.1282    15.6351    8.7176     8.8252     11.4699    0.162     
2809       8.3959     2.7591     10.3509    16.5089    16.2569    8.8219     11.1736    11.0047    0.165     
2809.2     8.0572     2.8877     10.9471    17.296     17.7063    8.8089     6.9267     10.3264    0.158     
2809.4     7.7185     3.1449     11.476     17.8251    18.6309    8.7176     4.6197     9.5317     0.162     
2809.6     7.4069     2.9757     10.934     17.4315    18.3489    8.3262     4.6707     9.0859     0.158     
2809.8     7.0614     2.7727     10.174     16.496     17.3325    7.3739     4.6569     9.0311     0.158     
2810       6.7431     2.6103     9.6761     15.8057    16.3488    6.9304     4.535      9.0795     0.158     
2810.2     6.506      2.4682     9.224      15.1218    15.411     6.7347     4.6778     9.1441     0.157     
2810.4     6.3566     2.3734     8.7719     14.4185    14.6437    6.6303     4.3352     9.2474     0.155     
2810.6     6.2621     2.3192     8.3068     13.8917    14.1444    6.6303     4.2771     9.4671     0.155     
2810.8     6.1605     2.2855     7.9268     13.5604    13.8829    6.6042     4.4589     9.7707     0.158     
2811       6.1063     2.2246     7.5926     13.0959    13.4304    6.6173     4.4965     10.0356    0.158     
2811.2     6.0928     2.2246     7.4743     12.6765    13.1419    6.6303     4.5887     10.2553    0.158     
2811.4     6.0996     2.211      7.3568     12.3217    12.9648    6.6434     4.7018     10.4168    0.158     
2811.6     6.1131     2.2178     7.2257     11.9023    12.7746    6.6825     4.7265     10.5719    0.158     
2811.8     6.1199     2.2313     7.193      11.4507    12.6828    6.6825     4.7961     10.6781    0.162     
2812       6.1267     2.2652     7.252      11.0507    12.65      6.6956     4.8202     10.8044    0.165     
2812.2     6.1538     2.2516     7.2323     10.7087    12.5451    6.7086     4.8953     10.8303    0.165     
2812.4     6.1707     2.2652     7.2651     10.4532    12.2828    6.7347     4.7953     10.7463    0.165     
2812.6     6.1876     2.2821     7.2913     10.2958    12.033     6.7477     4.976      10.7398    0.165     
2812.8     6.1809     2.2719     7.324      10.0893    11.8303    6.7608     4.9369     10.7528    0.162     
2813       6.1741     2.299      7.4026     9.9732     11.4893    6.7999     4.6557     10.5654    0.162     
2813.2     6.1673     2.2719     7.3335     9.8506     11.1089    6.8521     4.6013     10.3457    0.162     
2813.4     6.147      2.2652     7.3175     9.7539     10.7482    6.9565     4.5712     10.3328    0.162     
2813.6     6.1334     2.2449     7.3044     9.7474     10.4793    7.1        4.6146     10.4233    0.158     
2813.8     6.1334     2.2313     7.2716     9.7539     10.158     7.2826     4.5884     10.462     0.158     
2814       6.1741     2.2043     7.252      9.7474     9.8301     7.4783     4.4328     10.5589    0.157     
2814.2     6.2012     2.184      7.1144     9.8313     9.6202     7.6218     5.027      10.7528    0.155     
2814.4     6.208      2.2413     7.2651     9.9381     9.5346     7.6739     4.9513     10.8109    0.155     
2814.6     6.2825     2.2652     7.2847     10.0313    9.4038     7.8044     4.1806     10.8174    0.158     
2814.8     6.3908     2.1637     6.9571     9.9474     9.2268     7.8566     5.3956     11.05      0.158     
2815       6.3976     2.1569     7.2144     10.0764    9.4169     7.8435     6.4806     11.1275    0.162     
2815.2     6.3773     2.4005     7.7892     10.5668    9.653      7.7522     4.3854     10.6623    0.162     
2815.4     6.3841     2.4952     7.9923     10.7603    9.5415     7.6479     4.5955     10.1648    0.162     
2815.6     6.2892     2.4073     7.6778     10.399     9.1677     7.4783     4.6007     10.0292    0.162     
2815.8     6.1809     2.3464     7.6188     10.1087    8.9054     7.1782     4.498      10.0195    0.165     
2816       6.1267     2.2855     7.6057     9.9345     8.7021     6.9565     4.3475     10.0292    0.165     
2816.2     6.0996     2.2178     7.5206     9.7865     8.525      6.826      4.4582     10.1002    0.165     
2816.4     6.0725     2.1907     7.3175     9.7087     8.4527     6.7086     4.5385     10.2553    0.165     
2816.6     6.0589     2.1975     7.2257     9.6958     8.4004     6.6042     4.5488     10.4491    0.165     
2816.8     6.0657     2.184      7.0489     9.6635     8.3349     6.5129     4.7332     10.6235    0.165     
2817       6.0793     2.1501     7.0259     9.6184     8.2824     6.4738     4.7693     10.8497    0.162     
2817.2     6.0928     2.184      7.0357     9.6506     8.2365     6.4216     4.5406     10.9272    0.162     
2817.4     6.1131     2.1569     6.9309     9.7151     8.2037     6.4086     4.5191     11.0564    0.162     
2817.6     6.1199     2.1704     6.9375     9.599      8.1775     6.4346     4.5227     11.3407    0.158     
2817.8     6.1402     2.1501     6.9244     9.47       8.2234     6.4607     4.6566     11.6464    0.158     
2818       6.2012     2.1163     6.8523     9.3409     8.2693     6.539      4.7579     12.0707    0.158     
2818.2     6.2655     2.1028     6.8261     9.2926     8.3968     6.6434     4.929      12.5036    0.155     
2818.4     6.3163     2.1129     6.813      9.3151     8.525      6.813      4.9659     12.7556    0.155     
2818.6     6.4112     2.1298     6.8458     9.3732     8.8005     7.0347     5.206      12.9494    0.155     
2818.8     6.5331     2.1163     6.8261     9.4442     9.0825     7.1782     5.4912     13.1303    0.155     
2819       6.6821     2.1028     6.813      9.4958     9.3186     7.5304     5.3653     13.1109    0.155     
2819.2     6.7973     2.096      6.8261     9.741      9.7907     7.8435     5.4755     13.3758    0.155     
2819.4     6.8989     2.2246     7.2913     10.0958    10.381     8.1436     5.648      13.6923    0.158     
2819.6     7.0208     2.2652     7.4616     10.3861    10.7351    8.4697     5.5457     13.9119    0.158     
