~Version
 VERS              .         2.0                           : CWLS LOG ASCII STANDARD - VERSION 2.0
 WRAP              .         NO                            : ONE LINE PER DEPTH STEP
 DLM               .         SPACE                         : DELIMITING CHARACTER(SPACE TAB OR COMMA)
~Well Information
#_______________________________________________________________________________
#
#PARAMETER_NAME    .UNIT     VALUE                         : DESCRIPTION
#_______________________________________________________________________________
STRT               .m        2703                          : First reference value
STOP               .m        2966                          : Last reference value
STEP               .m        0.2                           : Step increment
NULL               .         -9999                         : Missing value
COMP               .                                       : Company
WELL               .         507                           : Well name
FLD                .                                       : Field
LOC                .                                       : Location
CNTY               .                                       : County
STAT               .                                       : State
CTRY               .                                       : Country
SRVC               .                                       : Service Company
DATE               .                                       : Date
API                .                                       : API number
EREF               .m        139.4                         : 
X                  .m        230550                        : 
Y                  .m        242075                        : 
group              .         Pad5                          : 
Интер-р            .         Пузин                         : 
Куст               .         5                             : 
Статус             .         Не проверено                  : 
Тип                .         Разведка                      : 
~Parameter Information Block
#_______________________________________________________________________________
#
#PARAMETER_NAME    .UNIT     VALUE                         : DESCRIPTION
#_______________________________________________________________________________
SET                .         LAS1                          : 
REAL_CREATION_DATE .         Ср апр 11 2012-13_17_21       : 
TLFamily_DEPTH     .         Measured Depth                : 
TLFamily_KS        .         Potential Resistivity         : 
TLFamily_KS1       .         Extra Shallow Resistivity     : 
TLFamily_KS2       .         Shallow Resistivity           : 
TLFamily_KS3       .         Medium Resistivity            : 
TLFamily_KS4       .         Deep Resistivity              : 
TLFamily_KS5       .         Extra Deep Resistivity        : 
TLFamily_LLD       .         Lateral Log Resistivity       : 
TLFamily_OKS3      .         Medium Resistivity Inverted   : 
TLFamily_RM        .         Mud Resistivity               : 
group              .         INI                           : 
~Curve Information
#_______________________________________________________________________________
#
#LOGNAME           .UNIT     LOG_ID                        : DESCRIPTION
#_______________________________________________________________________________
DEPTH              .m                                      : Measured Depth 
KS                 .ohm.m                                  : Potential Resistivity 
KS1                .ohm.m                                  : Extra Shallow Resistivity 
KS2                .ohm.m                                  : Shallow Resistivity 
KS3                .ohm.m                                  : Medium Resistivity 
KS4                .ohm.m                                  : Deep Resistivity 
KS5                .ohm.m                                  : Extra Deep Resistivity 
LLD                .ohm.m                                  : Lateral Log Resistivity 
OKS3               .ohm.m                                  : Medium Resistivity Inverted 
RM                 .ohm.m                                  : Mud Resistivity 
~Ascii
# ...
2878.2     5.2461     2.0013     6.2561     8.7022     7.3643     6.2781     4.3387     9.564      0.152     
2878.4     5.2393     2.0351     6.1971     8.3603     7.3249     6.1346     4.1388     9.5769     0.152     
2878.6     5.2529     2.0283     6.1709     7.5602     7.1675     6.0302     3.7478     9.4477     0.152     
2878.8     5.2631     2.008      6.1513     7.657      6.9249     5.8867     3.5692     9.2604     0.148     
2879       5.2935     1.9809     6.0792     8.5087     6.8263     5.7432     3.6416     9.2345     0.152     
2879.2     5.3545     1.9404     5.863      9.199      6.8003     5.6519     3.2971     9.3573     0.152     
2879.4     5.4899     1.8321     5.7844     9.2893     6.8003     5.7432     3.7087     9.6674     0.152     
2879.6     5.7541     1.717      5.4983     9.5216     6.797      5.8998     5.9262     10.3845    0.155     
2879.8     5.9844     1.5885     5.2668     9.6635     6.7675     6.0694     13.789     10.6946    0.148     
2880       6.1199     1.9607     6.3871     9.7087     6.7675     6.1393     27.736     10.2765    0.155     
2880.2     6.1876     2.4546     7.5861     9.7668     8.3217     6.2129     7.4499     9.241      0.152     
2880.4     6.1267     2.6576     7.8744     9.6829     8.1906     6.2912     4.0722     8.3817     0.148     
2880.6     5.8557     2.4885     7.4944     9.5345     7.6332     6.2129     4.442      8.3623     0.148     
2880.8     5.6119     2.4276     7.8613     9.5507     7.4364     6.0302     3.7662     8.5045     0.152     
2881       5.4493     2.3328     8.0185     9.5538     7.5217     5.9911     3.5567     8.5368     0.155     
2881.2     5.3816     2.2246     7.7892     9.3345     7.5676     5.9389     3.6223     8.5497     0.155     
2881.4     5.3274     2.1366     7.2257     9.0764     7.5872     5.9389     3.6258     8.8017     0.155     
2881.6     5.3274     2.0419     6.7999     8.87       7.6135     5.965      3.6507     9.1376     0.155     
2881.8     5.3816     1.9742     6.4723     8.7861     7.6135     6.0042     3.7125     9.4219     0.155     
2882       5.4222     2.0351     6.5968     9.0183     7.6135     6.0433     4.2449     9.5382     0.152     
2882.2     5.4493     2.1366     6.7147     9.4571     7.5545     6.0563     4.5449     9.409      0.15      
2882.4     5.4832     2.1704     6.6951     9.5345     7.4364     6.0172     4.1563     9.2087     0.152     
2882.6     5.4764     2.1467     6.5968     9.1603     7.338      5.8476     4.0006     9.1053     0.152     
2882.8     5.4493     2.1366     6.6427     8.799      7.2624     5.678      4.1979     9.157      0.152     
2883       5.429      2.1298     6.6689     8.5538     7.1544     5.5476     4.2214     9.2991     0.155     
2883.2     5.4425     2.0622     6.5441     8.3086     6.9708     5.4822     4.2402     9.5446     0.155     
2883.4     5.4628     2.0216     6.4592     8.1022     6.8331     5.4563     4.2546     9.7131     0.152     
2883.6     5.4832     2.0283     6.4264     8.0183     6.7806     5.4563     4.2934     9.8741     0.152     
2883.8     5.5238     2.0216     6.3675     8.0183     6.7741     5.4563     4.2789     10.055     0.148     
2884       5.5848     2.0148     6.3544     8.0312     6.8068     5.4563     4.3032     10.378     0.148     
2884.2     5.6457     2.008      6.302      8.1086     6.9446     5.4041     4.5802     11.0241    0.148     
2884.4     5.6864     2.0283     6.3544     8.2088     7.0233     5.3388     4.8412     11.7929    0.152     
2884.6     5.7202     2.0825     6.4723     8.2635     6.9642     5.1693     4.387      12.3356    0.155     
2884.8     5.7812     2.1095     6.5116     8.2183     6.7609     5.104      4.0785     12.846     0.155     
2885       5.8489     2.0419     6.3609     7.9925     6.4986     5.1432     3.9477     13.6019    0.155     
2885.2     5.9641     1.9268     6.0989     7.6764     6.2756     5.2475     4.9006     14.7777    0.152     
2885.4     6.0657     1.8524     5.9154     7.5925     6.3084     5.5345     8.7288     16.1345    0.148     
2885.6     6.0928     2.0757     6.5182     7.9151     6.5445     5.5998     5.5506     16.6642    0.148     
2885.8     6.1743     2.2516     6.9113     8.2312     6.5839     5.7172     4.5934     16.1991    0.148     
2886       6.2486     2.1299     6.4133     7.9796     6.1051     5.8867     3.463      15.6758    0.148     
2886.2     6.4112     2.008      5.5289     7.1602     5.6002     5.952      3.4063     16.5156    0.148     
2886.4     6.6415     1.6629     5.0768     6.4699     5.4433     6.252      4.4565     18.0339    0.152     
2886.6     6.9327     1.514      4.9926     6.5538     5.7444     6.9695     5.9357     20.1594    0.145     
2886.8     7.3324     1.69       5.4306     7.1731     6.5445     7.8696     6.7526     21.8263    0.155     
2887       7.8811     1.7576     5.7058     7.9086     7.6266     8.7347     7.5352     22.5743    0.155     
2887.2     8.6397     1.805      5.8106     8.6183     8.7283     9.7742     11.4116    22.8793    0.152     
2887.4     9.3916     1.893      6.0792     9.6119     10.0137    10.8048    20.5365    22.8535    0.148     
2887.6     10.2654    2.0757     6.8064     10.5861    11.004     11.8876    45.5257    21.4709    0.148     
2887.8     11.0579    2.2652     7.3568     11.8083    12.1516    12.5398    50.403     18.3117    0.145     
2888       11.5863    2.7862     9.1388     12.7152    13.2927    13.1138    41.9828    15.1331    0.155     
2888.2     11.6698    3.0298     10.043     14.3734    14.8383    13.5313    117.222    12.7318    0.148     
2888.4     11.4102    3.3479     11.5433    15.7669    16.1914    14.04      47.8539    11.1469    0.158     
2888.6     10.7193    3.7945     13.856     17.8186    17.8177    13.8444    11.5801    9.7449     0.155     
2888.8     10.008     3.9433     15.3301    19.0122    18.0342    13.6748    5.7407     8.5368     0.152     
2889       9.1342     3.4426     14.0787    19.7864    17.8702    12.8399    6.2923     7.9618     0.148     
2889.2     8.362      3.6727     15.3629    20.6187    17.4374    11.4571    5.9745     7.6452     0.155     
2889.4     7.9651     3.0839     13.4367    21.0187    16.4209    10.3874    7.1104     7.1025     0.155     
2889.6     7.7727     2.6678     11.2026    20.2639    15.2536    9.6307     7.5394     6.1205     0.145     
2889.8     7.2172     2.7591     11.8446    21.2574    15.6228    8.4828     4.3309     5.4421     0.145     
2890       6.445      3.2802     11.9364    22.5994    16.1192    7.6739     2.811      5.3        0.152     
2890.2     5.8625     3.0366     10.0586    20.7348    15.188     7.1        2.923      4.9834     0.155     
2890.4     5.5238     2.4005     9.0078     17.0315    12.4599    6.239      2.9814     4.9155     0.152     
2890.6     5.3138     2.0825     7.6909     14.3024    10.5121    5.3128     3.1257     4.9188     0.155     
2890.8     5.1716     1.981      6.813      12.3797    9.5809     4.9997     3.4152     4.8994     0.155     
2891       5.0903     1.9404     6.0858     10.812     9.1087     4.5953     3.3338     4.8413     0.155     
2891.2     5.0496     1.9133     5.5616     9.5087     8.8792     4.3605     3.2397     4.7444     0.152     
2891.4     4.9548     1.8592     5.162      8.7268     8.8267     4.2561     3.607      4.6669     0.148     
2891.6     4.8735     1.9268     5.2013     8.3796     8.971      4.2952     3.3505     4.5635     0.148     
2891.8     4.8126     1.8524     4.9982     7.8635     9.1743     4.517      3.269      4.3697     0.145     
2892       4.7584     1.8388     4.9196     7.2312     9.3317     4.8692     3.5167     4.234      0.145     
2892.2     4.6297     1.8727     5.0441     6.8505     9.653      5.4823     3.2491     4.2921     0.148     
2892.4     4.501      1.8592     4.9065     6.7731     10.3023    6.4607     3.0479     4.5893     0.148     
2892.6     4.4265     1.7847     4.9065     6.8054     11.2401    8.0653     3.0926     5.0868     0.148     
