~Version
 VERS              .         2.0                           : CWLS LOG ASCII STANDARD - VERSION 2.0
 WRAP              .         NO                            : ONE LINE PER DEPTH STEP
 DLM               .         SPACE                         : DELIMITING CHARACTER(SPACE TAB OR COMMA)
~Well Information
#_______________________________________________________________________________
#
#PARAMETER_NAME    .UNIT     VALUE                         : DESCRIPTION
#_______________________________________________________________________________
STRT               .m        2701                          : First reference value
STOP               .m        2966                          : Last reference value
STEP               .m        0.2                           : Step increment
NULL               .         -9999                         : Missing value
COMP               .                                       : Company
WELL               .         507                           : Well name
FLD                .                                       : Field
LOC                .                                       : Location
CNTY               .                                       : County
STAT               .                                       : State
CTRY               .                                       : Country
SRVC               .                                       : Service Company
DATE               .                                       : Date
API                .                                       : API number
EREF               .m        139.4                         : 
X                  .m        230550                        : 
Y                  .m        242075                        : 
group              .         Pad5                          : 
Интер-р            .         Пузин                         : 
Куст               .         5                             : 
Статус             .         Не проверено                  : 
Тип                .         Разведка                      : 
~Parameter Information Block
#_______________________________________________________________________________
#
#PARAMETER_NAME    .UNIT     VALUE                         : DESCRIPTION
#_______________________________________________________________________________
SET                .         LAS3                          : 
REAL_CREATION_DATE .         Ср апр 11 2012-13_17_21       : 
TLFamily_DEPTH     .         Measured Depth                : 
TLFamily_GR        .         Gamma Ray                     : 
TLFamily_TNPH      .         Neutron Porosity              : 
group              .         INI                           : 
~Curve Information
#_______________________________________________________________________________
#
#LOGNAME           .UNIT     LOG_ID                        : DESCRIPTION
#_______________________________________________________________________________
DEPTH              .m                                      : Measured Depth 
GR                 .gAPI                                   :  
TNPH               .v/v                                    : Neutron Porosity 
~Ascii
# ...
2749.6     85.37      0.262     
2749.8     97.95999   0.259     
2750       107.96     0.253     
2750.2     109.52     0.251     
2750.4     105.13     0.256     
2750.6     99.77      0.263     
2750.8     93.61      0.261     
2751       90.88      0.24      
2751.2     93.35      0.219     
2751.4     91.53      0.219     
2751.6     89.81      0.232     
2751.8     92.24      0.252     
2752       89.03      0.269     
2752.2     79.25999   0.256     
2752.4     76.23      0.237     
2752.6     80.82      0.237     
2752.8     90.57      0.24      
2753       97.11      0.234     
2753.2     101.34     0.233     
2753.4     107.13     0.235     
2753.6     109.18     0.248     
2753.8     106.56     0.251     
2754       106.4      0.232     
2754.2     104.13     0.221     
2754.4     104.75     0.243     
2754.6     109.68     0.274     
2754.8     110.73     0.278     
2755       105.52     0.276     
2755.2     99.43      0.274     
2755.4     96.46      0.267     
2755.6     100.44     0.266     
2755.8     106.48     0.248     
2756       101.12     0.222     
2756.2     86.28999   0.208     
2756.4     71.89      0.189     
2756.6     62.9       0.177     
2756.8     63.82      0.19      
2757       69.04      0.203     
2757.2     70.47      0.188     
2757.4     67.78      0.169     
2757.6     62.51      0.153     
2757.8     59.84      0.135     
2758       67.49      0.142     
2758.2     77.3       0.167     
2758.4     78.7       0.219     
2758.6     73.62      0.247     
2758.8     66.16      0.228     
2759       62.27      0.202     
2759.2     71.62      0.193     
2759.4     93.31001   0.203     
2759.6     109.59     0.22      
2759.8     111.49     0.236     
2760       108.88     0.242     
2760.2     110.61     0.256     
2760.4     113.97     0.256     
2760.6     115.72     0.237     
2760.8     115.8      0.231     
2761       113.91     0.248     
2761.2     111.7      0.258     
2761.4     108.7      0.26      
2761.6     106.27     0.267     
2761.8     110.02     0.252     
2762       110.45     0.234     
2762.2     106.98     0.245     
2762.4     110.04     0.264     
2762.6     112.46     0.26      
2762.8     108.96     0.261     
2763       105.87     0.263     
2763.2     104.3      0.254     
2763.4     102.98     0.249     
2763.6     102.45     0.243     
2763.8     103.86     0.233     
2764       102.88     0.232     
2764.2     101.17     0.229     
2764.4     107.23     0.228     
2764.6     113.98     0.219     
2764.8     108.01     0.209     
2765       104.26     0.219     
2765.2     109.59     0.242     
2765.4     115.13     0.249     
2765.6     116.02     0.24      
2765.8     114.12     0.242     
2766       110.01     0.241     
2766.2     104.11     0.234     
2766.4     96.99001   0.238     
2766.6     91.23      0.239     
2766.8     96.53      0.215     
2767       99.46      0.199     
2767.2     99.46999   0.214     
2767.4     103.61     0.242     
2767.6     105.33     0.256     
2767.8     105.43     0.27      
2768       108.43     0.271     
2768.2     109.74     0.257     
2768.4     107.01     0.245     
2768.6     100.44     0.229     
2768.8     94.86      0.221     
2769       95.16      0.212     
2769.2     96.49001   0.216     
2769.4     96.22      0.243     
2769.6     102        0.265     
2769.8     109.32     0.263     
2770       109.3      0.249     
2770.2     106.12     0.233     
2770.4     105.18     0.23      
2770.6     105.65     0.24      
2770.8     106.98     0.266     
2771       107.84     0.286     
2771.2     108.52     0.284     
2771.4     109.33     0.268     
2771.6     110.71     0.253     
2771.8     109.86     0.243     
2772       110.23     0.245     
2772.2     110.17     0.261     
2772.4     105.28     0.271     
2772.6     101.22     0.258     
2772.8     103.28     0.255     
2773       108.06     0.276     
2773.2     109.78     0.276     
2773.4     106.37     0.255     
2773.6     104.82     0.253     
2773.8     106.39     0.254     
2774       106.19     0.249     
2774.2     104.32     0.245     
2774.4     105.5      0.252     
2774.6     107.84     0.251     
2774.8     106.22     0.247     
2775       102.2      0.269     
2775.2     103.78     0.29      
2775.4     108.18     0.283     
2775.6     107.21     0.26      
2775.8     105.45     0.257     
2776       104.72     0.286     
2776.2     104.58     0.305     
2776.4     106.44     0.289     
2776.6     104.16     0.271     
2776.8     97.91      0.254     
2777       95.67001   0.254     
2777.2     94.87      0.262     
2777.4     89.89      0.26      
2777.6     86.87      0.258     
2777.8     89.24      0.264     
2778       92.17      0.27      
2778.2     90.97      0.283     
2778.4     88.53      0.293     
2778.6     87.05      0.27      
2778.8     85.63      0.25      
2779       86.04      0.247     
2779.2     88.75      0.246     
2779.4     90.61      0.247     
2779.6     89.49001   0.252     
2779.8     88.64      0.259     
2780       86.5       0.264     
2780.2     85.64999   0.258     
2780.4     90.60001   0.252     
2780.6     97.71      0.256     
2780.8     98.47      0.269     
2781       95.52      0.277     
2781.2     97.25      0.286     
2781.4     98.53      0.304     
2781.6     96.89      0.31      
2781.8     96.72      0.289     
2782       98.11      0.274     
2782.2     101.1      0.28      
2782.4     101.48     0.292     
2782.6     96.8       0.278     
2782.8     96.81      0.252     
2783       102.81     0.256     
2783.2     105.4      0.29      
2783.4     102.27     0.288     
2783.6     98.81      0.263     
2783.8     95.19      0.259     
2784       92.31      0.265     
2784.2     92.67      0.259     
2784.4     94.35001   0.257     
2784.6     96.89      0.254     
2784.8     99.69      0.259     
2785       99.25      0.29      
2785.2     96.44      0.307     
2785.4     91.33      0.286     
2785.6     88.78      0.276     
2785.8     92.52      0.282     
2786       99.17      0.273     
2786.2     101.62     0.272     
2786.4     97.21      0.28      
2786.6     94.61      0.28      
2786.8     97.32001   0.267     
2787       94.8       0.246     
2787.2     90.73      0.234     
2787.4     90.96      0.245     
2787.6     94.63      0.251     
2787.8     97.47      0.245     
2788       96.02      0.256     
2788.2     91.98      0.284     
2788.4     92.36      0.287     
2788.6     91         0.274     
2788.8     85.81001   0.258     
2789       81.52      0.222     
2789.2     81.98      0.212     
2789.4     86.32      0.243     
2789.6     88.49      0.281     
2789.8     89.37      0.29      
2790       92.52      0.284     
2790.2     93.72      0.26      
2790.4     91.44      0.245     
2790.6     92.01      0.246     
2790.8     95.64999   0.248     
2791       98.8       0.253     
2791.2     99.81      0.263     
2791.4     97.98      0.264     
2791.6     97.27      0.263     
2791.8     97.36      0.279     
2792       97.43      0.298     
2792.2     98.94      0.3       
2792.4     100.73     0.289     
2792.6     103.6      0.29      
2792.8     104.29     0.302     
2793       102.06     0.286     
2793.2     99.78      0.249     
2793.4     94.71      0.229     
2793.6     89.92      0.231     
2793.8     90.17      0.246     
2794       91.75999   0.264     
2794.2     93.69      0.267     
2794.4     97.05      0.281     
2794.6     100.44     0.287     
2794.8     103.31     0.284     
2795       104.97     0.284     
2795.2     105.15     0.273     
2795.4     104.17     0.283     
2795.6     107.95     0.31      
2795.8     115.78     0.305     
2796       116.55     0.289     
2796.2     110.65     0.273     
2796.4     107.22     0.263     
2796.6     102.36     0.269     
2796.8     97.53      0.279     
2797       98.7       0.279     
2797.2     99.74      0.27      
2797.4     99.11      0.265     
2797.6     96.18      0.259     
2797.8     95.15      0.244     
2798       95.71      0.238     
