~Version
 VERS              .         2.0                           : CWLS LOG ASCII STANDARD - VERSION 2.0
 WRAP              .         NO                            : ONE LINE PER DEPTH STEP
 DLM               .         SPACE                         : DELIMITING CHARACTER(SPACE TAB OR COMMA)
~Well Information
#_______________________________________________________________________________
#
#PARAMETER_NAME    .UNIT     VALUE                         : DESCRIPTION
#_______________________________________________________________________________
STRT               .m        2703                          : First reference value
STOP               .m        2966                          : Last reference value
STEP               .m        0.2                           : Step increment
NULL               .         -9999                         : Missing value
COMP               .                                       : Company
WELL               .         507                           : Well name
FLD                .                                       : Field
LOC                .                                       : Location
CNTY               .                                       : County
STAT               .                                       : State
CTRY               .                                       : Country
SRVC               .                                       : Service Company
DATE               .                                       : Date
API                .                                       : API number
EREF               .m        139.4                         : 
X                  .m        230550                        : 
Y                  .m        242075                        : 
group              .         Pad5                          : 
Интер-р            .         Пузин                         : 
Куст               .         5                             : 
Статус             .         Не проверено                  : 
Тип                .         Разведка                      : 
~Parameter Information Block
#_______________________________________________________________________________
#
#PARAMETER_NAME    .UNIT     VALUE                         : DESCRIPTION
#_______________________________________________________________________________
SET                .         LAS1                          : 
REAL_CREATION_DATE .         Ср апр 11 2012-13_17_21       : 
TLFamily_DEPTH     .         Measured Depth                : 
TLFamily_KS        .         Potential Resistivity         : 
TLFamily_KS1       .         Extra Shallow Resistivity     : 
TLFamily_KS2       .         Shallow Resistivity           : 
TLFamily_KS3       .         Medium Resistivity            : 
TLFamily_KS4       .         Deep Resistivity              : 
TLFamily_KS5       .         Extra Deep Resistivity        : 
TLFamily_LLD       .         Lateral Log Resistivity       : 
TLFamily_OKS3      .         Medium Resistivity Inverted   : 
TLFamily_RM        .         Mud Resistivity               : 
group              .         INI                           : 
~Curve Information
#_______________________________________________________________________________
#
#LOGNAME           .UNIT     LOG_ID                        : DESCRIPTION
#_______________________________________________________________________________
DEPTH              .m                                      : Measured Depth 
KS                 .ohm.m                                  : Potential Resistivity 
KS1                .ohm.m                                  : Extra Shallow Resistivity 
KS2                .ohm.m                                  : Shallow Resistivity 
KS3                .ohm.m                                  : Medium Resistivity 
KS4                .ohm.m                                  : Deep Resistivity 
KS5                .ohm.m                                  : Extra Deep Resistivity 
LLD                .ohm.m                                  : Lateral Log Resistivity 
OKS3               .ohm.m                                  : Medium Resistivity Inverted 
RM                 .ohm.m                                  : Mud Resistivity 
~Ascii
# ...
2907.4     7.8336     2.2922     8.5361     15.3927    9.6333     12.5529    6.7109     13.8668    0.155     
2907.6     7.7659     2.3058     8.5361     16.0508    11.181     15.2663    6.9954     14.9005    0.155     
2907.8     7.7117     2.3667     8.8637     17.0057    13.3714    18.2667    8.2694     15.7404    0.152     
2908       7.5966     2.4073     9.0209     18.2122    16.4406    20.7975    8.7485     16.3929    0.145     
2908.2     7.5017     2.6103     9.8726     18.98      19.713     22.402     6.33       16.5027    0.152     
2908.4     7.4204     2.5764     9.6498     19.1477    21.864     22.8325    7.525      15.8114    0.152     
2908.6     7.3865     2.5494     9.5516     18.0509    22.0149    21.9194    7.1576     14.3449    0.155     
2908.8     7.3934     2.4952     9.1257     16.6831    21.0818    19.8974    6.4884     12.5553    0.152     
2909       7.3663     2.4479     8.7981     15.425     20.2967    17.2883    6.3052     11.2179    0.148     
2909.2     7.2917     2.4073     8.6474     14.483     19.0507    16.2577    6.109      10.2941    0.148     
2909.4     7.2037     2.3667     8.493      13.7346    17.8505    14.1574    6.1825     9.7255     0.152     
2909.6     7.0885     2.3464     8.4378     13.2765    16.9062    12.3311    6.677      9.2474     0.155     
2909.8     6.9734     2.3802     8.5099     13.1088    16.2176    10.8961    6.7027     8.8275     0.152     
2910       6.7973     2.4005     8.5688     13.3088    15.7126    9.8656     8.2987     8.5682     0.148     
2910.2     6.4924     2.5358     8.8309     13.7669    15.2732    9.0176     8.2309     8.2202     0.148     
2910.4     6.0386     2.7118     9.2764     14.4766    15.129     8.1436     4.9684     8.0135     0.148     
2910.6     5.6186     2.8471     9.8202     14.4634    14.1846    7.2695     3.5228     8.1944     0.158     
2910.8     5.3003     2.4411     8.5426     13.9153    12.4139    6.2651     3.414      8.6789     0.155     
2911       5.1783     2.1298     7.4747     12.3152    10.4859    5.2345     3.3609     9.2216     0.152     
2911.2     5.1445     1.9404     6.6033     10.9023    9.2202     4.3474     3.5891     9.887      0.148     
2911.4     5.219      1.8118     5.8761     9.8055     8.4201     3.8256     3.8102     10.9401    0.148     
2911.6     5.3341     1.717      5.3585     9.07       8.0529     3.5256     5.5964     11.6379    0.142     
2911.8     5.4493     1.8998     5.5944     8.9538     8.2103     3.3821     4.9587     12.3485    0.155     
2912       5.5441     2.0283     5.804      9.0313     8.6628     3.3299     4.2993     13.2336    0.152     
2912.2     5.7744     1.9336     5.6534     8.6441     8.7677     3.4734     4.4474     14.2996    0.153     
2912.4     6.0427     1.7306     5.2144     8.1667     9.0366     3.7082     6.1947     14.7002    0.145     
2912.6     6.2689     1.795      5.483      7.9409     9.3359     4.1648     7.3123     14.6421    0.148     
2912.8     6.6076     1.8659     5.863      8.1732     10.1711    4.5431     8.1918     14.1704    0.148     
2913       6.8311     2.0283     6.4527     8.5796     11.2138    4.9214     9.7178     13.6019    0.148     
2913.2     7.0005     2.2246     7.0233     8.9861     11.9614    5.0779     8.9321     12.6005    0.152     
2913.4     7.1224     2.2855     7.2192     9.2119     12.191     5.3388     7.5645     11.5926    0.155     
2913.6     7.1901     2.2922     7.4813     9.3345     11.9746    5.5215     7.5548     10.714     0.152     
2913.8     7.2376     2.2855     7.6647     9.728      11.8368    5.6258     7.619      10.1355    0.148     
2914       7.2376     2.3328     8.025      10.2313    11.8762    5.7563     8.6576     9.8289     0.145     
2914.2     7.2037     2.4073     8.405      10.8636    11.9221    5.8737     8.5568     9.3896     0.148     
2914.4     7.1427     2.4682     8.6212     11.4296    11.8106    5.9781     8.2655     8.9373     0.152     
2914.6     7.0343     2.5291     8.8309     11.883     11.6204    6.0824     8.4194     8.4269     0.152     
2914.8     6.8108     2.5967     9.034      12.8249    11.6532    6.0563     7.036      7.9747     0.148     
2915       6.6144     2.8133     9.8529     13.4378    11.3778    6.0694     6.5888     7.4901     0.152     
2915.2     6.3299     2.5155     8.903      13.8379    11.0368    6.0694     7.243      6.9216     0.145     
2915.4     6.0589     2.6779     9.4664     13.7862    10.6826    6.0302     4.9653     6.5792     0.152     
2915.6     5.6864     2.6373     9.1454     13.8766    10.4662    5.8476     4.4299     6.4694     0.158     
2915.8     5.3883     2.5088     8.6737     13.2636    9.8629     5.7954     3.5759     6.4435     0.155     
2916       5.2596     2.2178     7.6713     12.1281    9.0497     5.6389     3.3264     6.4112     0.152     
2916.2     5.2461     2.0013     6.813      10.7023    8.2693     5.5867     3.6525     6.3725     0.145     
2916.4     5.263      1.8321     5.9482     9.7022     7.9965     5.6389     3.9582     6.4371     0.148     
2916.6     5.3206     1.8761     5.7058     9.0829     7.9479     5.8085     5.6948     6.3337     0.148     
2916.8     5.2732     1.893      5.9744     9.0506     8.2693     5.9592     6.1066     6.2045     0.142     
2917       5.2054     2.211      6.1644     8.9474     8.466      6.1346     4.7087     5.9331     0.155     
2917.2     5.0158     2.2516     6.1481     8.4312     8.3349     6.0824     3.9369     5.7716     0.155     
2917.4     4.9006     2.1637     6.0334     7.5538     7.6659     6.0694     3.5048     5.4874     0.155     
2917.6     4.7855     1.7576     5.1161     6.6957     7.1807     5.8867     3.3202     5.4908     0.138     
2917.8     4.6297     1.8727     5.3913     6.3408     6.9577     5.7302     3.6057     5.6812     0.148     
2918       4.589      1.7576     5.293      6.1408     6.9642     5.678      3.6219     6.0882     0.148     
2918.2     4.6094     1.6764     4.8737     5.7924     6.6954     5.8607     3.7243     6.3595     0.152     
2918.4     4.6365     1.6967     4.651      5.6795     6.5773     5.952      3.8056     6.5921     0.155     
2918.6     4.6635     1.7035     4.4348     5.6053     6.5576     6.1346     3.888      6.8635     0.152     
2918.8     4.6974     1.7035     4.3561     5.5279     6.5773     6.4999     4.0207     7.109      0.148     
2919       4.7448     1.6967     4.3496     5.5021     6.6954     6.9434     4.0771     7.4062     0.148     
2919.2     4.7787     1.7238     4.4348     5.4699     6.9052     7.4913     4.2106     7.8519     0.152     
2919.4     4.8397     1.7035     4.4217     5.4311     7.22       8.3132     4.2968     8.33       0.152     
2919.6     4.9142     1.6764     4.3954     5.3989     7.6463     9.4742     4.4854     8.8986     0.152     
2919.8     4.9548     1.7103     4.5003     5.5537     8.4726     11.0918    4.4968     9.648      0.148     
2920       4.9989     1.7441     4.6706     5.9215     9.6202     13.6878    4.5224     10.8044    0.148     
2920.2     5.0226     1.7441     4.8082     6.4183     11.3975    17.6405    4.4827     12.5359    0.148     
2920.4     5.1038     1.7441     4.9982     7.0828     12.8417    22.9369    4.5239     14.8876    0.155     
2920.6     5.219      1.7441     5.3061     8.2248     15.8044    27.7636    4.6432     18.8092    0.155     
2920.8     5.3816     1.7982     5.9329     9.7797     19.7196    29.7204    6.1603     22.2462    0.152     
2921       5.6728     1.8118     6.1054     10.9023    22.369     32.8513    8.7809     23.422     0.148     
2921.2     6.1741     1.8862     6.2299     10.7668    21.8378    34.0515    8.6924     22.0395    0.155     
2921.4     6.5263     2.0216     6.2627     10.1603    19.5294    32.473     8.9164     20.8096    0.152     
2921.6     6.7295     2.1366     6.433      9.6958     17.0111    29.7596    8.806      19.1063    0.148     
2921.8     6.8176     2.2381     6.8261     9.4184     14.9847    26.7983    8.2955     17.4524    0.148     
