~Version
 VERS              .         2.0                           : CWLS LOG ASCII STANDARD - VERSION 2.0
 WRAP              .         NO                            : ONE LINE PER DEPTH STEP
 DLM               .         SPACE                         : DELIMITING CHARACTER(SPACE TAB OR COMMA)
~Well Information
#_______________________________________________________________________________
#
#PARAMETER_NAME    .UNIT     VALUE                         : DESCRIPTION
#_______________________________________________________________________________
STRT               .m        2703                          : First reference value
STOP               .m        2966                          : Last reference value
STEP               .m        0.2                           : Step increment
NULL               .         -9999                         : Missing value
COMP               .                                       : Company
WELL               .         507                           : Well name
FLD                .                                       : Field
LOC                .                                       : Location
CNTY               .                                       : County
STAT               .                                       : State
CTRY               .                                       : Country
SRVC               .                                       : Service Company
DATE               .                                       : Date
API                .                                       : API number
EREF               .m        139.4                         : 
X                  .m        230550                        : 
Y                  .m        242075                        : 
group              .         Pad5                          : 
Интер-р            .         Пузин                         : 
Куст               .         5                             : 
Статус             .         Не проверено                  : 
Тип                .         Разведка                      : 
~Parameter Information Block
#_______________________________________________________________________________
#
#PARAMETER_NAME    .UNIT     VALUE                         : DESCRIPTION
#_______________________________________________________________________________
SET                .         LAS1                          : 
REAL_CREATION_DATE .         Ср апр 11 2012-13_17_21       : 
TLFamily_DEPTH     .         Measured Depth                : 
TLFamily_KS        .         Potential Resistivity         : 
TLFamily_KS1       .         Extra Shallow Resistivity     : 
TLFamily_KS2       .         Shallow Resistivity           : 
TLFamily_KS3       .         Medium Resistivity            : 
TLFamily_KS4       .         Deep Resistivity              : 
TLFamily_KS5       .         Extra Deep Resistivity        : 
TLFamily_LLD       .         Lateral Log Resistivity       : 
TLFamily_OKS3      .         Medium Resistivity Inverted   : 
TLFamily_RM        .         Mud Resistivity               : 
group              .         INI                           : 
~Curve Information
#_______________________________________________________________________________
#
#LOGNAME           .UNIT     LOG_ID                        : DESCRIPTION
#_______________________________________________________________________________
DEPTH              .m                                      : Measured Depth 
KS                 .ohm.m                                  : Potential Resistivity 
KS1                .ohm.m                                  : Extra Shallow Resistivity 
KS2                .ohm.m                                  : Shallow Resistivity 
KS3                .ohm.m                                  : Medium Resistivity 
KS4                .ohm.m                                  : Deep Resistivity 
KS5                .ohm.m                                  : Extra Deep Resistivity 
LLD                .ohm.m                                  : Lateral Log Resistivity 
OKS3               .ohm.m                                  : Medium Resistivity Inverted 
RM                 .ohm.m                                  : Mud Resistivity 
~Ascii
# ...
2776       5.7406     2.1772     6.8458     9.6312     8.5739     6.4346     4.2371     10.7657    0.155     
2776.2     5.7338     2.1772     6.7278     9.5603     8.525      6.4086     4.1965     11.037     0.158     
2776.4     5.7473     2.1569     6.6754     9.4184     8.4332     6.3825     4.2971     11.2825    0.158     
2776.6     5.8083     2.1569     6.6689     9.1796     8.348      6.3172     4.2738     11.5926    0.162     
2776.8     5.998      2.1163     6.6689     8.9345     8.2037     6.252      4.3016     11.7219    0.162     
2777       6.235      2.0825     6.6623     8.7861     8.0988     6.1998     4.3867     11.8381    0.165     
2777.2     6.3705     2.1907     6.5837     8.9151     8.1184     6.1868     4.6399     11.864     0.165     
2777.4     6.4247     2.211      6.6033     9.0054     8.1971     6.1868     5.173      11.8229    0.165     
2777.6     6.4315     2.2313     6.9047     9.0248     8.2234     6.1737     5.4565     11.6702    0.165     
2777.8     6.4347     2.2313     7.1668     9.0313     8.2168     6.1607     5.1706     11.541     0.165     
2778       6.4518     2.2313     7.3502     9.0313     8.2168     6.1607     5.2147     11.4699    0.162     
2778.2     6.4789     2.2313     7.4485     9.0506     8.2431     6.1605     5.3174     11.3601    0.162     
2778.4     6.5399     2.2381     7.4551     9.199      8.2955     6.1868     5.381      11.2373    0.162     
2778.6     6.5737     2.2652     7.4612     9.528      8.4004     6.2259     5.4601     11.0952    0.162     
2778.8     6.5737     2.3058     7.4813     10.0184    8.5841     6.2651     5.4822     10.9272    0.162     
2779       6.5602     2.3193     7.5468     10.4571    8.7743     6.2912     5.4305     10.7463    0.162     
2779.2     6.5331     2.3261     7.6582     10.6894    8.9185     6.3303     5.3107     10.5202    0.158     
2779.4     6.5128     2.3261     7.6713     10.6894    8.9448     6.3564     5.3592     10.3608    0.162     
2779.6     6.4924     2.3261     7.7106     10.6829    8.9054     6.3303     5.2704     10.2618    0.158     
2779.8     6.4992     2.2449     7.5926     10.6609    8.8989     6.3303     5.2974     10.0292    0.158     
2780       6.4789     2.2209     7.6254     10.6313    8.8989     6.3694     5.257      9.9        0.158     
2780.2     6.3908     2.2922     7.8285     10.7087    8.9316     6.3825     5.2469     9.8289     0.158     
2780.4     6.296      2.3261     7.763      10.9668    9.0956     6.3825     5.2238     9.8547     0.158     
2780.6     6.2283     2.299      7.7797     11.0829    9.4628     6.4216     5.1659     9.8224     0.155     
2780.8     6.1741     2.2922     7.7433     11.07      9.6465     6.4868     4.9922     9.7061     0.158     
2781       6.1131     2.2922     7.6844     10.9732    9.7252     6.4738     4.6934     9.648      0.158     
2781.2     6.0454     2.2787     7.5533     10.8313    9.6727     6.4607     4.5477     9.6611     0.155     
2781.4     5.9776     2.2246     7.3568     10.7216    9.5547     6.3955     4.4262     9.7126     0.158     
2781.6     5.9302     2.211      7.4092     10.4119    9.5415     6.3825     4.4406     9.7707     0.158     
2781.8     5.951      2.1298     7.2454     10.2553    9.5354     6.4086     4.4512     9.6674     0.155     
2782       5.9167     2.1005     6.8654     10.1668    9.5153     6.4086     4.4746     9.7061     0.155     
2782.2     5.8422     2.2043     7.1078     10.199     9.535      6.3955     4.4856     9.8483     0.158     
2782.4     5.8151     2.1772     7.1733     10.2506    9.7907     6.3955     4.427      10.055     0.158     
2782.6     5.8219     2.1501     7.0751     10.1152    9.7645     6.4477     4.4086     10.2876    0.158     
2782.8     5.8286     2.1704     7.0554     9.9926     9.6596     6.526      4.4868     10.4233    0.158     
2783       5.8489     2.1637     6.9375     9.8958     9.5022     6.4999     4.3759     10.5654    0.158     
2783.2     5.876      2.1637     6.8523     9.728      9.3645     6.4607     4.3759     10.7214    0.158     
2783.4     5.9302     2.1434     6.8064     9.528      9.2595     6.4738     4.5452     10.7657    0.158     
2783.6     5.9949     2.1231     6.7802     9.3474     9.1481     6.4999     4.719      10.714     0.162     
2783.8     6.0522     2.1265     6.7737     9.3113     9.1349     6.5129     4.8511     10.6365    0.158     
2784       6.1402     2.1569     6.8654     9.3603     9.1415     6.5129     5.0223     10.5848    0.158     
2784.2     6.1809     2.2246     7.0161     9.3926     9.1743     6.5195     5.1924     10.5137    0.158     
2784.4     6.2215     2.2719     7.1443     9.4184     9.1022     6.526      5.2402     10.475     0.158     
2784.6     6.235      2.2719     7.1995     9.4571     9.0497     6.5651     5.0527     10.5073    0.162     
2784.8     6.2418     2.2719     7.2388     9.4829     8.9972     6.6042     4.796      10.5525    0.158     
2785       6.2554     2.2719     7.3175     9.5603     8.9841     6.6303     5.0587     10.5231    0.162     
2785.2     6.2689     2.2652     7.4747     9.6893     8.971      6.6434     5.4117     10.462     0.165     
2785.4     6.2554     2.3125     7.5599     9.8442     8.9579     6.6173     4.8945     10.3845    0.162     
2785.6     6.1673     2.3599     7.573      9.9802     8.9316     6.6042     4.4454     10.4168    0.165     
2785.8     6.1025     2.3599     7.5926     10.0571    8.8674     6.6042     4.377      10.5331    0.162     
2786       6.0454     2.319      7.6647     10.0958    8.7677     6.6042     4.3908     10.7398    0.158     
2786.2     6.0454     2.2516     7.5664     10.0184    8.6169     6.5912     4.3908     11.0306    0.162     
2786.4     6.0725     2.2043     7.3044     9.9345     8.5054     6.5651     4.415      11.3342    0.158     
2786.6     6.0996     2.2043     7.1624     9.8506     8.4595     6.4999     4.5539     11.5474    0.158     
2786.8     6.1402     2.1907     7.0423     9.7732     8.4136     6.4477     4.6786     11.6766    0.158     
2787       6.1809     2.211      7.0161     9.7022     8.3808     6.4086     4.7582     11.7252    0.158     
2787.2     6.235      2.211      7.003      9.6442     8.3808     6.3694     4.7443     11.7929    0.155     
2787.4     6.296      2.2043     7.0226     9.599      8.3808     6.3433     4.793      11.8575    0.155     
2787.6     6.3403     2.2246     7.0816     9.5087     8.4072     6.3433     4.8881     11.8511    0.155     
2787.8     6.4112     2.2211     7.0816     9.4534     8.4463     6.3433     5.0392     11.8317    0.155     
2788       6.506      2.211      7.0489     9.47       8.4988     6.3694     4.9862     11.7542    0.155     
2788.2     6.5873     2.211      7.1668     9.6635     8.6037     6.3694     5.2644     11.6185    0.155     
2788.4     6.6618     2.2584     7.2458     9.8119     8.7743     6.4216     5.4351     11.5087    0.155     
2788.6     6.7295     2.2922     7.3633     9.9345     8.8923     6.4868     5.4422     11.4182    0.158     
2788.8     6.7905     2.299      7.4747     10.1216    8.9907     6.5521     5.5073     11.3662    0.158     
2789       6.8176     2.3328     7.5599     10.3732    9.1415     6.6173     5.9042     11.2308    0.158     
2789.2     6.8108     2.4276     7.9333     10.6765    9.3448     6.6434     6.8434     10.8432    0.158     
2789.4     6.7768     2.4546     8.0054     10.9023    9.6137     6.6695     5.7027     10.3974    0.158     
2789.6     6.7295     2.4816     8.1364     10.9898    9.6858     6.6564     5.3045     10.1002    0.158     
2789.8     6.6279     2.4411     8.084      11.07      9.6958     6.6434     5.2249     9.8935     0.162     
2790       6.5399     2.387      8.084      11.1345    9.7645     6.6042     5.1477     9.7449     0.162     
2790.2     6.4315     2.387      8.1624     11.2442    9.8104     6.5912     4.9583     9.6868     0.165     
2790.4     6.3231     2.3734     8.0971     11.3668    9.817      6.5651     4.7094     9.6803     0.165     
