~Version
 VERS              .         2.0                           : CWLS LOG ASCII STANDARD - VERSION 2.0
 WRAP              .         NO                            : ONE LINE PER DEPTH STEP
 DLM               .         SPACE                         : DELIMITING CHARACTER(SPACE TAB OR COMMA)
~Well Information
#_______________________________________________________________________________
#
#PARAMETER_NAME    .UNIT     VALUE                         : DESCRIPTION
#_______________________________________________________________________________
STRT               .m        2390                          : First reference value
STOP               .m        2562                          : Last reference value
STEP               .m        0.2                           : Step increment
NULL               .         -9999                         : Missing value
COMP               .                                       : Company
WELL               .         600                           : Well name
FLD                .                                       : Field
LOC                .                                       : Location
CNTY               .                                       : County
STAT               .                                       : State
CTRY               .                                       : Country
SRVC               .                                       : Service Company
DATE               .                                       : Date
API                .                                       : API number
EREF               .m        134                           : 
X                  .m        225746                        : 
Y                  .m        235643                        : 
group              .         Pad6                          : 
Интер-р            .         Ярышев                        : 
Куст               .         6                             : 
Статус             .         Не проверено                  : 
Тип                .         Разобраться                   : 
~Parameter Information Block
#_______________________________________________________________________________
#
#PARAMETER_NAME    .UNIT     VALUE                         : DESCRIPTION
#_______________________________________________________________________________
SET                .         LAS1                          : 
REAL_CREATION_DATE .         Ср апр 11 2012-13_17_21       : 
TLFamily_DEPTH     .         Measured Depth                : 
TLFamily_KS        .         Potential Resistivity         : 
TLFamily_KS1       .         Extra Shallow Resistivity     : 
TLFamily_KS2       .         Shallow Resistivity           : 
TLFamily_KS3       .         Medium Resistivity            : 
TLFamily_KS4       .         Deep Resistivity              : 
TLFamily_KS5       .         Extra Deep Resistivity        : 
TLFamily_LLD       .         Lateral Log Resistivity       : 
TLFamily_OKS3      .         Medium Resistivity Inverted   : 
TLFamily_RM        .         Mud Resistivity               : 
TLFamily_SP        .         Spontaneous Potential         : 
group              .         INI                           : 
~Curve Information
#_______________________________________________________________________________
#
#LOGNAME           .UNIT     LOG_ID                        : DESCRIPTION
#_______________________________________________________________________________
DEPTH              .m                                      : Measured Depth 
KS                 .ohm.m                                  : Potential Resistivity 
KS1                .ohm.m                                  : Extra Shallow Resistivity 
KS2                .ohm.m                                  : Shallow Resistivity 
KS3                .ohm.m                                  : Medium Resistivity 
KS4                .ohm.m                                  : Deep Resistivity 
KS5                .ohm.m                                  : Extra Deep Resistivity 
LLD                .ohm.m                                  : Lateral Log Resistivity 
OKS3               .ohm.m                                  : Medium Resistivity Inverted 
RM                 .ohm.m                                  : Mud Resistivity 
SP                 .mV                                     : Spontaneous Potential 
~Ascii
# ...
2537.4     11.4689    3.4013     15.9816    40.5453    42.1165    38.6977    6.408      14.0346    0.407      62.8171   
2537.6     10.7608    3.063      14.3863    39.2764    40.8371    35.8181    5.8115     16.005     0.398      64.0261   
2537.8     10.0945    2.9821     14.2259    39.922     42.2689    33.4412    8.4359     18.3775    0.395      66.0851   
2538       9.518      3.1828     15.0255    40.4735    44.9767    31.5222    17.2223    18.5472    0.396      67.8639   
2538.2     9.1383     3.2293     14.5598    39.4364    45.2527    29.5069    9.6179     16.7877    0.408      67.8016   
2538.4     8.7424     2.971      12.8022    35.8259    42.6208    26.6813    6.1955     15.3619    0.408      66.4814   
2538.6     8.4118     2.7709     11.3693    31.1583    39.3802    23.3756    5.6738     14.3886    0.408      65.8791   
2538.8     8.1902     2.5422     10.4298    27.5864    36.9595    20.3546    5.7509     13.5332    0.412      65.9193   
2539       7.9743     2.4327     9.7816     24.7382    35.1814    17.8813    5.6484     13.063     0.402      64.622    
2539.2     7.8233     2.3631     9.313      22.0391    33.5184    15.8902    5.9811     12.7191    0.396      63.2935   
2539.4     7.7649     2.2722     8.703      19.7981    32.1664    14.1845    5.8203     12.4328    0.388      63.4028   
2539.6     7.7106     2.2944     8.3896     18.1466    30.7982    12.7807    6.662      12.0832    0.394      63.3981   
2539.8     7.6615     2.3187     8.3364     17.1378    29.4954    11.7024    6.7133     11.7119    0.402      63.4741   
2540       7.6216     2.3187     8.23       16.5407    27.365     10.8319    6.5608     11.3689    0.406      64.5982   
2540.2     7.4749     2.3498     8.3711     16.3016    25.8202    10.026     6.8009     10.9977    0.412      66.9194   
2540.4     7.379      2.3726     8.257      15.9251    24.2414    9.2682     6.4086     10.5834    0.412      69.2092   
2540.6     7.19       2.3581     8.1751     15.3239    22.2052    8.5639     6.5025     10.059     0.406      71.1064   
2540.8     7.0445     2.3692     8.2703     14.6885    20.4331    7.912      6.2773     9.5822     0.394      72.5062   
2541       6.9488     2.3263     8.0472     13.9973    18.666     7.3702     5.5138     9.2813     0.394      74.1905   
2541.2     6.862      2.2467     7.7198     13.1639    16.7435    6.8838     5.4194     9.0597     0.393      75.3688   
2541.4     6.756      2.1665     7.4127     12.6611    15.2127    6.4506     5.4824     9.065      0.4        75.6137   
2541.6     6.6729     2.1466     7.3518     12.4462    14.1748    6.1469     5.4656     9.2325     0.407      75.5267   
2541.8     6.5963     2.1495     7.3038     12.3046    13.491     5.983      5.7109     9.3143     0.406      75.7291   
2542       6.5429     2.1075     7.0163     12.1676    13.3091    5.9394     5.9185     9.3191     0.394      75.5806   
2542.2     6.485      2.1348     7.0862     12.1011    13.559     6.0141     6.0206     9.261      0.389      74.4078   
2542.4     6.3473     2.1571     7.0837     12.2831    13.9645    6.1095     5.9722     9.3143     0.39       74.0943   
2542.6     6.173      2.2373     7.2641     12.2127    14.0408    6.3663     5.2228     9.4055     0.401      73.4862   
2542.8     6.0706     2.2096     7.0827     11.9476    14.0408    6.6974     4.2899     9.998      0.406      71.5769   
2543       6.0105     2.0763     6.715      11.6163    14.1903    7.0876     4.5209     11.0609    0.398      69.6829   
2543.2     6.0051     1.9449     6.529      11.4293    14.5432    7.6791     5.1789     11.5399    0.387      67.6166   
2543.4     6.1178     1.9329     6.3758     11.2502    14.9804    8.5553     4.4348     11.6474    0.387      65.4257   
2543.6     6.2182     1.8405     6.0583     11.1158    15.6507    9.7894     6.0814     12.1701    0.397      64.4855   
2543.8     6.2661     1.9158     6.3875     11.4361    16.4829    11.1038    7.6505     12.5953    0.41       64.6237   
2544       6.3726     2.1148     6.895      12.1946    17.9276    12.1795    5.6543     12.619     0.404      64.7039   
2544.2     6.378      2.1712     7.183      12.7022    18.9109    12.5952    6.1838     12.6159    0.39       64.3723   
2544.4     6.378      2.1679     7.2402     12.6234    18.3841    12.6173    6.7605     12.5657    0.396      63.4047   
2544.6     6.4786     2.1571     7.1861     12.0011    16.3021    12.0532    6.4168     12.5657    0.394      60.7168   
2544.8     6.4845     2.2099     7.2796     11.3731    14.678     10.7793    5.2962     12.5657    0.391      57.0358   
2545       6.4845     2.193      7.1532     10.6123    13.3102    9.6441     4.3738     2.5131     0.367      55.2359   
2545.2     6.4845     2.057      6.562      9.8562     11.8761    8.7147     5.1707     0          0.362      55.8968   
2545.4     6.6218     1.9415     6.5265     9.3897     10.5512    7.9177     5.7035     0          0.361      56.5077   
2545.6     6.7433     1.9206     6.4485     9.285      9.7894     7.3346     6.2366     0          0.355      57.2557   
2545.8     6.7508     1.991      6.5791     9.4061     9.2757     6.964      6.4841     0          0.357      59.2504   
2546       6.7508     1.9954     6.5985     9.686      8.8347     6.8454     6.6474     0          0.355      61.3712   
2546.2     6.804      1.9954     6.6724     9.9012     8.5081     6.9355     6.6448     0          0.355      62.4818   
2546.4     6.804      2.0493     6.8631     10.1502    8.2908     7.2637     6.6363     0          0.355      62.9499   
2546.6     6.804      2.0493     6.9129     10.5526    8.1941     7.7356     5.8737     0          0.355      62.6063   
2546.8     6.804      2.0493     6.9129     10.6966    8.1481     8.3204     5.3359     0          0.355      62.3422   
2547       6.804      2.0493     6.9129     10.7529    8.3332     9.1352     5.5999     0          0.355      62.7525   
2547.2     6.804      2.0493     6.9129     11.0808    8.9216     10.2668    6.1798     0          0.213      63.502    
2547.4     6.804      2.0493     6.9129     12.4534    10.2588    11.4243    8.5023     0          0          64.6479   
2547.6     0          2.0493     6.9129     14.3372    12.0534    12.0515    19.4575    0          0          64.5612   
2547.8     0          0          6.9129     14.8955    13.6401    12.0271    13.625     0          0          62.9022   
2548       0          0          6.9129     15.283     14.2324    11.5355    6.2181     0          0          61.3548   
2548.2     0          0          6.9129     15.8863    13.7429    10.6451    4.883      0          0          60.7747   
2548.4     0          0          0          15.9261    12.8471    9.4959     3.9151     0          0          60.527    
2548.6     0          0          0          15.9261    12.3334    8.4523     3.8        0          0          58.3024   
2548.8     0          0          0          15.9261    12.0872    7.8228     4.5532     0          0          55.4893   
2549       0          0          0          15.9261    12.001     7.4945     5.1461     0          0          54.5223   
2549.2     0          0          0          15.9261    12.1262    7.2718     5.6134     0          0          56.8539   
2549.4     0          0          0          15.9261    12.063     7.062      6.1401     0          0          60.8647   
2549.6     0          0          0          0          11.9511    6.6186     6.1683     0          0          63.1571   
2549.8     0          0          0          0          11.8837    6.0811     5.4514     0          0          63.3853   
2550       0          0          0          0          11.8445    5.46       4.1426     0          0          64.1142   
2550.2     0          0          0          0          11.8205    4.8644     3.8153     0          0          67.9077   
2550.4     0          0          0          0          11.8562    4.2974     5.0044     0          0          72.4462   
2550.6     0          0          0          0          11.8374    3.8129     4.9867     0          0          75.6497   
