~Version
 VERS              .         2.0                           : CWLS LOG ASCII STANDARD - VERSION 2.0
 WRAP              .         NO                            : ONE LINE PER DEPTH STEP
 DLM               .         SPACE                         : DELIMITING CHARACTER(SPACE TAB OR COMMA)
~Well Information
#_______________________________________________________________________________
#
#PARAMETER_NAME    .UNIT     VALUE                         : DESCRIPTION
#_______________________________________________________________________________
STRT               .m        2390                          : First reference value
STOP               .m        2562                          : Last reference value
STEP               .m        0.2                           : Step increment
NULL               .         -9999                         : Missing value
COMP               .                                       : Company
WELL               .         600                           : Well name
FLD                .                                       : Field
LOC                .                                       : Location
CNTY               .                                       : County
STAT               .                                       : State
CTRY               .                                       : Country
SRVC               .                                       : Service Company
DATE               .                                       : Date
API                .                                       : API number
EREF               .m        134                           : 
X                  .m        225746                        : 
Y                  .m        235643                        : 
group              .         Pad6                          : 
Интер-р            .         Ярышев                        : 
Куст               .         6                             : 
Статус             .         Не проверено                  : 
Тип                .         Разобраться                   : 
~Parameter Information Block
#_______________________________________________________________________________
#
#PARAMETER_NAME    .UNIT     VALUE                         : DESCRIPTION
#_______________________________________________________________________________
SET                .         LAS1                          : 
REAL_CREATION_DATE .         Ср апр 11 2012-13_17_21       : 
TLFamily_DEPTH     .         Measured Depth                : 
TLFamily_KS        .         Potential Resistivity         : 
TLFamily_KS1       .         Extra Shallow Resistivity     : 
TLFamily_KS2       .         Shallow Resistivity           : 
TLFamily_KS3       .         Medium Resistivity            : 
TLFamily_KS4       .         Deep Resistivity              : 
TLFamily_KS5       .         Extra Deep Resistivity        : 
TLFamily_LLD       .         Lateral Log Resistivity       : 
TLFamily_OKS3      .         Medium Resistivity Inverted   : 
TLFamily_RM        .         Mud Resistivity               : 
TLFamily_SP        .         Spontaneous Potential         : 
group              .         INI                           : 
~Curve Information
#_______________________________________________________________________________
#
#LOGNAME           .UNIT     LOG_ID                        : DESCRIPTION
#_______________________________________________________________________________
DEPTH              .m                                      : Measured Depth 
KS                 .ohm.m                                  : Potential Resistivity 
KS1                .ohm.m                                  : Extra Shallow Resistivity 
KS2                .ohm.m                                  : Shallow Resistivity 
KS3                .ohm.m                                  : Medium Resistivity 
KS4                .ohm.m                                  : Deep Resistivity 
KS5                .ohm.m                                  : Extra Deep Resistivity 
LLD                .ohm.m                                  : Lateral Log Resistivity 
OKS3               .ohm.m                                  : Medium Resistivity Inverted 
RM                 .ohm.m                                  : Mud Resistivity 
SP                 .mV                                     : Spontaneous Potential 
~Ascii
# ...
2470.4     11.3844    2.7446     10.6458    19.948     22.1796    19.7486    14.3384    16.0053    0.408      12.6986   
2470.6     11.3358    2.839      11.106     21.0089    23.084     20.2276    13.6625    14.4877    0.411      11.8944   
2470.8     11.1122    2.9971     11.6463    22.2225    24.1092    20.623     15.0297    13.0782    0.414      12.2439   
2471       10.7784    3.1313     12.3886    23.7935    25.2927    20.6421    16.5622    11.7807    0.415      11.738    
2471.2     10.3501    3.3333     13.3219    25.1465    26.0334    20.3541    13.7357    10.7116    0.42       11.4978   
2471.4     9.9224     3.3308     13.1785    25.417     25.8304    19.8574    8.3672     10.0232    0.418      12.2379   
2471.6     9.4011     3.127      12.5197    24.935     25.3068    19.0423    7.1297     9.6132     0.414      12.9092   
2471.8     8.8578     3.0731     12.4722    24.8568    25.1328    18.0597    8.1003     9.1232     0.409      14.0333   
2472       8.3615     3.0731     12.5042    24.9736    25.4229    17.1431    7.8807     8.431      0.408      15.8414   
2472.2     7.8975     3.0211     12.2233    24.7765    25.2102    16.2799    6.8451     7.7749     0.408      17.8557   
2472.4     7.3692     2.9664     11.7502    24.2847    24.8205    15.1837    6.3465     7.2594     0.408      18.8616   
2472.6     6.8552     2.9216     11.4318    23.4354    23.9794    13.7986    5.5905     6.8616     0.407      18.9748   
2472.8     6.4538     2.8177     10.5994    21.558     22.3007    12.4238    3.9319     6.8543     0.401      19.4655   
2473       6.1481     2.4897     9.172      19.1641    20.0509    11.0783    2.8518     7.0308     0.395      19.4693   
2473.2     5.8965     2.156      7.9887     17.0215    18.1161    9.9503     3.2336     7.2853     0.393      18.8673   
2473.4     5.7936     2.027      7.4725     15.5321    17.0601    9.0586     3.7405     8.0806     0.393      18.229    
2473.6     5.7913     1.9954     7.1053     14.4364    16.3997    8.441      3.9832     8.6147     0.396      18.0927   
2473.8     5.7321     2.0491     6.8018     13.6659    16.0503    7.9241     4.5264     8.8065     0.396      18.7082   
2474       5.675      2.1534     6.7078     12.9829    15.57      7.4705     4.4822     9.5708     0.39       18.598    
2474.2     5.6323     2.1565     6.4171     12.0045    14.6375    7.0324     3.5462     9.9028     0.389      18.0587   
2474.4     5.582      2.0887     6.0129     10.7524    13.2806    6.6461     3.2588     10.0586    0.389      19.0509   
2474.6     5.5277     1.978      5.8474     9.8301     12.3217    6.2539     3.3872     10.1325    0.396      19.943    
2474.8     5.5653     1.8914     5.7263     9.2699     11.8085    5.9428     3.9509     10.2963    0.396      19.6927   
2475       5.6622     1.9555     5.9775     8.8285     11.4511    5.7786     4.083      10.604     0.394      18.9416   
2475.2     5.6856     1.9415     5.7609     8.307      10.9291    5.6694     3.8856     10.9679    0.393      17.8644   
2475.4     5.7388     1.9307     5.579      7.9303     10.364     5.5983     4.1716     11.2715    0.395      17.1812   
2475.6     5.7587     1.9415     5.5319     7.7793     9.7963     5.6194     4.1662     11.7145    0.395      16.7933   
2475.8     5.8677     1.9415     5.4838     7.6754     9.3908     5.8789     3.947      12.4278    0.401      16.7711   
2476       6.0933     1.9167     5.4171     7.6185     9.2399     6.3177     3.9389     13.5701    0.402      18.5191   
2476.2     6.4856     1.8599     5.2887     7.7238     9.4792     7.0423     4.0954     14.8449    0.402      20.5535   
2476.4     6.8919     1.9818     5.3685     7.989      10.1354    7.7924     4.9759     15.7906    0.396      20.4951   
2476.6     7.08       2.2079     5.6721     8.8343     10.9008    8.4803     7.4351     15.2554    0.396      20.4525   
2476.8     7.1236     2.1571     6.5429     9.5031     11.1879    9.0497     7.5814     13.9927    0.396      21.3739   
2477       7.1415     2.1571     6.6313     9.4633     10.8084    9.4826     5.7057     12.6555    0.396      20.725    
2477.2     7.1769     2.1571     6.9246     9.3771     10.1746    9.7418     5.4744     11.9141    0.393      18.7563   
2477.4     7.2282     2.1571     7.2171     9.3759     9.8934     10.2483    5.2848     11.6038    0.396      18.3674   
2477.6     7.2742     2.1571     7.3031     9.3935     10.1687    11.1273    5.4214     11.5529    0.396      18.9154   
2477.8     7.3364     2.1048     7.4296     9.5932     10.6558    12.5104    5.5724     11.651     0.396      18.974    
2478       7.3937     2.1995     7.4833     10.416     11.2559    14.4676    6.0863     11.7892    0.396      18.6781   
2478.2     7.5044     2.2075     7.5068     12.5831    12.128     16.9035    5.5484     12.2447    0.395      18.8911   
2478.4     7.5497     2.1682     7.6432     16.3563    13.78      19.3568    6.0285     12.8884    0.39       19.5647   
2478.6     7.4175     2.4601     8.9789     16.949     16.263     21.2699    16.9142    12.7072    0.4        20.2185   
2478.8     7.3045     2.8669     10.2566    16.7504    17.3309    22.1737    18.873     11.5169    0.407      20.167    
2479       7.0205     2.8844     10.0243    16.4946    16.4562    21.5681    6.5625     10.0872    0.403      19.4688   
2479.2     6.5855     2.8898     10.0434    16.196     15.0823    19.829     5.4197     8.9738     0.402      18.6292   
2479.4     6.2161     2.7454     9.6089     15.4576    14.4268    17.5681    4.2191     8.24       0.399      17.7969   
2479.6     5.8766     2.4877     9.0479     14.1962    13.9378    15.1687    3.712      7.6862     0.396      17.4223   
2479.8     5.6068     2.3498     8.6274     13.1519    12.4707    12.8952    3.4769     7.4575     0.398      17.3402   
2480       5.4047     2.1646     7.6556     12.2598    10.1938    10.7745    3.1572     7.4522     0.386      18.2081   
2480.2     5.236      2.1381     7.4177     11.6242    8.6051     9.1078     3.2747     7.5701     0.39       19.6661   
2480.4     5.1545     2.0288     6.8626     11.0733    7.9622     7.7119     3.2139     7.7283     0.39       19.185    
2480.6     5.153      1.9598     6.4272     10.6185    7.8418     6.7066     3.1557     7.8732     0.385      18.048    
2480.8     5.1049     1.8988     6.0819     10.5277    7.7877     5.8816     3.447      8.0293     0.388      18.3792   
2481       5.0513     1.9873     6.192      10.4653    7.7187     5.2076     4.1552     7.9495     0.388      18.4387   
2481.2     5.083      2.0441     6.0816     10.1367    7.6057     4.6428     3.6312     7.8696     0.389      17.0159   
2481.4     5.0249     1.9954     5.868      9.5742     7.33       4.0925     3.4241     7.8302     0.389      16.3225   
2481.6     4.9423     1.9954     5.955      9.0585     7.0234     3.5756     3.5687     7.889      0.39       19.325    
2481.8     4.9399     1.9201     5.812      8.6013     6.8025     3.1752     3.2342     7.9285     0.39       23.7011   
2482       4.9025     1.8876     5.675      8.1742     6.6851     2.9063     3.29       8.1246     0.388      26.2681   
2482.2     4.9327     1.8876     5.6969     7.8975     6.675      2.7087     3.2371     8.4091     0.39       28.6733   
2482.4     4.9882     1.8462     5.4822     7.6959     6.6949     2.548      3.299      8.6975     0.39       30.6078   
2482.6     5.0612     1.8416     5.5237     7.6194     6.8769     2.4323     3.7326     8.8234     0.39       30.6539   
2482.8     5.1755     1.8876     5.5507     7.6185     7.2244     2.3035     3.8339     8.8346     0.39       29.8845   
2483       5.2345     1.9361     5.54       7.662      7.4686     2.1953     3.8055     8.8346     0.39       29.671    
2483.2     5.3109     1.9669     5.6435     7.727      7.6552     2.1554     4.1419     8.8138     0.396      30.3937   
2483.4     5.3651     1.9954     5.8139     7.8246     7.7271     2.1554     4.161      8.7575     0.393      31.3298   
2483.6     5.366      1.9954     5.9342     7.88       7.7272     2.1554     4.1118     8.6006     0.396      31.1955   
