~Version
 VERS              .         2.0                           : CWLS LOG ASCII STANDARD - VERSION 2.0
 WRAP              .         NO                            : ONE LINE PER DEPTH STEP
 DLM               .         SPACE                         : DELIMITING CHARACTER(SPACE TAB OR COMMA)
~Well Information
#_______________________________________________________________________________
#
#PARAMETER_NAME    .UNIT     VALUE                         : DESCRIPTION
#_______________________________________________________________________________
STRT               .m        2390                          : First reference value
STOP               .m        2562                          : Last reference value
STEP               .m        0.2                           : Step increment
NULL               .         -9999                         : Missing value
COMP               .                                       : Company
WELL               .         600                           : Well name
FLD                .                                       : Field
LOC                .                                       : Location
CNTY               .                                       : County
STAT               .                                       : State
CTRY               .                                       : Country
SRVC               .                                       : Service Company
DATE               .                                       : Date
API                .                                       : API number
EREF               .m        134                           : 
X                  .m        225746                        : 
Y                  .m        235643                        : 
group              .         Pad6                          : 
Интер-р            .         Ярышев                        : 
Куст               .         6                             : 
Статус             .         Не проверено                  : 
Тип                .         Разобраться                   : 
~Parameter Information Block
#_______________________________________________________________________________
#
#PARAMETER_NAME    .UNIT     VALUE                         : DESCRIPTION
#_______________________________________________________________________________
SET                .         LAS1                          : 
REAL_CREATION_DATE .         Ср апр 11 2012-13_17_21       : 
TLFamily_DEPTH     .         Measured Depth                : 
TLFamily_KS        .         Potential Resistivity         : 
TLFamily_KS1       .         Extra Shallow Resistivity     : 
TLFamily_KS2       .         Shallow Resistivity           : 
TLFamily_KS3       .         Medium Resistivity            : 
TLFamily_KS4       .         Deep Resistivity              : 
TLFamily_KS5       .         Extra Deep Resistivity        : 
TLFamily_LLD       .         Lateral Log Resistivity       : 
TLFamily_OKS3      .         Medium Resistivity Inverted   : 
TLFamily_RM        .         Mud Resistivity               : 
TLFamily_SP        .         Spontaneous Potential         : 
group              .         INI                           : 
~Curve Information
#_______________________________________________________________________________
#
#LOGNAME           .UNIT     LOG_ID                        : DESCRIPTION
#_______________________________________________________________________________
DEPTH              .m                                      : Measured Depth 
KS                 .ohm.m                                  : Potential Resistivity 
KS1                .ohm.m                                  : Extra Shallow Resistivity 
KS2                .ohm.m                                  : Shallow Resistivity 
KS3                .ohm.m                                  : Medium Resistivity 
KS4                .ohm.m                                  : Deep Resistivity 
KS5                .ohm.m                                  : Extra Deep Resistivity 
LLD                .ohm.m                                  : Lateral Log Resistivity 
OKS3               .ohm.m                                  : Medium Resistivity Inverted 
RM                 .ohm.m                                  : Mud Resistivity 
SP                 .mV                                     : Spontaneous Potential 
~Ascii
# ...
2443.6     6.2182     2.2501     7.1131     9.8485     7.9632     3.6828     4.5785     12.1256    0.411      14.6977   
2443.8     6.2182     2.1865     6.8266     9.73       7.7482     3.5855     4.1723     12.4909    0.402      14.4148   
2444       6.2182     2.1211     6.7557     9.5319     7.4895     3.5821     4.3089     12.9685    0.405      14.6152   
2444.2     6.3191     2.0633     6.6056     9.3921     7.3175     3.5621     4.1774     13.5575    0.405      14.7722   
2444.4     6.4302     1.9958     6.4175     9.2739     7.2537     3.6447     4.4797     14.0909    0.402      14.293    
2444.6     6.5762     1.9954     6.389      9.3091     7.3909     3.7426     4.9691     14.6771    0.405      14.1845   
2444.8     6.7562     2.0144     6.3766     9.5318     7.6656     3.9154     5.3791     15.1747    0.407      14.8655   
2445       6.8895     2.1258     6.5767     9.7999     7.9687     4.1385     5.8077     15.6454    0.408      14.4942   
2445.2     7.0508     2.1571     6.7109     10.1076    8.326      4.3692     5.6756     16.1638    0.406      13.1545   
2445.4     7.1651     2.223      7.0181     10.4062    8.7329     4.6404     5.6622     16.9114    0.408      12.3241   
2445.6     7.3356     2.213      7.1014     10.6204    9.18       4.9457     5.5659     17.6849    0.408      11.2924   
2445.8     7.4631     2.211      7.1817     10.776     9.5896     5.3594     6.1215     18.3355    0.408      11.6016   
2446       7.6306     2.2559     7.4719     11.1272    10.1111    5.7613     6.5464     18.8929    0.408      12.7174   
2446.2     7.7793     2.3252     7.7035     11.6211    10.7447    6.1263     6.8956     19.325     0.408      13.8286   
2446.4     7.8948     2.4197     8.0824     11.9717    11.139     6.3391     7.0362     19.3457    0.408      13.9931   
2446.6     8.0135     2.4265     8.0761     12.1377    11.1212    6.4269     6.7111     19.0368    0.408      13.9433   
2446.8     8.1319     2.4265     8.1629     12.1179    10.8352    6.3168     6.523      18.6545    0.408      13.6646   
2447       8.2965     2.3825     8.0439     12.0118    10.5187    6.2015     6.1273     18.538     0.408      13.3169   
2447.2     8.4547     2.3187     7.8914     11.935     10.2595    6.128      6.4333     18.5811    0.412      14.4096   
2447.4     8.6222     2.3187     7.9576     12.0966    10.2854    6.1358     7.0039     18.6888    0.414      13.9331   
2447.6     8.7679     2.3326     8.2027     12.5369    10.511     6.1809     8.4155     18.4975    0.414      11.4747   
2447.8     8.9109     2.4425     8.5616     13.1138    10.7391    6.2375     8.8163     18.0624    0.414      10.4881   
2448       9.0222     2.509      8.7092     13.6086    10.8691    6.2869     8.0402     17.7233    0.414      10.6753   
2448.2     9.041      2.5019     8.7814     14.0529    10.9681    6.2671     7.8453     17.5444    0.414      10.4242   
2448.4     9.0411     2.5681     9.1015     14.5388    11.1508    6.1782     8.2594     17.3316    0.414      10.2047   
2448.6     9.0942     2.5882     9.3219     15.0914    11.451     6.1228     8.0471     17.0976    0.414      10.9964   
2448.8     9.0942     2.5882     9.4068     15.4256    11.7442    6.0667     7.9319     16.9357    0.414      11.587    
2449       9.0436     2.5882     9.4127     15.6565    12.019     6.022      8.1371     16.8372    0.411      11.5724   
2449.2     8.9899     2.6115     9.5213     15.9309    12.3399    5.9798     8.2444     16.7573    0.409      11.3621   
2449.4     8.9001     2.642      9.6813     16.2623    12.7109    5.9691     7.9654     16.7231    0.408      10.6334   
2449.6     8.7831     2.642      9.7238     16.5905    13.1298    6.0166     7.1912     16.9192    0.408      9.9652    
2449.8     8.6784     2.642      9.6669     16.7206    13.5207    6.0925     6.6395     17.3805    0.408      9.7579    
2450       8.655      2.5837     9.4891     16.6608    13.8494    6.1824     6.3887     18.0661    0.408      10.2615   
2450.2     8.6149     2.4895     9.2177     16.5674    14.3055    6.2869     6.5047     18.8199    0.408      10.1697   
2450.4     8.6651     2.4804     9.1547     16.5749    14.8026    6.3193     7.4052     19.2784    0.408      9.6694    
2450.6     8.7557     2.4804     9.1261     16.5009    15.1527    6.3398     7.217      19.361     0.406      10.7253   
2450.8     8.8722     2.4304     8.8052     16.2112    15.2504    6.325      7.3842     19.1833    0.402      12.2669   
2451       8.9852     2.4265     8.7014     15.919     15.2992    6.2163     7.7263     19.1217    0.405      11.9964   
2451.2     9.0895     2.4265     8.7167     15.7975    15.4074    6.178      7.8977     19.1217    0.406      10.7726   
2451.4     9.158      2.4707     8.9072     15.7984    15.5776    6.1317     8.2254     19.1166    0.408      10.6166   
2451.6     9.2247     2.4804     9.0187     15.8196    15.8548    6.1885     8.1216     19.0684    0.405      9.9573    
2451.8     9.305      2.5278     9.1053     15.7663    16.0876    6.2446     8.0706     19.1584    0.408      8.2918    
2452       9.3589     2.5343     9.2087     15.8222    16.3395    6.2869     8.3355     19.2219    0.403      7.4483    
2452.2     9.4124     2.565      9.3764     15.9955    16.5798    6.3016     8.6751     19.1488    0.402      8.096     
2452.4     9.4138     2.5882     9.5261     16.2732    16.7646    6.3915     8.3735     19.0352    0.402      9.2315    
2452.6     9.4671     2.5882     9.5804     16.4659    16.8728    6.465      8.2333     19.0151    0.402      9.1327    
2452.8     9.4671     2.5882     9.5358     16.7472    16.9916    6.5329     8.4409     18.9724    0.402      9.7567    
2453       9.5172     2.6035     9.6994     17.0175    17.1099    6.6511     8.7423     19.0176    0.399      11.3557   
2453.2     9.5203     2.6225     9.742      17.2449    17.1712    6.7632     8.5844     19.1151    0.402      11.9394   
2453.4     9.4849     2.6367     9.7923     17.3236    17.1168    6.8593     8.5254     19.0241    0.402      10.5116   
2453.6     9.4671     2.642      9.8169     17.4107    16.9612    6.9154     8.4262     18.807     0.402      10.3928   
2453.8     9.4671     2.6016     9.7354     17.3684    16.74      6.9911     8.5402     18.5273    0.402      11.9999   
2454       9.4597     2.5915     9.7131     17.314     16.6278    7.0588     8.9052     18.3264    0.402      13.143    
2454.2     9.3649     2.642      9.7906     17.4804    16.7249    7.2245     8.7791     18.3277    0.402      13.0492   
2454.4     9.292      2.6776     9.9353     17.6275    16.8926    7.4184     8.324      18.4851    0.402      13.2455   
2454.6     9.2034     2.642      9.8115     17.5791    16.9834    7.6541     7.9692     18.6623    0.402      14.6142   
2454.8     9.1117     2.5667     9.6061     17.463     17.129     7.9458     7.4813     19.2453    0.402      15.6884   
2455       9.136      2.585      9.5925     17.1052    16.9977    8.2894     6.2053     20.7918    0.402      16.2006   
2455.2     9.1937     2.2818     8.6971     16.7464    17.0004    8.6674     6.582      22.211     0.397      16.1293   
2455.4     9.2155     2.3053     8.856      16.7482    17.341     9.1143     10.0231    22.9022    0.4        16.1806   
2455.6     9.3749     2.4228     9.2546     17.4725    18.3081    9.4735     10.0457    23.2668    0.402      16.095    
2455.8     9.5121     2.4968     9.3594     18.0247    19.0412    9.8087     9.3773     23.4095    0.402      16.0265   
2456       9.5497     2.5774     9.5075     18.2599    19.4048    9.9799     9.8272     23.0224    0.402      15.1083   
2456.2     9.6084     2.5617     9.536      18.152     19.3084    9.9283     9.105      22.2667    0.402      14.2225   
2456.4     9.6807     2.5343     9.4801     17.6267    18.7489    9.6924     8.4927     21.8333    0.402      14.015    
2456.6     9.782      2.4303     9.2143     16.9917    18.1051    9.3361     8.0358     21.8246    0.402      14.1277   
2456.8     9.8533     2.3819     9.0184     16.4478    17.5514    9.0984     8.1327     22.1291    0.402      15.2952   
