~Version
 VERS              .         2.0                           : CWLS LOG ASCII STANDARD - VERSION 2.0
 WRAP              .         NO                            : ONE LINE PER DEPTH STEP
 DLM               .         SPACE                         : DELIMITING CHARACTER(SPACE TAB OR COMMA)
~Well Information
#_______________________________________________________________________________
#
#PARAMETER_NAME    .UNIT     VALUE                         : DESCRIPTION
#_______________________________________________________________________________
STRT               .m        2390                          : First reference value
STOP               .m        2562                          : Last reference value
STEP               .m        0.2                           : Step increment
NULL               .         -9999                         : Missing value
COMP               .                                       : Company
WELL               .         600                           : Well name
FLD                .                                       : Field
LOC                .                                       : Location
CNTY               .                                       : County
STAT               .                                       : State
CTRY               .                                       : Country
SRVC               .                                       : Service Company
DATE               .                                       : Date
API                .                                       : API number
EREF               .m        134                           : 
X                  .m        225746                        : 
Y                  .m        235643                        : 
group              .         Pad6                          : 
Интер-р            .         Ярышев                        : 
Куст               .         6                             : 
Статус             .         Не проверено                  : 
Тип                .         Разобраться                   : 
~Parameter Information Block
#_______________________________________________________________________________
#
#PARAMETER_NAME    .UNIT     VALUE                         : DESCRIPTION
#_______________________________________________________________________________
SET                .         LAS1                          : 
REAL_CREATION_DATE .         Ср апр 11 2012-13_17_21       : 
TLFamily_DEPTH     .         Measured Depth                : 
TLFamily_KS        .         Potential Resistivity         : 
TLFamily_KS1       .         Extra Shallow Resistivity     : 
TLFamily_KS2       .         Shallow Resistivity           : 
TLFamily_KS3       .         Medium Resistivity            : 
TLFamily_KS4       .         Deep Resistivity              : 
TLFamily_KS5       .         Extra Deep Resistivity        : 
TLFamily_LLD       .         Lateral Log Resistivity       : 
TLFamily_OKS3      .         Medium Resistivity Inverted   : 
TLFamily_RM        .         Mud Resistivity               : 
TLFamily_SP        .         Spontaneous Potential         : 
group              .         INI                           : 
~Curve Information
#_______________________________________________________________________________
#
#LOGNAME           .UNIT     LOG_ID                        : DESCRIPTION
#_______________________________________________________________________________
DEPTH              .m                                      : Measured Depth 
KS                 .ohm.m                                  : Potential Resistivity 
KS1                .ohm.m                                  : Extra Shallow Resistivity 
KS2                .ohm.m                                  : Shallow Resistivity 
KS3                .ohm.m                                  : Medium Resistivity 
KS4                .ohm.m                                  : Deep Resistivity 
KS5                .ohm.m                                  : Extra Deep Resistivity 
LLD                .ohm.m                                  : Lateral Log Resistivity 
OKS3               .ohm.m                                  : Medium Resistivity Inverted 
RM                 .ohm.m                                  : Mud Resistivity 
SP                 .mV                                     : Spontaneous Potential 
~Ascii
# ...
2497.2     7.2172     1.6795     5.4864     8.3941     6.9809     4.2262     7.1968     16.9316    0.373      40.3912   
2497.4     7.4566     1.8564     6.3921     9.669      8.2639     4.6593     15.5693    16.7241    0.375      40.644    
2497.6     7.592      2.2583     7.5111     11.038     9.3815     4.9851     16.4221    15.5964    0.39       41.6561   
2497.8     7.6498     2.5525     8.2781     11.8357    9.8132     5.1464     8.2556     14.419     0.388      43.3587   
2498       7.6562     2.5152     8.141      11.8743    9.7795     5.1804     5.1344     13.9218    0.39       45.3648   
2498.2     7.677      2.294      7.7575     11.3966    9.5918     5.2345     4.6782     14.281     0.384      46.9912   
2498.4     7.8322     2.0588     7.3074     11.2366    9.7811     5.3346     5.7704     14.775     0.379      46.1237   
2498.6     7.9475     2.0703     7.7293     11.8125    10.4589    5.5382     12.3256    14.7791    0.383      44.5449   
2498.8     7.9758     2.4023     8.67       13.1928    11.5376    5.6142     19.762     13.949     0.385      46.7062   
2499       7.8897     2.7616     9.5983     14.3018    12.1828    5.6513     11.1875    12.593     0.399      50.335    
2499.2     7.7224     2.7221     9.2746     14.6235    12.0327    5.6066     6.2505     11.5211    0.384      52.0678   
2499.4     7.3927     2.6577     9.0742     14.5237    11.5592    5.3828     5.3854     10.9718    0.384      54.9767   
2499.6     7.0583     2.5696     9.2466     14.5415    11.1482    5.0701     4.9889     10.9133    0.386      60.3052   
2499.8     6.8475     2.424      8.9533     14.364     10.8085    4.8629     4.6934     10.9986    0.39       64.8569   
2500       6.7332     2.2643     8.3773     13.7351    10.3942    4.6839     4.522      11.0645    0.39       68.1624   
2500.2     6.6182     2.211      7.8277     13.1038    10.1009    4.5336     4.9863     11.0926    0.385      71.4816   
2500.4     6.591      2.1852     7.3805     12.5828    9.8905     4.4216     4.7379     11.196     0.387      73.1415   
2500.6     6.591      2.1064     6.9719     12.2182    9.6308     4.38       4.8619     11.3073    0.387      72.7904   
2500.8     6.591      2.0622     6.7106     12.1237    9.6256     4.38       4.9377     11.5924    0.385      71.8292   
2501       6.591      2.0925     6.7232     12.0951    9.7951     4.4116     5.5711     11.7977    0.393      71.3156   
2501.2     6.6026     2.1427     6.7403     12.0162    10.0677    4.4752     5.1878     11.9793    0.39       72.3401   
2501.4     6.6223     2.1032     6.5735     11.6782    10.3068    4.5882     5.295      12.1902    0.389      73.893    
2501.6     6.6418     2.1032     6.5966     11.2322    10.5734    4.7046     5.2621     12.4928    0.388      74.4445   
2501.8     6.6443     2.081      6.5401     10.9425    10.8593    4.8204     5.4919     12.6098    0.384      74.2674   
2502       6.6443     2.1032     6.565      10.7766    11.0765    4.9321     5.2824     12.6418    0.384      74.4682   
2502.2     6.6443     2.0686     6.5337     10.6337    11.1905    5.0373     5.121      12.568     0.385      73.9969   
2502.4     6.6926     2.0493     6.4677     10.4319    11.1997    5.1516     5.0055     12.6395    0.389      72.7659   
2502.6     6.7474     1.9954     6.3139     10.3067    11.2714    5.3315     5.3208     12.8993    0.386      71.1166   
2502.8     6.8244     1.9954     6.3178     10.1853    11.4573    5.5317     6.0249     12.9921    0.39       69.3761   
2503       6.8831     2.0164     6.3875     10.1747    11.6747    5.7855     5.7866     12.9921    0.387      68.3778   
2503.2     6.9952     2.0493     6.2784     10.1747    11.8882    6.2447     5.1028     13.0912    0.39       67.171    
2503.4     7.1129     1.9997     6.225      10.2406    12.1832    6.8862     5.4865     13.9643    0.39       65.6018   
2503.6     7.231      1.9954     6.3658     10.6073    12.8725    7.7885     5.7613     15.1301    0.391      64.4169   
2503.8     7.4485     1.9954     6.5337     11.2693    14.0968    8.8045     6.0269     16.2611    0.393      63.4105   
2504       7.6208     2.0398     6.9274     12.2496    15.5292    9.7364     11.0158    16.3043    0.389      62.6464   
2504.2     7.7783     2.2246     7.6891     13.4143    16.7407    10.5501    14.0649    15.7298    0.391      61.2557   
2504.4     7.8971     2.595      8.4999     13.9693    17.1168    11.3444    6.4264     15.4297    0.405      59.3581   
2504.6     7.9598     2.4635     8.0309     13.7983    17.0136    12.2233    5.4681     16.0075    0.397      58.4229   
2504.8     7.9758     2.3249     7.9045     13.7457    17.4064    12.9779    6.2224     16.82      0.396      56.7463   
2505       7.9321     2.3346     8.3545     14.4147    18.4468    13.4423    12.2382    16.5124    0.392      53.5161   
2505.2     7.8215     2.5806     9.571      15.334     19.1825    13.6597    14.2349    15.2111    0.401      50.9555   
2505.4     7.8037     2.8892     9.9567     15.3815    18.4024    13.3341    5.7099     13.9807    0.398      50.0708   
2505.6     7.6925     2.5862     8.9281     14.2277    16.3232    12.606     4.9697     13.0595    0.395      51.049    
2505.8     7.5579     2.3284     8.151      13.1209    14.4276    11.626     4.8648     13.0018    0.39       52.2271   
2506       7.5497     2.1936     7.9274     12.5068    13.19      10.8958    4.6638     13.5298    0.396      52.4765   
2506.2     7.5389     2.101      7.693      12.4113    12.4788    10.6291    5.2692     14.0735    0.391      51.8067   
2506.4     7.6028     2.0863     7.3037     12.5135    12.1137    10.5497    6.1264     14.5923    0.39       51.527    
2506.6     7.5543     2.2359     7.6573     12.8543    12.1576    10.3288    6.8142     14.9239    0.39       50.6543   
2506.8     7.56       2.2594     7.6214     13.0465    12.0647    10.1279    6.5607     14.7876    0.387      49.2754   
2507       7.539      2.1664     7.2377     12.9728    11.6632    9.8893     5.8294     14.6629    0.39       48.6861   
2507.2     7.4731     2.2567     7.4776     12.7938    11.0928    9.3896     5.3155     15.1578    0.399      49.2409   
2507.4     7.476      2.1493     7.0364     12.5658    10.5429    8.7588     4.8829     16.2565    0.396      49.4572   
2507.6     7.535      2.0041     6.5875     11.6715    9.7861     8.2671     5.0443     17.2358    0.391      47.5591   
2507.8     7.6441     1.893      6.2942     10.6376    9.3206     7.7183     5.6433     18.3779    0.381      46.0164   
2508       7.762      1.9166     6.2614     10.2137    9.1661     7.3914     5.9479     19.487     0.387      46.6754   
2508.2     7.874      1.9408     6.1752     10.0875    9.4326     7.2698     5.8241     20.9111    0.388      48.5564   
2508.4     8.0108     1.9329     6.1617     10.1177    9.7914     7.4706     5.5081     22.653     0.387      49.4172   
2508.6     8.259      1.8529     6.0169     10.0389    10.1314    7.9611     5.3657     24.4678    0.389      48.9658   
2508.8     8.5338     1.7543     5.795      10.2924    10.7354    8.661      5.8907     26.446     0.384      48.9422   
2509       8.8728     1.8289     6.1935     10.8305    11.7281    9.6988     7.5956     27.0224    0.394      49.5861   
2509.2     9.4694     1.8025     6.0962     11.3551    13.3273    10.9848    7.3591     26.861     0.387      49.3709   
2509.4     10.2778    1.739      5.9863     11.7454    15.1982    12.4188    7.4957     26.333     0.384      48.5275   
2509.6     11.0805    1.5868     5.868      12.4567    17.2389    13.8041    13.1329    24.7094    0.378      48.5234   
2509.8     11.9459    1.7961     6.6215     13.5736    19.9326    15.2141    38.966     21.9023    0.392      49.988    
2510       12.6434    2.1381     7.7929     15.117     22.0075    16.3705    81.7413    18.965     0.396      52.2838   
2510.2     13.1948    2.5224     9.1776     16.9502    24.0638    17.3477    93.4927    16.3978    0.399      53.608    
2510.4     13.2025    2.8753     10.5652    18.8071    26.0881    18.3673    99.5004    14.4529    0.402      54.9115   
