~Version
 VERS              .         2.0                           : CWLS LOG ASCII STANDARD - VERSION 2.0
 WRAP              .         NO                            : ONE LINE PER DEPTH STEP
 DLM               .         SPACE                         : DELIMITING CHARACTER(SPACE TAB OR COMMA)
~Well Information
#_______________________________________________________________________________
#
#PARAMETER_NAME    .UNIT     VALUE                         : DESCRIPTION
#_______________________________________________________________________________
STRT               .m        2390                          : First reference value
STOP               .m        2562                          : Last reference value
STEP               .m        0.2                           : Step increment
NULL               .         -9999                         : Missing value
COMP               .                                       : Company
WELL               .         600                           : Well name
FLD                .                                       : Field
LOC                .                                       : Location
CNTY               .                                       : County
STAT               .                                       : State
CTRY               .                                       : Country
SRVC               .                                       : Service Company
DATE               .                                       : Date
API                .                                       : API number
EREF               .m        134                           : 
X                  .m        225746                        : 
Y                  .m        235643                        : 
group              .         Pad6                          : 
Интер-р            .         Ярышев                        : 
Куст               .         6                             : 
Статус             .         Не проверено                  : 
Тип                .         Разобраться                   : 
~Parameter Information Block
#_______________________________________________________________________________
#
#PARAMETER_NAME    .UNIT     VALUE                         : DESCRIPTION
#_______________________________________________________________________________
SET                .         LAS1                          : 
REAL_CREATION_DATE .         Ср апр 11 2012-13_17_21       : 
TLFamily_DEPTH     .         Measured Depth                : 
TLFamily_KS        .         Potential Resistivity         : 
TLFamily_KS1       .         Extra Shallow Resistivity     : 
TLFamily_KS2       .         Shallow Resistivity           : 
TLFamily_KS3       .         Medium Resistivity            : 
TLFamily_KS4       .         Deep Resistivity              : 
TLFamily_KS5       .         Extra Deep Resistivity        : 
TLFamily_LLD       .         Lateral Log Resistivity       : 
TLFamily_OKS3      .         Medium Resistivity Inverted   : 
TLFamily_RM        .         Mud Resistivity               : 
TLFamily_SP        .         Spontaneous Potential         : 
group              .         INI                           : 
~Curve Information
#_______________________________________________________________________________
#
#LOGNAME           .UNIT     LOG_ID                        : DESCRIPTION
#_______________________________________________________________________________
DEPTH              .m                                      : Measured Depth 
KS                 .ohm.m                                  : Potential Resistivity 
KS1                .ohm.m                                  : Extra Shallow Resistivity 
KS2                .ohm.m                                  : Shallow Resistivity 
KS3                .ohm.m                                  : Medium Resistivity 
KS4                .ohm.m                                  : Deep Resistivity 
KS5                .ohm.m                                  : Extra Deep Resistivity 
LLD                .ohm.m                                  : Lateral Log Resistivity 
OKS3               .ohm.m                                  : Medium Resistivity Inverted 
RM                 .ohm.m                                  : Mud Resistivity 
SP                 .mV                                     : Spontaneous Potential 
~Ascii
# ...
2510.6     12.9488    3.2312     12.2411    20.9253    28.0702    19.0744    81.7786    12.7502    0.405      57.7324   
2510.8     12.2806    3.5801     14.1727    23.429     30.1437    19.8936    68.9022    11.169     0.409      59.8353   
2511       11.4232    3.8621     16.0166    26.2479    32.2203    20.3232    43.7777    9.7414     0.414      60.6772   
2511.2     10.1586    4.1311     17.7677    29.4437    33.6818    20.3602    24.3478    8.5279     0.415      62.3404   
2511.4     8.8708     4.2388     18.3818    31.5669    33.5159    19.7744    8.7266     7.7194     0.414      64.1075   
2511.6     7.7687     3.9534     17.5486    31.4993    31.0974    18.4014    5.4626     7.0271     0.415      65.8296   
2511.8     6.913      3.3821     15.0234    30.0454    27.6231    16.4462    3.6283     6.5        0.41       68.8226   
2512       6.2884     2.8858     12.7387    27.1051    23.4889    14.2257    3.3444     6.1581     0.406      72.1837   
2512.2     5.8644     2.4778     10.4623    24.1112    20.1666    12.1559    3.1082     6.1458     0.402      74.1161   
2512.4     5.5788     2.2354     8.9741     21.4387    17.5942    10.4091    3.1989     6.3669     0.402      74.3593   
2512.6     5.4613     2.1137     7.8939     19.2813    15.9697    9.1567     3.3046     6.868      0.402      75.0934   
2512.8     5.4013     2.0032     7.0319     17.7502    15.1628    8.3966     3.3212     7.6531     0.402      76.373    
2513       5.2213     2.0584     6.9963     17.1983    15.3872    7.8431     4.789      7.9197     0.399      76.751    
2513.2     5.1021     2.3258     7.5806     16.648     15.8377    7.3756     5.5828     7.744      0.404      75.2005   
2513.4     4.9674     2.3823     7.0775     15.118     15.4722    7.0372     3.2629     7.4602     0.405      73.3939   
2513.6     4.7893     2.1981     6.4949     13.0269    14.4377    6.7094     3.033      7.5262     0.402      73.3423   
2513.8     4.6298     2.1043     6.3439     11.6175    14.0245    6.0972     3.5758     7.7842     0.408      73.5469   
2514       4.4589     2.1049     6.5343     10.657     13.7981    5.2654     4.0658     7.9207     0.406      73.7406   
2514.2     4.3581     2.2405     6.448      9.3596     12.5492    4.3214     2.8675     8.1428     0.407      74.6838   
2514.4     4.3541     1.8821     5.2212     7.6495     10.3913    3.6558     2.1438     8.9123     0.402      75.4665   
2514.6     4.4691     1.5891     4.4592     6.2775     8.4808     3.0488     2.1859     10.467     0.397      76.2954   
2514.8     4.7374     1.3824     3.9968     5.6975     7.6208     2.747      2.5992     12.368     0.394      76.9763   
2515       5.092      1.3797     4.0953     5.7679     7.5752     2.6321     4.5387     13.2314    0.393      76.3723   
2515.2     5.4538     1.6617     4.7623     6.4986     7.9859     2.637      10.2542    12.7061    0.399      76.3306   
2515.4     5.6275     2.1508     5.5638     7.1765     8.1069     2.6773     9.7221     11.57      0.406      76.2383   
2515.6     5.6323     2.4211     5.8402     7.1654     7.6259     2.6321     4.1413     11.1338    0.404      74.0814   
2515.8     5.7047     2.1588     5.4245     6.5727     6.7739     2.6321     2.8629     12.0713    0.398      72.1404   
2516       5.8953     1.7447     4.9602     6.0863     6.2544     2.6321     2.7619     14.3045    0.391      71.2941   
2516.2     6.2708     1.4962     4.7365     5.9442     6.2433     2.7332     4.2531     15.875     0.394      69.4402   
2516.4     6.8745     1.5407     5.0457     6.2558     6.5672     2.9192     8.3775     16.2215    0.39       66.5348   
2516.6     7.3851     1.7985     5.5517     6.8586     6.9158     3.0983     14.5679    15.435     0.396      63.7692   
2516.8     7.6957     2.1505     6.2409     7.6267     7.296      3.3098     14.5016    14.3772    0.396      61.9498   
2517       7.684      2.4301     6.9982     8.634      7.6156     3.4555     12.8039    13.3324    0.394      61.038    
2517.2     7.4601     2.7016     8.2203     9.7871     7.8499     3.5711     8.7213     12.6538    0.393      59.6086   
2517.4     7.1763     2.6985     8.7039     10.5529    7.7646     3.6479     5.2128     12.4756    0.391      57.5978   
2517.6     6.9329     2.4842     8.6221     10.4594    7.3621     3.7467     4.6453     12.7953    0.394      55.5581   
2517.8     6.7676     2.3116     8.2334     10.0747    7.0216     3.8294     4.2469     13.5763    0.39       53.2253   
2518       6.7508     2.127      7.627      9.5895     6.7823     4.026      4.1746     14.3174    0.393      49.9445   
2518.2     6.8529     1.9184     6.8115     9.2997     6.563      4.3249     4.3408     15.0007    0.39       47.1212   
2518.4     7.025      1.8498     6.3392     9.5432     6.5171     4.636      5.1668     15.4809    0.389      45.4693   
2518.6     7.1646     1.9021     6.3505     10.1474    6.5937     5.0884     5.7639     15.7957    0.384      44.8878   
2518.8     7.3557     1.9139     6.2467     10.6319    6.8115     5.6239     5.7358     16.1393    0.387      44.954    
2519       7.55       1.9636     6.3368     10.8726    7.1725     6.1947     5.8041     16.5364    0.384      44.2766   
2519.2     7.7308     1.9692     6.4554     11.0199    7.7617     6.8511     6.4143     16.9434    0.384      43.1131   
2519.4     7.9609     1.9921     6.5978     11.0752    8.5039     7.6748     6.9679     17.0686    0.384      43.2033   
2519.6     8.1344     2.0899     6.9086     11.2118    9.1562     8.6562     7.5881     17.0721    0.387      43.4109   
2519.8     8.2928     2.1538     7.2372     11.4958    9.8072     9.7757     7.4916     17.1389    0.385      43.2286   
2520       8.3608     2.2648     7.5461     11.9124    10.5681    11.0209    7.5183     17.2008    0.39       41.8134   
2520.2     8.5016     2.2758     7.8289     12.4016    11.5711    12.411     8.2503     17.3672    0.395      41.1149   
2520.4     8.5921     2.3391     8.1048     12.9827    12.8894    14.0508    8.0802     17.615     0.398      41.4127   
2520.6     8.6149     2.3726     8.321      13.6095    14.3478    15.9789    8.0173     18.1405    0.402      42.0728   
2520.8     8.6149     2.4238     8.6187     14.336     15.967     18.3509    7.9669     18.9715    0.402      42.7534   
2521       8.5623     2.4785     8.9168     15.2384    17.8047    21.0626    7.6903     20.124     0.402      42.5778   
2521.2     8.6038     2.4804     9.2382     16.2045    20.0531    23.3624    6.968      21.9923    0.401      43.5136   
2521.4     8.5459     2.361      9.0905     17.4322    22.0859    24.7257    9.6903     23.3743    0.397      44.5139   
2521.6     8.4785     2.6231     10.0757    18.2223    22.6646    24.9404    14.7425    23.2084    0.402      44.5325   
2521.8     8.4859     2.6488     10.0168    18.489     21.8727    23.6086    8.8597     20.9777    0.402      45.2858   
2522       8.3759     2.642      9.8581     17.8165    19.9936    20.9987    7.4198     18.8155    0.402      47.234    
2522.2     8.297      2.519      9.3273     16.8638    18.0678    17.9568    5.7502     17.4863    0.402      48.793    
2522.4     8.1892     2.3413     8.7902     15.8114    16.2341    15.3176    5.8299     16.7512    0.402      49.6476   
2522.6     8.1356     2.2711     8.4757     14.9979    14.8355    12.943     6.0376     16.3677    0.402      50.1871   
2522.8     8.1356     2.211      8.1605     14.4232    13.8649    11.0945    6.5708     16.1083    0.403      52.0131   
2523       8.1536     2.1992     7.9207     13.9596    13.0528    9.6876     6.2183     16.042     0.408      54.2784   
2523.2     8.1888     2.1409     7.4697     13.4012    12.251     8.595      5.8971     16.371     0.408      54.5044   
2523.4     8.2766     2.0787     7.2254     12.9937    11.6738    7.7736     5.7586     17.678     0.408      53.0721   
2523.6     8.3887     2.0167     7.0665     13.0084    11.4696    7.3374     5.9377     19.1321    0.408      50.3918   
2523.8     8.498      1.9954     7.0492     13.6484    11.7899    7.1811     6.9925     20.4675    0.408      46.3692   
