~Version
 VERS              .         2.0                           : CWLS LOG ASCII STANDARD - VERSION 2.0
 WRAP              .         NO                            : ONE LINE PER DEPTH STEP
 DLM               .         SPACE                         : DELIMITING CHARACTER(SPACE TAB OR COMMA)
~Well Information
#_______________________________________________________________________________
#
#PARAMETER_NAME    .UNIT     VALUE                         : DESCRIPTION
#_______________________________________________________________________________
STRT               .m        2390                          : First reference value
STOP               .m        2562                          : Last reference value
STEP               .m        0.2                           : Step increment
NULL               .         -9999                         : Missing value
COMP               .                                       : Company
WELL               .         600                           : Well name
FLD                .                                       : Field
LOC                .                                       : Location
CNTY               .                                       : County
STAT               .                                       : State
CTRY               .                                       : Country
SRVC               .                                       : Service Company
DATE               .                                       : Date
API                .                                       : API number
EREF               .m        134                           : 
X                  .m        225746                        : 
Y                  .m        235643                        : 
group              .         Pad6                          : 
Интер-р            .         Ярышев                        : 
Куст               .         6                             : 
Статус             .         Не проверено                  : 
Тип                .         Разобраться                   : 
~Parameter Information Block
#_______________________________________________________________________________
#
#PARAMETER_NAME    .UNIT     VALUE                         : DESCRIPTION
#_______________________________________________________________________________
SET                .         LAS1                          : 
REAL_CREATION_DATE .         Ср апр 11 2012-13_17_21       : 
TLFamily_DEPTH     .         Measured Depth                : 
TLFamily_KS        .         Potential Resistivity         : 
TLFamily_KS1       .         Extra Shallow Resistivity     : 
TLFamily_KS2       .         Shallow Resistivity           : 
TLFamily_KS3       .         Medium Resistivity            : 
TLFamily_KS4       .         Deep Resistivity              : 
TLFamily_KS5       .         Extra Deep Resistivity        : 
TLFamily_LLD       .         Lateral Log Resistivity       : 
TLFamily_OKS3      .         Medium Resistivity Inverted   : 
TLFamily_RM        .         Mud Resistivity               : 
TLFamily_SP        .         Spontaneous Potential         : 
group              .         INI                           : 
~Curve Information
#_______________________________________________________________________________
#
#LOGNAME           .UNIT     LOG_ID                        : DESCRIPTION
#_______________________________________________________________________________
DEPTH              .m                                      : Measured Depth 
KS                 .ohm.m                                  : Potential Resistivity 
KS1                .ohm.m                                  : Extra Shallow Resistivity 
KS2                .ohm.m                                  : Shallow Resistivity 
KS3                .ohm.m                                  : Medium Resistivity 
KS4                .ohm.m                                  : Deep Resistivity 
KS5                .ohm.m                                  : Extra Deep Resistivity 
LLD                .ohm.m                                  : Lateral Log Resistivity 
OKS3               .ohm.m                                  : Medium Resistivity Inverted 
RM                 .ohm.m                                  : Mud Resistivity 
SP                 .mV                                     : Spontaneous Potential 
~Ascii
# ...
2550.8     0          0          0          0          11.8311    3.5151     4.023      0          0          78.3804   
2551       0          0          0          0          11.8831    3.2888     4.1855     0          0          81.9206   
2551.2     0          0          0          0          11.8827    3.1484     4.6965     0          0          86.0111   
2551.4     0          0          0          0          11.8837    2.9685     4.5633     0          0          88.7864   
2551.6     0          0          0          0          0          2.8932     4.1181     0          0          89.1938   
2551.8     0          0          0          0          0          2.8782     3.8198     0          0          88.5238   
2552       0          0          0          0          0          2.9128     3.6446     0          0          89.0063   
2552.2     0          0          0          0          0          3.0548     3.9343     0          0          89.4661   
2552.4     0          0          0          0          0          3.2773     4.6528     0          0          89.0966   
2552.6     0          0          0          0          0          3.613      5.6021     0          0          -49.2498  
2552.8     0          0          0          0          0          4.1163     6.6423     0          0          -789.4199 
2553       0          0          0          0          0          4.5997     6.7723     0          0          -1645.208 
2553.2     0          0          0          0          0          4.9909     6.2889     0          0          -1870     
2553.4     0          0          0          0          0          5.4547     8.0132     0          0          -1870     
2553.6     0          0          0          0          0          5.8749     9.7654     0          0          -1870     
2553.8     0          0          0          0          0          6.1725     8.7203     0          0          -1870     
2554       0          0          0          0          0          6.2339     7.1177     0          0          -1870     
2554.2     0          0          0          0          0          6.2339     7.2377     0          0          -1870     
2554.4     0          0          0          0          0          6.2311     6.094      0          0          -1870     
2554.6     0          0          0          0          0          6.2339     5.3704     0          0          -1870     
2554.8     0          0          0          0          0          6.2339     6.3252     0          0          -1870     
2555       0          0          0          0          0          6.2339     6.8832     0          0          -1870     
2555.2     0          0          0          0          0          6.2339     7.9044     0          0          -1870     
2555.4     0          0          0          0          0          6.2339     8.3474     0          0          -1870     
2555.6     0          0          0          0          0          6.2339     7.5044     0          0          -1870     
2555.8     0          0          0          0          0          0          7.3001     0          0          -1870     
2556       0          0          0          0          0          0          8.1447     0          0          -1870     
2556.2     0          0          0          0          0          0          10.5652    0          0          -1870     
2556.4     0          0          0          0          0          0          9.3633     0          0          -1870     
2556.6     0          0          0          0          0          0          8.6002     0          0          -1870     
2556.8     0          0          0          0          0          0          7.12       0          0          -1870     
2557       0          0          0          0          0          0          5.3082     0          0          -1870     
2557.2     0          0          0          0          0          0          5.3514     0          0          -1870     
2557.4     0          0          0          0          0          0          5.3194     0          0          -1870     
2557.6     0          0          0          0          0          0          5.5695     0          0          -1870     
2557.8     0          0          0          0          0          0          5.378      0          0          -1870     
2558       0          0          0          0          0          0          6.3224     0          0          -1870     
2558.2     0          0          0          0          0          0          7.3091     0          0          -1870     
2558.4     0          0          0          0          0          0          7.7776     0          0          -1870     
2558.6     0          0          0          0          0          0          8.5735     0          0          -1870     
2558.8     0          0          0          0          0          0          11.6721    0          0          -1870     
2559       0          0          0          0          0          0          13.5645    0          0          -1870     
2559.2     0          0          0          0          0          0          9.3792     0          0          -1870     
2559.4     0          0          0          0          0          0          9.288      0          0          -1870     
2559.6     0          0          0          0          0          0          8.6092     0          0          -1870     
2559.8     0          0          0          0          0          0          7.8884     0          0          -1870     
2560       0          0          0          0          0          0          8.1394     0          0          -1870     
2560.2     0          0          0          0          0          0          8.9914     0          0          -1870     
2560.4     0          0          0          0          0          0          9.1452     0          0          -1870     
2560.6     0          0          0          0          0          0          10.1298    0          0          -1870     
2560.8     0          0          0          0          0          0          9.7552     0          0          -1870     
2561       0          0          0          0          0          0          11.4573    0          0          -1870     
2561.2     0          0          0          0          0          0          11.379     0          0          -1870     
2561.4     0          0          0          0          0          0          11.3669    0          0          -1870     
2561.6     0          0          0          0          0          0          11.4123    0          0          -1870     
2561.8     0          0          0          0          0          0          11.3943    0          0          -1870     
2562       0          0          0          0          0          0          11.3809    0          0          -1870     
