~Version
 VERS              .         2.0                           : CWLS LOG ASCII STANDARD - VERSION 2.0
 WRAP              .         NO                            : ONE LINE PER DEPTH STEP
 DLM               .         SPACE                         : DELIMITING CHARACTER(SPACE TAB OR COMMA)
~Well Information
#_______________________________________________________________________________
#
#PARAMETER_NAME    .UNIT     VALUE                         : DESCRIPTION
#_______________________________________________________________________________
STRT               .m        2390                          : First reference value
STOP               .m        2562                          : Last reference value
STEP               .m        0.2                           : Step increment
NULL               .         -9999                         : Missing value
COMP               .                                       : Company
WELL               .         600                           : Well name
FLD                .                                       : Field
LOC                .                                       : Location
CNTY               .                                       : County
STAT               .                                       : State
CTRY               .                                       : Country
SRVC               .                                       : Service Company
DATE               .                                       : Date
API                .                                       : API number
EREF               .m        134                           : 
X                  .m        225746                        : 
Y                  .m        235643                        : 
group              .         Pad6                          : 
Интер-р            .         Ярышев                        : 
Куст               .         6                             : 
Статус             .         Не проверено                  : 
Тип                .         Разобраться                   : 
~Parameter Information Block
#_______________________________________________________________________________
#
#PARAMETER_NAME    .UNIT     VALUE                         : DESCRIPTION
#_______________________________________________________________________________
SET                .         LAS3                          : 
REAL_CREATION_DATE .         Ср апр 11 2012-13_17_21       : 
TLFamily_DEPTH     .         Measured Depth                : 
TLFamily_GR        .         Gamma Ray                     : 
TLFamily_TNPH      .         Neutron Porosity              : 
group              .         INI                           : 
~Curve Information
#_______________________________________________________________________________
#
#LOGNAME           .UNIT     LOG_ID                        : DESCRIPTION
#_______________________________________________________________________________
DEPTH              .m                                      : Measured Depth 
GR                 .gAPI                                   :  
TNPH               .v/v                                    : Neutron Porosity 
~Ascii
2390.0     93.03001   0.269     
2390.2     96.84      0.256     
2390.4     102.08     0.254     
2390.6     102.92     0.25      
2390.8     103.23     0.242     
2391       102.02     0.245     
2391.2     102.51     0.245     
2391.4     103.87     0.234     
2391.6     103.04     0.238     
2391.8     103.16     0.243     
2392       108.52     0.242     
2392.2     110.67     0.233     
2392.4     110.43     0.241     
2392.6     109.51     0.248     
2392.8     108        0.243     
2393       107.56     0.243     
2393.2     107.78     0.246     
2393.4     104.9      0.25      
2393.6     103.26     0.253     
2393.8     103.5      0.26      
2394       105.14     0.276     
2394.2     106.49     0.269     
2394.4     111.77     0.25      
2394.6     114.35     0.24      
2394.8     117.1      0.242     
2395       116.94     0.247     
2395.2     115.92     0.256     
2395.4     115.46     0.256     
2395.6     115.43     0.267     
2395.8     115.28     0.27      
2396       112.61     0.25      
2396.2     111.24     0.245     
2396.4     106.82     0.244     
2396.6     106.13     0.241     
2396.8     107.34     0.237     
2397       108.05     0.23      
2397.2     106.24     0.223     
2397.4     106.23     0.221     
2397.6     110.33     0.226     
2397.8     117.25     0.238     
2398       120.03     0.242     
2398.2     120.18     0.247     
2398.4     119.68     0.246     
2398.6     120.79     0.249     
2398.8     120.65     0.255     
2399       117.06     0.252     
2399.2     110.03     0.249     
2399.4     99.06      0.235     
2399.6     89.37      0.221     
2399.8     80.88      0.21      
2400       75.28      0.194     
2400.2     69.74      0.175     
2400.4     69.1       0.16      
2400.6     69.66      0.153     
2400.8     73.28      0.164     
2401       74.5       0.177     
2401.2     73.23      0.188     
2401.4     75.37      0.197     
2401.6     76.88      0.199     
2401.8     77.93      0.195     
2402       78.29001   0.204     
2402.2     80.83      0.215     
2402.4     88.55      0.223     
2402.6     92.49      0.225     
2402.8     95.31999   0.219     
2403       95.45999   0.212     
2403.2     87.24      0.216     
2403.4     75.63      0.218     
2403.6     71.86      0.209     
2403.8     70.17999   0.196     
2404       66.24      0.184     
2404.2     58.24      0.17      
2404.4     53.68      0.155     
2404.6     53.28      0.141     
2404.8     56.03      0.143     
2405       62.93999   0.167     
2405.2     71.34      0.184     
2405.4     78.73      0.19      
2405.6     83.61      0.196     
2405.8     90.64      0.213     
2406       98.07999   0.227     
2406.2     108.6      0.232     
2406.4     112.88     0.242     
2406.6     102.86     0.23      
2406.8     83.03001   0.206     
2407       72.02      0.19      
2407.2     68.04      0.182     
2407.4     69.04      0.182     
2407.6     73.9       0.189     
2407.8     79.52      0.205     
2408       85.15      0.213     
2408.2     89.48      0.211     
2408.4     89.2       0.209     
2408.6     90.50999   0.212     
2408.8     92.32001   0.212     
2409       94.65      0.211     
2409.2     95.23      0.216     
2409.4     87.72      0.216     
2409.6     78.29001   0.208     
2409.8     69.77      0.193     
2410       62.45      0.182     
2410.2     56.67      0.171     
2410.4     51.76      0.161     
2410.6     50.41      0.152     
2410.8     52.96      0.148     
2411       59.12      0.154     
2411.2     68.94      0.178     
2411.4     77.95      0.194     
2411.6     82.43      0.202     
2411.8     84.79      0.203     
2412       85.09      0.211     
2412.2     77.95999   0.211     
2412.4     70.35      0.202     
2412.6     70.76      0.188     
2412.8     72.9       0.182     
2413       71.1       0.182     
2413.2     67.76      0.185     
2413.4     68.66      0.184     
2413.6     71.70999   0.18      
2413.8     74.92      0.188     
2414       78.98      0.19      
2414.2     86.96999   0.198     
2414.4     90.77      0.219     
2414.6     87.46001   0.235     
2414.8     83.06      0.222     
2415       82.81      0.204     
2415.2     84.77      0.199     
2415.4     90         0.201     
2415.6     89.93      0.2       
2415.8     86.52      0.197     
2416       77.46001   0.194     
2416.2     77.34      0.199     
2416.4     81         0.199     
2416.6     81.56      0.193     
2416.8     84.37      0.199     
2417       91.8       0.213     
2417.2     97.41      0.216     
2417.4     97.95999   0.218     
2417.6     94.05      0.217     
2417.8     91.82999   0.222     
2418       96.11      0.216     
2418.2     103.29     0.214     
2418.4     105.09     0.217     
2418.6     103.99     0.225     
2418.8     100.97     0.229     
2419       95.27      0.232     
2419.2     91.39      0.228     
2419.4     94.13      0.224     
2419.6     96.48      0.219     
2419.8     92.83      0.212     
2420       86.07001   0.205     
2420.2     82.51      0.2       
2420.4     86.54      0.196     
2420.6     98.39      0.209     
2420.8     106.6      0.228     
2421       108.89     0.226     
2421.2     109.1      0.223     
2421.4     112.71     0.224     
2421.6     112.6      0.235     
2421.8     102.6      0.244     
2422       88.72      0.245     
2422.2     78.92999   0.232     
2422.4     70.97      0.215     
2422.6     69.75      0.207     
2422.8     68.84      0.195     
2423       63.24001   0.182     
2423.2     57.5       0.172     
2423.4     52.91      0.169     
2423.6     52.55      0.168     
2423.8     54.17      0.172     
2424       57.23      0.183     
2424.2     63.54      0.187     
2424.4     71.72      0.195     
2424.6     77.21      0.207     
2424.8     80.06      0.219     
2425       80.38      0.228     
2425.2     82.19      0.23      
2425.4     88.04      0.226     
2425.6     88.4       0.228     
2425.8     78.42      0.225     
2426       71.14      0.217     
2426.2     79.17      0.208     
2426.4     98.35      0.214     
2426.6     111.28     0.224     
2426.8     116.53     0.23      
2427       117.01     0.24      
2427.2     118.45     0.258     
2427.4     119.81     0.262     
2427.6     120.4      0.261     
2427.8     123.77     0.253     
2428       123.46     0.24      
2428.2     125.16     0.249     
2428.4     123.24     0.249     
2428.6     122.91     0.247     
2428.8     125.14     0.256     
2429       126.39     0.26      
2429.2     128.62     0.265     
2429.4     130.21     0.269     
2429.6     129.5      0.273     
2429.8     129.12     0.273     
2430       130.23     0.278     
2430.2     134.45     0.288     
2430.4     137.06     0.302     
2430.6     138.85     0.302     
2430.8     138.68     0.287     
2431       135.11     0.274     
2431.2     127.5      0.258     
2431.4     122.12     0.252     
2431.6     118.52     0.261     
2431.8     117.26     0.267     
2432       115.04     0.261     
2432.2     113.04     0.258     
2432.4     114.7      0.254     
2432.6     123.42     0.259     
2432.8     132.75     0.269     
2433       142.83     0.273     
2433.2     157.2      0.266     
2433.4     167.04     0.263     
2433.6     174.72     0.262     
2433.8     172.76     0.257     
2434       168.6      0.264     
2434.2     168.51     0.271     
2434.4     170.72     0.28      
2434.6     172.67     0.297     
2434.8     173.91     0.302     
2435       178.79     0.3       
2435.2     180.12     0.283     
2435.4     165.93     0.273     
2435.6     147.54     0.271     
2435.8     138.88     0.275     
2436       137.71     0.263     
2436.2     141.31     0.245     
2436.4     143.53     0.239     
2436.6     148.41     0.241     
2436.8     157.88     0.255     
2437       169.01     0.255     
2437.2     191.44     0.251     
2437.4     215.62     0.265     
2437.6     226.27     0.274     
2437.8     215.62     0.285     
2438       203.92     0.292     
2438.2     211.31     0.283     
2438.4     218.25     0.282     
