~Version
 VERS              .         2.0                           : CWLS LOG ASCII STANDARD - VERSION 2.0
 WRAP              .         NO                            : ONE LINE PER DEPTH STEP
 DLM               .         SPACE                         : DELIMITING CHARACTER(SPACE TAB OR COMMA)
~Well Information
#_______________________________________________________________________________
#
#PARAMETER_NAME    .UNIT     VALUE                         : DESCRIPTION
#_______________________________________________________________________________
STRT               .m        2390                          : First reference value
STOP               .m        2562                          : Last reference value
STEP               .m        0.2                           : Step increment
NULL               .         -9999                         : Missing value
COMP               .                                       : Company
WELL               .         600                           : Well name
FLD                .                                       : Field
LOC                .                                       : Location
CNTY               .                                       : County
STAT               .                                       : State
CTRY               .                                       : Country
SRVC               .                                       : Service Company
DATE               .                                       : Date
API                .                                       : API number
EREF               .m        134                           : 
X                  .m        225746                        : 
Y                  .m        235643                        : 
group              .         Pad6                          : 
Интер-р            .         Ярышев                        : 
Куст               .         6                             : 
Статус             .         Не проверено                  : 
Тип                .         Разобраться                   : 
~Parameter Information Block
#_______________________________________________________________________________
#
#PARAMETER_NAME    .UNIT     VALUE                         : DESCRIPTION
#_______________________________________________________________________________
SET                .         LAS1                          : 
REAL_CREATION_DATE .         Ср апр 11 2012-13_17_21       : 
TLFamily_DEPTH     .         Measured Depth                : 
TLFamily_KS        .         Potential Resistivity         : 
TLFamily_KS1       .         Extra Shallow Resistivity     : 
TLFamily_KS2       .         Shallow Resistivity           : 
TLFamily_KS3       .         Medium Resistivity            : 
TLFamily_KS4       .         Deep Resistivity              : 
TLFamily_KS5       .         Extra Deep Resistivity        : 
TLFamily_LLD       .         Lateral Log Resistivity       : 
TLFamily_OKS3      .         Medium Resistivity Inverted   : 
TLFamily_RM        .         Mud Resistivity               : 
TLFamily_SP        .         Spontaneous Potential         : 
group              .         INI                           : 
~Curve Information
#_______________________________________________________________________________
#
#LOGNAME           .UNIT     LOG_ID                        : DESCRIPTION
#_______________________________________________________________________________
DEPTH              .m                                      : Measured Depth 
KS                 .ohm.m                                  : Potential Resistivity 
KS1                .ohm.m                                  : Extra Shallow Resistivity 
KS2                .ohm.m                                  : Shallow Resistivity 
KS3                .ohm.m                                  : Medium Resistivity 
KS4                .ohm.m                                  : Deep Resistivity 
KS5                .ohm.m                                  : Extra Deep Resistivity 
LLD                .ohm.m                                  : Lateral Log Resistivity 
OKS3               .ohm.m                                  : Medium Resistivity Inverted 
RM                 .ohm.m                                  : Mud Resistivity 
SP                 .mV                                     : Spontaneous Potential 
~Ascii
# ...
2483.8     5.366      2.0925     6.1373     7.9638     7.7128     2.1554     4.2128     8.4284     0.396      30.3051   
2484       5.3538     2.1032     6.2894     8.0417     7.6099     2.1554     4.1112     8.3073     0.396      29.7627   
2484.2     5.3128     2.1032     6.3871     8.0445     7.4241     2.1656     3.8489     8.2588     0.396      30.5654   
2484.4     5.3128     2.0566     6.2002     7.9913     7.2398     2.2357     3.5737     8.3016     0.396      31.8898   
2484.6     5.2608     2.0493     6.2659     8.0534     7.1494     2.4483     3.9136     8.3016     0.396      32.031    
2484.8     5.2595     2.0493     6.2735     8.216      7.1061     2.6725     3.8773     8.2287     0.396      32.2019   
2485       5.2595     2.0493     6.2496     8.2576     7.0478     2.738      3.824      8.1123     0.396      33.4553   
2485.2     5.2595     2.0083     6.134      8.2576     6.9799     2.7656     3.5733     8.0884     0.396      34.3116   
2485.4     5.2595     1.9954     6.0095     8.297      6.938      2.8231     3.7797     8.0884     0.396      33.4445   
2485.6     5.2383     2.0084     6.1488     8.5094     6.9859     2.895      4.2728     8          0.396      32.7325   
2485.8     5.181      2.1629     6.4939     8.7183     7.0104     2.9972     4.4647     7.7317     0.396      32.9929   
2486       5.153      2.1883     6.4883     8.6704     6.8751     3.1059     3.3458     7.7085     0.398      32.4881   
2486.2     5.1014     1.9868     5.9843     8.3844     6.6496     3.2173     3.2466     7.7408     0.391      32.5684   
2486.4     5.0988     1.962      6.0036     8.237      6.5697     3.3466     3.7234     7.7119     0.394      33.0148   
2486.6     5.0465     1.9855     6.133      8.2069     6.5247     3.5001     3.8594     7.612      0.396      33.4005   
2486.8     5.0465     2.0411     6.1286     8.2043     6.5645     3.7325     3.5384     7.6087     0.395      34.2928   
2487       4.9806     2.0069     6.0089     8.2163     6.545      3.9666     3.6763     7.5542     0.394      34.8108   
2487.2     4.9168     2.0493     6.1231     8.1616     6.5171     4.2241     3.6327     7.4874     0.396      34.2876   
2487.4     4.854      2.0019     6.0142     8.0359     6.4274     4.433      3.24       7.5121     0.394      34.152    
2487.6     4.793      1.966      5.8586     7.8536     6.3033     4.5544     3.0225     7.6463     0.39       34.4728   
2487.8     4.7802     1.8902     5.6703     7.7081     6.2106     4.5919     3.2011     7.7952     0.393      33.998    
2488       4.7802     1.8876     5.6757     7.6718     6.2014     4.5919     3.5525     7.7702     0.393      32.8101   
2488.2     4.7872     1.9301     5.6793     7.6058     6.1835     4.5919     3.5474     7.7713     0.394      32.6101   
2488.4     4.8334     1.9415     5.5848     7.5124     6.1213     4.5572     3.2528     7.8713     0.392      33.8784   
2488.6     4.8334     1.9258     5.4747     7.4069     6.0114     4.5813     3.1536     8.0381     0.39       34.4132   
2488.8     4.8334     1.864      5.3529     7.307      6.0289     4.5921     3.2036     8.271      0.39       34.1253   
2489       4.8665     1.8612     5.4543     7.3136     6.1355     4.6449     3.5038     8.4297     0.39       34.1358   
2489.2     4.9275     1.9379     5.5878     7.3728     6.2963     4.6659     3.623      8.5424     0.39       33.5529   
2489.4     4.9881     1.9269     5.5737     7.4055     6.3509     4.7508     3.5881     8.5681     0.39       32.4      
2489.6     4.9932     1.9415     5.6298     7.4563     6.4516     4.7508     3.776      8.5681     0.39       31.8662   
2489.8     4.9932     1.9999     5.8111     7.5492     6.5339     4.7508     3.9133     8.4723     0.393      31.2642   
2490       4.9932     2.0333     5.8793     7.5653     6.5442     4.7508     3.4433     8.4744     0.393      31.0324   
2490.2     4.9932     1.9765     5.7278     7.4628     6.4353     4.7508     3.2473     8.6439     0.393      30.0997   
2490.4     5.0338     1.9155     5.6955     7.3602     6.4127     4.7661     3.3366     8.8642     0.39       29.5031   
2490.6     5.0944     1.8876     5.641      7.4233     6.5158     4.8038     3.7445     9.0377     0.391      30.4208   
2490.8     5.1044     1.9844     5.9011     7.5891     6.5809     4.7976     4.4223     8.93       0.396      31.0281   
2491       5.153      2.0493     6.0695     7.7509     6.6079     4.7425     4.1643     8.6041     0.395      30.6364   
2491.2     5.1373     2.0493     6.0391     7.8145     6.5031     4.6885     3.7309     8.3166     0.39       30.7156   
2491.4     5.0997     2.0493     6.0641     7.8315     6.3392     4.5931     3.6383     8.2108     0.393      31.0535   
2491.6     5.0485     2.0264     6.0787     7.8315     6.1855     4.4924     3.5483     8.2483     0.39       31.4655   
2491.8     5.01       1.9954     6.127      7.8315     6.0976     4.4318     3.4715     8.3144     0.39       31.4107   
2492       4.9932     1.9626     6.0689     7.8315     6.0029     4.38       3.4948     8.3549     0.394      30.1659   
2492.2     5.0403     1.9415     6          7.8315     5.991      4.376      3.6024     8.3549     0.393      29.516    
2492.4     5.0416     1.9415     5.9698     7.8676     5.991      4.355      3.6153     8.3549     0.39       29.8115   
2492.6     5.0465     1.9954     5.9379     7.9274     5.9679     4.38       3.6153     8.3549     0.39       29.3029   
2492.8     5.0465     1.9491     5.8829     7.9897     5.9652     4.3669     3.6451     8.4551     0.39       28.4817   
2493       5.0465     1.9613     5.9574     8.1936     6.0201     4.3127     3.8732     8.6593     0.39       29.2615   
2493.2     5.0133     2.0182     6.1258     8.3027     6.0937     4.2238     4.0041     8.8687     0.39       30.2648   
2493.4     4.9932     2.0493     6.1639     8.2656     6.0899     4.1868     3.6236     9.0667     0.39       29.7515   
2493.6     4.9901     2.0105     5.996      8.0472     5.9866     4.0575     3.3136     9.4309     0.39       29.5884   
2493.8     4.9399     1.9523     5.8953     7.8582     5.9083     3.965      3.4032     9.9316     0.39       29.8747   
2494       4.9302     1.9415     5.894      7.8666     5.9384     3.842      3.7909     10.362     0.39       29.6041   
2494.2     4.8867     1.9863     6.1437     7.9266     5.9384     3.7416     3.8133     10.6651    0.39       29.8418   
2494.4     4.8363     1.9954     6.0013     7.886      5.8531     3.5727     3.2106     11.1556    0.385      30.4709   
2494.6     4.782      1.9954     5.9585     7.7242     5.6862     3.2848     3.4186     11.6998    0.39       31.1027   
2494.8     4.8194     1.9452     5.8394     7.433      5.3824     2.9898     3.3552     12.0171    0.39       32.4432   
2495       4.9715     1.7841     5.2472     6.872      4.9291     2.7075     3.0594     12.0832    0.39       34.4329   
2495.2     5.1445     1.6737     4.7796     6.248      4.4033     2.4619     3.3797     12.3639    0.39       36.5012   
2495.4     5.3164     1.6109     4.6697     5.9869     4.1857     2.2759     4.0463     12.6406    0.388      37.8887   
2495.6     5.4567     1.717      4.7626     6.0634     4.1785     2.2084     4.2793     12.9297    0.386      39.7224   
2495.8     5.6009     1.7913     5.0298     6.1295     4.2341     2.2218     4.5026     13.203     0.386      41.4766   
2496       5.716      1.8077     5.1299     6.3311     4.3902     2.3095     4.728      13.6462    0.387      41.6955   
2496.2     5.922      1.8542     5.2975     6.469      4.4952     2.4308     4.6459     14.1453    0.39       41.274    
2496.4     6.1051     1.7981     5.2331     6.6251     4.6732     2.6183     4.6001     14.848     0.382      40.7433   
2496.6     6.3253     1.7799     5.3356     6.8222     4.9789     2.8844     4.867      15.5383    0.384      40.2014   
2496.8     6.5671     1.7711     5.3695     7.1653     5.4123     3.2774     5.0464     15.9402    0.381      39.8103   
2497       6.8983     1.726      5.3438     7.6429     6.0088     3.7634     5.2433     16.4848    0.377      39.9154   
