~Version
 VERS              .         2.0                           : CWLS LOG ASCII STANDARD - VERSION 2.0
 WRAP              .         NO                            : ONE LINE PER DEPTH STEP
 DLM               .         SPACE                         : DELIMITING CHARACTER(SPACE TAB OR COMMA)
~Well Information
#_______________________________________________________________________________
#
#PARAMETER_NAME    .UNIT     VALUE                         : DESCRIPTION
#_______________________________________________________________________________
STRT               .m        2390                          : First reference value
STOP               .m        2562                          : Last reference value
STEP               .m        0.2                           : Step increment
NULL               .         -9999                         : Missing value
COMP               .                                       : Company
WELL               .         600                           : Well name
FLD                .                                       : Field
LOC                .                                       : Location
CNTY               .                                       : County
STAT               .                                       : State
CTRY               .                                       : Country
SRVC               .                                       : Service Company
DATE               .                                       : Date
API                .                                       : API number
EREF               .m        134                           : 
X                  .m        225746                        : 
Y                  .m        235643                        : 
group              .         Pad6                          : 
Интер-р            .         Ярышев                        : 
Куст               .         6                             : 
Статус             .         Не проверено                  : 
Тип                .         Разобраться                   : 
~Parameter Information Block
#_______________________________________________________________________________
#
#PARAMETER_NAME    .UNIT     VALUE                         : DESCRIPTION
#_______________________________________________________________________________
SET                .         LAS3                          : 
REAL_CREATION_DATE .         Ср апр 11 2012-13_17_21       : 
TLFamily_DEPTH     .         Measured Depth                : 
TLFamily_GR        .         Gamma Ray                     : 
TLFamily_TNPH      .         Neutron Porosity              : 
group              .         INI                           : 
~Curve Information
#_______________________________________________________________________________
#
#LOGNAME           .UNIT     LOG_ID                        : DESCRIPTION
#_______________________________________________________________________________
DEPTH              .m                                      : Measured Depth 
GR                 .gAPI                                   :  
TNPH               .v/v                                    : Neutron Porosity 
~Ascii
# ...
2487.2     126.23     0.286     
2487.4     123.64     0.279     
2487.6     121.62     0.282     
2487.8     123.68     0.271     
2488       126.46     0.264     
2488.2     128.82     0.265     
2488.4     130.27     0.263     
2488.6     131.71     0.269     
2488.8     133.56     0.286     
2489       133.62     0.3       
2489.2     135.86     0.292     
2489.4     143.34     0.291     
2489.6     144.7      0.307     
2489.8     140.73     0.307     
2490       136.2      0.314     
2490.2     136.18     0.312     
2490.4     142.94     0.313     
2490.6     145.98     0.332     
2490.8     144.48     0.336     
2491       142.1      0.328     
2491.2     140.22     0.323     
2491.4     139.76     0.32      
2491.6     141.17     0.306     
2491.8     141.42     0.278     
2492       140.32     0.288     
2492.2     140.48     0.305     
2492.4     141.26     0.301     
2492.6     141.36     0.298     
2492.8     142.04     0.32      
2493       141.47     0.345     
2493.2     138.34     0.354     
2493.4     140.14     0.364     
2493.6     140.87     0.347     
2493.8     140.97     0.309     
2494       140.89     0.298     
2494.2     139.69     0.32      
2494.4     138.92     0.335     
2494.6     139.92     0.319     
2494.8     144.85     0.298     
2495       151.34     0.267     
2495.2     160.09     0.236     
2495.4     153.84     0.216     
2495.6     123.55     0.2       
2495.8     89.46      0.183     
2496       78.92      0.171     
2496.2     75.25      0.172     
2496.4     73.99001   0.179     
2496.6     74.25      0.176     
2496.8     75.28      0.165     
2497       73.46      0.157     
2497.2     68.66      0.146     
2497.4     64.57      0.141     
2497.6     63.94      0.139     
2497.8     65.88      0.145     
2498       68.50999   0.159     
2498.2     70.41      0.166     
2498.4     66.89      0.163     
2498.6     64.46999   0.157     
2498.8     67.32001   0.156     
2499       72.09      0.166     
2499.2     78.02      0.176     
2499.4     74.89      0.185     
2499.6     66.89      0.19      
2499.8     59.84      0.181     
2500       57.25      0.177     
2500.2     57.56      0.184     
2500.4     56.49      0.189     
2500.6     56.84      0.186     
2500.8     59.05      0.181     
2501       58.06      0.181     
2501.2     56.54      0.183     
2501.4     59.52      0.19      
2501.6     60.89      0.195     
2501.8     59.84      0.195     
2502       59.28      0.196     
2502.2     60.87      0.198     
2502.4     62.33      0.195     
2502.6     64.23      0.181     
2502.8     65.4       0.177     
2503       62.02      0.174     
2503.2     58.31      0.176     
2503.4     57.25      0.176     
2503.6     57.31      0.168     
2503.8     57.65      0.159     
2504       58.42      0.154     
2504.2     59.35      0.148     
2504.4     60.18      0.147     
2504.6     57.8       0.152     
2504.8     55.07      0.147     
2505       53.81      0.135     
2505.2     55.57      0.133     
2505.4     62.62      0.142     
2505.6     64.05      0.159     
2505.8     64.68001   0.18      
2506       66         0.186     
2506.2     66.72      0.183     
2506.4     66.89      0.185     
2506.6     65.82      0.192     
2506.8     67.27      0.189     
2507       68.9       0.192     
2507.2     69.56001   0.198     
2507.4     67.9       0.201     
2507.6     65.99      0.199     
2507.8     63.96      0.19      
2508       64.55      0.177     
2508.2     64.16      0.173     
2508.4     63.57      0.177     
2508.6     62.47      0.179     
2508.8     59.82      0.176     
2509       56.3       0.16      
2509.2     50.34      0.149     
2509.4     44.56      0.131     
2509.6     42.22      0.112     
2509.8     42.3       0.095     
2510       40.61      0.083     
2510.2     35.99      0.072     
2510.4     35.1       0.063     
2510.6     36.44      0.055     
2510.8     38.95      0.052     
2511       42.37      0.056     
2511.2     44.03      0.069     
2511.4     46.43      0.089     
2511.6     45.8       0.11      
2511.8     42.66      0.138     
2512       42.33      0.163     
2512.2     43.22      0.178     
2512.4     40.66      0.185     
2512.6     38.92      0.178     
2512.8     38.45      0.168     
2513       38.57      0.156     
2513.2     39.78      0.144     
2513.4     46.63      0.15      
2513.6     49.88      0.164     
2513.8     51.86      0.181     
2514       52.39      0.188     
2514.2     49.89      0.184     
2514.4     42.26      0.181     
2514.6     41.91      0.174     
2514.8     43         0.17      
2515       42.8       0.16      
2515.2     42.08      0.142     
2515.4     41.46      0.135     
2515.6     43.77      0.153     
2515.8     49.53      0.179     
2516       57.8       0.189     
2516.2     68.77      0.186     
2516.4     71.81      0.179     
2516.6     69.41      0.178     
2516.8     68.98      0.174     
2517       71.85001   0.179     
2517.2     78.06      0.194     
2517.4     81.53      0.204     
2517.6     87         0.21      
2517.8     96.21001   0.218     
2518       109.33     0.226     
2518.2     114.46     0.246     
2518.4     115.75     0.267     
2518.6     119.58     0.289     
2518.8     119.4      0.293     
2519       112.3      0.262     
2519.2     107.32     0.235     
2519.4     105.21     0.221     
2519.6     103.87     0.222     
2519.8     102.29     0.229     
2520       98.62      0.239     
2520.2     94.78      0.25      
2520.4     97.67999   0.254     
2520.6     102.3      0.259     
2520.8     104.28     0.28      
2521       106.12     0.314     
2521.2     104.52     0.322     
2521.4     104.73     0.326     
2521.6     105.3      0.306     
2521.8     100.95     0.278     
2522       94.12      0.248     
2522.2     89.82001   0.228     
2522.4     89.65      0.214     
2522.6     90.12      0.215     
2522.8     93.4       0.223     
2523       98.55      0.22      
2523.2     99.06999   0.215     
2523.4     100.33     0.213     
2523.6     104.9      0.205     
2523.8     109.28     0.215     
2524       111.39     0.243     
2524.2     104.93     0.269     
2524.4     100.22     0.275     
2524.6     99.15      0.265     
2524.8     101.32     0.253     
2525       102.13     0.247     
2525.2     102.05     0.257     
2525.4     103.58     0.271     
2525.6     103.38     0.27      
2525.8     99.64      0.251     
2526       95.21      0.241     
2526.2     92.04001   0.247     
2526.4     92.38      0.265     
2526.6     93.39      0.268     
2526.8     94.67      0.27      
2527       98.97      0.278     
2527.2     107        0.292     
2527.4     110.88     0.293     
2527.6     112.65     0.291     
2527.8     112.27     0.279     
2528       107.79     0.267     
2528.2     99.72      0.256     
2528.4     93.6       0.25      
2528.6     88.10001   0.251     
2528.8     87.15      0.253     
2529       90.53001   0.246     
2529.2     99.62      0.238     
2529.4     107.26     0.243     
2529.6     111.57     0.255     
2529.8     115.32     0.276     
2530       118.95     0.287     
2530.2     120.06     0.277     
2530.4     118.83     0.277     
2530.6     119.18     0.282     
2530.8     119.39     0.272     
2531       117.8      0.271     
2531.2     105.41     0.267     
2531.4     91.52      0.248     
2531.6     77.62      0.229     
2531.8     71.12      0.211     
2532       69.69      0.199     
2532.2     72.23      0.192     
2532.4     75.54      0.193     
2532.6     79.73      0.193     
2532.8     82.1       0.197     
2533       81.85001   0.208     
2533.2     82.52      0.223     
2533.4     83.69      0.232     
2533.6     83.9       0.236     
2533.8     84.13      0.237     
2534       85.84      0.236     
2534.2     84.64      0.227     
2534.4     80.2       0.236     
2534.6     77.81      0.258     
2534.8     71.75      0.285     
2535       60.19      0.338     
2535.2     38.96      0.389     
2535.4     16.14      0.412     
2535.6     8.139999   0.423     
