~Version
 VERS              .         2.0                           : CWLS LOG ASCII STANDARD - VERSION 2.0
 WRAP              .         NO                            : ONE LINE PER DEPTH STEP
 DLM               .         SPACE                         : DELIMITING CHARACTER(SPACE TAB OR COMMA)
~Well Information
#_______________________________________________________________________________
#
#PARAMETER_NAME    .UNIT     VALUE                         : DESCRIPTION
#_______________________________________________________________________________
STRT               .m        2390                          : First reference value
STOP               .m        2562                          : Last reference value
STEP               .m        0.2                           : Step increment
NULL               .         -9999                         : Missing value
COMP               .                                       : Company
WELL               .         600                           : Well name
FLD                .                                       : Field
LOC                .                                       : Location
CNTY               .                                       : County
STAT               .                                       : State
CTRY               .                                       : Country
SRVC               .                                       : Service Company
DATE               .                                       : Date
API                .                                       : API number
EREF               .m        134                           : 
X                  .m        225746                        : 
Y                  .m        235643                        : 
group              .         Pad6                          : 
Интер-р            .         Ярышев                        : 
Куст               .         6                             : 
Статус             .         Не проверено                  : 
Тип                .         Разобраться                   : 
~Parameter Information Block
#_______________________________________________________________________________
#
#PARAMETER_NAME    .UNIT     VALUE                         : DESCRIPTION
#_______________________________________________________________________________
SET                .         LAS3                          : 
REAL_CREATION_DATE .         Ср апр 11 2012-13_17_21       : 
TLFamily_DEPTH     .         Measured Depth                : 
TLFamily_GR        .         Gamma Ray                     : 
TLFamily_TNPH      .         Neutron Porosity              : 
group              .         INI                           : 
~Curve Information
#_______________________________________________________________________________
#
#LOGNAME           .UNIT     LOG_ID                        : DESCRIPTION
#_______________________________________________________________________________
DEPTH              .m                                      : Measured Depth 
GR                 .gAPI                                   :  
TNPH               .v/v                                    : Neutron Porosity 
~Ascii
# ...
2535.8     8.410001   0.414     
2536       11.6       0.414     
2536.2     13.4       0.422     
2536.4     17.05      0.39      
2536.6     24.68      0.368     
2536.8     32.26      0.326     
2537       43.47      0.268     
2537.2     57.75      0.246     
2537.4     63.92      0.243     
2537.6     61.75      0.247     
2537.8     52.66      0.283     
2538       49.73      0.303     
2538.2     53.26      0.256     
2538.4     66.65      0.211     
2538.6     89.7       0.187     
2538.8     95.06      0.179     
2539       96.7       0.188     
2539.2     101.33     0.205     
2539.4     105.97     0.212     
2539.6     106.07     0.206     
2539.8     104.44     0.209     
2540       108.74     0.223     
2540.2     110.26     0.23      
2540.4     106.94     0.238     
2540.6     95.3       0.247     
2540.8     81.82      0.241     
2541       74.8       0.234     
2541.2     73.63      0.225     
2541.4     74.98      0.203     
2541.6     71.7       0.187     
2541.8     68.31001   0.179     
2542       69.3       0.189     
2542.2     70.64      0.2       
2542.4     72.24      0.208     
2542.6     74.1       0.221     
2542.8     79.95      0.234     
2543       86.65      0.244     
2543.2     89         0.248     
2543.4     95.64      0.243     
2543.6     106.29     0.247     
2543.8     110.45     0.261     
2544       112.8      0.289     
2544.2     110.49     0.272     
2544.4     104.91     0.244     
2544.6     99.3       0.239     
2544.8     97.39999   0.244     
2545       104.23     0.256     
2545.2     116.27     0.255     
2545.4     116.36     0.249     
2545.6     112.03     0.25      
2545.8     105.94     0.248     
2546       98.78999   0.242     
2546.2     88.41      0.23      
2546.4     82.95      0.216     
2546.6     80.09      0.211     
2546.8     77.7       0.203     
2547       76.05      0.201     
2547.2     71.3       0.192     
2547.4     64.71      0.173     
2547.6     63.47      0.166     
2547.8     67.01      0.167     
2548       80.85      0.193     
2548.2     89.18      0.22      
2548.4     93.14      0.229     
2548.6     101.88     0.242     
2548.8     114        0.257     
2549       122.08     0.284     
2549.2     122.14     0.295     
2549.4     106.7      0.273     
2549.6     79.82001   0.249     
2549.8     65.3       0.236     
2550       62.36      0.231     
2550.2     68.92999   0.217     
2550.4     74.04      0.203     
2550.6     72.76      0.194     
2550.8     70.55      0.194     
2551       70.17      0.196     
2551.2     70.63      0.197     
2551.4     71.42999   0.206     
2551.6     70.85      0.215     
2551.8     70.43      0.216     
2552       74.43      0.223     
2552.2     78.02      0.24      
2552.4     80.47      0.246     
2552.6     82.66      0.25      
2552.8     82.43      0.249     
2553       83.04      0.245     
2553.2     90.64999   0.236     
2553.4     101.05     0.242     
2553.6     109.62     0.247     
2553.8     110.18     0.258     
2554       104.31     0.255     
2554.2     94.32999   0.232     
2554.4     90.85      0.214     
2554.6     94.14      0.216     
2554.8     98.35      0.23      
2555       97.32001   0.227     
2555.2     95.57      0.236     
2555.4     96.56999   0.244     
2555.6     105.25     0.252     
2555.8     113.34     0.263     
2556       115.54     0.268     
2556.2     98.16      0.254     
2556.4     84.95      0.233     
2556.6     74.74      0.233     
2556.8     71.81      0.246     
2557       70.57999   0.257     
2557.2     74.75999   0.248     
2557.4     82.27      0.241     
2557.6     92.85      0.254     
2557.8     99.8       0.266     
2558       105.65     0.28      
2558.2     107.33     0.277     
2558.4     107.92     0.256     
2558.6     106.78     0.257     
2558.8     105.13     0.279     
2559       101.82     0.295     
2559.2     100.36     0.295     
2559.4     98.19      0.286     
2559.6     95.24001   0.274     
2559.8     94.56001   0.276     
2560       92.29      0.273     
2560.2     93.38      0.276     
2560.4     92.44      0.277     
2560.6     94.74      0.278     
2560.8     95.4       0.278     
2561       93.78999   0.285     
2561.2     91.14      0.27      
2561.4     91.13      0.259     
2561.6     88.89      0.261     
2561.8     87.76      0.249     
2562       93.13      0.223     
