~Version
 VERS              .         2.0                           : CWLS LOG ASCII STANDARD - VERSION 2.0
 WRAP              .         NO                            : ONE LINE PER DEPTH STEP
 DLM               .         SPACE                         : DELIMITING CHARACTER(SPACE TAB OR COMMA)
~Well Information
#_______________________________________________________________________________
#
#PARAMETER_NAME    .UNIT     VALUE                         : DESCRIPTION
#_______________________________________________________________________________
STRT               .m        2390                          : First reference value
STOP               .m        2562                          : Last reference value
STEP               .m        0.2                           : Step increment
NULL               .         -9999                         : Missing value
COMP               .                                       : Company
WELL               .         600                           : Well name
FLD                .                                       : Field
LOC                .                                       : Location
CNTY               .                                       : County
STAT               .                                       : State
CTRY               .                                       : Country
SRVC               .                                       : Service Company
DATE               .                                       : Date
API                .                                       : API number
EREF               .m        134                           : 
X                  .m        225746                        : 
Y                  .m        235643                        : 
group              .         Pad6                          : 
Интер-р            .         Ярышев                        : 
Куст               .         6                             : 
Статус             .         Не проверено                  : 
Тип                .         Разобраться                   : 
~Parameter Information Block
#_______________________________________________________________________________
#
#PARAMETER_NAME    .UNIT     VALUE                         : DESCRIPTION
#_______________________________________________________________________________
SET                .         LAS1                          : 
REAL_CREATION_DATE .         Ср апр 11 2012-13_17_21       : 
TLFamily_DEPTH     .         Measured Depth                : 
TLFamily_KS        .         Potential Resistivity         : 
TLFamily_KS1       .         Extra Shallow Resistivity     : 
TLFamily_KS2       .         Shallow Resistivity           : 
TLFamily_KS3       .         Medium Resistivity            : 
TLFamily_KS4       .         Deep Resistivity              : 
TLFamily_KS5       .         Extra Deep Resistivity        : 
TLFamily_LLD       .         Lateral Log Resistivity       : 
TLFamily_OKS3      .         Medium Resistivity Inverted   : 
TLFamily_RM        .         Mud Resistivity               : 
TLFamily_SP        .         Spontaneous Potential         : 
group              .         INI                           : 
~Curve Information
#_______________________________________________________________________________
#
#LOGNAME           .UNIT     LOG_ID                        : DESCRIPTION
#_______________________________________________________________________________
DEPTH              .m                                      : Measured Depth 
KS                 .ohm.m                                  : Potential Resistivity 
KS1                .ohm.m                                  : Extra Shallow Resistivity 
KS2                .ohm.m                                  : Shallow Resistivity 
KS3                .ohm.m                                  : Medium Resistivity 
KS4                .ohm.m                                  : Deep Resistivity 
KS5                .ohm.m                                  : Extra Deep Resistivity 
LLD                .ohm.m                                  : Lateral Log Resistivity 
OKS3               .ohm.m                                  : Medium Resistivity Inverted 
RM                 .ohm.m                                  : Mud Resistivity 
SP                 .mV                                     : Spontaneous Potential 
~Ascii
# ...
2457       9.9633     2.3726     8.9746     16.0864    17.2772    8.9352     8.3722     22.7294    0.402      16.2067   
2457.2     10.1268    2.3545     8.7699     15.7939    17.0794    8.9525     8.4688     23.4656    0.4        17.0067   
2457.4     10.3361    2.3187     8.7355     15.7823    17.102     9.1083     9.0597     24.318     0.396      17.5793   
2457.6     10.521     2.4021     9.0694     16.3042    17.586     9.4229     10.7659    25.0914    0.396      16.6284   
2457.8     10.6866    2.4696     9.3107     17.4964    18.4079    9.9049     11.7385    25.6067    0.396      16.2303   
2458       10.8425    2.5282     9.6831     18.6226    19.4316    10.5094    12.4417    26.0586    0.395      16.5909   
2458.2     10.9135    2.6388     10.2032    19.817     20.5629    10.9154    12.7415    26.2419    0.392      15.7767   
2458.4     10.9802    2.7411     10.668     20.5159    21.4746    11.1676    13.0348    25.8019    0.396      14.4492   
2458.6     11.0625    2.7302     10.5821    20.3953    21.5914    11.2573    11.2533    25.0499    0.401      13.9      
2458.8     11.1167    2.6959     10.4384    20.0252    21.1162    11.0974    10.2073    24.445     0.402      13.6677   
2459       11.1181    2.6959     10.4755    19.8086    20.7251    10.7746    10.4589    24.2194    0.404      13.8297   
2459.2     11.2158    2.6441     10.3918    19.6184    20.4343    10.4743    10.4175    24.084     0.402      14.235    
2459.4     11.282     2.642      10.2431    19.3003    20.115     10.1955    9.8326     24.1167    0.402      15.4124   
2459.6     11.4009    2.5444     9.9988     19.1235    19.9938    9.9607     9.7721     24.2369    0.402      16.6094   
2459.8     11.5401    2.5343     9.9516     19.2631    20.1867    9.7972     11.5961    24.1853    0.402      16.505    
2460       11.6775    2.6061     10.0816    19.6473    20.6717    9.7196     12.4948    23.9151    0.404      15.2942   
2460.2     11.7553    2.642      10.2641    20.1552    21.226     9.718      12.5492    23.5848    0.405      14.8782   
2460.4     11.8094    2.692      10.4439    20.6815    21.731     9.7861     13.298     23.1719    0.408      15.5171   
2460.6     11.8158    2.7476     10.6675    21.2329    22.2345    9.9322     13.274     22.9025    0.408      15.0328   
2460.8     11.7999    2.8086     10.932     21.6267    22.5273    10.0162    12.5639    22.8528    0.408      13.8458   
2461       11.7572    2.8031     11.0187    21.7287    22.727     10.1584    11.0447    22.8488    0.408      13.3707   
2461.2     11.7572    2.7377     10.8236    21.7307    22.8678    10.2977    10.7159    22.778     0.406      13.1837   
2461.4     11.7572    2.6959     10.7946    21.774     23.2255    10.4088    11.7202    22.5731    0.404      13.0201   
2461.6     11.7572    2.72       10.8422    21.9116    23.6752    10.5739    11.9428    22.3063    0.405      12.7018   
2461.8     11.7572    2.7319     10.8422    22.162     24.3077    10.7752    11.693     21.9987    0.408      12.4823   
2462       11.7572    2.7498     10.8875    22.4123    24.9717    11.0374    12.1058    21.6461    0.408      13.4769   
2462.2     11.7553    2.7102     10.8479    22.6346    25.6956    11.2608    11.6236    21.222     0.408      12.4779   
2462.4     11.704     2.7513     10.9858    22.8169    26.4261    11.5143    11.9366    20.6241    0.408      10.341    
2462.6     11.7243    2.7494     10.9933    22.8974    27.1416    11.849     10.6891    20.1162    0.409      9.8292    
2462.8     11.7572    2.6776     10.7162    22.7601    27.631     12.2912    10.4283    19.8575    0.414      10.6813   
2463       11.7245    2.6906     10.8178    22.9386    28.3066    12.7131    12.8012    19.4739    0.414      11.7531   
2463.2     11.6655    2.804      11.2823    23.6522    29.3548    13.197     15.6113    18.8609    0.414      11.6483   
2463.4     11.5501    2.9433     11.8107    24.4905    30.5267    13.6424    15.3896    18.0953    0.419      11.3433   
2463.6     11.3762    3.0181     12.0598    24.9119    31.1361    14.1026    12.8238    17.3833    0.414      11.8278   
2463.8     11.2003    3.0112     11.8894    24.7126    31.0526    14.6307    10.1336    17.0256    0.413      12.2466   
2464       10.9344    2.9195     11.7356    24.4771    30.9342    15.2029    9.6768     16.8803    0.408      12.1051   
2464.2     10.6849    2.9271     11.9098    24.7301    31.3502    15.7501    11.7058    16.4585    0.41       11.4749   
2464.4     10.3377    3.0328     12.3041    25.2377    32.0003    16.0309    13.6842    15.65      0.414      11.2455   
2464.6     9.9865     3.1223     12.5555    25.3861    31.8807    16.106     11.0544    14.8688    0.414      10.7554   
2464.8     9.6479     3.053      12.1473    24.6051    30.5777    15.8478    7.5494     14.6208    0.411      10.5647   
2465       9.4214     2.8293     11.274     23.0474    28.5414    15.395     6.1635     15.1215    0.408      11.2461   
2465.2     9.2522     2.565      10.2798    21.5346    26.5613    14.9814    5.6455     16.0593    0.402      11.1354   
2465.4     9.2008     2.4304     9.6627     20.3374    25.1798    14.8344    6.4112     17.056     0.402      11.2575   
2465.6     9.2511     2.3726     9.3486     19.9055    24.7844    14.8791    7.573      17.8448    0.401      12.1189   
2465.8     9.2849     2.4434     9.4186     19.8794    24.8611    15.1684    9.2555     18.0891    0.398      12.2303   
2466       9.3073     2.53       9.4801     19.9047    25.0208    15.5066    9.7946     17.8768    0.399      12.1144   
2466.2     9.3073     2.615      9.5827     19.8002    24.9812    15.7378    9.7052     17.6394    0.402      12.3791   
2466.4     9.1538     2.6769     9.7506     19.6476    24.6381    15.7939    8.9696     17.4166    0.403      11.7822   
2466.6     9.0457     2.7485     9.9048     18.9867    23.7294    15.6863    7.4436     17.5115    0.405      10.9822   
2466.8     8.9915     2.5351     9.3927     17.7919    22.3916    15.6517    6.175      18.0056    0.402      10.1169   
2467       8.9877     2.4068     8.936      16.5964    21.198     15.51      5.8933     19.1799    0.398      10.0041   
2467.2     9.0104     2.3024     8.5612     15.8015    20.5173    15.4636    6.5656     20.3701    0.396      10.2445   
2467.4     9.1554     2.3124     8.598      15.3897    20.1263    15.5819    7.4661     21.3343    0.394      11.073    
2467.6     9.3889     2.1918     8.1944     15.217     19.9291    15.8846    7.3815     22.0404    0.39       11.7395   
2467.8     9.5136     2.2463     8.1793     15.443     19.9149    16.1863    9.8588     22.4593    0.39       11.7093   
2468       9.6771     2.3913     8.6392     16.0253    20.1825    16.4797    10.0561    22.6376    0.387      11.9904   
2468.2     9.7895     2.4784     8.896      16.4958    20.3159    16.7622    9.0506     22.8637    0.396      12.9476   
2468.4     9.874      2.4705     9.0117     16.532     20.1223    16.9986    8.5328     23.0183    0.401      12.7781   
2468.6     9.9992     2.465      8.938      16.3442    19.8301    17.1443    7.9843     23.431     0.402      12.0649   
2468.8     10.1687    2.3784     8.9018     16.1543    19.4457    17.3385    8.3916     23.6287    0.402      10.9885   
2469       10.3333    2.4016     8.9505     16.1552    19.4061    17.5147    9.5795     23.2095    0.402      10.0851   
2469.2     10.5568    2.4265     9.1352     16.2394    19.306     17.7093    10.0183    22.4212    0.402      10.3769   
2469.4     10.7951    2.3904     8.9268     16.3993    19.2051    17.9292    9.288      21.7133    0.4        11.2718   
2469.6     10.9842    2.4171     9.1578     16.8486    19.4022    18.1825    12.0544    20.8139    0.402      11.8517   
2469.8     11.1359    2.5388     9.5771     17.5975    20.0452    18.4806    11.5818    19.6969    0.402      12.8367   
2470       11.2464    2.6071     9.8775     18.3778    20.7417    18.8746    11.9429    18.5596    0.402      13.4516   
2470.2     11.3585    2.642      10.2025    19.1011    21.4693    19.2915    12.1548    17.3992    0.404      13.6561   
