~Version
 VERS              .         2.0                           : CWLS LOG ASCII STANDARD - VERSION 2.0
 WRAP              .         NO                            : ONE LINE PER DEPTH STEP
 DLM               .         SPACE                         : DELIMITING CHARACTER(SPACE TAB OR COMMA)
~Well Information
#_______________________________________________________________________________
#
#PARAMETER_NAME    .UNIT     VALUE                         : DESCRIPTION
#_______________________________________________________________________________
STRT               .m        2390                          : First reference value
STOP               .m        2562                          : Last reference value
STEP               .m        0.2                           : Step increment
NULL               .         -9999                         : Missing value
COMP               .                                       : Company
WELL               .         600                           : Well name
FLD                .                                       : Field
LOC                .                                       : Location
CNTY               .                                       : County
STAT               .                                       : State
CTRY               .                                       : Country
SRVC               .                                       : Service Company
DATE               .                                       : Date
API                .                                       : API number
EREF               .m        134                           : 
X                  .m        225746                        : 
Y                  .m        235643                        : 
group              .         Pad6                          : 
Интер-р            .         Ярышев                        : 
Куст               .         6                             : 
Статус             .         Не проверено                  : 
Тип                .         Разобраться                   : 
~Parameter Information Block
#_______________________________________________________________________________
#
#PARAMETER_NAME    .UNIT     VALUE                         : DESCRIPTION
#_______________________________________________________________________________
SET                .         LAS1                          : 
REAL_CREATION_DATE .         Ср апр 11 2012-13_17_21       : 
TLFamily_DEPTH     .         Measured Depth                : 
TLFamily_KS        .         Potential Resistivity         : 
TLFamily_KS1       .         Extra Shallow Resistivity     : 
TLFamily_KS2       .         Shallow Resistivity           : 
TLFamily_KS3       .         Medium Resistivity            : 
TLFamily_KS4       .         Deep Resistivity              : 
TLFamily_KS5       .         Extra Deep Resistivity        : 
TLFamily_LLD       .         Lateral Log Resistivity       : 
TLFamily_OKS3      .         Medium Resistivity Inverted   : 
TLFamily_RM        .         Mud Resistivity               : 
TLFamily_SP        .         Spontaneous Potential         : 
group              .         INI                           : 
~Curve Information
#_______________________________________________________________________________
#
#LOGNAME           .UNIT     LOG_ID                        : DESCRIPTION
#_______________________________________________________________________________
DEPTH              .m                                      : Measured Depth 
KS                 .ohm.m                                  : Potential Resistivity 
KS1                .ohm.m                                  : Extra Shallow Resistivity 
KS2                .ohm.m                                  : Shallow Resistivity 
KS3                .ohm.m                                  : Medium Resistivity 
KS4                .ohm.m                                  : Deep Resistivity 
KS5                .ohm.m                                  : Extra Deep Resistivity 
LLD                .ohm.m                                  : Lateral Log Resistivity 
OKS3               .ohm.m                                  : Medium Resistivity Inverted 
RM                 .ohm.m                                  : Mud Resistivity 
SP                 .mV                                     : Spontaneous Potential 
~Ascii
# ...
2403.4     7.2579     2.1863     7.4786     12.6357    11.4873    4.8462     5.4727     14.669     0.395      80.3634   
2403.6     7.3542     2.2008     7.2537     12.1461    11.7238    5.1013     4.514      15.4376    0.396      79.9618   
2403.8     7.7429     1.9111     6.5112     11.4842    12.2257    5.6683     5.3059     16.6359    0.39       79.1369   
2404       8.2238     1.8983     6.4787     11.562     12.9051    6.2353     6.3927     16.8404    0.389      78.2743   
2404.2     8.699      1.9214     6.6169     12.0858    13.9768    6.9435     10.2003    16.4717    0.396      78.6034   
2404.4     8.9811     2.1848     7.4889     13.2809    15.537     7.441      22.4413    15.3186    0.399      79.121    
2404.6     9.0197     2.6239     8.8087     14.881     17.3271    7.8807     35.63      13.9518    0.405      78.9277   
2404.8     8.6459     3.0748     10.2228    16.3412    18.7223    8.0673     22.3979    12.7766    0.403      79.3676   
2405       8.0994     3.3513     11.4398    17.0444    18.8145    7.9454     9.9074     11.8968    0.405      79.7153   
2405.2     7.6572     3.188      11.4297    16.4507    17.3814    7.644      5.794      11.1914    0.408      77.677    
2405.4     7.3504     2.649      9.9406     15.0862    15.3393    7.1972     4.3962     11.0453    0.403      74.3196   
2405.6     7.071      2.3626     9.2522     14.069     13.9171    6.7244     4.6321     11.224     0.394      71.3031   
2405.8     6.8773     2.2919     8.8549     13.9034    13.3794    6.3969     5.3721     11.4665    0.394      67.6767   
2406       6.818      2.2648     8.4145     13.8598    12.9177    6.3103     4.9694     11.8458    0.39       63.7609   
2406.2     6.7652     2.1425     7.7014     13.8052    12.5345    6.2532     4.4645     12.4085    0.39       61.4984   
2406.4     6.8032     2.1032     7.2846     13.6569    12.1599    6.2339     4.7044     13.0834    0.396      61.8954   
2406.6     6.9546     2.0132     6.9632     13.573     11.9248    6.3154     5.0554     13.6433    0.396      65.4828   
2406.8     7.1339     1.9954     6.8467     13.3847    11.8513    6.4965     5.9777     13.8772    0.396      68.7532   
2407       7.2906     2.0464     6.844      13.4729    12.2347    6.7116     7.1146     13.8265    0.396      71.4117   
2407.2     7.2757     2.2701     7.5321     13.9809    12.9964    6.864      11.8463    13.2505    0.397      73.5392   
2407.4     7.1174     2.6305     8.716      14.3431    13.5257    6.921      10.5456    12.7638    0.398      73.8231   
2407.6     6.9795     2.6452     8.4006     13.7456    13.2733    6.8711     4.9132     12.9464    0.393      73.2695   
2407.8     6.86       2.3922     7.8116     12.498     12.3516    6.7774     4.3292     13.7212    0.396      72.3145   
2408       6.8281     2.1442     7.4219     11.7542    12         6.5548     5.0322     14.2824    0.392      71.2409   
2408.2     6.834      2.1819     7.5322     11.5286    12.1294    6.4458     5.9921     14.6826    0.391      69.9999   
2408.4     6.8573     2.2918     7.6406     11.506     12.3404    6.4506     5.5484     15.0707    0.399      69.1943   
2408.6     6.9091     2.14       6.9968     11.2181    12.1272    6.5269     5.0648     15.19      0.396      68.5241   
2408.8     7.0089     2.0871     6.811      11.0838    11.891     6.5924     5.9241     14.8637    0.402      68.3935   
2409       7.1182     2.1443     7.0097     11.3514    11.9301    6.718      6.1388     14.3654    0.402      70.9068   
2409.2     7.1724     2.2002     7.1467     11.6416    11.8988    6.915      6.1817     14.0833    0.4        74.4366   
2409.4     7.2844     2.2095     7.0884     11.5829    11.6738    7.075      5.1008     14.5213    0.405      75.8786   
2409.6     7.5164     2.057      6.6419     11.1763    11.3194    7.2492     4.75       15.2372    0.405      75.5738   
2409.8     7.9279     1.9334     6.4201     10.8299    11.2141    7.5342     6.7567     15.3595    0.394      75.1466   
2410       8.3798     1.9132     6.5001     11.0903    11.6268    7.8218     10.1993    14.7143    0.399      75.9745   
2410.2     8.6591     2.2047     7.2005     12.0247    12.3879    8.1335     13.6765    14.0408    0.402      76.9949   
2410.4     8.7722     2.4868     8.0962     13.137     13.2702    8.4697     15.4579    13.3088    0.407      76.905    
2410.6     8.6215     2.6817     8.9365     14.3233    14.1687    8.7443     15.9582    12.4333    0.408      76.8913   
2410.8     8.1594     2.9608     10.1579    15.7862    15.2093    8.7108     15.1224    11.4154    0.41       78.7167   
2411       7.6012     3.3362     11.6265    16.6712    15.7405    8.3961     9.528      10.8069    0.416      80.6291   
2411.2     7.112      3.1344     11.2579    16.4688    15.2597    8.0182     4.6217     10.9415    0.417      80.8619   
2411.4     6.7723     2.7052     9.8057     14.9836    13.798     7.5642     3.9355     11.4414    0.407      79.8943   
2411.6     6.6444     2.2933     8.5985     13.7213    12.5972    7.0885     3.9496     12.1029    0.403      78.9592   
2411.8     6.5303     2.1676     8.0253     13.2584    12.0163    6.7115     4.6926     12.368     0.405      79.2949   
2412       6.5492     2.1676     7.755      13.3432    11.7371    6.5551     5.1455     12.7473    0.408      79.9089   
2412.2     6.6579     2.1048     7.0867     13.1327    11.3959    6.5681     4.4801     13.1024    0.407      78.6629   
2412.4     6.8412     2.0184     6.5797     12.6092    11.0534    6.6749     4.7504     13.4854    0.402      77.283    
2412.6     6.9902     1.9611     6.4009     12.4152    11.0732    6.7985     6.7069     13.2865    0.402      76.8948   
2412.8     7.1557     2.1449     6.8167     12.5497    11.4204    6.9724     8.2856     12.8585    0.407      76.2058   
2413       7.2675     2.2614     7.1085     12.4936    11.6101    7.1949     6.4224     12.5908    0.408      75.0626   
2413.2     7.3356     2.2648     7.1145     12.1396    11.7162    7.3314     6.0753     12.6175    0.405      73.4811   
2413.4     7.3366     2.2648     7.3487     11.8933    11.9137    7.4317     7.2313     12.5228    0.41       71.7157   
2413.6     7.2893     2.3898     7.9074     11.9929    12.2758    7.4522     7.408      12.4128    0.416      70.8394   
2413.8     7.0747     2.4691     8.2984     12.3529    12.7965    7.4059     7.7412     12.207     0.414      69.0449   
2414       6.9596     2.5982     8.731      12.451     12.9831    7.2921     5.6994     12.302     0.422      66.7565   
2414.2     6.9003     2.3377     7.9703     12.1503    12.7377    7.1818     4.6548     12.4956    0.41       65.9256   
2414.4     6.8424     2.2556     7.6806     11.8303    12.4723    7.0292     5.8212     12.5369    0.411      66.6736   
2414.6     6.754      2.2702     7.7938     12.049     12.4624    6.9145     6.2091     12.3325    0.411      67.1054   
2414.8     6.72       2.324      7.652      12.1417    12.2537    6.8857     5.1242     12.3096    0.408      65.307    
2415       6.6975     2.2156     7.2348     11.9571    11.8025    6.9976     4.6224     12.7071    0.41       61.9996   
2415.2     6.7823     2.0805     6.9366     11.605     11.4429    7.1089     4.6769     13.4017    0.412      59.313    
2415.4     6.8905     1.9987     6.725      11.4564    11.3176    7.2448     5.6513     13.6719    0.405      58.5321   
2415.6     7.0458     2.0773     6.9307     11.6313    11.3472    7.46       6.5417     13.5376    0.408      59.0127   
2415.8     7.2204     2.1405     6.9854     11.7242    11.3679    7.6824     6.1657     13.4131    0.402      58.1424   
2416       7.2834     2.1058     6.9048     11.8688    11.5723    7.8659     6.8215     13.2905    0.406      56.9479   
2416.2     7.3367     2.2984     7.4617     12.0395    11.8554    7.9861     7.7136     13.1058    0.408      56.6996   
2416.4     7.3899     2.3187     7.6666     12.2168    12.166     8.1364     6.2116     13.0741    0.408      55.8451   
2416.6     7.3208     2.3269     7.8325     12.508     12.471     8.2332     8.0727     12.8218    0.408      53.1471   
