~Version
 VERS              .         2.0                           : CWLS LOG ASCII STANDARD - VERSION 2.0
 WRAP              .         NO                            : ONE LINE PER DEPTH STEP
 DLM               .         SPACE                         : DELIMITING CHARACTER(SPACE TAB OR COMMA)
~Well Information
#_______________________________________________________________________________
#
#PARAMETER_NAME    .UNIT     VALUE                         : DESCRIPTION
#_______________________________________________________________________________
STRT               .m        2390                          : First reference value
STOP               .m        2562                          : Last reference value
STEP               .m        0.2                           : Step increment
NULL               .         -9999                         : Missing value
COMP               .                                       : Company
WELL               .         600                           : Well name
FLD                .                                       : Field
LOC                .                                       : Location
CNTY               .                                       : County
STAT               .                                       : State
CTRY               .                                       : Country
SRVC               .                                       : Service Company
DATE               .                                       : Date
API                .                                       : API number
EREF               .m        134                           : 
X                  .m        225746                        : 
Y                  .m        235643                        : 
group              .         Pad6                          : 
Интер-р            .         Ярышев                        : 
Куст               .         6                             : 
Статус             .         Не проверено                  : 
Тип                .         Разобраться                   : 
~Parameter Information Block
#_______________________________________________________________________________
#
#PARAMETER_NAME    .UNIT     VALUE                         : DESCRIPTION
#_______________________________________________________________________________
SET                .         LAS1                          : 
REAL_CREATION_DATE .         Ср апр 11 2012-13_17_21       : 
TLFamily_DEPTH     .         Measured Depth                : 
TLFamily_KS        .         Potential Resistivity         : 
TLFamily_KS1       .         Extra Shallow Resistivity     : 
TLFamily_KS2       .         Shallow Resistivity           : 
TLFamily_KS3       .         Medium Resistivity            : 
TLFamily_KS4       .         Deep Resistivity              : 
TLFamily_KS5       .         Extra Deep Resistivity        : 
TLFamily_LLD       .         Lateral Log Resistivity       : 
TLFamily_OKS3      .         Medium Resistivity Inverted   : 
TLFamily_RM        .         Mud Resistivity               : 
TLFamily_SP        .         Spontaneous Potential         : 
group              .         INI                           : 
~Curve Information
#_______________________________________________________________________________
#
#LOGNAME           .UNIT     LOG_ID                        : DESCRIPTION
#_______________________________________________________________________________
DEPTH              .m                                      : Measured Depth 
KS                 .ohm.m                                  : Potential Resistivity 
KS1                .ohm.m                                  : Extra Shallow Resistivity 
KS2                .ohm.m                                  : Shallow Resistivity 
KS3                .ohm.m                                  : Medium Resistivity 
KS4                .ohm.m                                  : Deep Resistivity 
KS5                .ohm.m                                  : Extra Deep Resistivity 
LLD                .ohm.m                                  : Lateral Log Resistivity 
OKS3               .ohm.m                                  : Medium Resistivity Inverted 
RM                 .ohm.m                                  : Mud Resistivity 
SP                 .mV                                     : Spontaneous Potential 
~Ascii
# ...
2416.8     7.2017     2.4824     8.4595     12.7763    12.7777    8.2467     6.8306     12.4758    0.408      50.5244   
2417       7.1436     2.5284     8.5012     12.6996    12.7969    8.2467     4.7935     12.4664    0.41       47.7303   
2417.2     7.0389     2.3198     7.9481     12.3064    12.4899    8.2993     5.2089     12.7748    0.404      46.0802   
2417.4     7.0333     2.2142     7.7416     12.1605    12.3438    8.2304     6.1364     12.9482    0.402      46.0709   
2417.6     7.0171     2.2749     8.0036     12.4993    12.4504    8.1768     6.7582     12.8096    0.402      44.9888   
2417.8     7.0177     2.3563     8.1213     12.6735    12.2139    8.1199     5.808      12.4841    0.405      43.1757   
2418       7.0703     2.2329     7.5712     12.4204    11.8182    8.0555     5.6588     12.0124    0.4        42.1279   
2418.2     7.0664     2.2145     7.4411     12.1686    11.4704    7.9739     5.7222     11.718     0.394      42.0649   
2418.4     7.0171     2.2613     7.5187     12.1983    11.3575    7.9371     5.6088     11.6256    0.402      44.0895   
2418.6     6.9692     2.211      7.5361     12.2019    11.2889    8.0434     6.0819     11.5043    0.402      46.1521   
2418.8     6.9132     2.2756     7.7388     12.4286    11.4312    8.1954     6.2696     11.3496    0.402      46.3555   
2419       6.8595     2.3187     7.8881     12.4646    11.5121    8.2607     5.6035     11.2372    0.401      47.0982   
2419.2     6.8062     2.2929     7.6964     12.3647    11.5154    8.3492     5.1974     11.2839    0.401      49.2648   
2419.4     6.7186     2.2152     7.5837     12.3581    11.5987    8.338      5.6172     11.2727    0.4        51.3793   
2419.6     6.6975     2.2806     7.7628     12.41      11.7119    8.2996     5.2565     11.1958    0.402      52.3743   
2419.8     6.6975     2.228      7.5001     12.2806    11.6835    8.3165     4.7498     11.3572    0.406      52.3798   
2420       6.7503     2.1162     7.1391     12.2054    11.7715    8.2951     5.3599     11.5475    0.402      51.0411   
2420.2     6.6975     2.2338     7.5369     12.4025    12.0753    8.2467     7.3664     11.3854    0.405      48.9089   
2420.4     6.6975     2.4252     7.8442     12.5078    12.2321    8.2467     4.8503     11.1637    0.405      48.36     
2420.6     6.6329     2.3221     7.3836     12.255     12.0359    8.2139     4.9749     11.4543    0.399      48.1484   
2420.8     6.5191     2.2648     7.4685     12.0438    11.9401    8.1063     5.2841     11.9858    0.402      47.6555   
2421       6.4339     2.2648     7.5837     12.0131    11.8576    8.0348     5.0247     12.5364    0.402      50.406    
2421.2     6.3805     2.2373     7.5735     11.7246    11.6139    8.0219     4.9249     13.2387    0.4        55.4706   
2421.4     6.3453     2.1865     7.3125     11.6491    11.6047    7.9084     5.0558     13.6211    0.394      60.3887   
2421.6     6.2333     2.2747     7.5589     11.7175    11.619     7.6271     5.8965     13.5118    0.389      66.8747   
2421.8     6.2182     2.3726     7.6438     11.4976    11.2578    7.2887     4.8203     12.9938    0.391      73.2377   
2422       6.2709     2.1911     6.9241     10.6366    10.308     7.006      3.6753     12.655     0.396      77.1569   
2422.2     6.3711     1.9211     6.1982     9.8489     9.4401     6.7178     3.9249     12.9726    0.396      79.9552   
2422.4     6.5459     1.8876     5.9558     9.383      9.0141     6.6626     4.5817     13.353     0.396      82.2757   
2422.6     6.8367     1.8338     5.853      9.1773     8.986      6.7876     5.5035     13.4185    0.397      85.2133   
2422.8     7.1672     1.8915     5.9919     9.2524     9.2141     7.1009     6.4295     13.3483    0.399      86.6866   
2423       7.4923     1.9883     6.0739     9.6033     9.6007     7.4601     6.5463     13.3119    0.402      85.2541   
2423.2     7.7539     2.0604     6.3755     10.0868    10.1348    7.8328     7.9354     12.9937    0.402      83.3867   
2423.4     7.9862     2.1737     6.9877     10.8576    10.8341    8.2052     11.4933    12.2719    0.402      83.1314   
2423.6     8.0396     2.4249     7.8544     11.9656    11.6246    8.5628     15.5454    11.0776    0.408      83.7384   
2423.8     7.8598     2.7407     8.8307     13.1545    12.4245    8.6524     14.6587    10.0969    0.41       83.3632   
2424       7.4294     3.0996     10.1336    14.0449    12.9144    8.5259     8.9393     9.5245     0.416      81.5092   
2424.2     7.0389     2.9966     9.9533     13.9907    12.6929    8.2893     4.5886     9.1593     0.408      80.7432   
2424.4     6.6453     2.6149     9.1342     13.1911    11.8959    7.9193     4.8497     8.9822     0.406      80.527    
2424.6     6.3949     2.4746     9.0981     12.8214    11.2729    7.3885     4.4681     8.8879     0.411      79.8966   
2424.8     6.1883     2.3115     8.3441     12.5742    10.803     7.0925     4.0456     8.9494     0.404      78.5128   
2425       6.0618     2.1809     7.7204     12.1894    10.3398    6.9125     3.8903     9.2476     0.402      75.8397   
2425.2     6.0365     2.0091     6.9147     11.9749    10.205     6.8056     4.0221     9.5215     0.401      74.4414   
2425.4     5.9836     2.0151     6.8404     11.9321    10.2288    6.8057     4.6176     9.6097     0.404      72.7409   
2425.6     6.0567     2.0231     6.5533     11.9829    10.3373    6.8619     4.3723     9.6523     0.405      68.9673   
2425.8     6.0584     2.0976     6.4311     11.9475    10.4465    6.9371     5.3693     9.5315     0.408      64.8732   
2426       6.1106     2.1231     6.6004     11.8408    10.6041    6.9961     5.0568     9.3889     0.406      59.683    
2426.2     6.1196     2.1032     6.4037     11.4501    10.621     7.1546     4.6999     9.3676     0.402      53.5228   
2426.4     6.1066     2.1433     6.5864     11.1047    10.7322    7.2635     4.8939     9.4118     0.402      48.7468   
2426.6     6.0482     2.1571     6.7841     11.0147    11.0531    7.3514     4.99       9.3764     0.402      45.341    
2426.8     5.9936     2.2022     7.0268     10.9273    11.3843    7.4386     4.9247     9.322      0.402      42.5813   
2427       5.9396     2.211      7.031      10.8107    11.625     7.5051     4.8116     9.2438     0.406      40.0831   
2427.2     5.8798     2.1999     6.9668     10.6276    11.6978    7.5051     4.5471     9.2077     0.404      37.2365   
2427.4     5.8454     2.1571     6.8516     10.3991    11.6922    7.4948     4.3606     9.2077     0.402      34.8057   
2427.6     5.7941     2.1324     6.7193     10.1994    11.5885    7.4522     4.2804     9.1753     0.402      33.2257   
2427.8     5.7921     2.1032     6.6696     10.0902    11.4795    7.4522     4.3403     9.103      0.402      31.995    
2428       5.7583     2.1536     6.7033     10.1026    11.3211    7.4004     4.5246     9.0032     0.402      31.1648   
2428.2     5.7388     2.1267     6.6793     10.03      11.0787    7.3992     4.4301     8.8925     0.402      29.5914   
2428.4     5.6911     2.1193     6.6231     9.9145     10.7393    7.3992     4.3435     8.8288     0.406      28.5839   
2428.6     5.68       2.156      6.5985     9.8015     10.3999    7.3992     4.347      8.7733     0.408      29.1305   
2428.8     5.6323     2.1133     6.5985     9.6932     10.0718    7.3928     4.2627     8.728      0.403      29.5405   
2429       5.6241     2.1032     6.5488     9.6313     9.7501     7.3462     4.1748     8.6812     0.407      28.6195   
2429.2     5.5791     2.1032     6.5461     9.5429     9.4901     7.3194     4.2107     8.6269     0.402      27.5383   
2429.4     5.5291     2.1032     6.5412     9.4635     9.2899     7.3462     4.2045     8.6214     0.402      27.7825   
2429.6     5.5258     2.1032     6.503      9.4337     9.2        7.3462     4.1754     8.6214     0.402      28.3402   
2429.8     5.4747     2.1032     6.4937     9.4291     9.0649     7.3462     4.1693     8.6477     0.402      27.5731   
2430       5.4211     2.1288     6.5375     9.4003     8.9585     7.3462     4.1845     8.6417     0.402      26.2971   
