~Version
 VERS              .         2.0                           : CWLS LOG ASCII STANDARD - VERSION 2.0
 WRAP              .         NO                            : ONE LINE PER DEPTH STEP
 DLM               .         SPACE                         : DELIMITING CHARACTER(SPACE TAB OR COMMA)
~Well Information
#_______________________________________________________________________________
#
#PARAMETER_NAME    .UNIT     VALUE                         : DESCRIPTION
#_______________________________________________________________________________
STRT               .m        2390                          : First reference value
STOP               .m        2562                          : Last reference value
STEP               .m        0.2                           : Step increment
NULL               .         -9999                         : Missing value
COMP               .                                       : Company
WELL               .         600                           : Well name
FLD                .                                       : Field
LOC                .                                       : Location
CNTY               .                                       : County
STAT               .                                       : State
CTRY               .                                       : Country
SRVC               .                                       : Service Company
DATE               .                                       : Date
API                .                                       : API number
EREF               .m        134                           : 
X                  .m        225746                        : 
Y                  .m        235643                        : 
group              .         Pad6                          : 
Интер-р            .         Ярышев                        : 
Куст               .         6                             : 
Статус             .         Не проверено                  : 
Тип                .         Разобраться                   : 
~Parameter Information Block
#_______________________________________________________________________________
#
#PARAMETER_NAME    .UNIT     VALUE                         : DESCRIPTION
#_______________________________________________________________________________
SET                .         LAS1                          : 
REAL_CREATION_DATE .         Ср апр 11 2012-13_17_21       : 
TLFamily_DEPTH     .         Measured Depth                : 
TLFamily_KS        .         Potential Resistivity         : 
TLFamily_KS1       .         Extra Shallow Resistivity     : 
TLFamily_KS2       .         Shallow Resistivity           : 
TLFamily_KS3       .         Medium Resistivity            : 
TLFamily_KS4       .         Deep Resistivity              : 
TLFamily_KS5       .         Extra Deep Resistivity        : 
TLFamily_LLD       .         Lateral Log Resistivity       : 
TLFamily_OKS3      .         Medium Resistivity Inverted   : 
TLFamily_RM        .         Mud Resistivity               : 
TLFamily_SP        .         Spontaneous Potential         : 
group              .         INI                           : 
~Curve Information
#_______________________________________________________________________________
#
#LOGNAME           .UNIT     LOG_ID                        : DESCRIPTION
#_______________________________________________________________________________
DEPTH              .m                                      : Measured Depth 
KS                 .ohm.m                                  : Potential Resistivity 
KS1                .ohm.m                                  : Extra Shallow Resistivity 
KS2                .ohm.m                                  : Shallow Resistivity 
KS3                .ohm.m                                  : Medium Resistivity 
KS4                .ohm.m                                  : Deep Resistivity 
KS5                .ohm.m                                  : Extra Deep Resistivity 
LLD                .ohm.m                                  : Lateral Log Resistivity 
OKS3               .ohm.m                                  : Medium Resistivity Inverted 
RM                 .ohm.m                                  : Mud Resistivity 
SP                 .mV                                     : Spontaneous Potential 
~Ascii
# ...
2524       8.7107     2.0346     7.4751     14.6904    12.7585    7.1417     9.2893     21.3579    0.408      43.7998   
2524.2     8.8963     2.1992     7.9859     15.833     14.0286    7.2663     10.3207    21.479     0.407      42.9125   
2524.4     9.107      2.318      8.3755     16.63      15.1538    7.293      10.8968    21.2698    0.402      42.3824   
2524.6     9.224      2.4372     8.6488     17.0269    15.9243    7.2892     10.3478    20.6226    0.404      41.7372   
2524.8     9.305      2.5054     8.9949     16.9643    16.3146    7.0958     9.5959     19.7654    0.403      41.4713   
2525       9.3919     2.4804     8.9561     16.5212    16.2763    6.9435     8.9654     18.7533    0.402      42.0046   
2525.2     9.4138     2.4304     8.9561     15.9887    16.198     6.6427     8.942      18.0888    0.4        41.8084   
2525.4     9.4101     2.4642     9.1183     15.7412    16.4782    6.2893     9.0958     17.6038    0.396      40.6147   
2525.6     9.3605     2.5202     9.3848     15.6252    16.8909    6.0251     8.7424     17.1027    0.395      39.9033   
2525.8     9.3605     2.4358     9.1713     15.4384    17.186     5.7859     8.3316     16.7453    0.39       39.3001   
2526       9.3605     2.3934     8.9901     15.384     17.2227    5.5936     8.4976     16.679     0.39       38.1354   
2526.2     9.3097     2.4451     9.0567     15.7192    17.3367    5.483      9.316      16.6549    0.392      38.2211   
2526.4     9.3073     2.4523     9.2011     16.2522    17.4166    5.4964     8.9791     16.683     0.396      38.769    
2526.6     9.2547     2.4265     9.1551     16.7421    17.5668    5.6337     8.7999     16.9516    0.399      36.7574   
2526.8     9.2011     2.4791     9.2343     17.1329    17.7539    5.8795     9.0496     17.5484    0.402      34.1634   
2527       9.1468     2.4271     9.1931     17.6327    18.2724    6.2783     8.2736     18.4697    0.402      31.983    
2527.2     9.0298     2.4752     9.5079     18.3047    19.2509    6.8618     9.0969     19.5512    0.402      30.758    
2527.4     8.9143     2.5936     9.9407     19.4223    20.7658    7.4215     9.7374     20.7017    0.407      30.486    
2527.6     8.8305     2.6363     10.242     20.4486    22.2299    7.951      8.8655     21.2235    0.403      29.4164   
2527.8     8.8279     2.55       9.8708     20.2329    22.5604    8.2657     8.3867     20.8413    0.402      27.3749   
2528       8.8279     2.4534     9.4037     19.1501    21.7968    8.3303     8.2951     19.837     0.402      27.3789   
2528.2     8.8279     2.4601     9.2964     18.4485    20.954     8.1612     8.8504     18.9504    0.411      28.831    
2528.4     8.7863     2.4804     9.2705     17.9416    20.5863    7.8314     9.0372     18.2149    0.414      30.8767   
2528.6     8.8279     2.4743     9.1435     17.1198    20.0412    7.6688     8.0537     17.5892    0.414      31.8705   
2528.8     8.8777     2.3252     8.5369     16.0339    19.042     7.58       6.7155     17.3779    0.412      31.092    
2529       8.9577     2.218      8.1768     15.1635    17.9722    7.5647     6.6067     17.6536    0.403      31.4074   
2529.2     9.0758     2.1629     8.1119     14.7574    17.2754    7.5881     7.2967     18.0403    0.402      31.6885   
2529.4     9.1903     2.1571     8.0655     14.7897    16.9106    7.8462     8.2807     18.3293    0.402      30.7875   
2529.6     9.4016     2.1963     8.1437     15.053     16.7938    8.4007     9.0873     18.5289    0.402      30.2443   
2529.8     9.5663     2.2644     8.3162     15.5366    17.036     9.0678     9.6702     18.6757    0.401      29.975    
2530       9.6754     2.311      8.4891     16.1289    17.3436    9.9033     10.3642    18.7476    0.396      29.3412   
2530.2     9.7494     2.3816     8.8036     16.7139    17.6591    10.6927    10.8822    18.7059    0.396      27.9504   
2530.4     9.8372     2.473      9.1007     17.1398    17.9443    11.2751    10.4235    18.6906    0.395      27.8277   
2530.6     9.8911     2.4804     9.2946     17.3322    18.0895    11.618     10.226     18.642     0.39       29.7241   
2530.8     9.8931     2.5301     9.4359     17.4337    18.1856    11.7686    10.0917    18.5949    0.39       31.2413   
2531       9.8931     2.5034     9.5389     17.5179    18.3924    11.8148    9.4257     18.7395    0.397      32.9142   
2531.2     9.7921     2.5834     9.8029     17.4911    18.4604    11.6221    9.1334     18.9303    0.402      35.3126   
2531.4     9.7866     2.5416     9.5891     17.3026    18.2391    11.3607    8.4338     18.9453    0.402      37.6082   
2531.6     9.8361     2.4248     9.1906     16.6879    17.6882    11.0671    8.2536     18.8564    0.402      39.4353   
2531.8     9.9087     2.3264     8.7167     16.1697    17.3155    10.8742    7.9239     19.1232    0.402      39.7792   
2532       9.9732     2.3187     8.5309     15.7766    17.1681    10.755     8.1981     19.6435    0.407      39.5528   
2532.2     10.0879    2.2706     8.2907     15.5964    17.0937    10.8721    8.2861     20.5161    0.408      39.7244   
2532.4     10.1499    2.2477     8.2227     15.4574    17.0888    11.2989    8.4245     21.6838    0.414      39.0822   
2532.6     10.2595    2.2126     8.1605     15.4468    17.2652    12.0358    8.4128     23.2333    0.411      38.3025   
2532.8     10.417     2.211      8.0944     15.4773    17.5815    12.9539    8.8206     25.1019    0.405      38.4816   
2533       10.5849    2.211      8.1143     15.6762    18.1486    14.058     9.1947     27.0266    0.402      39.9489   
2533.2     10.7577    2.211      8.2577     16.1124    19.0688    15.3148    9.6825     29.0712    0.398      41.8166   
2533.4     10.955     2.2288     8.4202     16.659     20.2455    16.6361    9.9552     31.596     0.395      41.5964   
2533.6     11.2078    2.2648     8.6281     16.877     20.9697    18.0362    10.5471    34.0822    0.39       41.3096   
2533.8     11.5031    2.215      8.4078     16.8214    21.3025    19.4284    10.1731    35.788     0.385      41.6385   
2534       11.8281    2.2426     8.5671     16.8497    21.8422    21.1764    11.3499    37.511     0.396      41.8419   
2534.2     12.1792    2.3164     8.8114     17.0529    22.8297    23.953     11.0136    39.8923    0.402      42.1176   
2534.4     12.6395    2.2218     8.5021     17.0976    24.0361    26.8893    9.8618     41.349     0.402      43.2236   
2534.6     13.1422    2.211      8.5795     17.1812    25.3925    30.3513    11.4759    42.3003    0.402      44.5605   
2534.8     13.7773    2.1518     8.4649     17.4984    27.096     33.6722    12.1452    42.7208    0.404      45.4212   
2535       14.4974    2.1032     8.392      18.0699    28.7781    36.2582    17.5818    41.6423    0.408      45.9756   
2535.2     15.2044    2.2432     9.1381     19.3145    30.5424    36.3367    52.6598    38.5698    0.41       46.9782   
2535.4     16.1234    2.4813     10.0771    19.2834    29.2945    37.9551    76.6528    32.376     0.407      48.746    
2535.6     16.9109    1.9839     8.0796     19.3511    28.8787    38.8152    47.1098    26.2689    0.377      49.4654   
2535.8     17.1508    2.5331     10.2557    20.6574    29.9297    37.5019    71.4359    22.9879    0.379      50.2392   
2536       16.7438    3.0488     12.8138    24.2618    32.688     38.2777    174.1026   21.939     0.396      51.3395   
2536.2     16.9433    2.8097     12.1688    24.8341    32.4282    42.1812    216.1529   17.4061    0.375      52.4537   
2536.4     16.4179    2.8406     12.9952    28.0387    34.5223    43.6432    199.5249   15.0979    0.386      54.2641   
2536.6     15.2342    3.8455     17.9894    35.3676    42.654     44.2247    133.5224   14.5119    0.414      55.0725   
2536.8     14.1934    4.0372     19.1336    40.1408    46.1093    46.3774    29.9315    13.9514    0.422      56.9817   
2537       13.2232    3.9918     19.1248    42.1175    46.6318    45.2099    15.1511    13.2822    0.425      59.7854   
2537.2     12.2749    3.8037     18.0834    41.9788    44.7342    42.135     9.0081     13.2863    0.413      61.8627   
