~Version
 VERS              .         2.0                           : CWLS LOG ASCII STANDARD - VERSION 2.0
 WRAP              .         NO                            : ONE LINE PER DEPTH STEP
 DLM               .         SPACE                         : DELIMITING CHARACTER(SPACE TAB OR COMMA)
~Well Information
#_______________________________________________________________________________
#
#PARAMETER_NAME    .UNIT     VALUE                         : DESCRIPTION
#_______________________________________________________________________________
STRT               .m        2390                          : First reference value
STOP               .m        2562                          : Last reference value
STEP               .m        0.2                           : Step increment
NULL               .         -9999                         : Missing value
COMP               .                                       : Company
WELL               .         600                           : Well name
FLD                .                                       : Field
LOC                .                                       : Location
CNTY               .                                       : County
STAT               .                                       : State
CTRY               .                                       : Country
SRVC               .                                       : Service Company
DATE               .                                       : Date
API                .                                       : API number
EREF               .m        134                           : 
X                  .m        225746                        : 
Y                  .m        235643                        : 
group              .         Pad6                          : 
Интер-р            .         Ярышев                        : 
Куст               .         6                             : 
Статус             .         Не проверено                  : 
Тип                .         Разобраться                   : 
~Parameter Information Block
#_______________________________________________________________________________
#
#PARAMETER_NAME    .UNIT     VALUE                         : DESCRIPTION
#_______________________________________________________________________________
SET                .         LAS3                          : 
REAL_CREATION_DATE .         Ср апр 11 2012-13_17_21       : 
TLFamily_DEPTH     .         Measured Depth                : 
TLFamily_GR        .         Gamma Ray                     : 
TLFamily_TNPH      .         Neutron Porosity              : 
group              .         INI                           : 
~Curve Information
#_______________________________________________________________________________
#
#LOGNAME           .UNIT     LOG_ID                        : DESCRIPTION
#_______________________________________________________________________________
DEPTH              .m                                      : Measured Depth 
GR                 .gAPI                                   :  
TNPH               .v/v                                    : Neutron Porosity 
~Ascii
# ...
2438.6     225.83     0.289     
2438.8     232.17     0.299     
2439       238.48     0.302     
2439.2     235.94     0.297     
2439.4     227.97     0.294     
2439.6     219.51     0.301     
2439.8     211.91     0.296     
2440       209.21     0.281     
2440.2     218.2      0.291     
2440.4     226.28     0.305     
2440.6     232.8      0.323     
2440.8     241.78     0.323     
2441       256.38     0.328     
2441.2     262.46     0.326     
2441.4     263.95     0.309     
2441.6     269.8      0.299     
2441.8     272.03     0.292     
2442       272.9      0.278     
2442.2     269.23     0.278     
2442.4     261.25     0.302     
2442.6     252.75     0.306     
2442.8     241.58     0.291     
2443       232.52     0.295     
2443.2     222.75     0.303     
2443.4     210.47     0.276     
2443.6     197.07     0.257     
2443.8     194.72     0.267     
2444       198.51     0.288     
2444.2     207.28     0.297     
2444.4     222.49     0.302     
2444.6     248.69     0.301     
2444.8     265.12     0.285     
2445       277.64     0.292     
2445.2     292.58     0.296     
2445.4     306.93     0.298     
2445.6     335.82     0.299     
2445.8     368.13     0.297     
2446       405.06     0.304     
2446.2     443.34     0.309     
2446.4     473.13     0.32      
2446.6     522.59     0.324     
2446.8     555.65     0.304     
2447       525.22     0.31      
2447.2     439.48     0.331     
2447.4     416.1      0.332     
2447.6     390.21     0.33      
2447.8     378.54     0.332     
2448       379.66     0.345     
2448.2     380.01     0.359     
2448.4     373.11     0.363     
2448.6     360.18     0.364     
2448.8     343.86     0.362     
2449       318.26     0.37      
2449.2     292.94     0.356     
2449.4     288.23     0.318     
2449.6     294.02     0.299     
2449.8     301.6      0.283     
2450       310.44     0.29      
2450.2     315.17     0.311     
2450.4     311.96     0.319     
2450.6     307.61     0.318     
2450.8     314.21     0.312     
2451       316.79     0.303     
2451.2     305.55     0.299     
2451.4     295.57     0.308     
2451.6     288.61     0.304     
2451.8     286.28     0.308     
2452       283.35     0.332     
2452.2     276.25     0.346     
2452.4     272.06     0.332     
2452.6     269.06     0.329     
2452.8     264.04     0.334     
2453       252.14     0.342     
2453.2     230.43     0.32      
2453.4     212.01     0.301     
2453.6     193.25     0.307     
2453.8     186.09     0.312     
2454       190.73     0.313     
2454.2     199.38     0.303     
2454.4     202.45     0.298     
2454.6     203.88     0.295     
2454.8     201.38     0.291     
2455       197.01     0.291     
2455.2     190.8      0.29      
2455.4     184.36     0.291     
2455.6     173.87     0.287     
2455.8     163.08     0.278     
2456       150.38     0.283     
2456.2     147.67     0.299     
2456.4     148.16     0.301     
2456.6     148.27     0.3       
2456.8     151.59     0.291     
2457       154.29     0.3       
2457.2     157.17     0.303     
2457.4     158.31     0.285     
2457.6     163.24     0.287     
2457.8     171.69     0.294     
2458       182.31     0.294     
2458.2     178.99     0.287     
2458.4     157.69     0.284     
2458.6     139.61     0.29      
2458.8     138.36     0.287     
2459       136.77     0.275     
2459.2     131.5      0.27      
2459.4     131.26     0.26      
2459.6     127.58     0.252     
2459.8     122.93     0.254     
2460       122.49     0.249     
2460.2     121.9      0.251     
2460.4     123.68     0.257     
2460.6     126.64     0.256     
2460.8     128.59     0.253     
2461       130.33     0.261     
2461.2     128.25     0.275     
2461.4     131.31     0.28      
2461.6     134.08     0.282     
2461.8     130.24     0.289     
2462       125.64     0.31      
2462.2     128.01     0.322     
2462.4     138.63     0.319     
2462.6     145.91     0.307     
2462.8     144.53     0.3       
2463       140.8      0.307     
2463.2     134.98     0.308     
2463.4     128.24     0.31      
2463.6     119.69     0.293     
2463.8     117.21     0.289     
2464       120.72     0.305     
2464.2     127.93     0.324     
2464.4     124.65     0.31      
2464.6     116.94     0.288     
2464.8     111.29     0.278     
2465       106.85     0.278     
2465.2     111.02     0.287     
2465.4     117.02     0.279     
2465.6     125.97     0.269     
2465.8     140        0.269     
2466       142.91     0.275     
2466.2     138.73     0.288     
2466.4     133.52     0.3       
2466.6     128.74     0.303     
2466.8     121.48     0.289     
2467       119.94     0.275     
2467.2     123.17     0.262     
2467.4     130.37     0.27      
2467.6     142.11     0.291     
2467.8     156.37     0.29      
2468       157.71     0.301     
2468.2     153.37     0.318     
2468.4     153.01     0.311     
2468.6     158.85     0.308     
2468.8     167.06     0.308     
2469       173.47     0.308     
2469.2     177.62     0.313     
2469.4     176.1      0.313     
2469.6     170.18     0.328     
2469.8     164.5      0.342     
2470       164.09     0.343     
2470.2     165.41     0.338     
2470.4     170.6      0.336     
2470.6     174.15     0.332     
2470.8     179.52     0.328     
2471       187.71     0.331     
2471.2     186.74     0.314     
2471.4     164.92     0.286     
2471.6     150.32     0.279     
2471.8     148.48     0.276     
2472       150.32     0.271     
2472.2     149.15     0.26      
2472.4     143.11     0.252     
2472.6     144.61     0.254     
2472.8     151.1      0.255     
2473       158.27     0.261     
2473.2     158.11     0.263     
2473.4     146.15     0.266     
2473.6     140.56     0.279     
2473.8     136.92     0.281     
2474       131.97     0.293     
2474.2     134.02     0.298     
2474.4     137.91     0.289     
2474.6     137.75     0.279     
2474.8     136.2      0.263     
2475       132.66     0.255     
2475.2     133.99     0.261     
2475.4     137.36     0.284     
2475.6     141.39     0.299     
2475.8     144.5      0.31      
2476       144.26     0.308     
2476.2     137.77     0.303     
2476.4     132.43     0.305     
2476.6     133.24     0.307     
2476.8     131.91     0.296     
2477       127.55     0.287     
2477.2     128.77     0.276     
2477.4     132.04     0.272     
2477.6     133.96     0.26      
2477.8     134.17     0.272     
2478       129.68     0.3       
2478.2     126.55     0.301     
2478.4     115.28     0.279     
2478.6     99.99      0.27      
2478.8     95.45      0.259     
2479       104.78     0.253     
2479.2     135.1      0.262     
2479.4     142.29     0.279     
2479.6     138.35     0.282     
2479.8     133.44     0.276     
2480       132.55     0.273     
2480.2     131.93     0.277     
2480.4     128.06     0.286     
2480.6     125.36     0.289     
2480.8     128.95     0.289     
2481       131.97     0.303     
2481.2     132.59     0.305     
2481.4     131.86     0.298     
2481.6     128.26     0.291     
2481.8     126.68     0.276     
2482       126.3      0.27      
2482.2     129.64     0.27      
2482.4     132.49     0.259     
2482.6     135.38     0.261     
2482.8     135.04     0.283     
2483       133.47     0.289     
2483.2     136.41     0.281     
2483.4     142.19     0.288     
2483.6     142.5      0.297     
2483.8     146.85     0.301     
2484       150.77     0.311     
2484.2     150.21     0.319     
2484.4     147.96     0.308     
2484.6     149.21     0.292     
2484.8     151.17     0.288     
2485       151.76     0.296     
2485.2     150.25     0.293     
2485.4     152.42     0.289     
2485.6     151.25     0.284     
2485.8     146.56     0.282     
2486       142.42     0.28      
2486.2     134.89     0.281     
2486.4     134.05     0.284     
2486.6     134.98     0.284     
2486.8     131.3      0.289     
2487       130.08     0.292     
