~Version
 VERS              .         2.0                           : CWLS LOG ASCII STANDARD - VERSION 2.0
 WRAP              .         NO                            : ONE LINE PER DEPTH STEP
 DLM               .         SPACE                         : DELIMITING CHARACTER(SPACE TAB OR COMMA)
~Well Information
#_______________________________________________________________________________
#
#PARAMETER_NAME    .UNIT     VALUE                         : DESCRIPTION
#_______________________________________________________________________________
STRT               .m        2390                          : First reference value
STOP               .m        2562                          : Last reference value
STEP               .m        0.2                           : Step increment
NULL               .         -9999                         : Missing value
COMP               .                                       : Company
WELL               .         600                           : Well name
FLD                .                                       : Field
LOC                .                                       : Location
CNTY               .                                       : County
STAT               .                                       : State
CTRY               .                                       : Country
SRVC               .                                       : Service Company
DATE               .                                       : Date
API                .                                       : API number
EREF               .m        134                           : 
X                  .m        225746                        : 
Y                  .m        235643                        : 
group              .         Pad6                          : 
Интер-р            .         Ярышев                        : 
Куст               .         6                             : 
Статус             .         Не проверено                  : 
Тип                .         Разобраться                   : 
~Parameter Information Block
#_______________________________________________________________________________
#
#PARAMETER_NAME    .UNIT     VALUE                         : DESCRIPTION
#_______________________________________________________________________________
SET                .         LAS1                          : 
REAL_CREATION_DATE .         Ср апр 11 2012-13_17_21       : 
TLFamily_DEPTH     .         Measured Depth                : 
TLFamily_KS        .         Potential Resistivity         : 
TLFamily_KS1       .         Extra Shallow Resistivity     : 
TLFamily_KS2       .         Shallow Resistivity           : 
TLFamily_KS3       .         Medium Resistivity            : 
TLFamily_KS4       .         Deep Resistivity              : 
TLFamily_KS5       .         Extra Deep Resistivity        : 
TLFamily_LLD       .         Lateral Log Resistivity       : 
TLFamily_OKS3      .         Medium Resistivity Inverted   : 
TLFamily_RM        .         Mud Resistivity               : 
TLFamily_SP        .         Spontaneous Potential         : 
group              .         INI                           : 
~Curve Information
#_______________________________________________________________________________
#
#LOGNAME           .UNIT     LOG_ID                        : DESCRIPTION
#_______________________________________________________________________________
DEPTH              .m                                      : Measured Depth 
KS                 .ohm.m                                  : Potential Resistivity 
KS1                .ohm.m                                  : Extra Shallow Resistivity 
KS2                .ohm.m                                  : Shallow Resistivity 
KS3                .ohm.m                                  : Medium Resistivity 
KS4                .ohm.m                                  : Deep Resistivity 
KS5                .ohm.m                                  : Extra Deep Resistivity 
LLD                .ohm.m                                  : Lateral Log Resistivity 
OKS3               .ohm.m                                  : Medium Resistivity Inverted 
RM                 .ohm.m                                  : Mud Resistivity 
SP                 .mV                                     : Spontaneous Potential 
~Ascii
# ...
2430.2     5.3829     2.1069     6.4699     9.3759     8.9009     7.3462     4.1033     8.6214     0.402      25.8607   
2430.4     5.3232     2.085      6.4582     9.2861     8.7384     7.3462     3.9407     8.6737     0.402      25.0702   
2430.6     5.3103     2.0647     6.3478     9.2216     8.6155     7.2776     3.7773     8.8596     0.402      23.9231   
2430.8     5.2595     2.0062     6.2842     9.0596     8.4178     7.1839     3.667      8.9853     0.402      23.5199   
2431       5.266      1.9954     6.2029     8.9904     8.2938     7.0971     3.8574     9.0478     0.402      23.8251   
2431.2     5.3128     2.04       6.1794     8.8434     8.1288     6.9394     3.9553     9.0023     0.402      24.7406   
2431.4     5.3128     2.0493     6.1272     8.7582     7.91       6.8004     3.9566     8.9325     0.402      23.9649   
2431.6     5.3128     2.0493     6.0792     8.6132     7.6833     6.6553     3.9246     8.8879     0.402      22.5103   
2431.8     5.3128     2.002      6.0655     8.4776     7.5156     6.4974     3.8337     8.9093     0.402      22.6      
2432       5.3128     1.9954     6.0233     8.3677     7.3578     6.3857     3.7823     9.0181     0.402      23.3019   
2432.2     5.3128     2.0168     6.0722     8.3138     7.2253     6.2768     3.8447     9.0151     0.402      23.4435   
2432.4     5.2947     2.0493     6.1458     8.3108     7.163      6.1191     4.101      8.9945     0.402      23.4204   
2432.6     5.3128     2.0493     6.0697     8.1578     6.954      6.0066     3.9249     9.0294     0.402      23.7926   
2432.8     5.3565     1.9614     5.8339     7.9572     6.7833     5.9128     3.6417     9.1778     0.397      23.4132   
2433       5.366      1.9415     5.7826     7.9496     6.7402     5.8631     3.6307     9.5094     0.404      21.9001   
2433.2     5.366      1.981      5.9908     8.1488     6.8941     5.8631     3.7484     9.8918     0.408      19.9657   
2433.4     5.4201     1.9954     6.0722     8.3616     7.0965     5.8934     3.8974     10.0646    0.402      19.2489   
2433.6     5.4852     1.9954     6.0746     8.4365     7.1485     5.9489     4.1183     10.1304    0.402      21.6962   
2433.8     5.5921     2.0408     6.0746     8.4706     7.1735     5.9583     4.172      10.1435    0.402      24.5239   
2434       5.6822     2.0493     6.0228     8.5185     7.2308     5.8716     4.216      10.2168    0.402      24.0055   
2434.2     5.7357     2.0964     6.1745     8.5474     7.2537     5.8053     4.3073     10.2724    0.405      21.6479   
2434.4     5.7669     2.1224     6.2981     8.6263     7.3045     5.6976     4.4919     10.2694    0.404      20.4028   
2434.6     5.7921     2.1571     6.4341     8.6303     7.2119     5.585      4.48       10.1831    0.408      20.485    
2434.8     5.8441     2.1069     6.3956     8.5395     7.2011     5.5255     4.3011     10.2477    0.405      20.9774   
2435       5.8454     2.1032     6.4538     8.5628     7.2125     5.4648     4.2238     10.5384    0.406      20.9503   
2435.2     5.8454     2.1032     6.5654     8.7552     7.4015     5.3736     4.2721     10.7155    0.406      21.005    
2435.4     5.8013     2.1385     6.7318     8.8797     7.4662     5.3046     5.0021     10.6383    0.405      21.56     
2435.6     5.7921     2.301      7.1075     9.153      7.4841     5.1593     5.1066     10.3374    0.408      22.1096   
2435.8     5.7921     2.229      6.8062     9.0986     7.1896     4.93       3.9504     10.04      0.405      21.3847   
2436       5.7785     2.1478     6.5341     8.8486     6.8378     4.6938     3.9521     9.9585     0.402      19.9305   
2436.2     5.7388     2.1032     6.4815     8.7259     6.5903     4.4761     4.1132     10.0195    0.402      20.0464   
2436.4     5.7659     2.0864     6.4484     8.6836     6.4432     4.339      4.0921     10.1874    0.402      20.188    
2436.6     5.7921     2.0493     6.3364     8.6347     6.3793     4.2834     4.1066     10.4264    0.402      19.006    
2436.8     5.7934     2.0493     6.2842     8.6806     6.3964     4.3393     4.1564     10.7052    0.402      18.2486   
2437       5.8502     2.0493     6.2678     8.7173     6.4505     4.526      4.0691     11.0489    0.402      18.7598   
2437.2     5.9472     2.0054     6.1613     8.7717     6.6075     4.7663     4.0965     11.4021    0.402      19.2992   
2437.4     6.0164     1.9954     6.1759     9.0622     7.0086     5.0138     4.3267     11.8917    0.402      18.7792   
2437.6     6.0845     2.0548     6.5037     9.5637     7.5668     5.2878     4.925      12.1734    0.404      17.2526   
2437.8     6.1968     2.1509     6.7033     9.9619     8.0515     5.5368     5.1086     12.1824    0.403      17.0588   
2438       6.3078     2.1571     6.7098     10.0109    8.2316     5.6871     4.832      11.9828    0.402      18.3229   
2438.2     6.418      2.1746     6.7423     9.9155     8.3694     5.7042     4.8048     11.926     0.402      18.1717   
2438.4     6.479      2.194      6.7726     9.8844     8.4791     5.7157     4.8635     11.926     0.402      16.2207   
2438.6     6.5474     2.211      6.9643     9.9377     8.6406     5.7572     5.0708     11.894     0.402      15.233    
2438.8     6.6083     2.2197     7.1333     10.0586    8.8379     5.7572     5.4751     11.6977    0.403      15.0586   
2439       6.6443     2.3266     7.4122     10.2701    9.0187     5.7027     5.9572     11.3241    0.408      14.0624   
2439.2     6.5939     2.3908     7.675      10.4822    9.0587     5.6087     5.7039     10.8654    0.408      12.9622   
2439.4     6.5099     2.4265     7.7773     10.5611    8.9529     5.4482     5.137      10.5767    0.408      12.5976   
2439.6     6.3922     2.4265     7.7441     10.6239    8.7971     5.257      4.7898     10.327     0.408      13.1741   
2439.8     6.2764     2.4265     7.8559     10.7334    8.6651     5.0287     4.6835     10.1531    0.408      14.081    
2440       6.1699     2.3301     7.7009     10.7271    8.3992     4.8618     4.2639     10.1487    0.408      14.5678   
2440.2     6.1649     2.2705     7.3717     10.5318    8.0838     4.7084     3.9845     10.3515    0.406      14.5894   
2440.4     6.1157     2.2037     7.1097     10.4418    7.8725     4.6106     4.1282     10.6259    0.405      14.8595   
2440.6     6.1117     2.1712     7.1021     10.4933    7.8325     4.5821     4.7086     10.7537    0.408      15.8858   
2440.8     6.1628     2.211      7.0712     10.5931    7.8325     4.5804     4.5319     10.9104    0.403      16.2824   
2441       6.2166     2.1613     6.8787     10.6656    7.8796     4.5919     4.3811     11.063     0.402      14.9042   
2441.2     6.1663     2.2078     7.0043     10.8439    8.0376     4.5919     5.0131     11.1764    0.405      13.2472   
2441.4     6.2095     2.3134     7.2236     10.9686    8.2061     4.5919     4.8549     11.1798    0.407      13.1635   
2441.6     6.2106     2.2263     7.0578     10.8512    8.3        4.5754     4.4365     11.1798    0.406      13.7511   
2441.8     6.1649     2.2648     7.1995     10.6652    8.3654     4.4655     4.8134     11.2331    0.408      14.0586   
2442       6.1649     2.2648     7.1609     10.5054    8.4613     4.4023     4.4561     11.2591    0.407      14.3039   
2442.2     6.1649     2.2352     7.0716     10.2853    8.4277     4.2924     4.5115     11.4105    0.407      14.6815   
2442.4     6.1649     2.2431     7.0669     10.0704    8.4112     4.1609     4.5512     11.5251    0.408      15.2228   
2442.6     6.2172     2.211      6.9965     9.8984     8.2722     4.0828     4.5515     11.634     0.408      15.1758   
2442.8     6.2602     2.1707     6.8398     9.8061     8.2082     4.0142     4.4627     11.7792    0.402      14.8194   
2443       6.2182     2.1627     6.8657     9.8019     8.247      3.9017     4.6694     12.0605    0.403      15.2952   
2443.2     6.2293     2.211      7.0708     9.8525     8.2327     3.8378     4.9833     12.1244    0.405      15.5257   
2443.4     6.2487     2.1656     6.8814     9.9069     8.1741     3.7844     4.8959     12.0326    0.401      14.9865   
