~Version
 VERS              .         2.0                           : CWLS LOG ASCII STANDARD - VERSION 2.0
 WRAP              .         NO                            : ONE LINE PER DEPTH STEP
 DLM               .         SPACE                         : DELIMITING CHARACTER(SPACE TAB OR COMMA)
~Well Information
#_______________________________________________________________________________
#
#PARAMETER_NAME    .UNIT     VALUE                         : DESCRIPTION
#_______________________________________________________________________________
STRT               .m        2390                          : First reference value
STOP               .m        2562                          : Last reference value
STEP               .m        0.2                           : Step increment
NULL               .         -9999                         : Missing value
COMP               .                                       : Company
WELL               .         600                           : Well name
FLD                .                                       : Field
LOC                .                                       : Location
CNTY               .                                       : County
STAT               .                                       : State
CTRY               .                                       : Country
SRVC               .                                       : Service Company
DATE               .                                       : Date
API                .                                       : API number
EREF               .m        134                           : 
X                  .m        225746                        : 
Y                  .m        235643                        : 
group              .         Pad6                          : 
Интер-р            .         Ярышев                        : 
Куст               .         6                             : 
Статус             .         Не проверено                  : 
Тип                .         Разобраться                   : 
~Parameter Information Block
#_______________________________________________________________________________
#
#PARAMETER_NAME    .UNIT     VALUE                         : DESCRIPTION
#_______________________________________________________________________________
SET                .         LAS1                          : 
REAL_CREATION_DATE .         Ср апр 11 2012-13_17_21       : 
TLFamily_DEPTH     .         Measured Depth                : 
TLFamily_KS        .         Potential Resistivity         : 
TLFamily_KS1       .         Extra Shallow Resistivity     : 
TLFamily_KS2       .         Shallow Resistivity           : 
TLFamily_KS3       .         Medium Resistivity            : 
TLFamily_KS4       .         Deep Resistivity              : 
TLFamily_KS5       .         Extra Deep Resistivity        : 
TLFamily_LLD       .         Lateral Log Resistivity       : 
TLFamily_OKS3      .         Medium Resistivity Inverted   : 
TLFamily_RM        .         Mud Resistivity               : 
TLFamily_SP        .         Spontaneous Potential         : 
group              .         INI                           : 
~Curve Information
#_______________________________________________________________________________
#
#LOGNAME           .UNIT     LOG_ID                        : DESCRIPTION
#_______________________________________________________________________________
DEPTH              .m                                      : Measured Depth 
KS                 .ohm.m                                  : Potential Resistivity 
KS1                .ohm.m                                  : Extra Shallow Resistivity 
KS2                .ohm.m                                  : Shallow Resistivity 
KS3                .ohm.m                                  : Medium Resistivity 
KS4                .ohm.m                                  : Deep Resistivity 
KS5                .ohm.m                                  : Extra Deep Resistivity 
LLD                .ohm.m                                  : Lateral Log Resistivity 
OKS3               .ohm.m                                  : Medium Resistivity Inverted 
RM                 .ohm.m                                  : Mud Resistivity 
SP                 .mV                                     : Spontaneous Potential 
~Ascii
2390.0     1.2572     -0.1061    -0.1076    -0.05      -0.2629    -0.2811    2402.638   21.4674    0.361      5.6217    
2390.2     2.6769     0.3938     -0.1076    -0.05      -0.27      -0.2911    767.1412   18.3698    0.37       10.541    
2390.4     3.5797     0.9678     -0.1076    -0.05      -0.27      -0.3341    739.7272   16.0903    0.373      13.7974   
2390.6     4.2324     1.3404     -0.1076    -0.05      -0.27      -0.3449    1919.228   14.4943    0.379      15.4347   
2390.8     4.6874     1.5703     1.2832     -0.05      -0.27      -0.387     693.9707   13.389     0.373      17.2663   
2391       5.0362     1.7362     3.0073     -0.05      -0.27      -0.387     716.1253   12.5725    0.367      19.1899   
2391.2     5.2573     1.8512     4.1641     -0.05      -0.27      -0.387     686.9627   11.8513    0.367      20.4551   
2391.4     5.3919     1.9369     4.876      -0.05      -0.27      -0.3905    726.0114   11.3004    0.368      22.1677   
2391.6     5.5215     1.9909     5.4263     -0.05      -0.27      -0.4195    720.696    10.8978    0.371      23.9231   
2391.8     5.5775     2.045      5.858      -0.05      -0.27      -0.4354    -214.9301  10.5163    0.372      24.3724   
2392       5.6237     2.1        6.1622     1.863      -0.27      -0.409     -27.1751   10.1711    0.375      24.776    
2392.2     5.6323     2.1032     6.377      4.2307     -0.27      -0.4213    -25.1705   9.8878     0.389      25.1215   
2392.4     5.5781     2.1567     6.5161     5.7923     -0.27      -0.44      -17.396    9.6872     0.396      25.2597   
2392.6     5.5258     2.1571     6.6772     6.8882     -0.27      -0.44      -6.2064    9.5266     0.396      25.8535   
2392.8     5.4771     2.1571     6.6643     7.6447     -0.27      -0.44      1.0238     9.4289     0.396      24.8221   
2393       5.4725     2.1124     6.5575     8.0907     -0.27      -0.44      3.3381     9.4106     0.397      23.6383   
2393.2     5.4224     2.1032     6.5461     8.3998     -0.27      -0.44      3.6183     9.3221     0.402      24.717    
2393.4     5.4695     2.0557     6.4584     8.5931     -0.27      -0.44      3.6885     9.2674     0.402      25.9633   
2393.6     5.4725     2.0493     6.3363     8.7063     -0.27      -0.44      4.0113     9.2358     0.402      26.4722   
2393.8     5.4444     2.0691     6.4079     8.853      -0.2287    -0.44      4.4387     9.1325     0.404      26.4026   
2394       5.4193     2.1518     6.5808     8.9999     1.232      -0.44      3.9602     8.9848     0.403      26.0338   
2394.2     5.4193     2.1067     6.4361     8.961      2.9116     -0.44      3.8456     8.9412     0.402      27.649    
2394.4     5.3671     2.1032     6.389      8.8539     4.0284     -0.44      3.854      8.9907     0.402      29.0537   
2394.6     5.3136     2.068      6.389      8.84       4.8318     -0.44      3.7365     9.2068     0.402      28.1178   
2394.8     5.2598     2.0493     6.4379     8.7366     5.4097     -0.44      3.6586     9.462      0.402      27.5332   
2395       5.2508     2.0062     6.3415     8.6676     5.8316     -0.44      3.8992     9.5787     0.396      28.3817   
2395.2     5.2062     2.0032     6.2862     8.6483     6.1079     -0.44      4.0226     9.6467     0.399      29.2383   
2395.4     5.2062     2.0493     6.335      8.6836     6.3225     -0.44      3.7901     9.7713     0.402      29.093    
2395.6     5.157      2.0493     6.2913     8.6169     6.4077     -0.44      3.4877     9.9854     0.402      29.3104   
2395.8     5.1721     1.9922     6.0702     8.431      6.3624     -0.44      3.4473     10.2721    0.398      29.3592   
2396       5.257      1.9244     5.8289     8.2333     6.3082     -0.44      3.6431     10.601     0.393      28.7227   
2396.2     5.3391     1.9168     5.8471     8.1197     6.3067     -0.44      3.7954     10.9924    0.396      28.5548   
2396.4     5.4513     1.8876     5.7571     8.0283     6.3067     -0.44      4.1025     11.2521    0.396      29.1115   
2396.6     5.6174     1.8876     5.7079     7.9396     6.3067     -0.44      4.4371     11.3795    0.396      30.1413   
2396.8     5.7337     1.9391     5.8084     7.9397     6.3595     -0.44      4.7489     11.5798    0.396      31.2569   
2397       5.8405     2.0378     6.0112     8.0506     6.473      -0.44      4.9122     11.7972    0.396      30.8535   
2397.2     5.894      2.0933     6.2793     8.2518     6.5812     -0.44      4.9972     12.0703    0.386      29.5673   
2397.4     5.8986     2.1478     6.4934     8.4112     6.6863     -0.44      4.8468     12.4561    0.402      29.4031   
2397.6     5.8986     2.1571     6.6397     8.5157     6.7276     -0.44      4.6035     12.866     0.4        29.9385   
2397.8     5.8986     2.1471     6.6136     8.5238     6.6801     -0.44      4.5134     13.4062    0.402      31.0676   
2398       5.9217     2.1336     6.6449     8.5238     6.6441     -0.44      4.5663     14.1519    0.402      32.2209   
2398.2     5.9519     2.1032     6.5985     8.5238     6.589      -0.1026    4.527      14.9208    0.402      33.3916   
2398.4     6.0026     2.081      6.5112     8.6033     6.5192     0.7133     4.437      15.6468    0.402      34.6905   
2398.6     6.0876     2.0493     6.4333     8.6303     6.4283     1.2776     4.408      16.23      0.4        35.8982   
2398.8     6.2029     2.021      6.3223     8.6403     6.4102     1.7357     4.3599     16.6812    0.396      37.4995   
2399       6.4123     1.96       6.1468     8.5379     6.3159     2.1        4.347      17.032     0.396      39.7558   
2399.2     6.6823     1.8888     5.8867     8.3763     6.2622     2.4319     4.5994     17.4228    0.396      43.795    
2399.4     7.0471     1.7929     5.6409     8.2667     6.2541     2.709      5.5233     17.6699    0.393      48.4267   
2399.6     7.4848     1.8211     5.6871     8.3757     6.321      2.984      6.9801     17.485     0.394      51.1421   
2399.8     7.9403     1.9329     6.0294     8.7082     6.6151     3.2783     7.3728     17.2127    0.396      54.183    
2400       8.3725     1.9954     6.2186     9.1143     7.3021     3.6422     7.5255     17.0235    0.396      57.3187   
2400.2     8.7501     2.0074     6.4959     9.6841     7.9295     3.9989     10.6521    16.67      0.395      60.8134   
2400.4     8.9962     2.1812     7.3574     10.6986    8.7761     4.3703     18.7681    15.8558    0.396      64.2957   
2400.6     9.041      2.5329     8.671      12.1554    9.8501     4.6778     25.8617    14.5676    0.402      66.9195   
2400.8     8.851      2.841      9.8649     13.6116    10.8071    4.8918     16.0591    13.1602    0.402      70.6379   
2401       8.4624     3.063      10.6917    14.738     11.3768    4.9944     8.0774     12.2345    0.399      75.0585   
2401.2     8.034      3.06       11.0085    15.0192    11.3577    4.9295     5.2617     11.9339    0.395      77.9901   
2401.4     7.7084     2.7359     10.2555    14.805     11.0019    4.8124     4.544      12.2919    0.396      79.2855   
2401.6     7.5214     2.4215     9.4163     14.4967    10.6717    4.6531     5.2292     12.9751    0.396      79.7333   
2401.8     7.3956     2.4098     9.2087     14.4951    10.5683    4.5001     6.0871     13.5421    0.399      78.9902   
2402       7.3417     2.3302     8.6097     14.7186    10.5948    4.4237     6.0519     14.0232    0.399      78.0898   
2402.2     7.3366     2.4017     8.385      14.6096    10.5683    4.4092     6.145      14.2974    0.396      77.5694   
2402.4     7.3301     2.2842     7.7604     14.6124    10.616     4.38       5.9845     14.4325    0.392      77.4762   
2402.6     7.2346     2.3475     7.8643     14.4759    10.6762    4.4257     5.717      14.5412    0.394      78.3299   
2402.8     7.1612     2.3081     7.7611     14.3783    10.9102    4.433      5.6074     14.5604    0.393      79.0156   
2403       7.1741     2.2767     7.7643     13.7876    10.9756    4.5013     4.9802     14.4694    0.396      79.5194   
2403.2     7.1769     2.137      7.3362     13.2095    11.186     4.6682     5.6114     14.4216    0.388      80.2206   
