~Version
 VERS              .         2.0                           : CWLS LOG ASCII STANDARD - VERSION 2.0
 WRAP              .         NO                            : ONE LINE PER DEPTH STEP
 DLM               .         SPACE                         : DELIMITING CHARACTER(SPACE TAB OR COMMA)
~Well Information
#_______________________________________________________________________________
#
#PARAMETER_NAME    .UNIT     VALUE                         : DESCRIPTION
#_______________________________________________________________________________
STRT               .m        2779                          : First reference value
STOP               .m        3002                          : Last reference value
STEP               .m        0.2                           : Step increment
NULL               .         -9999                         : Missing value
COMP               .                                       : Company
WELL               .         601                           : Well name
FLD                .                                       : Field
LOC                .                                       : Location
CNTY               .                                       : County
STAT               .                                       : State
CTRY               .                                       : Country
SRVC               .                                       : Service Company
DATE               .                                       : Date
API                .                                       : API number
EREF               .m        134                           : 
X                  .m        225746                        : 
Y                  .m        235643                        : 
group              .         Pad6                          : 
Интер-р            .         Ярышев                        : 
Куст               .         6                             : 
Статус             .         Не проверено                  : 
Тип                .         Разведка                      : 
~Parameter Information Block
#_______________________________________________________________________________
#
#PARAMETER_NAME    .UNIT     VALUE                         : DESCRIPTION
#_______________________________________________________________________________
SET                .         LAS3                          : 
REAL_CREATION_DATE .         Ср апр 11 2012-13_17_22       : 
TLFamily_DEPTH     .         Measured Depth                : 
TLFamily_GR        .         Gamma Ray                     : 
TLFamily_TNPH      .         Neutron Porosity              : 
group              .         INI                           : 
~Curve Information
#_______________________________________________________________________________
#
#LOGNAME           .UNIT     LOG_ID                        : DESCRIPTION
#_______________________________________________________________________________
DEPTH              .m                                      : Measured Depth 
GR                 .gAPI                                   :  
TNPH               .v/v                                    : Neutron Porosity 
~Ascii
# ...
2973.4     82.23      0.267     
2973.6     79.01      0.248     
2973.8     82.91      0.252     
2974       92.97      0.255     
2974.2     103.15     0.249     
2974.4     109.05     0.228     
2974.6     106.8      0.228     
2974.8     103.15     0.236     
2975       97         0.244     
2975.2     89.02      0.238     
2975.4     80.54      0.215     
2975.6     70.39      0.215     
2975.8     65.25      0.213     
2976       66.53      0.222     
2976.2     70.96      0.225     
2976.4     79.09      0.237     
2976.6     91.58      0.244     
2976.8     106.15     0.255     
2977       117.7      0.271     
2977.2     118.08     0.267     
2977.4     106.98     0.258     
2977.6     97.17      0.256     
2977.8     98.16      0.239     
2978       112.09     0.275     
2978.2     119.12     0.307     
2978.4     119.25     0.295     
2978.6     115.34     0.265     
2978.8     108.51     0.246     
2979       103.11     0.242     
2979.2     102.55     0.229     
2979.4     103.69     0.23      
2979.6     99.3       0.234     
2979.8     96.18      0.227     
2980       87.86      0.207     
2980.2     74.17      0.166     
2980.4     64.46      0.116     
2980.6     60.08      0.104     
2980.8     57.87      0.104     
2981       57.63      0.105     
2981.2     62.38      0.122     
2981.4     68.2       0.129     
2981.6     76.52      0.154     
2981.8     90.31999   0.205     
2982       100.27     0.241     
2982.2     101.03     0.263     
2982.4     98.53      0.251     
2982.6     86.68      0.224     
2982.8     74.99      0.229     
2983       70.01      0.225     
2983.2     69.12      0.232     
2983.4     69.27      0.22      
2983.6     64.98      0.21      
2983.8     66.19      0.209     
2984       74.25      0.218     
2984.2     83.5       0.222     
2984.4     85.57      0.224     
2984.6     83.6       0.228     
2984.8     83.68      0.229     
2985       85.62      0.242     
2985.2     87.98      0.252     
2985.4     92.81999   0.253     
2985.6     94.37      0.25      
2985.8     94.24      0.269     
2986       96.7       0.273     
2986.2     99.03      0.262     
2986.4     104.03     0.266     
2986.6     110.83     0.263     
2986.8     110.69     0.26      
2987       107.93     0.264     
2987.2     100.54     0.264     
2987.4     103.92     0.274     
2987.6     118.5      0.281     
2987.8     123.99     0.281     
2988       126.79     0.305     
2988.2     123.22     0.273     
2988.4     119.1      0.271     
2988.6     113.66     0.274     
2988.8     106.65     0.269     
2989       102.02     0.258     
2989.2     93.7       0.249     
2989.4     85.96      0.241     
2989.6     83.4       0.231     
2989.8     78.94      0.232     
2990       73.35      0.231     
2990.2     74.08      0.232     
2990.4     77.35      0.25      
2990.6     80.14      0.265     
2990.8     91.68      0.262     
2991       102.3      0.276     
2991.2     107.52     0.277     
2991.4     110.95     0.28      
2991.6     106.36     0.295     
2991.8     103.75     0.289     
2992       103.32     0.28      
2992.2     105.23     0.276     
2992.4     107.13     0.293     
2992.6     106.77     0.288     
2992.8     105.94     0.264     
2993       103.19     0.263     
2993.2     99.04      0.28      
2993.4     96.41      0.28      
2993.6     97.92      0.286     
2993.8     97.38      0.304     
2994       98.42      0.297     
2994.2     95.96      0.288     
2994.4     91.4       0.279     
2994.6     84.54001   0.301     
2994.8     72.58      0.308     
2995       60.66      0.312     
2995.2     50.84      0.324     
2995.4     56.14      0.304     
2995.6     73.77      0.284     
2995.8     90.22      0.263     
2996       92.92      0.249     
2996.2     90.57999   0.238     
2996.4     86.37      0.231     
2996.6     82.13      0.225     
2996.8     83.42      0.211     
2997       87.28      0.212     
2997.2     90.89      0.229     
2997.4     91.38      0.246     
2997.6     98.13      0.256     
2997.8     109.37     0.258     
2998       115.25     0.266     
2998.2     118.47     0.275     
2998.4     116.47     0.276     
2998.6     116.39     0.289     
2998.8     118.34     0.297     
2999       118.17     0.308     
2999.2     117.53     0.311     
2999.4     114.8      0.324     
2999.6     112.16     0.334     
2999.8     113.92     0.316     
3000       115.2      0.308     
3000.2     116.63     0.31      
3000.4     116.18     0.303     
3000.6     114.53     0.3       
3000.8     116.8      0.323     
3001       119.09     0.333     
3001.2     116.88     0.327     
3001.4     116.59     0.312     
3001.6     115.34     0.298     
3001.8     113.73     0.29      
3002       117.02     0.294     
