~Version
 VERS              .         2.0                           : CWLS LOG ASCII STANDARD - VERSION 2.0
 WRAP              .         NO                            : ONE LINE PER DEPTH STEP
 DLM               .         SPACE                         : DELIMITING CHARACTER(SPACE TAB OR COMMA)
~Well Information
#_______________________________________________________________________________
#
#PARAMETER_NAME    .UNIT     VALUE                         : DESCRIPTION
#_______________________________________________________________________________
STRT               .m        2779                          : First reference value
STOP               .m        3002                          : Last reference value
STEP               .m        0.2                           : Step increment
NULL               .         -9999                         : Missing value
COMP               .                                       : Company
WELL               .         601                           : Well name
FLD                .                                       : Field
LOC                .                                       : Location
CNTY               .                                       : County
STAT               .                                       : State
CTRY               .                                       : Country
SRVC               .                                       : Service Company
DATE               .                                       : Date
API                .                                       : API number
EREF               .m        134                           : 
X                  .m        225746                        : 
Y                  .m        235643                        : 
group              .         Pad6                          : 
Интер-р            .         Ярышев                        : 
Куст               .         6                             : 
Статус             .         Не проверено                  : 
Тип                .         Разведка                      : 
~Parameter Information Block
#_______________________________________________________________________________
#
#PARAMETER_NAME    .UNIT     VALUE                         : DESCRIPTION
#_______________________________________________________________________________
SET                .         LAS1                          : 
REAL_CREATION_DATE .         Ср апр 11 2012-13_17_22       : 
TLFamily_DEPTH     .         Measured Depth                : 
TLFamily_KS        .         Potential Resistivity         : 
TLFamily_KS1       .         Extra Shallow Resistivity     : 
TLFamily_KS2       .         Shallow Resistivity           : 
TLFamily_KS3       .         Medium Resistivity            : 
TLFamily_KS4       .         Deep Resistivity              : 
TLFamily_KS5       .         Extra Deep Resistivity        : 
TLFamily_LLD       .         Lateral Log Resistivity       : 
TLFamily_OKS3      .         Medium Resistivity Inverted   : 
TLFamily_RM        .         Mud Resistivity               : 
TLFamily_SP        .         Spontaneous Potential         : 
group              .         INI                           : 
~Curve Information
#_______________________________________________________________________________
#
#LOGNAME           .UNIT     LOG_ID                        : DESCRIPTION
#_______________________________________________________________________________
DEPTH              .m                                      : Measured Depth 
KS                 .ohm.m                                  : Potential Resistivity 
KS1                .ohm.m                                  : Extra Shallow Resistivity 
KS2                .ohm.m                                  : Shallow Resistivity 
KS3                .ohm.m                                  : Medium Resistivity 
KS4                .ohm.m                                  : Deep Resistivity 
KS5                .ohm.m                                  : Extra Deep Resistivity 
LLD                .ohm.m                                  : Lateral Log Resistivity 
OKS3               .ohm.m                                  : Medium Resistivity Inverted 
RM                 .ohm.m                                  : Mud Resistivity 
SP                 .mV                                     : Spontaneous Potential 
~Ascii
# ...
2913       8.4944     2.7959     9.7992     18.0639    15.1604    17.0922    15.0125    13.8461    0.413      88.1245   
2913.2     8.3323     2.7616     9.7424     17.6484    14.6967    16.4062    12.2619    12.6655    0.421      89.8059   
2913.4     8.0481     2.8694     9.7437     16.2016    14.2055    15.032     7.3124     11.8483    0.427      89.9582   
2913.6     7.7633     2.7429     9.8317     14.7134    13.6783    13.4027    7.3885     11.2912    0.422      90.0959   
2913.8     7.4479     2.6959     9.9572     13.9923    13.2994    11.7037    5.6779     10.7201    0.427      88.5955   
2914       7.2338     2.6103     9.7244     13.7894    13.0527    10.2555    5.8014     10.2809    0.433      86.6944   
2914.2     7.0364     2.4743     9.0487     13.7427    12.8282    8.965      5.4445     9.9613     0.433      86.5612   
2914.4     6.8674     2.3919     8.6277     13.7427    12.6644    8.1064     4.7087     9.8127     0.433      87.7255   
2914.6     6.7415     2.3219     8.1611     13.7427    12.6203    7.4811     4.7161     9.6874     0.428      88.9569   
2914.8     6.6743     2.2235     7.8286     13.735     12.744     7.0275     4.7161     9.7088     0.421      89.6807   
2915       6.5953     2.1662     7.5929     13.7374    12.8595    6.5803     4.6121     9.8618     0.41       89.3988   
2915.2     6.5069     2.1571     7.4755     13.8516    12.9146    6.1745     4.6095     9.9539     0.41       88.7142   
2915.4     6.4509     2.2365     7.6921     13.8807    12.6247    5.8617     5.1016     9.886      0.404      89.6886   
2915.6     6.3861     2.2648     7.7014     13.6988    12.2435    5.5822     5.5855     9.8473     0.398      89.5571   
2915.8     6.272      2.2648     7.5909     13.3649    11.7464    5.3174     4.6177     9.9006     0.402      88.2404   
2916       6.1585     2.2899     7.6953     13.1307    11.6032    5.0277     4.7246     9.9588     0.42       87.8113   
2916.2     6.0455     2.2501     7.536      12.804     11.568     4.7481     4.4266     10.0321    0.421      88.0082   
2916.4     5.9577     2.211      7.4734     12.3582    11.5438    4.5224     4.1565     10.0192    0.422      89.1769   
2916.6     5.9311     2.211      7.2442     11.7916    11.5401    4.2985     4.3478     10.0605    0.432      90.9785   
2916.8     5.9519     2.1362     6.8561     11.188     11.5154    4.126      4.0499     10.168     0.431      93.7598   
2917       5.9864     2.0498     6.6917     10.7127    11.5269    3.9816     3.8053     10.2679    0.421      96.3117   
2917.2     6.0533     2.0493     6.636      10.4434    11.513     3.9033     4.1012     10.3513    0.418      95.3939   
2917.4     6.1927     2.0404     6.5246     10.3058    11.3961    3.9033     4.3719     10.3766    0.409      93.0209   
2917.6     6.2808     2.0459     6.5739     10.3206    11.3329    3.9033     4.453      10.2398    0.407      91.5272   
2917.8     6.3709     2.1608     6.8576     10.4458    11.3049    3.9563     5.261      9.9515     0.399      90.4654   
2918       6.35       2.2758     7.2025     10.616     11.2687    4.0093     5.8506     9.5304     0.415      90.5804   
2918.2     6.2095     2.3911     7.6069     10.8105    11.1475    4.0281     5.719      9.1963     0.421      90.7704   
2918.4     6.0418     2.4265     7.7898     10.8459    10.8316    4.0622     5.2198     9.0299     0.423      90.4569   
2918.6     5.872      2.395      7.7634     10.666     10.2717    4.0954     4.3817     8.8903     0.43       90.2551   
2918.8     5.7534     2.2732     7.4877     10.333     9.6754     4.1556     4.0867     8.8346     0.43       89.592    
2919       5.6805     2.1571     7.1789     10.0318    9.183      4.268      3.7208     8.8346     0.427      88.9374   
2919.2     5.6323     2.1429     7.0323     9.9281     8.8606     4.4847     3.8577     8.8241     0.421      89.9797   
2919.4     5.6323     2.1032     6.8392     9.8585     8.6103     4.6505     3.9384     8.7565     0.41       91.3826   
2919.6     5.6323     2.0569     6.574      9.7449     8.3931     4.7605     3.929      8.8416     0.404      91.0832   
2919.8     5.6323     2.0245     6.4308     9.6902     8.2705     4.8038     3.7087     8.9339     0.398      89.9436   
2920       5.6672     2.0239     6.4565     9.8202     8.2677     4.7508     3.8232     8.8672     0.407      88.5142   
2920.2     5.6726     2.1339     6.7323     9.9844     8.3235     4.7508     4.5742     8.699      0.421      87.2045   
2920.4     5.6154     2.1934     6.8269     10.034     8.3131     4.7508     4.365      8.5332     0.425      86.1411   
2920.6     5.5581     2.2363     6.8821     9.8386     8.2088     4.7508     4.1383     8.4187     0.432      86.0847   
2920.8     5.4783     2.211      6.7543     9.6128     7.9883     4.7508     3.8878     8.2675     0.433      87.5589   
2921       5.3918     2.1895     6.6977     9.2853     7.7633     4.7508     3.735      8.1539     0.426      89.9214   
2921.2     5.3309     2.1066     6.5865     9.0605     7.5801     4.7701     3.8155     8.0323     0.419      91.0251   
2921.4     5.2528     2.1296     6.5735     8.9156     7.4675     4.8308     3.6947     7.9818     0.409      89.8416   
2921.6     5.2062     2.0722     6.381      8.6958     7.3394     4.8567     3.5159     7.9567     0.401      88.4251   
2921.8     5.1659     2.0404     6.2367     8.5507     7.2537     4.8038     3.5729     7.9818     0.402      87.694    
2922       5.0905     2.033      6.2305     8.5238     7.2307     4.8038     3.6925     7.95       0.414      88.189    
2922.2     5.0465     2.0493     6.1894     8.5022     7.1489     4.8567     3.4667     7.9851     0.421      88.6071   
2922.4     5.0465     2.0045     5.9723     8.336      7.0156     4.9097     3.0857     8.3027     0.422      88.0564   
2922.6     5.0465     1.8762     5.6496     8.1444     6.9973     4.9844     3.0492     8.7835     0.427      88.7294   
2922.8     5.1328     1.8855     5.6177     8.1403     7.0981     5.044      3.8009     9.0805     0.427      90.0119   
2923       5.1889     1.9444     5.8232     8.2793     7.2775     5.1037     4.4383     8.9273     0.418      89.4967   
2923.2     5.2454     2.0274     5.963      8.3618     7.331      5.1216     4.1261     8.6729     0.409      88.9929   
2923.4     5.2595     2.0493     5.8924     8.2746     7.2857     5.0714     3.6132     8.5625     0.403      89.5893   
2923.6     5.2146     2.0493     5.9239     8.1705     7.2313     4.9627     3.7175     8.5381     0.399      90.254    
2923.8     5.2062     2.0493     6.1576     8.19       7.3063     4.9097     3.8621     8.476      0.415      91.1231   
2924       5.1542     2.0982     6.3074     8.144      7.2972     4.8876     3.9367     8.4175     0.417      92.2779   
2924.2     5.153      2.0762     6.1703     8.01       7.2044     4.8567     3.5284     8.4807     0.429      93.4005   
2924.4     5.153      2.0205     5.9659     7.8396     7.1083     4.8567     3.3283     8.6764     0.427      94.1731   
2924.6     5.192      1.9885     5.8933     7.7267     7.0959     4.8567     3.3837     8.8999     0.423      93.5314   
2924.8     5.2482     1.9523     5.8399     7.8777     7.1661     4.9097     3.647      8.977      0.415      92.4699   
2925       5.3044     2.035      6.1084     8.1729     7.2786     4.9097     4.3837     8.7769     0.41       92.7356   
2925.2     5.3128     2.111      6.2618     8.4014     7.2738     4.9097     4.496      8.4683     0.404      93.0173   
2925.4     5.283      2.1571     6.2829     8.4173     7.1303     4.8567     4.2637     8.2472     0.399      93.0456   
2925.6     5.2063     2.132      6.3356     8.3726     6.9979     4.7788     3.851      8.1473     0.415      92.865    
2925.8     5.1713     2.1301     6.3877     8.3158     6.847      4.7189     3.7442     8.1417     0.418      92.8227   
2926       5.153      2.0976     6.3666     8.2325     6.7206     4.6978     3.6625     8.0884     0.424      92.7159   
2926.2     5.153      2.0493     6.2621     8.1724     6.6089     4.6449     3.5403     8.082      0.427      92.0127   
