~Version
 VERS              .         2.0                           : CWLS LOG ASCII STANDARD - VERSION 2.0
 WRAP              .         NO                            : ONE LINE PER DEPTH STEP
 DLM               .         SPACE                         : DELIMITING CHARACTER(SPACE TAB OR COMMA)
~Well Information
#_______________________________________________________________________________
#
#PARAMETER_NAME    .UNIT     VALUE                         : DESCRIPTION
#_______________________________________________________________________________
STRT               .m        2779                          : First reference value
STOP               .m        3002                          : Last reference value
STEP               .m        0.2                           : Step increment
NULL               .         -9999                         : Missing value
COMP               .                                       : Company
WELL               .         601                           : Well name
FLD                .                                       : Field
LOC                .                                       : Location
CNTY               .                                       : County
STAT               .                                       : State
CTRY               .                                       : Country
SRVC               .                                       : Service Company
DATE               .                                       : Date
API                .                                       : API number
EREF               .m        134                           : 
X                  .m        225746                        : 
Y                  .m        235643                        : 
group              .         Pad6                          : 
Интер-р            .         Ярышев                        : 
Куст               .         6                             : 
Статус             .         Не проверено                  : 
Тип                .         Разведка                      : 
~Parameter Information Block
#_______________________________________________________________________________
#
#PARAMETER_NAME    .UNIT     VALUE                         : DESCRIPTION
#_______________________________________________________________________________
SET                .         LAS1                          : 
REAL_CREATION_DATE .         Ср апр 11 2012-13_17_22       : 
TLFamily_DEPTH     .         Measured Depth                : 
TLFamily_KS        .         Potential Resistivity         : 
TLFamily_KS1       .         Extra Shallow Resistivity     : 
TLFamily_KS2       .         Shallow Resistivity           : 
TLFamily_KS3       .         Medium Resistivity            : 
TLFamily_KS4       .         Deep Resistivity              : 
TLFamily_KS5       .         Extra Deep Resistivity        : 
TLFamily_LLD       .         Lateral Log Resistivity       : 
TLFamily_OKS3      .         Medium Resistivity Inverted   : 
TLFamily_RM        .         Mud Resistivity               : 
TLFamily_SP        .         Spontaneous Potential         : 
group              .         INI                           : 
~Curve Information
#_______________________________________________________________________________
#
#LOGNAME           .UNIT     LOG_ID                        : DESCRIPTION
#_______________________________________________________________________________
DEPTH              .m                                      : Measured Depth 
KS                 .ohm.m                                  : Potential Resistivity 
KS1                .ohm.m                                  : Extra Shallow Resistivity 
KS2                .ohm.m                                  : Shallow Resistivity 
KS3                .ohm.m                                  : Medium Resistivity 
KS4                .ohm.m                                  : Deep Resistivity 
KS5                .ohm.m                                  : Extra Deep Resistivity 
LLD                .ohm.m                                  : Lateral Log Resistivity 
OKS3               .ohm.m                                  : Medium Resistivity Inverted 
RM                 .ohm.m                                  : Mud Resistivity 
SP                 .mV                                     : Spontaneous Potential 
~Ascii
# ...
2993.4     5.3128     1.6182     5.1829     9.7699     12.0941    10.1538    9.2122     0          0.398      65.4631   
2993.6     5.3297     1.6182     5.1829     9.788      12.0941    10.3323    8.4645     0          0.398      64.762    
2993.8     5.3348     1.6182     5.1829     9.7708     12.0941    10.3654    9.1604     0          0.398      64.4777   
2994       5.3128     1.6182     5.1829     9.7487     12.1149    10.423     10.44      0          0.398      64.7561   
2994.2     5.3332     1.6182     5.1567     9.7487     12.0941    10.5187    10.3637    0          0.398      63.58     
2994.4     5.3218     1.6182     5.1436     9.7487     12.0993    10.5243    11.826     0          0          63.3205   
2994.6     2.1452     1.6182     5.1305     9.7666     12.1108    10.5243    8.7423     0          0          64.8208   
2994.8     0          0.8091     5.1305     9.7702     12.118     10.5243    6.7022     0          0          64.8597   
2995       0          0          5.1305     9.77       12.1181    10.5243    16.7501    0          0          64.3732   
2995.2     0          0          5.1305     9.7566     12.0941    10.5243    63.3773    0          0          64.2713   
2995.4     0          0          2.5653     9.7487     12.0941    10.5243    30.1286    0          0          64.3346   
2995.6     0          0          0          9.7487     12.1128    10.5243    8.5371     0          0          64.4101   
2995.8     0          0          0          9.7487     12.0976    10.5243    6.3302     0          0          64.4549   
2996       0          0          0          9.7487     12.1278    10.5243    6.2627     0          0          64.9135   
2996.2     0          0          0          9.7487     12.1467    10.5305    6.0585     0          0          65.17     
2996.4     0          0          0          9.7487     12.1467    10.5243    6.0074     0          0          65.3607   
2996.6     0          0          0          4.8743     12.1151    10.5243    6.228      0          0          66.0512   
2996.8     0          0          0          0          12.1467    10.5516    6.8686     0          0          65.6045   
2997       0          0          0          0          12.1256    10.5243    7.3164     0          0          64.6643   
2997.2     0          0          0          0          12.1467    10.5354    8.2411     0          0          65.2837   
2997.4     0          0          0          0          12.1204    10.5271    9.171      0          0          65.1951   
2997.6     0          0          0          0          12.1467    10.5243    7.0161     0          0          65.364    
2997.8     0          0          0          0          12.1467    10.5243    6.2713     0          0          65.9675   
2998       0          0          0          0          12.1467    10.5243    6.8141     0          0          65.9313   
2998.2     0          0          0          0          12.1467    10.5243    7.2982     0          0          66.4468   
2998.4     0          0          0          0          12.1467    10.5243    7.2959     0          0          66.6363   
2998.6     0          0          0          0          6.0734     10.5243    7.1526     0          0          66.8928   
2998.8     0          0          0          0          0          10.5772    6.7346     0          0          67.826    
2999       0          0          0          0          0          10.5243    6.3205     0          0          68.8752   
2999.2     0          0          0          0          0          10.5725    5.9452     0          0          69.3418   
2999.4     0          0          0          0          0          10.5541    5.9707     0          0          -9999     
2999.6     0          0          0          0          0          10.5353    6.156      0          0          -9999     
2999.8     0          0          0          0          0          10.5772    6.0919     0          0          -9999     
3000       0          0          0          0          0          10.5243    6.4073     0          0          -9999     
3000.2     0          0          0          0          0          10.5772    6.4782     0          0          -9999     
3000.4     0          0          0          0          0          10.5247    5.8719     0          0          -9999     
3000.6     0          0          0          0          0          10.555     5.6414     0          0          -9999     
3000.8     0          0          0          0          0          10.5664    5.6324     0          0          -9999     
3001       0          0          0          0          0          10.5772    5.6268     0          0          -9999     
3001.2     0          0          0          0          0          10.5243    5.6292     0          0          -9999     
3001.4     0          0          0          0          0          10.5468    5.6286     0          0          -9999     
3001.6     0          0          0          0          0          10.5243    5.6102     0          0          -9999     
3001.8     0          0          0          0          0          10.5243    5.6158     0          0          -9999     
3002       0          0          0          0          0          10.5243    5.6211     0          0          -9999     
