~Version
 VERS              .         2.0                           : CWLS LOG ASCII STANDARD - VERSION 2.0
 WRAP              .         NO                            : ONE LINE PER DEPTH STEP
 DLM               .         SPACE                         : DELIMITING CHARACTER(SPACE TAB OR COMMA)
~Well Information
#_______________________________________________________________________________
#
#PARAMETER_NAME    .UNIT     VALUE                         : DESCRIPTION
#_______________________________________________________________________________
STRT               .m        2779                          : First reference value
STOP               .m        3002                          : Last reference value
STEP               .m        0.2                           : Step increment
NULL               .         -9999                         : Missing value
COMP               .                                       : Company
WELL               .         601                           : Well name
FLD                .                                       : Field
LOC                .                                       : Location
CNTY               .                                       : County
STAT               .                                       : State
CTRY               .                                       : Country
SRVC               .                                       : Service Company
DATE               .                                       : Date
API                .                                       : API number
EREF               .m        134                           : 
X                  .m        225746                        : 
Y                  .m        235643                        : 
group              .         Pad6                          : 
Интер-р            .         Ярышев                        : 
Куст               .         6                             : 
Статус             .         Не проверено                  : 
Тип                .         Разведка                      : 
~Parameter Information Block
#_______________________________________________________________________________
#
#PARAMETER_NAME    .UNIT     VALUE                         : DESCRIPTION
#_______________________________________________________________________________
SET                .         LAS3                          : 
REAL_CREATION_DATE .         Ср апр 11 2012-13_17_22       : 
TLFamily_DEPTH     .         Measured Depth                : 
TLFamily_GR        .         Gamma Ray                     : 
TLFamily_TNPH      .         Neutron Porosity              : 
group              .         INI                           : 
~Curve Information
#_______________________________________________________________________________
#
#LOGNAME           .UNIT     LOG_ID                        : DESCRIPTION
#_______________________________________________________________________________
DEPTH              .m                                      : Measured Depth 
GR                 .gAPI                                   :  
TNPH               .v/v                                    : Neutron Porosity 
~Ascii
# ...
2827.6     107.59     0.262     
2827.8     112.35     0.27      
2828       116.1      0.279     
2828.2     114.46     0.278     
2828.4     112.44     0.268     
2828.6     114.38     0.263     
2828.8     113.55     0.263     
2829       112.17     0.259     
2829.2     110.36     0.258     
2829.4     107.73     0.244     
2829.6     106.25     0.239     
2829.8     103.94     0.242     
2830       105.61     0.243     
2830.2     113.14     0.24      
2830.4     115.41     0.252     
2830.6     113.49     0.247     
2830.8     110.95     0.253     
2831       111.59     0.26      
2831.2     111.78     0.26      
2831.4     109.27     0.265     
2831.6     109.81     0.268     
2831.8     112.66     0.252     
2832       113.62     0.243     
2832.2     109.1      0.241     
2832.4     107.94     0.236     
2832.6     107.35     0.239     
2832.8     105.57     0.25      
2833       109.83     0.252     
2833.2     110.77     0.245     
2833.4     108.74     0.251     
2833.6     112.77     0.259     
2833.8     114.43     0.257     
2834       113.69     0.258     
2834.2     109.57     0.261     
2834.4     108.08     0.249     
2834.6     105.29     0.236     
2834.8     102.66     0.224     
2835       105.81     0.229     
2835.2     110.4      0.241     
2835.4     113.89     0.27      
2835.6     117.37     0.272     
2835.8     119.29     0.288     
2836       120.87     0.295     
2836.2     122.45     0.287     
2836.4     119.78     0.274     
2836.6     117.23     0.255     
2836.8     114.62     0.24      
2837       112.2      0.239     
2837.2     111.35     0.24      
2837.4     111.35     0.227     
2837.6     111.7      0.241     
2837.8     114.95     0.25      
2838       117.6      0.244     
2838.2     117.7      0.241     
2838.4     116.69     0.234     
2838.6     117.7      0.228     
2838.8     119.34     0.226     
2839       119.42     0.221     
2839.2     116.14     0.214     
2839.4     102.56     0.203     
2839.6     85.36      0.205     
2839.8     77.02      0.192     
2840       71.96999   0.179     
2840.2     68.38      0.187     
2840.4     72.43      0.201     
2840.6     83.55      0.22      
2840.8     83.34      0.22      
2841       83.36      0.216     
2841.2     82.9       0.2       
2841.4     79.58      0.191     
2841.6     81.6       0.2       
2841.8     82.27      0.205     
2842       80.79001   0.197     
2842.2     84.78      0.187     
2842.4     86.75999   0.184     
2842.6     82.86      0.172     
2842.8     73.84      0.138     
2843       63.62      0.129     
2843.2     58.4       0.123     
2843.4     56.94      0.12      
2843.6     55.72      0.124     
2843.8     54.63      0.123     
2844       54.47      0.129     
2844.2     52.24      0.135     
2844.4     51.29      0.124     
2844.6     52.6       0.115     
2844.8     52.38      0.108     
2845       51.79      0.107     
2845.2     52.39      0.114     
2845.4     55.78      0.136     
2845.6     60.86      0.163     
2845.8     69.75      0.186     
2846       76.28999   0.186     
2846.2     79.28001   0.19      
2846.4     79.62      0.198     
2846.6     80.38      0.21      
2846.8     89.6       0.217     
2847       100.48     0.207     
2847.2     103.2      0.209     
2847.4     95.43999   0.218     
2847.6     88.9       0.227     
2847.8     92.60001   0.244     
2848       99.39      0.241     
2848.2     99.81      0.234     
2848.4     89.64      0.228     
2848.6     79.04      0.209     
2848.8     75.43999   0.209     
2849       75.84      0.206     
2849.2     79.66      0.205     
2849.4     82.9       0.224     
2849.6     86.53      0.224     
2849.8     90.64999   0.211     
2850       91.99001   0.211     
2850.2     90.14      0.214     
2850.4     95.64999   0.213     
2850.6     97.72      0.203     
2850.8     92.13      0.202     
2851       80.64      0.199     
2851.2     66.89      0.18      
2851.4     56.35      0.148     
2851.6     52.22      0.134     
2851.8     54.5       0.131     
2852       60.24      0.144     
2852.2     63.00999   0.163     
2852.4     66.89999   0.195     
2852.6     75.78      0.21      
2852.8     87.39      0.221     
2853       92.5       0.217     
2853.2     86.52      0.223     
2853.4     82.92      0.216     
2853.6     82.42      0.205     
2853.8     86.18      0.211     
2854       88.61      0.223     
2854.2     96.85001   0.239     
2854.4     109.41     0.244     
2854.6     110.64     0.241     
2854.8     100.1      0.236     
2855       90.60001   0.231     
2855.2     89.3       0.212     
2855.4     88.45      0.204     
2855.6     86.34      0.203     
2855.8     88.71001   0.21      
2856       90.48      0.218     
2856.2     97.61      0.216     
2856.4     109.25     0.227     
2856.6     115.08     0.241     
2856.8     112.71     0.25      
2857       106.66     0.244     
2857.2     104.43     0.228     
2857.4     106.84     0.213     
2857.6     102.4      0.213     
2857.8     95.10001   0.212     
2858       88.66      0.205     
2858.2     78.55      0.195     
2858.4     64.52      0.186     
2858.6     57.3       0.174     
2858.8     55.71      0.165     
2859       54.14      0.172     
2859.2     63.39      0.183     
2859.4     71.79      0.198     
2859.6     77.73      0.203     
2859.8     82.88      0.203     
2860       90.43999   0.215     
2860.2     93.77      0.229     
2860.4     103.72     0.221     
2860.6     114.5      0.232     
2860.8     120.23     0.239     
2861       123.3      0.247     
2861.2     124.59     0.237     
2861.4     127.21     0.244     
2861.6     131.02     0.241     
2861.8     130.52     0.219     
2862       128.27     0.234     
2862.2     130.06     0.249     
2862.4     136.19     0.245     
2862.6     142.23     0.239     
2862.8     138.54     0.252     
2863       132        0.266     
2863.2     130.86     0.268     
2863.4     134.86     0.261     
2863.6     139.45     0.271     
2863.8     143.81     0.283     
2864       142.69     0.28      
2864.2     137.04     0.289     
2864.4     133.89     0.295     
2864.6     129.91     0.267     
2864.8     128.68     0.256     
2865       128.98     0.268     
2865.2     127.24     0.28      
2865.4     129.61     0.268     
2865.6     135.8      0.249     
2865.8     142.04     0.235     
2866       147.65     0.237     
2866.2     155.38     0.252     
2866.4     159.52     0.276     
2866.6     158.06     0.283     
2866.8     158.92     0.267     
2867       163.08     0.272     
2867.2     165.38     0.29      
2867.4     165.61     0.287     
2867.6     165.07     0.27      
2867.8     161.24     0.258     
2868       155.78     0.255     
2868.2     150.34     0.257     
2868.4     138.31     0.252     
2868.6     130.85     0.244     
2868.8     129        0.258     
2869       126.9      0.263     
2869.2     130.32     0.241     
2869.4     141.78     0.239     
2869.6     160.15     0.261     
2869.8     185.89     0.285     
2870       214.83     0.286     
2870.2     227.19     0.282     
2870.4     210.58     0.266     
2870.6     198.53     0.254     
2870.8     206.11     0.252     
2871       224.06     0.257     
2871.2     233.12     0.278     
2871.4     238.43     0.286     
2871.6     240.41     0.29      
2871.8     241.53     0.277     
2872       239.66     0.262     
2872.2     236.86     0.275     
2872.4     231.9      0.277     
2872.6     222.76     0.269     
2872.8     213.1      0.276     
2873       214.09     0.28      
2873.2     224.95     0.29      
2873.4     233.67     0.298     
2873.6     239.3      0.307     
2873.8     246.72     0.332     
2874       257.85     0.329     
2874.2     264.76     0.316     
2874.4     271.62     0.3       
2874.6     279.01     0.298     
2874.8     279.82     0.313     
2875       274.04     0.318     
2875.2     270.4      0.322     
2875.4     270.95     0.315     
2875.6     266.03     0.314     
2875.8     252.8      0.302     
2876       238.13     0.282     
