~Version
 VERS              .         2.0                           : CWLS LOG ASCII STANDARD - VERSION 2.0
 WRAP              .         NO                            : ONE LINE PER DEPTH STEP
 DLM               .         SPACE                         : DELIMITING CHARACTER(SPACE TAB OR COMMA)
~Well Information
#_______________________________________________________________________________
#
#PARAMETER_NAME    .UNIT     VALUE                         : DESCRIPTION
#_______________________________________________________________________________
STRT               .m        2779                          : First reference value
STOP               .m        3002                          : Last reference value
STEP               .m        0.2                           : Step increment
NULL               .         -9999                         : Missing value
COMP               .                                       : Company
WELL               .         601                           : Well name
FLD                .                                       : Field
LOC                .                                       : Location
CNTY               .                                       : County
STAT               .                                       : State
CTRY               .                                       : Country
SRVC               .                                       : Service Company
DATE               .                                       : Date
API                .                                       : API number
EREF               .m        134                           : 
X                  .m        225746                        : 
Y                  .m        235643                        : 
group              .         Pad6                          : 
Интер-р            .         Ярышев                        : 
Куст               .         6                             : 
Статус             .         Не проверено                  : 
Тип                .         Разведка                      : 
~Parameter Information Block
#_______________________________________________________________________________
#
#PARAMETER_NAME    .UNIT     VALUE                         : DESCRIPTION
#_______________________________________________________________________________
SET                .         LAS3                          : 
REAL_CREATION_DATE .         Ср апр 11 2012-13_17_22       : 
TLFamily_DEPTH     .         Measured Depth                : 
TLFamily_GR        .         Gamma Ray                     : 
TLFamily_TNPH      .         Neutron Porosity              : 
group              .         INI                           : 
~Curve Information
#_______________________________________________________________________________
#
#LOGNAME           .UNIT     LOG_ID                        : DESCRIPTION
#_______________________________________________________________________________
DEPTH              .m                                      : Measured Depth 
GR                 .gAPI                                   :  
TNPH               .v/v                                    : Neutron Porosity 
~Ascii
# ...
2876.2     222.92     0.271     
2876.4     209.36     0.262     
2876.6     203.9      0.265     
2876.8     201.55     0.285     
2877       201.61     0.284     
2877.2     205.36     0.298     
2877.4     216.32     0.326     
2877.6     236.99     0.337     
2877.8     255.67     0.325     
2878       271.31     0.339     
2878.2     286.62     0.345     
2878.4     294.98     0.327     
2878.6     298.62     0.32      
2878.8     311.65     0.314     
2879       339.4      0.306     
2879.2     379.69     0.33      
2879.4     413.24     0.331     
2879.6     424.64     0.285     
2879.8     421.29     0.286     
2880       423.98     0.304     
2880.2     438.98     0.307     
2880.4     460.76     0.306     
2880.6     485.35     0.311     
2880.8     489.55     0.305     
2881       456.85     0.307     
2881.2     421.72     0.295     
2881.4     400.28     0.299     
2881.6     377.19     0.309     
2881.8     351.76     0.309     
2882       331.2      0.31      
2882.2     309.44     0.316     
2882.4     287.66     0.326     
2882.6     284.72     0.333     
2882.8     303.18     0.345     
2883       318.99     0.315     
2883.2     325.1      0.3       
2883.4     325.96     0.326     
2883.6     322.42     0.353     
2883.8     319.37     0.347     
2884       330.07     0.347     
2884.2     334.77     0.36      
2884.4     322.63     0.359     
2884.6     312.73     0.346     
2884.8     315.58     0.33      
2885       320.31     0.315     
2885.2     313.32     0.308     
2885.4     302.98     0.309     
2885.6     288.04     0.317     
2885.8     277.25     0.314     
2886       274.81     0.321     
2886.2     272.08     0.326     
2886.4     259.66     0.337     
2886.6     233.27     0.327     
2886.8     208.39     0.311     
2887       198.66     0.318     
2887.2     200.04     0.324     
2887.4     202.15     0.312     
2887.6     202.1      0.309     
2887.8     197.63     0.31      
2888       195.54     0.315     
2888.2     188.35     0.312     
2888.4     176.5      0.306     
2888.6     173.77     0.309     
2888.8     175.12     0.304     
2889       168.79     0.305     
2889.2     159.27     0.298     
2889.4     149.31     0.287     
2889.6     141.13     0.281     
2889.8     135.59     0.303     
2890       137.16     0.314     
2890.2     145.81     0.317     
2890.4     156.08     0.304     
2890.6     164.61     0.303     
2890.8     170.23     0.3       
2891       171.14     0.307     
2891.2     181.13     0.303     
2891.4     192.76     0.294     
2891.6     169.25     0.305     
2891.8     148.8      0.305     
2892       146.81     0.308     
2892.2     148.42     0.299     
2892.4     140.32     0.286     
2892.6     130.34     0.274     
2892.8     121.44     0.268     
2893       119.25     0.266     
2893.2     121.01     0.265     
2893.4     119.94     0.24      
2893.6     116.58     0.236     
2893.8     119.06     0.257     
2894       124.61     0.261     
2894.2     126.2      0.276     
2894.4     126.57     0.279     
2894.6     128.72     0.293     
2894.8     130.2      0.309     
2895       130.39     0.296     
2895.2     126.48     0.297     
2895.4     121.89     0.306     
2895.6     126.13     0.323     
2895.8     130.91     0.315     
2896       135.68     0.296     
2896.2     140.12     0.289     
2896.4     139.67     0.289     
2896.6     136.08     0.281     
2896.8     129.51     0.278     
2897       119.81     0.279     
2897.2     118.78     0.282     
2897.4     129.07     0.287     
2897.6     136.81     0.301     
2897.8     131.99     0.294     
2898       122.27     0.269     
2898.2     114.03     0.255     
2898.4     111.62     0.254     
2898.6     112.94     0.262     
2898.8     115.93     0.259     
2899       123.64     0.272     
2899.2     133.88     0.286     
2899.4     140.54     0.283     
2899.6     143.19     0.273     
2899.8     136.86     0.267     
2900       127.31     0.278     
2900.2     121.35     0.273     
2900.4     118.6      0.273     
2900.6     124.63     0.276     
2900.8     132.3      0.284     
2901       136.68     0.297     
2901.2     143.09     0.297     
2901.4     154.35     0.316     
2901.6     160.6      0.324     
2901.8     159.17     0.31      
2902       158.54     0.293     
2902.2     160.3      0.311     
2902.4     168.17     0.324     
2902.6     177.87     0.307     
2902.8     185.87     0.294     
2903       186.07     0.29      
2903.2     182.67     0.29      
2903.4     174.34     0.296     
2903.6     162.61     0.316     
2903.8     161.81     0.328     
2904       168.69     0.333     
2904.2     175.85     0.319     
2904.4     182.26     0.323     
2904.6     195.32     0.333     
2904.8     193.73     0.322     
2905       168.62     0.319     
2905.2     146.21     0.31      
2905.4     146.68     0.308     
2905.6     146.82     0.291     
2905.8     140.68     0.284     
2906       142.47     0.27      
2906.2     150.38     0.267     
2906.4     157.51     0.272     
2906.6     164.44     0.28      
2906.8     159.19     0.269     
2907       145.84     0.277     
2907.2     143.33     0.294     
2907.4     142.09     0.299     
2907.6     141.67     0.302     
2907.8     139.88     0.298     
2908       132.78     0.307     
2908.2     135.72     0.309     
2908.4     142.06     0.287     
2908.6     145.45     0.284     
2908.8     143.29     0.271     
2909       142.05     0.245     
2909.2     142.38     0.26      
2909.4     140.38     0.277     
2909.6     136.37     0.295     
2909.8     132.56     0.306     
2910       131.74     0.306     
2910.2     130.99     0.294     
2910.4     121.61     0.282     
2910.6     110.58     0.286     
2910.8     106.05     0.282     
2911       115.44     0.282     
2911.2     135.5      0.286     
2911.4     140.29     0.287     
2911.6     139.54     0.295     
2911.8     144.05     0.29      
2912       145.47     0.302     
2912.2     139.37     0.29      
2912.4     136.45     0.284     
2912.6     130.6      0.272     
2912.8     120.15     0.266     
2913       115.7      0.247     
2913.2     134.04     0.256     
2913.4     154.45     0.28      
2913.6     154.73     0.279     
2913.8     148.53     0.272     
2914       142.72     0.262     
2914.2     134.32     0.26      
2914.4     127.65     0.273     
2914.6     128.13     0.26      
2914.8     131.16     0.241     
2915       134.37     0.264     
2915.2     137.49     0.271     
2915.4     139.33     0.27      
2915.6     138.61     0.267     
2915.8     135.95     0.265     
2916       133.62     0.282     
2916.2     126.03     0.299     
2916.4     130.73     0.294     
2916.6     138.48     0.284     
2916.8     140.19     0.279     
2917       142.53     0.284     
2917.2     143.14     0.284     
2917.4     138.44     0.277     
2917.6     140.41     0.272     
2917.8     146.08     0.273     
2918       150.11     0.287     
2918.2     152.72     0.287     
2918.4     151.01     0.284     
2918.6     151.68     0.296     
2918.8     152        0.305     
2919       153.5      0.308     
2919.2     155.55     0.316     
2919.4     153.43     0.318     
2919.6     149.04     0.313     
2919.8     147.86     0.305     
2920       147.58     0.295     
2920.2     142.64     0.283     
2920.4     140.13     0.273     
2920.6     139.42     0.28      
2920.8     137.6      0.288     
2921       133.39     0.298     
2921.2     129.75     0.295     
2921.4     125.91     0.277     
2921.6     129.77     0.273     
2921.8     133.36     0.28      
2922       135.37     0.274     
2922.2     132.77     0.266     
2922.4     136.44     0.248     
2922.6     142.89     0.271     
2922.8     140.91     0.284     
2923       142.3      0.28      
2923.2     146.95     0.29      
2923.4     147.72     0.283     
2923.6     147.89     0.301     
2923.8     150.12     0.339     
2924       145.55     0.321     
2924.2     139.47     0.294     
2924.4     137.37     0.285     
2924.6     141.97     0.298     
