~Version
 VERS              .         2.0                           : CWLS LOG ASCII STANDARD - VERSION 2.0
 WRAP              .         NO                            : ONE LINE PER DEPTH STEP
 DLM               .         SPACE                         : DELIMITING CHARACTER(SPACE TAB OR COMMA)
~Well Information
#_______________________________________________________________________________
#
#PARAMETER_NAME    .UNIT     VALUE                         : DESCRIPTION
#_______________________________________________________________________________
STRT               .m        2779                          : First reference value
STOP               .m        3002                          : Last reference value
STEP               .m        0.2                           : Step increment
NULL               .         -9999                         : Missing value
COMP               .                                       : Company
WELL               .         601                           : Well name
FLD                .                                       : Field
LOC                .                                       : Location
CNTY               .                                       : County
STAT               .                                       : State
CTRY               .                                       : Country
SRVC               .                                       : Service Company
DATE               .                                       : Date
API                .                                       : API number
EREF               .m        134                           : 
X                  .m        225746                        : 
Y                  .m        235643                        : 
group              .         Pad6                          : 
Интер-р            .         Ярышев                        : 
Куст               .         6                             : 
Статус             .         Не проверено                  : 
Тип                .         Разведка                      : 
~Parameter Information Block
#_______________________________________________________________________________
#
#PARAMETER_NAME    .UNIT     VALUE                         : DESCRIPTION
#_______________________________________________________________________________
SET                .         LAS1                          : 
REAL_CREATION_DATE .         Ср апр 11 2012-13_17_22       : 
TLFamily_DEPTH     .         Measured Depth                : 
TLFamily_KS        .         Potential Resistivity         : 
TLFamily_KS1       .         Extra Shallow Resistivity     : 
TLFamily_KS2       .         Shallow Resistivity           : 
TLFamily_KS3       .         Medium Resistivity            : 
TLFamily_KS4       .         Deep Resistivity              : 
TLFamily_KS5       .         Extra Deep Resistivity        : 
TLFamily_LLD       .         Lateral Log Resistivity       : 
TLFamily_OKS3      .         Medium Resistivity Inverted   : 
TLFamily_RM        .         Mud Resistivity               : 
TLFamily_SP        .         Spontaneous Potential         : 
group              .         INI                           : 
~Curve Information
#_______________________________________________________________________________
#
#LOGNAME           .UNIT     LOG_ID                        : DESCRIPTION
#_______________________________________________________________________________
DEPTH              .m                                      : Measured Depth 
KS                 .ohm.m                                  : Potential Resistivity 
KS1                .ohm.m                                  : Extra Shallow Resistivity 
KS2                .ohm.m                                  : Shallow Resistivity 
KS3                .ohm.m                                  : Medium Resistivity 
KS4                .ohm.m                                  : Deep Resistivity 
KS5                .ohm.m                                  : Extra Deep Resistivity 
LLD                .ohm.m                                  : Lateral Log Resistivity 
OKS3               .ohm.m                                  : Medium Resistivity Inverted 
RM                 .ohm.m                                  : Mud Resistivity 
SP                 .mV                                     : Spontaneous Potential 
~Ascii
# ...
2899.6     9.5034     2.8576     9.1521     19.7642    24.907     17.0393    10.1759    18.2468    0.439      92.6141   
2899.8     9.401      2.8576     9.0593     19.2434    24.465     17.0282    9.9253     18.0837    0.439      92.5886   
2900       9.335      2.7105     8.9426     16.8251    23.3586    16.8442    9.3471     18.2687    0.433      91.6917   
2900.2     9.2551     2.5736     8.8157     15.6223    21.9334    16.5643    7.8172     19.0039    0.427      91.3153   
2900.4     9.2911     2.4021     8.759      16.0752    21.0569    16.3379    6.5236     20.4014    0.425      91.8877   
2900.6     9.3751     2.3219     8.703      16.811     20.6291    16.3362    6.2239     21.7567    0.419      92.6721   
2900.8     9.5663     2.3665     8.6998     16.9079    20.4085    16.5447    6.4825     22.9378    0.415      93.0542   
2901       9.8197     2.2743     8.2816     16.9379    20.3077    16.9236    7.7813     24.1387    0.41       94.0355   
2901.2     9.979      2.3018     8.6284     16.9678    20.3014    17.3701    7.5535     24.7968    0.405      94.762    
2901.4     10.2195    2.4328     8.8982     17.0256    20.2606    17.6695    8.422      24.7751    0.399      95.0737   
2901.6     10.3951    2.5477     9.2188     17.0444    20.6525    18.031     11.7985    24.4665    0.405      94.1703   
2901.8     10.5119    2.5882     9.2954     17.0266    20.8215    18.2335    11.5951    24.4518    0.417      92.9557   
2902       10.6313    2.5869     9.4734     16.9235    20.3219    18.4407    10.0644    24.5997    0.423      93.1166   
2902.2     10.8009    2.5294     9.4407     16.701     20.7905    18.6608    9.4769     24.789     0.427      92.8788   
2902.4     10.9697    2.4804     9.3775     16.7096    21.947     18.9451    8.7647     24.7719    0.427      91.9232   
2902.6     11.1643    2.5166     9.5335     16.9713    22.8591    19.336     9.0476     24.1954    0.437      93.5426   
2902.8     11.3751    2.5734     9.8075     17.3894    23.0781    19.7205    10.4163    23.313     0.438      96.4621   
2903       11.6106    2.5457     9.6613     17.8765    23.2227    20.1129    11.519     22.1916    0.433      98.0294   
2903.2     11.76      2.6017     10.0414    18.4053    23.4528    20.4767    10.328     20.6974    0.433      98.1305   
2903.4     11.9507    2.6921     10.3276    19.3471    23.6947    20.9111    12.7177    19.0157    0.427      98.1195   
2903.6     12.0291    2.7766     10.7551    20.3192    23.8683    21.423     13.2733    17.5804    0.419      99.0836   
2903.8     12.0668    2.8385     11.0855    21.3626    24.4303    21.9333    13.3442    16.2967    0.41       98.5326   
2904       11.9691    2.9535     11.7452    22.4333    25.3961    22.6554    13.7863    15.2156    0.412      96.8252   
2904.2     11.7775    3.0687     12.3681    23.778     26.5546    23.3126    16.1882    14.2767    0.404      95.4869   
2904.4     11.4507    3.1828     13.0764    25.3689    27.9662    23.4189    14.95      13.2375    0.41       94.4298   
2904.6     11.0394    3.3583     14.028     26.7376    28.608     23.1046    15.9372    12.1355    0.422      94.3899   
2904.8     10.5862    3.4503     14.2345    27.3838    28.5615    22.5529    18.694     11.1046    0.433      94.4766   
2905       10.0429    3.3505     13.608     27.1164    28.0557    21.8395    12.343     10.357     0.433      93.8995   
2905.2     9.4332     3.2098     13.3721    26.8506    27.8365    21.2834    8.3361     9.6806     0.441      93.4987   
2905.4     8.7647     3.2295     13.3652    26.7833    27.8707    20.6093    8.0038     8.9706     0.442      93.3255   
2905.6     8.1151     3.1129     12.9136    26.3424    27.6123    19.5847    8.8563     8.3524     0.439      92.1479   
2905.8     7.4146     3.0984     12.4071    25.5771    26.973     18.2943    7.7312     7.8697     0.434      90.0543   
2906       6.8803     2.9456     11.9176    24.3011    25.6226    15.3887    7.1672     7.3918     0.432      88.0168   
2906.2     6.5736     2.569      10.5252    22.0598    23.2397    11.3841    6.5155     7.2913     0.422      87.138    
2906.4     6.322      2.2605     8.8524     19.5904    20.8242    9.1574     4.607      7.7473     0.415      86.8203   
2906.6     6.1306     2.1854     8.0492     17.7282    19.2877    8.0921     3.2442     8.3413     0.409      86.3472   
2906.8     6.0839     2.0493     7.4563     16.4885    18.3251    7.4047     3.6102     8.7136     0.404      86.6384   
2907       6.0584     2.0493     7.0863     15.356     17.6988    7.2933     3.992      8.9164     0.395      87.1326   
2907.2     6.0155     2.0733     7.0438     14.5166    17.3461    7.2403     4.2197     8.9945     0.407      88.5695   
2907.4     5.9366     2.1728     6.9378     13.7531    16.9483    7.1279     4.6537     8.9509     0.42       90.5058   
2907.6     5.8723     2.1918     6.803      12.4964    16.0024    7.0657     5.0449     8.901      0.416      91.4376   
2907.8     5.7945     2.1095     6.4332     11.085     14.7437    7.0041     4.683      9.016      0.426      91.8447   
2908       5.7684     2.0016     6.1767     10.1026    13.8319    6.8592     3.7776     9.318      0.425      91.9255   
2908.2     5.7741     1.9139     5.9155     9.6243     13.3364    6.6853     3.6186     9.9792     0.427      90.8789   
2908.4     5.8028     1.9499     6.0366     9.2556     12.9833    6.6074     3.6957     11.1035    0.433      89.5471   
2908.6     5.9005     1.9864     5.9787     8.9972     12.7751    6.6047     4.5404     11.7711    0.429      88.8008   
2908.8     5.9706     1.9792     5.831      8.7205     12.307     6.6047     4.3095     12.7562    0.425      88.0494   
2909       6.0282     1.9702     5.7179     8.5701     11.8753    6.6884     4.4042     15.1907    0.416      87.3831   
2909.2     6.1348     1.9954     5.8027     8.4147     11.3751    6.9378     4.6774     18.8589    0.41       87.2717   
2909.4     6.2168     1.9471     5.7225     8.3011     11.0197    7.3948     4.7282     20.809     0.404      88.8883   
2909.6     6.3473     1.9415     5.7313     8.2105     11.1158    8.1264     4.3728     21.1579    0.398      90.7026   
2909.8     6.5751     1.8049     5.5146     8.3303     11.8932    9.3671     4.2711     21.2247    0.398      90.0958   
2910       6.7643     1.8124     5.7473     8.7077     13.3637    10.9307    4.1343     21.2554    0.402      89.264    
2910.2     6.9353     1.8223     5.9162     9.5725     14.7686    12.5551    4.5866     21.3374    0.414      89.3029   
2910.4     7.1746     1.7949     6.7331     10.6643    15.8175    13.6301    5.4798     21.2335    0.415      89.2665   
2910.6     7.4328     1.934      7.7482     11.6931    15.8952    14.2683    8.5675     20.0745    0.427      88.6353   
2910.8     7.7181     2.2811     7.7614     11.9073    15.1142    14.1894    18.9045    17.8879    0.434      87.1977   
2911       8.0295     2.4775     7.4778     11.3532    13.7697    13.5943    8.5023     16.0891    0.426      86.0392   
2911.2     8.1555     2.3979     7.7043     10.9514    12.6895    12.8006    6.2742     15.0551    0.408      87.1569   
2911.4     8.3207     2.235      7.688      10.6325    11.8355    12.3932    6.1324     14.4963    0.402      87.6568   
2911.6     8.4878     2.2428     7.7434     10.5511    11.3171    12.2722    5.8474     14.2919    0.395      86.4003   
2911.8     8.5457     2.3002     7.7559     10.7517    11.1501    12.5149    6.0173     14.2822    0.396      86.254    
2912       8.5084     2.6589     8.0578     11.1158    11.2366    13.1844    6.164      14.3389    0.392      89.1586   
2912.2     8.5084     2.8037     9.096      11.4714    11.6182    14.3184    6.5453     14.5162    0.392      91.6725   
2912.4     8.5084     2.8037     10.1244    12.037     12.362     15.5335    7.0185     15.0231    0.392      91.2876   
2912.6     8.5084     2.8037     10.2272    12.9451    13.7255    16.3875    6.3638     15.6326    0.394      88.6534   
2912.8     8.5084     2.8037     9.9127     15.1744    14.9365    16.9298    7.1086     15.0724    0.404      86.7321   
