~Version
 VERS              .         2.0                           : CWLS LOG ASCII STANDARD - VERSION 2.0
 WRAP              .         NO                            : ONE LINE PER DEPTH STEP
 DLM               .         SPACE                         : DELIMITING CHARACTER(SPACE TAB OR COMMA)
~Well Information
#_______________________________________________________________________________
#
#PARAMETER_NAME    .UNIT     VALUE                         : DESCRIPTION
#_______________________________________________________________________________
STRT               .m        2779                          : First reference value
STOP               .m        3002                          : Last reference value
STEP               .m        0.2                           : Step increment
NULL               .         -9999                         : Missing value
COMP               .                                       : Company
WELL               .         601                           : Well name
FLD                .                                       : Field
LOC                .                                       : Location
CNTY               .                                       : County
STAT               .                                       : State
CTRY               .                                       : Country
SRVC               .                                       : Service Company
DATE               .                                       : Date
API                .                                       : API number
EREF               .m        134                           : 
X                  .m        225746                        : 
Y                  .m        235643                        : 
group              .         Pad6                          : 
Интер-р            .         Ярышев                        : 
Куст               .         6                             : 
Статус             .         Не проверено                  : 
Тип                .         Разведка                      : 
~Parameter Information Block
#_______________________________________________________________________________
#
#PARAMETER_NAME    .UNIT     VALUE                         : DESCRIPTION
#_______________________________________________________________________________
SET                .         LAS1                          : 
REAL_CREATION_DATE .         Ср апр 11 2012-13_17_22       : 
TLFamily_DEPTH     .         Measured Depth                : 
TLFamily_KS        .         Potential Resistivity         : 
TLFamily_KS1       .         Extra Shallow Resistivity     : 
TLFamily_KS2       .         Shallow Resistivity           : 
TLFamily_KS3       .         Medium Resistivity            : 
TLFamily_KS4       .         Deep Resistivity              : 
TLFamily_KS5       .         Extra Deep Resistivity        : 
TLFamily_LLD       .         Lateral Log Resistivity       : 
TLFamily_OKS3      .         Medium Resistivity Inverted   : 
TLFamily_RM        .         Mud Resistivity               : 
TLFamily_SP        .         Spontaneous Potential         : 
group              .         INI                           : 
~Curve Information
#_______________________________________________________________________________
#
#LOGNAME           .UNIT     LOG_ID                        : DESCRIPTION
#_______________________________________________________________________________
DEPTH              .m                                      : Measured Depth 
KS                 .ohm.m                                  : Potential Resistivity 
KS1                .ohm.m                                  : Extra Shallow Resistivity 
KS2                .ohm.m                                  : Shallow Resistivity 
KS3                .ohm.m                                  : Medium Resistivity 
KS4                .ohm.m                                  : Deep Resistivity 
KS5                .ohm.m                                  : Extra Deep Resistivity 
LLD                .ohm.m                                  : Lateral Log Resistivity 
OKS3               .ohm.m                                  : Medium Resistivity Inverted 
RM                 .ohm.m                                  : Mud Resistivity 
SP                 .mV                                     : Spontaneous Potential 
~Ascii
# ...
2805.8     5.7728     2.2648     7.4507     11.1599    10.1615    6.022      4.5083     9.3891     0.412      70.1701   
2806       5.6379     2.211      7.2651     11.0515    10.0931    5.9161     4.2988     9.5422     0.41       70.4147   
2806.2     5.4963     2.211      7.2162     10.8091    9.898      5.8274     4.12       9.6954     0.41       70.8435   
2806.4     5.4255     2.1492     7.0729     10.4531    9.4887     5.7572     3.9813     9.8484     0.409      70.6565   
2806.6     5.4632     1.9763     6.514      9.9133     9.0015     5.6854     3.877      9.9844     0.405      69.7001   
2806.8     5.4725     1.926      6.1756     9.583      8.7852     5.5351     4.0339     10.2565    0.404      68.9484   
2807       5.4725     2.0178     6.397      9.4934     8.7791     5.4394     4.2663     10.8091    0.404      68.5348   
2807.2     5.4527     2.0158     6.2871     9.4507     8.6298     5.4336     4.0524     11.0804    0.404      68.6231   
2807.4     5.5168     1.9666     6.1373     9.1519     8.3972     5.3864     4.1776     11.1798    0.404      69.1845   
2807.6     5.617      1.9415     6.0888     8.9254     8.2385     5.2805     4.3206     11.1798    0.404      70.1171   
2807.8     5.763      1.9415     6.0039     8.7423     8.1134     5.2275     4.4696     11.1798    0.398      70.157    
2808       5.8867     1.9421     5.9569     8.6179     7.9971     5.1746     4.6708     11.1892    0.398      69.2375   
2808.2     5.9897     1.9954     6.0472     8.5849     7.9903     5.1746     4.8371     11.2331    0.398      69.017    
2808.4     6.023      2.0493     6.2037     8.6604     7.9903     5.1746     5.1224     11.1886    0.398      69.3938   
2808.6     6.0584     2.0493     6.4046     8.8046     8.0083     5.1746     5.0798     11.1265    0.398      69.3401   
2808.8     6.0683     2.0609     6.6051     8.9564     7.9903     5.1746     5.0402     11.1265    0.399      68.8048   
2809       6.1117     2.1032     6.7201     9.0363     7.9903     5.1746     5.0346     11.1265    0.405      69.0949   
2809.2     6.1117     2.1032     6.7543     9.1224     7.9903     5.1746     4.9096     11.1265    0.416      69.3546   
2809.4     6.1649     2.1032     6.7543     9.2424     7.9496     5.1216     4.771      11.1265    0.421      70.4322   
2809.6     6.2114     2.1032     6.7805     9.3486     7.9018     5.1216     4.7035     11.1265    0.423      71.1853   
2809.8     6.2803     2.1311     6.7805     9.499      7.8851     5.1412     4.8081     11.1265    0.427      70.2246   
2810       6.2927     2.1646     6.7543     9.6885     7.9123     5.1746     4.984      10.8292    0.427      68.8573   
2810.2     6.2875     2.1916     6.8408     9.9076     7.9717     5.1746     5.1042     10.3708    0.422      67.8628   
2810.4     6.2819     2.1918     6.9386     10.0298    8.0692     5.1746     5.1057     9.748      0.421      67.5362   
2810.6     6.3247     2.1977     7.0865     10.0797    8.1625     5.2275     5.1805     9.5808     0.427      68.1228   
2810.8     6.3247     2.1745     7.121      10.1481    8.2752     5.2275     5.1458     9.5808     0.422      69.1237   
2811       6.3247     2.211      7.121      10.2247    8.3387     5.2275     5.0558     9.5808     0.427      70.995    
2811.2     6.3247     2.211      7.121      10.3466    8.4239     5.2275     5.0709     9.5808     0.427      72.4236   
2811.4     6.3247     2.211      7.1415     10.4231    8.5424     5.2275     4.9689     9.5275     0.427      71.8226   
2811.6     6.3247     2.211      7.1256     10.3459    8.621      5.2275     4.8957     9.5275     0.427      70.5002   
2811.8     6.3247     2.211      7.0686     10.4633    8.7011     5.2275     4.8278     9.5275     0.427      70.2413   
2812       6.3247     2.211      7.0686     10.4942    8.84       5.2275     4.8278     9.5275     0.427      70.8163   
2812.2     6.3247     2.211      7.0686     10.4942    8.9556     5.2805     4.8887     9.5095     0.416      72.4092   
2812.4     6.216      2.2287     7.0686     10.4942    9.0426     5.3335     4.8485     9.4994     0.414      72.3234   
2812.6     6.0365     2.184      7.0686     10.5094    9.0951     5.3864     4.7657     9.4995     0.433      71.2695   
2812.8     5.6428     2.2258     7.0686     10.5309    9.1215     5.4529     4.6487     9.4742     0.433      72.0324   
2813       5.2253     2.2209     7.0686     10.535     9.1972     5.6042     4.5544     9.4742     0.428      72.622    
2813.2     5.153      2.0506     7.0373     10.536     9.4065     5.7006     4.631      9.4742     0.428      72.8658   
2813.4     5.153      1.9533     7.2556     10.5208    9.7424     5.8102     5.1482     9.4742     0.427      74.0694   
2813.6     5.153      1.9667     6.7299     10.5458    9.859      5.892      4.8368     9.4379     0.427      75.7117   
2813.8     5.153      1.9651     6.0786     10.5344    9.8581     5.9691     4.861      9.3441     0.427      76.5447   
2814       5.153      1.9433     6.0373     10.5475    9.8055     5.9161     5.1748     8.9613     0.427      76.2719   
2814.2     5.153      1.9415     6.0537     10.5118    9.7791     5.9143     4.9166     8.4927     0.427      75.8116   
2814.4     5.153      1.9415     6.0684     10.5362    9.7395     5.8102     4.3901     8.4363     0.427      74.5963   
2814.6     5.153      1.9415     6.0733     9.6109     9.5822     5.6667     4.1931     8.6557     0.427      73.3177   
2814.8     5.153      1.9415     6.021      8.6321     9.3839     5.5686     4.0546     9.0239     0.427      71.8399   
2815       5.153      1.9415     6.021      8.0604     9.2407     5.4705     3.9565     9.1011     0.427      71.2605   
2815.2     5.153      1.9415     5.9965     7.9913     9.1741     5.3335     3.8981     9.1011     0.427      72.8477   
2815.4     5.153      1.9415     5.9965     7.9913     9.1741     5.2275     3.7756     9.1011     0.427      74.7633   
2815.6     5.153      1.9415     5.9771     7.9913     9.1578     5.1224     3.6882     9.1011     0.427      75.5391   
2815.8     5.153      1.9705     5.9686     7.9913     9.1478     5.0269     3.7141     9.1375     0.427      75.8178   
2816       5.153      1.9954     5.9686     7.9913     9.162      4.9306     3.7779     9.2735     0.427      76.2552   
2816.2     5.153      1.9954     5.9686     8.0162     9.1883     4.8334     3.8612     9.359      0.424      75.7443   
2816.4     5.153      1.9954     5.9686     8.004      8.2951     4.7508     3.8401     9.4698     0.42       74.7275   
2816.6     5.2143     1.9817     5.9686     8.0197     7.1156     4.6978     3.8417     9.5928     0.41       75.2309   
2816.8     5.3219     1.9678     5.9686     7.9999     6.9955     4.6978     3.863      9.7432     0.41       75.2421   
2817       5.4426     1.9415     5.9318     8.0166     6.9513     4.6978     3.9331     9.8538     0.409      73.8154   
2817.2     5.5453     1.9827     5.9162     8.0417     6.9906     4.6449     4.0659     9.9452     0.404      73.232    
2817.4     5.6251     1.9954     5.9565     8.0187     6.9906     4.5636     4.1468     9.9752     0.404      73.6526   
2817.6     5.6323     2.0402     6.0396     8.0445     6.9906     4.523      4.1117     10.0306    0.404      74.2709   
2817.8     5.6323     2.0493     6.2068     8.0445     6.9906     4.433      4.2012     10.0605    0.404      74.983    
2818       5.6323     2.0493     6.3016     8.0445     7.0186     4.38       4.2553     10.0614    0.404      75.0254   
2818.2     5.6323     2.0493     6.4312     8.0445     7.0433     4.38       4.2729     10.1138    0.404      73.2905   
2818.4     5.6323     2.0493     6.4401     8.0974     7.0433     4.38       4.4795     10.106     0.404      72.8514   
2818.6     5.6702     2.043      6.4401     8.3037     7.0433     4.38       4.5685     9.9964     0.409      74.2791   
2818.8     5.6984     2.004      6.4401     8.5467     7.0433     4.3271     4.4563     9.7505     0.404      75.17     
2819       5.6976     2.0493     6.4401     8.8067     7.0433     4.3271     4.3732     9.5833     0.409      74.3168   
