~Version
 VERS              .         2.0                           : CWLS LOG ASCII STANDARD - VERSION 2.0
 WRAP              .         NO                            : ONE LINE PER DEPTH STEP
 DLM               .         SPACE                         : DELIMITING CHARACTER(SPACE TAB OR COMMA)
~Well Information
#_______________________________________________________________________________
#
#PARAMETER_NAME    .UNIT     VALUE                         : DESCRIPTION
#_______________________________________________________________________________
STRT               .m        2779                          : First reference value
STOP               .m        3002                          : Last reference value
STEP               .m        0.2                           : Step increment
NULL               .         -9999                         : Missing value
COMP               .                                       : Company
WELL               .         601                           : Well name
FLD                .                                       : Field
LOC                .                                       : Location
CNTY               .                                       : County
STAT               .                                       : State
CTRY               .                                       : Country
SRVC               .                                       : Service Company
DATE               .                                       : Date
API                .                                       : API number
EREF               .m        134                           : 
X                  .m        225746                        : 
Y                  .m        235643                        : 
group              .         Pad6                          : 
Интер-р            .         Ярышев                        : 
Куст               .         6                             : 
Статус             .         Не проверено                  : 
Тип                .         Разведка                      : 
~Parameter Information Block
#_______________________________________________________________________________
#
#PARAMETER_NAME    .UNIT     VALUE                         : DESCRIPTION
#_______________________________________________________________________________
SET                .         LAS1                          : 
REAL_CREATION_DATE .         Ср апр 11 2012-13_17_22       : 
TLFamily_DEPTH     .         Measured Depth                : 
TLFamily_KS        .         Potential Resistivity         : 
TLFamily_KS1       .         Extra Shallow Resistivity     : 
TLFamily_KS2       .         Shallow Resistivity           : 
TLFamily_KS3       .         Medium Resistivity            : 
TLFamily_KS4       .         Deep Resistivity              : 
TLFamily_KS5       .         Extra Deep Resistivity        : 
TLFamily_LLD       .         Lateral Log Resistivity       : 
TLFamily_OKS3      .         Medium Resistivity Inverted   : 
TLFamily_RM        .         Mud Resistivity               : 
TLFamily_SP        .         Spontaneous Potential         : 
group              .         INI                           : 
~Curve Information
#_______________________________________________________________________________
#
#LOGNAME           .UNIT     LOG_ID                        : DESCRIPTION
#_______________________________________________________________________________
DEPTH              .m                                      : Measured Depth 
KS                 .ohm.m                                  : Potential Resistivity 
KS1                .ohm.m                                  : Extra Shallow Resistivity 
KS2                .ohm.m                                  : Shallow Resistivity 
KS3                .ohm.m                                  : Medium Resistivity 
KS4                .ohm.m                                  : Deep Resistivity 
KS5                .ohm.m                                  : Extra Deep Resistivity 
LLD                .ohm.m                                  : Lateral Log Resistivity 
OKS3               .ohm.m                                  : Medium Resistivity Inverted 
RM                 .ohm.m                                  : Mud Resistivity 
SP                 .mV                                     : Spontaneous Potential 
~Ascii
# ...
2832.6     5.7853     2.1032     6.4924     9.3495     7.4642     4.486      4.3878     9.882      0.421      73.8964   
2832.8     5.7921     2.1032     6.5304     9.3226     7.4388     4.4527     4.4171     9.7212     0.421      72.8413   
2833       5.7921     2.1032     6.5448     9.2931     7.4642     4.433      4.4171     9.608      0.427      72.6793   
2833.2     5.7921     2.1032     6.5614     9.2746     7.5018     4.433      4.1621     9.4421     0.427      74.5805   
2833.4     5.7921     2.1032     6.5972     9.3226     7.5309     4.433      4.0886     9.28       0.427      75.6794   
2833.6     5.7591     2.1301     6.6649     9.3571     7.6271     4.433      4.0897     9.1685     0.427      76.3847   
2833.8     5.7388     2.1571     6.7249     9.4232     7.7538     4.433      4.1923     9.0558     0.429      77.5589   
2834       5.7025     2.1571     6.779      9.4824     7.8776     4.486      4.3231     8.9562     0.436      79.136    
2834.2     5.6736     2.1571     6.7287     9.5226     7.9538     4.486      4.365      8.9823     0.439      79.9915   
2834.4     5.6323     2.1571     6.6771     9.5188     7.9903     4.486      4.8029     9.1161     0.439      79.5172   
2834.6     5.6323     2.104      6.639      9.5914     8.0675     4.5389     5.1517     9.2975     0.439      79.8231   
2834.8     5.6077     2.1305     6.698      9.711      8.1246     4.5389     4.6155     9.3143     0.449      79.9219   
2835       5.5791     2.211      6.8854     9.821      8.1972     4.5103     4.0841     9.3143     0.444      78.9131   
2835.2     5.4999     2.211      6.7692     9.7794     8.1429     4.486      3.9931     9.4393     0.439      78.2237   
2835.4     5.4207     2.1867     6.7792     9.669      8.0886     4.4548     3.8567     9.6839     0.438      79.3561   
2835.6     5.366      2.131      6.6686     9.5029     7.9915     4.3982     3.8373     9.9344     0.433      80.5583   
2835.8     5.3324     2.1032     6.5972     9.3417     7.8743     4.3416     3.94       10.1335    0.427      80.8323   
2836       5.3128     2.1032     6.5736     9.2236     7.7436     4.2796     3.6403     10.333     0.427      79.7469   
2836.2     5.3128     2.0719     6.3929     8.975      7.5665     4.1695     3.65       10.6294    0.421      78.5379   
2836.4     5.3267     2.0407     6.1756     8.647      7.3473     4.1126     3.8344     11.014     0.415      78.4395   
2836.6     5.4006     1.9582     5.9895     8.3564     7.1267     4.0093     4.0341     11.4411    0.41       78.6489   
2836.8     5.5369     1.9415     5.8858     8.1909     6.9753     3.9563     4.2642     11.8459    0.409      78.2737   
2837       5.6469     1.9415     5.8723     8.1289     6.915      3.9563     4.533      12.3313    0.403      78.0477   
2837.2     5.7563     1.96       5.9638     8.1475     6.8854     3.9228     4.7867     12.8952    0.398      77.6732   
2837.4     5.8669     2.0415     6.1274     8.2283     6.9373     3.9563     4.8494     13.4545    0.403      77.914    
2837.6     5.9269     2.0972     6.3136     8.3119     6.9633     3.9563     4.7323     14.0347    0.404      77.4714   
2837.8     5.9824     2.127      6.4401     8.3641     6.9338     3.9563     4.6144     14.712     0.405      75.1445   
2838       6.0371     2.1313     6.4924     8.395      6.8537     3.9563     4.5472     15.4395    0.41       71.9241   
2838.2     6.0634     2.1032     6.539      8.4173     6.7885     3.9942     4.4989     16.1093    0.412      69.3138   
2838.4     6.1566     2.0989     6.4963     8.4173     6.6899     4.0093     4.5386     16.7312    0.415      66.4855   
2838.6     6.2688     2.0493     6.4421     8.4317     6.675      4.1079     4.7441     17.2643    0.416      61.9239   
2838.8     6.435      2.0493     6.4372     8.4706     6.6547     4.1152     4.589      17.7685    0.418      57.214    
2839       6.7157     1.9991     6.2649     8.4341     6.6479     4.223      4.5494     18.3793    0.415      52.5678   
2839.2     7.0475     1.9013     5.9712     8.2989     6.5732     4.3328     5.1228     18.8878    0.411      47.9932   
2839.4     7.4912     1.8455     5.8142     8.3014     6.5952     4.4504     5.9441     19.307     0.406      44.3324   
2839.6     8.0102     1.8338     5.8506     8.5827     6.8641     4.6692     7.8673     19.441     0.415      41.9579   
2839.8     8.4876     1.9459     6.2061     9.0411     7.2785     4.9409     10.0419    19.3082    0.421      38.874    
2840       8.9793     2.0394     6.6743     9.8681     7.8742     5.2135     13.6143    18.9288    0.422      33.9607   
2840.2     9.2624     2.3534     7.6876     11.007     8.7661     5.4632     19.1886    18.2679    0.433      28.6267   
2840.4     9.3033     2.665      8.7702     12.209     9.5599     5.6253     16.4943    17.4898    0.433      24.5861   
2840.6     9.0482     3.0144     10.1934    13.7758    10.393     5.6513     9.1032     16.8253    0.439      22.0611   
2840.8     8.7319     2.9178     10.3351    14.1658    10.5157    5.5595     6.522      17.5047    0.435      19.8492   
2841       8.4666     2.7495     10.2062    14.3565    10.56      5.4068     6.2791     18.8711    0.431      17.4609   
2841.2     8.2774     2.6172     10.0194    14.5613    10.6092    5.2407     6.3325     19.9767    0.437      16.2015   
2841.4     8.1436     2.5656     9.7448     14.8093    10.6511    5.0718     7.0076     21.0995    0.424      17.005    
2841.6     8.0633     2.5364     9.3327     14.933     10.5724    4.9092     5.3885     22.6372    0.427      18.4954   
2841.8     8.0578     2.392      8.4751     14.536     10.2046    4.8038     5.0088     24.9682    0.421      18.9388   
2842       8.1502     2.1712     7.5841     13.8251    9.8454     4.7508     4.7053     28.3816    0.421      18.8171   
2842.2     8.4307     2.0195     7.0202     12.9867    9.5853     4.7645     5.2057     32.2565    0.421      18.3682   
2842.4     8.8986     1.8813     6.5448     12.3625    9.5161     4.8964     6.016      35.2603    0.418      18.3673   
2842.6     9.5487     1.8089     6.2197     11.7259    9.5738     5.1787     6.7053     38.1594    0.406      18.4567   
2842.8     10.3806    1.7255     5.8604     11.2229    9.9045     5.4956     6.4617     41.3567    0.399      18.2356   
2843       11.2758    1.6364     5.6767     11.2028    10.6152    5.8265     11.9631    42.3806    0.398      18.7279   
2843.2     12.3389    1.8084     6.3347     11.8685    11.7093    6.207      27.1758    39.7075    0.398      19.4796   
2843.4     13.3188    2.0617     7.2137     12.8727    13.067     6.5888     36.2585    34.6021    0.398      20.6319   
2843.6     14.0308    2.3201     8.0994     13.9159    14.5749    6.9702     35.0078    29.0351    0.394      21.7575   
2843.8     14.5139    2.5485     9.2361     15.0043    16.1722    7.406      28.2724    25.1058    0.398      21.4918   
2844       14.9159    2.7131     10.3137    15.8245    17.4918    7.8029     15.6278    23.8112    0.398      20.0854   
2844.2     15.3023    2.5318     10.0672    16.4195    18.5333    8.3018     11.9591    22.5382    0.403      18.0277   
2844.4     15.6012    2.572      10.7811    17.54      19.8069    8.8083     35.6484    20.9459    0.404      16.0463   
2844.6     15.9081    2.8052     11.9391    19.93      21.8246    9.392      118.7848   18.6748    0.41       14.6015   
2844.8     15.8964    3.1611     13.4485    23.3353    24.1754    10.118     293.852    16.3137    0.421      13.796    
2845       15.4926    3.5606     15.2135    27.6363    26.9346    10.8945    535.9386   14.4011    0.429      12.3521   
2845.2     14.7271    3.9617     17.0774    32.9332    29.9756    11.7844    291.271    12.5645    0.433      11.4049   
2845.4     13.5446    4.3384     19.093     38.7931    33.2571    12.3759    89.8726    10.8624    0.439      11.9952   
2845.6     12.1028    4.7539     21.2855    42.9343    35.4852    12.4405    14.8634    9.8223     0.443      13.0912   
2845.8     10.7792    4.6766     21.0715    43.1734    35.0777    12.1846    5.7997     9.5944     0.44       15.0924   
