~Version
 VERS              .         2.0                           : CWLS LOG ASCII STANDARD - VERSION 2.0
 WRAP              .         NO                            : ONE LINE PER DEPTH STEP
 DLM               .         SPACE                         : DELIMITING CHARACTER(SPACE TAB OR COMMA)
~Well Information
#_______________________________________________________________________________
#
#PARAMETER_NAME    .UNIT     VALUE                         : DESCRIPTION
#_______________________________________________________________________________
STRT               .m        2779                          : First reference value
STOP               .m        3002                          : Last reference value
STEP               .m        0.2                           : Step increment
NULL               .         -9999                         : Missing value
COMP               .                                       : Company
WELL               .         601                           : Well name
FLD                .                                       : Field
LOC                .                                       : Location
CNTY               .                                       : County
STAT               .                                       : State
CTRY               .                                       : Country
SRVC               .                                       : Service Company
DATE               .                                       : Date
API                .                                       : API number
EREF               .m        134                           : 
X                  .m        225746                        : 
Y                  .m        235643                        : 
group              .         Pad6                          : 
Интер-р            .         Ярышев                        : 
Куст               .         6                             : 
Статус             .         Не проверено                  : 
Тип                .         Разведка                      : 
~Parameter Information Block
#_______________________________________________________________________________
#
#PARAMETER_NAME    .UNIT     VALUE                         : DESCRIPTION
#_______________________________________________________________________________
SET                .         LAS1                          : 
REAL_CREATION_DATE .         Ср апр 11 2012-13_17_22       : 
TLFamily_DEPTH     .         Measured Depth                : 
TLFamily_KS        .         Potential Resistivity         : 
TLFamily_KS1       .         Extra Shallow Resistivity     : 
TLFamily_KS2       .         Shallow Resistivity           : 
TLFamily_KS3       .         Medium Resistivity            : 
TLFamily_KS4       .         Deep Resistivity              : 
TLFamily_KS5       .         Extra Deep Resistivity        : 
TLFamily_LLD       .         Lateral Log Resistivity       : 
TLFamily_OKS3      .         Medium Resistivity Inverted   : 
TLFamily_RM        .         Mud Resistivity               : 
TLFamily_SP        .         Spontaneous Potential         : 
group              .         INI                           : 
~Curve Information
#_______________________________________________________________________________
#
#LOGNAME           .UNIT     LOG_ID                        : DESCRIPTION
#_______________________________________________________________________________
DEPTH              .m                                      : Measured Depth 
KS                 .ohm.m                                  : Potential Resistivity 
KS1                .ohm.m                                  : Extra Shallow Resistivity 
KS2                .ohm.m                                  : Shallow Resistivity 
KS3                .ohm.m                                  : Medium Resistivity 
KS4                .ohm.m                                  : Deep Resistivity 
KS5                .ohm.m                                  : Extra Deep Resistivity 
LLD                .ohm.m                                  : Lateral Log Resistivity 
OKS3               .ohm.m                                  : Medium Resistivity Inverted 
RM                 .ohm.m                                  : Mud Resistivity 
SP                 .mV                                     : Spontaneous Potential 
~Ascii
# ...
2953.2     8.1349     2.3331     7.2443     7.1414     7.3104     6.245      9.7653     19.708     0.408      65.2069   
2953.4     8.1017     2.5342     8.2006     8.2961     7.8629     6.6766     9.0722     19.7933    0.399      67.4166   
2953.6     8.1284     2.6459     8.7793     9.348      8.0677     6.932      5.4494     20.9173    0.419      69.525    
2953.8     8.2429     2.2908     7.9699     9.9259     7.6988     7.1575     5.2075     21.4714    0.421      71.2024   
2954       8.5211     2.1331     7.6449     10.0017    6.9874     7.2933     6.2585     21.2744    0.401      72.8655   
2954.2     8.8029     2.0493     7.4307     10.3286    6.6581     7.1877     6.9027     20.7855    0.39       75.603    
2954.4     9.0286     2.1303     7.5342     10.8834    6.6498     7.2989     9.0257     20.4122    0.411      77.9877   
2954.6     9.2555     2.2581     7.7496     11.5941    6.7947     7.5054     8.6467     19.9313    0.42       79.9433   
2954.8     9.3953     2.3407     7.9129     12.1865    7.0277     7.9208     8.0251     19.7812    0.406      81.9582   
2955       9.5023     2.3454     8.0819     12.7489    7.3581     8.4031     7.8702     20.1256    0.4        82.3172   
2955.2     9.5701     2.3249     8.2713     13.2391    7.9029     9.0629     8.2016     20.9059    0.422      82.1184   
2955.4     9.6268     2.3824     8.6239     13.9741    8.7395     10.0879    8.6879     21.7685    0.419      82.4406   
2955.6     9.6906     2.4649     9.0839     14.7229    9.9586     11.3715    8.9173     22.3193    0.4        82.1635   
2955.8     9.8391     2.4115     8.9839     15.4486    11.8971    13.0281    7.9294     23.3367    0.416      81.7882   
2956       9.9751     2.3953     9.0257     16.5986    14.2631    15.7753    8.0791     25.0483    0.412      82.1598   
2956.2     10.1177    2.3753     9.1952     18.0347    16.5023    17.2145    8.6139     25.978     0.398      82.6624   
2956.4     10.1662    2.4885     9.9213     19.618     18.7696    17.7917    14.6812    25.2097    0.423      82.5406   
2956.6     10.2505    2.7633     10.8903    20.7027    19.9625    17.4631    21.075     22.6094    0.414      82.2567   
2956.8     10.266     2.8141     10.6523    20.4766    20.0747    16.3447    10.971     19.4882    0.399      83.0781   
2957       10.2222    2.6608     10.3107    19.5052    19.4034    14.7766    8.866      17.049     0.42       83.5084   
2957.2     10.1662    2.5296     10.0527    18.7827    18.7635    13.1516    8.655      15.6993    0.421      82.7717   
2957.4     10.1313    2.5005     9.8693     18.1717    18.3635    11.9991    8.4302     15.2092    0.403      81.4768   
2957.6     10.0209    2.4854     9.7953     17.987     18.3035    11.2146    8.4549     15.3788    0.411      80.319    
2957.8     9.9012     2.534      9.8945     18.3098    18.7318    10.8391    8.7272     15.7188    0.427      78.8419   
2958       9.6935     2.5928     10.1489    19.0927    19.8169    10.7716    9.1447     16.2194    0.416      78.1262   
2958.2     9.4681     2.6834     10.5927    20.2548    21.1109    11.0215    9.4344     16.8168    0.398      79.2489   
2958.4     9.2081     2.8117     11.1758    22.0185    22.7505    11.4084    10.3678    17.7932    0.42       79.8548   
2958.6     8.8213     2.8722     11.6269    24.2321    24.6207    11.7354    9.9784     18.598     0.427      79.6765   
2958.8     8.2999     3.0696     12.3654    26.5143    26.5763    11.3181    12.9729    19.0518    0.41       79.6683   
2959       7.7806     3.3332     13.3626    27.1693    26.7992    10.5187    12.7538    18.6598    0.408      78.7097   
2959.2     7.4271     3.0431     12.0056    25.1072    24.8164    9.3059     6.3074     17.8497    0.423      76.1532   
2959.4     7.2382     2.554      10.0429    21.0227    21.1499    7.9466     4.4483     17.4757    0.418      73.3075   
2959.6     7.1769     2.2087     8.6208     17.7308    18.2817    6.6306     4.153      18.4573    0.397      72.5986   
2959.8     7.1961     2.0244     7.9246     16.1755    17.0802    5.8022     4.4099     19.6734    0.403      74.887    
2960       7.3689     2.1483     8.1655     15.5947    16.7584    5.2805     6.72       20.0147    0.42       77.4961   
2960.2     7.6716     2.1913     7.8094     14.8413    16.1182    4.9476     7.4994     19.389     0.409      78.1174   
2960.4     7.9282     2.134      7.059      13.6481    15.0634    4.5919     6.3108     18.7719    0.391      78.5528   
2960.6     8.2449     2.0768     6.8275     12.6203    14.131     4.1802     6.4114     18.7734    0.417      79.9475   
2960.8     8.5858     2.0213     6.5609     11.9119    13.3863    3.9287     6.2058     19.0488    0.416      81.3597   
2961       8.9271     2.002      6.7004     11.5683    12.9304    3.8504     7.4126     19.0693    0.396      83.1901   
2961.2     9.2842     2.095      7.0342     11.6455    12.8637    3.8504     9.5093     19.033     0.415      85.7736   
2961.4     9.6181     2.2099     7.4242     11.9118    12.8785    3.9579     10.3248    18.928     0.427      88.5466   
2961.6     9.8797     2.325      7.8154     12.2405    13.0151    4.0704     10.9472    18.8593    0.404      91.1804   
2961.8     10.078     2.4191     8.2758     12.712     13.2371    4.1839     11.0585    18.7612    0.401      92.5549   
2962       10.2146    2.4519     8.6893     13.4625    13.4377    4.2977     10.9512    18.7486    0.423      94.4149   
2962.2     10.3004    2.509      9.0419     14.2893    13.7069    4.4933     11.2155    18.6737    0.425      96.5082   
2962.4     10.3192    2.5882     9.394      15.0289    14.0943    4.5754     11.2514    18.5887    0.404      96.7151   
2962.6     10.3058    2.5882     9.6507     15.5667    14.5075    4.6449     11.0146    18.6549    0.409      97.4249   
2962.8     10.2478    2.6247     9.7401     15.9267    14.7325    4.7477     10.3439    18.8246    0.424      98.0786   
2963       10.2127    2.6018     9.697      16.0757    14.8021    4.7508     9.5517     18.9712    0.416      96.7828   
2963.2     10.2127    2.5252     9.3702     15.9555    14.6942    4.8038     8.7536     19.258     0.394      94.3589   
2963.4     10.2127    2.4328     9.0405     15.7825    14.4899    4.8759     8.4419     19.7338    0.418      92.4528   
2963.6     10.27      2.4005     8.9229     15.7345    14.3688    4.9885     9.29       20.3314    0.423      90.2643   
2963.8     10.3192    2.4009     8.7972     15.7663    14.5375    5.2209     9.5397     21.1627    0.401      88.2422   
2964       10.3582    2.4265     8.8435     15.8179    14.8994    5.5618     9.9101     22.1507    0.408      87.7699   
2964.2     10.431     2.3907     8.6746     15.6975    15.3245    6.0491     9.5351     23.2587    0.426      86.7555   
2964.4     10.5234    2.3334     8.4489     15.4389    15.7156    6.6664     8.8919     24.6814    0.416      84.5301   
2964.6     10.6617    2.3        8.2559     15.2509    16.2779    7.6425     8.6868     26.4902    0.394      82.6317   
2964.8     10.809     2.2168     8.2034     15.2489    17.0761    9.0464     8.9467     28.36      0.418      81.7303   
2965       11.0349    2.2114     8.221      15.3493    18.0643    10.8317    9.7506     30.6747    0.423      81.8461   
2965.2     11.2605    2.2648     8.1971     15.6227    19.3948    13.2103    9.7448     33.5829    0.402      80.9147   
2965.4     11.5401    2.2325     8.2918     16.0204    21.3399    16.144     9.4009     35.7584    0.419      81.0038   
2965.6     12.0018    2.1642     8.0925     16.4991    23.692     19.6724    9.624      37.7501    0.426      82.016    
2965.8     12.5942    2.0884     7.9307     16.9274    26.1953    23.6892    10.0458    39.3824    0.404      82.0576   
2966       13.3277    2.0493     7.945      17.6158    29.131     27.6571    11.1707    40.7764    0.412      82.0365   
2966.2     14.1527    1.9997     8.0854     18.5459    31.8493    31.3604    14.0041    40.4868    0.424      83.2962   
2966.4     14.9781    2.1589     8.7346     19.7262    33.9665    34.9239    31.0222    37.7927    0.408      83.6121   
