~Version
 VERS              .         2.0                           : CWLS LOG ASCII STANDARD - VERSION 2.0
 WRAP              .         NO                            : ONE LINE PER DEPTH STEP
 DLM               .         SPACE                         : DELIMITING CHARACTER(SPACE TAB OR COMMA)
~Well Information
#_______________________________________________________________________________
#
#PARAMETER_NAME    .UNIT     VALUE                         : DESCRIPTION
#_______________________________________________________________________________
STRT               .m        2779                          : First reference value
STOP               .m        3002                          : Last reference value
STEP               .m        0.2                           : Step increment
NULL               .         -9999                         : Missing value
COMP               .                                       : Company
WELL               .         601                           : Well name
FLD                .                                       : Field
LOC                .                                       : Location
CNTY               .                                       : County
STAT               .                                       : State
CTRY               .                                       : Country
SRVC               .                                       : Service Company
DATE               .                                       : Date
API                .                                       : API number
EREF               .m        134                           : 
X                  .m        225746                        : 
Y                  .m        235643                        : 
group              .         Pad6                          : 
Интер-р            .         Ярышев                        : 
Куст               .         6                             : 
Статус             .         Не проверено                  : 
Тип                .         Разведка                      : 
~Parameter Information Block
#_______________________________________________________________________________
#
#PARAMETER_NAME    .UNIT     VALUE                         : DESCRIPTION
#_______________________________________________________________________________
SET                .         LAS1                          : 
REAL_CREATION_DATE .         Ср апр 11 2012-13_17_22       : 
TLFamily_DEPTH     .         Measured Depth                : 
TLFamily_KS        .         Potential Resistivity         : 
TLFamily_KS1       .         Extra Shallow Resistivity     : 
TLFamily_KS2       .         Shallow Resistivity           : 
TLFamily_KS3       .         Medium Resistivity            : 
TLFamily_KS4       .         Deep Resistivity              : 
TLFamily_KS5       .         Extra Deep Resistivity        : 
TLFamily_LLD       .         Lateral Log Resistivity       : 
TLFamily_OKS3      .         Medium Resistivity Inverted   : 
TLFamily_RM        .         Mud Resistivity               : 
TLFamily_SP        .         Spontaneous Potential         : 
group              .         INI                           : 
~Curve Information
#_______________________________________________________________________________
#
#LOGNAME           .UNIT     LOG_ID                        : DESCRIPTION
#_______________________________________________________________________________
DEPTH              .m                                      : Measured Depth 
KS                 .ohm.m                                  : Potential Resistivity 
KS1                .ohm.m                                  : Extra Shallow Resistivity 
KS2                .ohm.m                                  : Shallow Resistivity 
KS3                .ohm.m                                  : Medium Resistivity 
KS4                .ohm.m                                  : Deep Resistivity 
KS5                .ohm.m                                  : Extra Deep Resistivity 
LLD                .ohm.m                                  : Lateral Log Resistivity 
OKS3               .ohm.m                                  : Medium Resistivity Inverted 
RM                 .ohm.m                                  : Mud Resistivity 
SP                 .mV                                     : Spontaneous Potential 
~Ascii
2779.0     2.86       0.3915     -0.1076    -0.05      -0.2174    -0.3341    499.349    19.8175    0.36       -9999     
2779.2     4.2243     0.9277     -0.1076    -0.05      -0.2174    -0.387     434.4014   18.0112    0.363      -9999     
2779.4     5.3218     1.3623     -0.0233    -0.05      -0.2174    -0.387     470.5283   16.7391    0.372      -9999     
2779.6     5.819      1.8263     1.2846     -0.05      -0.2428    -0.387     469.5014   15.8679    0.375      -9999     
2779.8     6.0051     2.0995     3.3032     -0.05      -0.2514    -0.387     462.8508   15.0344    0.375      -9999     
2780       6.054      2.1898     4.9941     -0.05      -0.27      -0.4225    459.2647   14.2009    0.375      -9999     
2780.2     6.0371     2.211      6.2377     -0.05      -0.2578    -0.44      499.6448   13.4797    0.381      -9999     
2780.4     6.1068     2.211      6.7178     -0.05      -0.27      -0.44      561.9105   12.9532    0.386      -9999     
2780.6     6.1489     2.211      6.8591     0.067      -0.27      -0.44      553.744    12.6507    0.386      -9999     
2780.8     6.1649     2.1571     6.8949     2.0509     -0.27      -0.44      209.7247   12.4899    0.393      -9999     
2781       6.2182     2.1571     6.8864     4.669      -0.27      -0.44      -90.035    12.4324    0.404      -9999     
2781.2     6.2501     2.1571     6.9639     6.8608     -0.2533    -0.44      -78.0435   12.3751    0.404      65.0392   
2781.4     6.2714     2.1571     6.9901     8.5627     -0.27      -0.44      -103.948   12.2725    0.404      65.6617   
2781.6     6.3156     2.1865     7.0163     9.4071     -0.27      -0.44      -40.5544   12.107     0.41       66.0911   
2781.8     6.3247     2.211      7.0686     9.7753     -0.27      -0.44      1.6186     11.8727    0.41       66.2066   
2782       6.378      2.211      7.0162     9.8285     -0.27      -0.44      4.2442     11.6538    0.409      65.9318   
2782.2     6.378      2.1664     7.0358     9.9167     -0.27      -0.44      4.5586     11.5722    0.41       63.5265   
2782.4     6.346      2.211      7.1884     10.0961    -0.27      -0.44      4.6294     11.6062    0.41       61.3911   
2782.6     6.3247     2.211      7.2258     10.2279    -0.1517    -0.44      4.7438     11.5529    0.41       61.8809   
2782.8     6.3567     2.183      7.1643     10.2279    1.379      -0.44      4.7193     11.5529    0.411      61.9046   
2783       6.378      2.1571     7.0925     10.2812    3.3971     -0.44      4.6967     11.5513    0.411      61.3572   
2783.2     6.4312     2.1571     7.0686     10.3611    5.2211     -0.44      4.8904     11.4581    0.412      61.7659   
2783.4     6.4312     2.1603     7.0959     10.463     6.7877     -0.44      5.0745     11.277     0.414      62.224    
2783.6     6.4312     2.211      7.1609     10.5627    7.6792     -0.44      5.192      11.1061    0.412      61.8646   
2783.8     6.4312     2.211      7.2253     10.6763    8.1276     -0.44      5.1641     11.0199    0.415      61.0138   
2784       6.3993     2.211      7.2258     10.7496    8.2479     -0.44      5.1072     10.94      0.415      61.0308   
2784.2     6.378      2.211      7.274      10.7605    8.3164     -0.44      5.0846     10.9133    0.415      60.9012   
2784.4     6.3745     2.211      7.2782     10.7605    8.55       -0.44      5.0107     10.9133    0.415      61.1086   
2784.6     6.3247     2.211      7.2374     10.7605    8.7334     -0.44      4.9637     10.9133    0.415      62.2465   
2784.8     6.3247     2.1955     7.2258     10.7536    8.8518     -0.44      4.9778     10.9413    0.415      62.5692   
2785       6.2773     2.184      7.2092     10.76      8.9617     -0.44      4.9762     10.9666    0.415      62.0814   
2785.2     6.2442     2.184      7.1734     10.798     9.1215     -0.44      4.9404     11.0117    0.415      61.9905   
2785.4     6.2395     2.211      7.2217     10.8404    9.2509     -0.44      4.9318     11.0082    0.415      61.6199   
2785.6     6.2182     2.211      7.1734     10.867     9.3733     -0.44      5.016      10.8987    0.415      61.2448   
2785.8     6.2182     2.1641     7.1621     10.8404    9.4109     -0.44      5.0543     10.86      0.415      61.9425   
2786       6.2182     2.184      7.0914     10.772     9.4635     -0.44      5.027      10.86      0.415      61.5738   
2786.2     6.1649     2.1571     7.0686     10.6806    9.4635     -0.44      4.8629     10.86      0.415      60.7512   
2786.4     6.1649     2.1509     7.0686     10.5614    9.3768     -0.44      4.7623     10.9133    0.415      60.8632   
2786.6     6.2182     2.1032     6.9492     10.4299    9.285      -0.44      4.7766     10.9335    0.41       61.1927   
2786.8     6.2182     2.1032     6.8865     10.3536    9.253      -0.44      4.8095     10.8977    0.41       61.3852   
2787       6.2182     2.1301     6.9639     10.4143    9.3235     0.0547     5.0142     10.8721    0.41       61.8532   
2787.2     6.2182     2.1571     7.0149     10.471     9.3845     1.0555     5.055      10.9482    0.41       61.6745   
2787.4     6.2182     2.1571     7.0686     10.4942    9.4593     2.0441     4.954      11.0978    0.41       61.4988   
2787.6     6.1656     2.1658     7.0817     10.5155    9.4635     3.0409     4.8489     11.1807    0.41       62.0705   
2787.8     6.1649     2.158      7.0686     10.5059    9.4462     3.6604     4.8712     11.257     0.41       61.9159   
2788       6.2182     2.1762     7.0411     10.4664    9.3845     4.0207     4.9201     11.3051    0.41       61.8148   
2788.2     6.2222     2.1571     6.9639     10.3611    9.3416     4.1152     4.8936     11.4381    0.408      61.9275   
2788.4     6.246      2.1571     6.9639     10.3164    9.2793     4.1847     4.9286     11.5263    0.409      60.7891   
2788.6     6.2714     2.1571     6.9115     10.2782    9.2379     4.368      5.0015     11.6046    0.409      60.0635   
2788.8     6.2714     2.1571     6.9899     10.2764    9.2008     4.5521     5.0242     11.6595    0.41       60.5639   
2789       6.2714     2.1643     7.1126     10.3344    9.2644     4.6978     5.0973     11.7717    0.41       61.3181   
2789.2     6.2714     2.211      7.1472     10.3877    9.253      4.8567     5.114      11.9235    0.41       61.1634   
2789.4     6.3034     2.2066     7.1144     10.3429    9.216      4.9437     4.9599     12.0465    0.41       60.5724   
2789.6     6.3247     2.1729     7.0494     10.2821    9.2004     5.0157     4.9505     12.1126    0.405      60.8878   
2789.8     6.378      2.1726     7.0292     10.2469    9.1594     5.0686     5.0681     12.1443    0.404      61.1737   
2790       6.4137     2.1571     7.0382     10.2279    9.1203     5.1216     5.1317     12.1925    0.404      60.5849   
2790.2     6.4312     2.1571     6.9645     10.2279    9.0426     5.1746     5.027      12.2187    0.404      60.556    
2790.4     6.4822     2.1571     7.0163     10.2546    9.0426     5.2275     5.103      12.2458    0.398      60.1783   
2790.6     6.5164     2.1652     7.1224     10.3271    9.0793     5.2275     5.2267     12.2669    0.404      60.0778   
2790.8     6.5816     2.211      7.1734     10.3886    9.0952     5.2805     5.4202     12.2074    0.404      60.3056   
2791       6.6685     2.211      7.1463     10.441     9.0426     5.2805     5.5205     12.0841    0.41       59.4791   
2791.2     6.6975     2.1571     7.1132     10.395     8.9899     5.2805     5.4328     11.9598    0.41       59.3035   
2791.4     6.6975     2.2269     7.1133     10.4572    8.9899     5.2805     5.4444     11.8073    0.41       59.2086   
2791.6     6.6975     2.2646     7.3467     10.6716    9.0598     5.3335     5.6824     11.6727    0.415      58.4697   
2791.8     6.6656     2.2159     7.4757     10.8684    9.1863     5.3864     5.8835     11.5859    0.415      58.6299   
2792       6.6141     2.2558     7.5615     10.983     9.3696     5.4343     5.3115     11.7933    0.415      58.9766   
2792.2     6.591      2.2648     7.556      11.1731    9.5161     5.461      5.1911     12.0032    0.427      58.4535   
