~Version
 VERS              .         2.0                           : CWLS LOG ASCII STANDARD - VERSION 2.0
 WRAP              .         NO                            : ONE LINE PER DEPTH STEP
 DLM               .         SPACE                         : DELIMITING CHARACTER(SPACE TAB OR COMMA)
~Well Information
#_______________________________________________________________________________
#
#PARAMETER_NAME    .UNIT     VALUE                         : DESCRIPTION
#_______________________________________________________________________________
STRT               .m        2779                          : First reference value
STOP               .m        3002                          : Last reference value
STEP               .m        0.2                           : Step increment
NULL               .         -9999                         : Missing value
COMP               .                                       : Company
WELL               .         601                           : Well name
FLD                .                                       : Field
LOC                .                                       : Location
CNTY               .                                       : County
STAT               .                                       : State
CTRY               .                                       : Country
SRVC               .                                       : Service Company
DATE               .                                       : Date
API                .                                       : API number
EREF               .m        134                           : 
X                  .m        225746                        : 
Y                  .m        235643                        : 
group              .         Pad6                          : 
Интер-р            .         Ярышев                        : 
Куст               .         6                             : 
Статус             .         Не проверено                  : 
Тип                .         Разведка                      : 
~Parameter Information Block
#_______________________________________________________________________________
#
#PARAMETER_NAME    .UNIT     VALUE                         : DESCRIPTION
#_______________________________________________________________________________
SET                .         LAS3                          : 
REAL_CREATION_DATE .         Ср апр 11 2012-13_17_22       : 
TLFamily_DEPTH     .         Measured Depth                : 
TLFamily_GR        .         Gamma Ray                     : 
TLFamily_TNPH      .         Neutron Porosity              : 
group              .         INI                           : 
~Curve Information
#_______________________________________________________________________________
#
#LOGNAME           .UNIT     LOG_ID                        : DESCRIPTION
#_______________________________________________________________________________
DEPTH              .m                                      : Measured Depth 
GR                 .gAPI                                   :  
TNPH               .v/v                                    : Neutron Porosity 
~Ascii
2779.0     96.21001   0.253     
2779.2     94.77      0.252     
2779.4     90.64999   0.248     
2779.6     87.08      0.251     
2779.8     90.43      0.244     
2780       95.31999   0.251     
2780.2     97.45      0.255     
2780.4     100.34     0.259     
2780.6     99.53      0.249     
2780.8     99.71      0.233     
2781       98.11      0.236     
2781.2     97.52      0.249     
2781.4     95.68      0.246     
2781.6     94.43      0.264     
2781.8     93.21999   0.281     
2782       91.65      0.263     
2782.2     92.13      0.252     
2782.4     94.18      0.252     
2782.6     98.59      0.253     
2782.8     97.28      0.257     
2783       93.77      0.25      
2783.2     92.95999   0.237     
2783.4     93.34      0.241     
2783.6     93.06      0.249     
2783.8     93.46      0.236     
2784       94.36      0.239     
2784.2     94.11      0.247     
2784.4     94.95      0.257     
2784.6     92.93      0.273     
2784.8     90.64      0.287     
2785       92.22      0.287     
2785.2     95.08      0.264     
2785.4     95.81001   0.25      
2785.6     96.96999   0.253     
2785.8     99.41      0.265     
2786       101.78     0.273     
2786.2     101.48     0.265     
2786.4     96.81      0.26      
2786.6     94.87      0.26      
2786.8     94.20999   0.267     
2787       98.64      0.277     
2787.2     104.62     0.282     
2787.4     105.17     0.278     
2787.6     102.65     0.281     
2787.8     100.84     0.273     
2788       101.91     0.274     
2788.2     102.75     0.286     
2788.4     103.32     0.292     
2788.6     99.65      0.284     
2788.8     102.32     0.269     
2789       105.78     0.255     
2789.2     105.06     0.247     
2789.4     103.85     0.247     
2789.6     101.56     0.259     
2789.8     101.84     0.248     
2790       101.94     0.232     
2790.2     99.46999   0.234     
2790.4     98.47      0.248     
2790.6     97.67999   0.248     
2790.8     96.23      0.245     
2791       94.18      0.249     
2791.2     91.5       0.265     
2791.4     91.85001   0.273     
2791.6     93.83      0.274     
2791.8     96.00999   0.272     
2792       98.77      0.258     
2792.2     99.46999   0.245     
2792.4     96.19      0.239     
2792.6     94.94      0.234     
2792.8     95.87      0.223     
2793       95.27      0.215     
2793.2     92.55      0.226     
2793.4     90.98      0.242     
2793.6     88.87      0.249     
2793.8     87.35      0.248     
2794       88.75      0.242     
2794.2     91.94      0.236     
2794.4     93.75      0.24      
2794.6     95.74001   0.247     
2794.8     98.77      0.247     
2795       99.39      0.254     
2795.2     98.61      0.255     
2795.4     97.53999   0.255     
2795.6     98.85001   0.261     
2795.8     99.15      0.261     
2796       96.32      0.26      
2796.2     98.75      0.263     
2796.4     99.85      0.269     
2796.6     99.32999   0.265     
2796.8     99.87      0.267     
2797       97.49      0.262     
2797.2     96.00999   0.255     
2797.4     98.34      0.254     
2797.6     102.28     0.258     
2797.8     102.45     0.262     
2798       101.11     0.258     
2798.2     103.02     0.246     
2798.4     101.49     0.229     
2798.6     102.09     0.231     
2798.8     102.76     0.228     
2799       100.02     0.222     
2799.2     97.19      0.221     
2799.4     96.51      0.231     
2799.6     96.14      0.244     
2799.8     96.93      0.266     
2800       97.77      0.275     
2800.2     98.31001   0.263     
2800.4     97.2       0.246     
2800.6     95.69      0.237     
2800.8     95.43999   0.239     
2801       94.54001   0.233     
2801.2     93.02      0.22      
2801.4     92.60001   0.226     
2801.6     90.9       0.235     
2801.8     94.51      0.243     
2802       96.64      0.257     
2802.2     95.07      0.264     
2802.4     95.05      0.262     
2802.6     93.68      0.263     
2802.8     95.86      0.258     
2803       102.53     0.242     
2803.2     103.53     0.235     
2803.4     99.87      0.23      
2803.6     95.82      0.233     
2803.8     91.55      0.232     
2804       92.76      0.245     
2804.2     97.92      0.268     
2804.4     99.81      0.277     
2804.6     101.05     0.285     
2804.8     104.35     0.281     
2805       105.93     0.261     
2805.2     107.78     0.25      
2805.4     105.13     0.263     
2805.6     102.13     0.257     
2805.8     104.74     0.261     
2806       107.19     0.276     
2806.2     106.09     0.281     
2806.4     105.49     0.273     
2806.6     105.82     0.252     
2806.8     105.58     0.242     
2807       102.34     0.247     
2807.2     101.14     0.243     
2807.4     101.35     0.232     
2807.6     103.22     0.233     
2807.8     104.14     0.23      
2808       103        0.222     
2808.2     99.7       0.233     
2808.4     99.32999   0.235     
2808.6     99.22      0.237     
2808.8     97.04001   0.254     
2809       94.05      0.25      
2809.2     94.61      0.24      
2809.4     98.55      0.245     
2809.6     101.36     0.25      
2809.8     100.38     0.259     
2810       99.01      0.241     
2810.2     97.19      0.224     
2810.4     97.1       0.224     
2810.6     98.3       0.237     
2810.8     98.29001   0.238     
2811       93.47      0.229     
2811.2     96.42999   0.237     
2811.4     97.91      0.253     
2811.6     96.70999   0.269     
2811.8     96.96999   0.264     
2812       97.39      0.251     
2812.2     98.68      0.251     
2812.4     101.98     0.257     
2812.6     102.13     0.256     
2812.8     99.77      0.237     
2813       96.85001   0.234     
2813.2     96.38      0.241     
2813.4     97.37      0.242     
2813.6     99.24      0.234     
2813.8     98.44      0.245     
2814       96.86      0.257     
2814.2     98.10001   0.267     
2814.4     101.18     0.277     
2814.6     107.65     0.291     
2814.8     111.01     0.285     
2815       111.87     0.275     
2815.2     112.73     0.277     
2815.4     111.2      0.286     
2815.6     109.43     0.283     
2815.8     107.75     0.278     
2816       106.52     0.268     
2816.2     110.31     0.269     
2816.4     116.15     0.261     
2816.6     114.13     0.25      
2816.8     112.7      0.273     
2817       111.96     0.27      
2817.2     107.47     0.263     
2817.4     105.93     0.263     
2817.6     106.56     0.272     
2817.8     105.2      0.283     
2818       99.43      0.279     
2818.2     97.51      0.267     
2818.4     99.28001   0.261     
2818.6     100.97     0.254     
2818.8     101.76     0.239     
2819       106.09     0.248     
2819.2     112.53     0.258     
2819.4     115.19     0.263     
2819.6     116.04     0.261     
2819.8     113.75     0.251     
2820       107.6      0.238     
2820.2     103.1      0.227     
2820.4     100.57     0.229     
2820.6     97.36      0.235     
2820.8     98.39      0.247     
2821       104.89     0.256     
2821.2     111.84     0.262     
2821.4     116.04     0.267     
2821.6     115.52     0.277     
2821.8     111.6      0.272     
2822       107.75     0.261     
2822.2     106.96     0.261     
2822.4     107.57     0.275     
2822.6     108.77     0.268     
2822.8     110.41     0.268     
2823       112.48     0.281     
2823.2     115.33     0.276     
2823.4     117.77     0.275     
2823.6     121.34     0.268     
2823.8     120.74     0.264     
2824       114.17     0.259     
2824.2     109.78     0.251     
2824.4     106.97     0.242     
2824.6     104.46     0.227     
2824.8     102.54     0.229     
2825       103.53     0.237     
2825.2     102.69     0.233     
2825.4     100.84     0.23      
2825.6     104.08     0.229     
2825.8     107.43     0.238     
2826       109.15     0.238     
2826.2     110.27     0.241     
2826.4     105.41     0.242     
2826.6     102.48     0.242     
2826.8     103.25     0.25      
2827       102.85     0.252     
2827.2     103.55     0.234     
2827.4     106.25     0.244     
