~Version
 VERS              .         2.0                           : CWLS LOG ASCII STANDARD - VERSION 2.0
 WRAP              .         NO                            : ONE LINE PER DEPTH STEP
 DLM               .         SPACE                         : DELIMITING CHARACTER(SPACE TAB OR COMMA)
~Well Information
#_______________________________________________________________________________
#
#PARAMETER_NAME    .UNIT     VALUE                         : DESCRIPTION
#_______________________________________________________________________________
STRT               .m        2779                          : First reference value
STOP               .m        3002                          : Last reference value
STEP               .m        0.2                           : Step increment
NULL               .         -9999                         : Missing value
COMP               .                                       : Company
WELL               .         601                           : Well name
FLD                .                                       : Field
LOC                .                                       : Location
CNTY               .                                       : County
STAT               .                                       : State
CTRY               .                                       : Country
SRVC               .                                       : Service Company
DATE               .                                       : Date
API                .                                       : API number
EREF               .m        134                           : 
X                  .m        225746                        : 
Y                  .m        235643                        : 
group              .         Pad6                          : 
Интер-р            .         Ярышев                        : 
Куст               .         6                             : 
Статус             .         Не проверено                  : 
Тип                .         Разведка                      : 
~Parameter Information Block
#_______________________________________________________________________________
#
#PARAMETER_NAME    .UNIT     VALUE                         : DESCRIPTION
#_______________________________________________________________________________
SET                .         LAS1                          : 
REAL_CREATION_DATE .         Ср апр 11 2012-13_17_22       : 
TLFamily_DEPTH     .         Measured Depth                : 
TLFamily_KS        .         Potential Resistivity         : 
TLFamily_KS1       .         Extra Shallow Resistivity     : 
TLFamily_KS2       .         Shallow Resistivity           : 
TLFamily_KS3       .         Medium Resistivity            : 
TLFamily_KS4       .         Deep Resistivity              : 
TLFamily_KS5       .         Extra Deep Resistivity        : 
TLFamily_LLD       .         Lateral Log Resistivity       : 
TLFamily_OKS3      .         Medium Resistivity Inverted   : 
TLFamily_RM        .         Mud Resistivity               : 
TLFamily_SP        .         Spontaneous Potential         : 
group              .         INI                           : 
~Curve Information
#_______________________________________________________________________________
#
#LOGNAME           .UNIT     LOG_ID                        : DESCRIPTION
#_______________________________________________________________________________
DEPTH              .m                                      : Measured Depth 
KS                 .ohm.m                                  : Potential Resistivity 
KS1                .ohm.m                                  : Extra Shallow Resistivity 
KS2                .ohm.m                                  : Shallow Resistivity 
KS3                .ohm.m                                  : Medium Resistivity 
KS4                .ohm.m                                  : Deep Resistivity 
KS5                .ohm.m                                  : Extra Deep Resistivity 
LLD                .ohm.m                                  : Lateral Log Resistivity 
OKS3               .ohm.m                                  : Medium Resistivity Inverted 
RM                 .ohm.m                                  : Mud Resistivity 
SP                 .mV                                     : Spontaneous Potential 
~Ascii
# ...
2966.6     15.6726    2.4523     9.8381     21.3473    35.9848    37.7735    108.5698   34.0288    0.41       82.3333   
2966.8     16.1114    2.7779     11.1968    23.2794    38.3056    38.8839    219.3859   30.3681    0.42       81.0573   
2967       16.359     3.0186     12.1907    23.9458    37.9198    41.2073    264.3293   26.4662    0.412      80.6252   
2967.2     16.4475    2.8622     11.7141    24.2026    37.2658    43.097     135.4592   22.4644    0.396      80.4049   
2967.4     15.9935    3.1203     13.7391    26.0783    38.0117    44.8035    74.9852    20.4043    0.412      79.0872   
2967.6     15.1264    3.5581     15.9692    30.3538    42.4322    45.8458    106.5666   19.2136    0.407      77.2357   
2967.8     14.2407    3.7219     17.3718    33.2901    43.6096    47.3932    70.9282    18.0481    0.426      76.156    
2968       13.2996    3.8071     18.1296    35.3443    43.7908    45.4704    17.9889    16.7448    0.426      75.495    
2968.2     12.484     3.5441     17.0373    35.4392    41.6113    42.7852    10.6968    15.2897    0.409      73.6548   
2968.4     11.8344    3.2178     15.359     34.8836    38.6891    38.5744    10.5805    13.5774    0.425      72.6652   
2968.6     11.3307    3.0131     14.2374    33.6779    35.3584    34.3076    9.3694     12.1442    0.399      71.8777   
2968.8     10.9276    2.8063     12.5552    31.7022    32.3789    30.3726    8.1701     11.2043    0.416      69.5118   
2969       10.588     2.543      11.0422    29.5568    30.0603    27.0088    7.6829     10.7995    0.405      68.9826   
2969.2     10.256     2.5059     10.4158    27.979     28.8218    24.2293    8.1536     10.8293    0.412      69.1738   
2969.4     9.9618     2.4856     10.1517    27.1216    28.6851    22.3464    8.4975     11.0036    0.414      68.1948   
2969.6     9.6181     2.5432     10.0324    26.0027    29.2884    21.2426    8.6691     11.4394    0.405      67.1414   
2969.8     9.3185     2.5371     9.7867     25.1245    30.0626    20.6556    7.8867     12.3579    0.42       66.4963   
2970       9.0118     2.4383     9.5438     24.884     31.9419    21.0735    7.1227     13.6076    0.395      65.5938   
2970.2     8.6993     2.4927     9.9223     25.9124    36.4007    22.1779    7.7766     15.0154    0.425      64.8438   
2970.4     8.3525     2.6326     10.8011    28.7427    43.7742    23.1674    8.6355     17.0559    0.401      65.0565   
2970.6     7.9229     2.7274     11.5734    31.4316    50.8787    23.6072    7.8931     18.1747    0.411      66.664    
2970.8     7.6228     2.9308     12.2411    31.4997    53.6456    23.1727    13.1704    17.4096    0.417      67.8983   
2971       7.4942     2.8047     11.2208    28.341     50.0947    21.603     10.4481    15.6429    0.404      68.623    
2971.2     7.3379     2.5448     9.6598     23.9804    43.8918    19.0535    5.5325     14.2944    0.419      69.8744   
2971.4     7.1681     2.3726     9.0185     20.7707    38.8582    16.3711    4.981      13.4608    0.395      71.3598   
2971.6     7.0953     2.3529     8.7926     18.6612    34.558     14.0708    6.1436     12.8074    0.416      73.9613   
2971.8     7.0703     2.2948     8.4109     16.59      30.194     12.3423    5.8367     12.5224    0.411      75.4841   
2972       7.0756     2.1574     7.5341     14.6414    26.1604    10.884     4.7785     12.3519    0.397      74.5378   
2972.2     7.1337     2.0493     7.1875     13.2817    22.7519    9.6621     5.1174     12.177     0.415      75.0515   
2972.4     7.1769     2.0913     7.1684     12.7296    20.6088    8.7373     5.9997     11.9331    0.393      76.6238   
2972.6     7.1769     2.1947     7.303      12.4932    18.8446    8.1387     6.5233     11.4965    0.415      77.0699   
2972.8     7.1769     2.2302     7.4072     12.5269    17.2324    7.51       6.9157     10.9448    0.414      76.9447   
2973       7.1458     2.2396     7.3187     12.3969    15.6313    6.987      6.5425     10.3882    0.402      75.6554   
2973.2     7.1236     2.2124     7.2638     11.8631    13.8796    6.5384     5.3533     10.0263    0.419      72.6786   
2973.4     7.1236     2.1032     6.9697     11.3581    12.5363    6.2019     5.8268     9.876      0.397      70.652    
2973.6     7.1236     2.1032     7.0163     11.162     11.5605    5.8986     6.0333     9.9006     0.413      69.0922   
2973.8     7.1655     2.1032     7.0163     11.1343    11.0381    5.8631     6.2517     9.9168     0.408      67.6384   
2974       7.1769     2.1032     6.9422     11.1666    10.7548    5.8959     6.5912     10.0559    0.408      68.0923   
2974.2     7.203      2.1643     7.12       11.4056    10.7691    6.0582     7.2259     10.2257    0.42       69.1444   
2974.4     7.179      2.233      7.3328     11.7898    11.0453    6.3363     7.3076     10.327     0.396      69.7665   
2974.6     7.1403     2.2648     7.4879     12.0639    11.4102    6.6786     7.6104     10.2353    0.419      69.1042   
2974.8     7.019      2.35       7.7849     12.3635    12.0868    7.0074     7.6246     9.9383     0.401      67.3742   
2975       6.8094     2.4517     7.9549     12.4882    12.6347    7.1584     6.631      9.4842     0.42       65.3555   
2975.2     6.5831     2.4467     8.0852     12.3153    12.6913    7.1562     5.1914     9.0911     0.407      63.4036   
2975.4     6.3561     2.4165     7.8795     11.7743    12.2778    7.0814     4.4916     9.1238     0.415      61.2837   
2975.6     6.1993     2.1635     7.1965     10.9543    11.7095    7.0814     4.5255     9.6631     0.405      58.7144   
2975.8     6.085      2.036      6.7708     10.508     11.6484    7.0814     4.5703     10.6714    0.413      56.6934   
2976       6.0288     1.9704     6.5973     10.2846    11.9233    7.6161     4.3742     11.8444    0.402      57.1375   
2976.2     6.1077     1.9374     6.1767     10.2062    12.7752    8.5533     4.137      13.4556    0.415      59.9056   
2976.4     6.2809     1.749      5.6515     10.2772    14.1014    9.8769     5.8706     15.2001    0.394      63.7601   
2976.6     6.4941     1.7611     5.7442     10.8508    16.0468    11.7357    7.673      16.4761    0.412      67.4772   
2976.8     6.7651     1.8858     6.1069     11.8667    18.5034    14.006     8.4393     17.2615    0.395      71.8374   
2977       6.9289     2.0727     6.6368     13.2431    21.3029    15.6903    9.1992     18.2165    0.419      75.7218   
2977.2     7.0136     2.2905     7.5563     14.4347    23.2805    16.5646    8.7941     18.9344    0.395      77.4515   
2977.4     7.1027     2.4221     7.9464     14.5948    22.9376    16.5948    6.4889     18.7261    0.415      77.4289   
2977.6     7.2231     2.3447     7.7455     13.378     20.3265    15.9468    5.0318     18.3576    0.397      78.2703   
2977.8     7.3366     2.171      7.3533     11.968     17.7912    14.7573    5.2862     19.35      0.409      80.6549   
2978       7.3366     2.0919     7.2475     11.351     16.485     13.5644    8.3779     21.3634    0.401      82.8717   
2978.2     7.3717     2.2552     8.084      11.5197    15.9843    12.596     9.6137     22.5247    0.416      84.4206   
2978.4     7.5539     2.3323     8.318      11.5272    14.9182    11.948     7.0046     22.494     0.395      84.5574   
2978.6     7.6754     2.2577     7.8131     11.1112    13.1956    11.325     6.395      21.956     0.415      82.815    
2978.8     7.7894     2.1646     7.4315     10.8722    11.7188    10.308     6.8115     21.7384    0.394      81.3968   
2979       7.9031     2.1822     7.315      10.7888    10.5291    9.6856     6.6162     21.9889    0.415      81.3867   
2979.2     8.0213     2.1033     7.2851     10.7898    9.6479     9.4007     6.5418     22.4112    0.393      80.8684   
2979.4     8.1502     2.1032     7.2197     10.7605    8.8817     9.0883     6.8857     22.7052    0.413      79.8437   
2979.6     8.3739     2.0546     6.9302     10.6569    8.1832     8.7247     6.3934     23.0711    0.388      80.1625   
2979.8     8.6509     1.9348     6.6466     10.3148    7.5956     8.4259     5.8405     23.6802    0.41       81.3338   
