~Version
 VERS              .         2.0                           : CWLS LOG ASCII STANDARD - VERSION 2.0
 WRAP              .         NO                            : ONE LINE PER DEPTH STEP
 DLM               .         SPACE                         : DELIMITING CHARACTER(SPACE TAB OR COMMA)
~Well Information
#_______________________________________________________________________________
#
#PARAMETER_NAME    .UNIT     VALUE                         : DESCRIPTION
#_______________________________________________________________________________
STRT               .m        2779                          : First reference value
STOP               .m        3002                          : Last reference value
STEP               .m        0.2                           : Step increment
NULL               .         -9999                         : Missing value
COMP               .                                       : Company
WELL               .         601                           : Well name
FLD                .                                       : Field
LOC                .                                       : Location
CNTY               .                                       : County
STAT               .                                       : State
CTRY               .                                       : Country
SRVC               .                                       : Service Company
DATE               .                                       : Date
API                .                                       : API number
EREF               .m        134                           : 
X                  .m        225746                        : 
Y                  .m        235643                        : 
group              .         Pad6                          : 
Интер-р            .         Ярышев                        : 
Куст               .         6                             : 
Статус             .         Не проверено                  : 
Тип                .         Разведка                      : 
~Parameter Information Block
#_______________________________________________________________________________
#
#PARAMETER_NAME    .UNIT     VALUE                         : DESCRIPTION
#_______________________________________________________________________________
SET                .         LAS1                          : 
REAL_CREATION_DATE .         Ср апр 11 2012-13_17_22       : 
TLFamily_DEPTH     .         Measured Depth                : 
TLFamily_KS        .         Potential Resistivity         : 
TLFamily_KS1       .         Extra Shallow Resistivity     : 
TLFamily_KS2       .         Shallow Resistivity           : 
TLFamily_KS3       .         Medium Resistivity            : 
TLFamily_KS4       .         Deep Resistivity              : 
TLFamily_KS5       .         Extra Deep Resistivity        : 
TLFamily_LLD       .         Lateral Log Resistivity       : 
TLFamily_OKS3      .         Medium Resistivity Inverted   : 
TLFamily_RM        .         Mud Resistivity               : 
TLFamily_SP        .         Spontaneous Potential         : 
group              .         INI                           : 
~Curve Information
#_______________________________________________________________________________
#
#LOGNAME           .UNIT     LOG_ID                        : DESCRIPTION
#_______________________________________________________________________________
DEPTH              .m                                      : Measured Depth 
KS                 .ohm.m                                  : Potential Resistivity 
KS1                .ohm.m                                  : Extra Shallow Resistivity 
KS2                .ohm.m                                  : Shallow Resistivity 
KS3                .ohm.m                                  : Medium Resistivity 
KS4                .ohm.m                                  : Deep Resistivity 
KS5                .ohm.m                                  : Extra Deep Resistivity 
LLD                .ohm.m                                  : Lateral Log Resistivity 
OKS3               .ohm.m                                  : Medium Resistivity Inverted 
RM                 .ohm.m                                  : Mud Resistivity 
SP                 .mV                                     : Spontaneous Potential 
~Ascii
# ...
2926.4     5.153      2.0493     6.152      8.0978     6.5455     4.6449     3.5756     8.0699     0.422      92.1316   
2926.6     5.153      2.0493     6.1258     8.0978     6.5171     4.5981     3.6574     8.1025     0.414      92.2032   
2926.8     5.153      2.0493     6.1258     8.1513     6.5515     4.6449     3.7108     8.2611     0.403      92.3903   
2927       5.153      2.0493     6.1258     8.2083     6.601      4.6449     3.6775     8.3928     0.398      91.8951   
2927.2     5.153      2.0229     6.1012     8.3418     6.6682     4.621      3.7816     8.7227     0.406      90.5353   
2927.4     5.105      2.0797     6.2514     8.4883     6.7663     4.5389     3.9821     8.9619     0.415      89.5431   
2927.6     5.0465     2.1372     6.4066     8.5238     6.7623     4.4479     3.8466     9.0781     0.419      88.7738   
2927.8     5.0034     2.1195     6.3075     8.4024     6.6603     4.3879     3.3723     9.1985     0.421      88.1457   
2928       4.97       2.0622     6.1139     8.1577     6.4989     4.2745     3.243      9.4133     0.421      86.9099   
2928.2     4.9399     2.0047     6.0382     8.055      6.4645     4.1535     3.5674     9.6707     0.409      84.8113   
2928.4     4.8886     2.0665     6.2109     8.0452     6.4247     3.9908     3.8698     9.7578     0.404      83.3514   
2928.6     4.8867     2.0256     6.0618     7.9075     6.2059     3.7761     3.2361     9.794      0.396      82.0512   
2928.8     4.9222     1.9676     5.7824     7.5416     5.7944     3.4915     3.1761     9.8186     0.398      78.9776   
2929       5.003      1.8971     5.4993     7.0546     5.3438     3.1521     3.0912     9.8177     0.41       73.6977   
2929.2     5.2173     1.6991     4.9406     6.4941     4.8892     2.9105     3.4854     9.6231     0.41       68.6839   
2929.4     5.4226     1.6719     4.8543     6.2514     4.686      2.7371     4.4906     9.4942     0.415      63.2332   
2929.6     5.5196     1.8292     5.1951     6.5379     4.8298     2.6321     5.21       9.4253     0.41       56.9097   
2929.8     5.4969     2.0209     5.7006     7.0161     5.0513     2.5791     5.3066     9.4383     0.408      48.6518   
2930       5.4075     2.177      6.1741     7.3        5.1738     2.5791     4.2548     9.5463     0.398      39.5563   
2930.2     5.2787     2.1569     6.2305     7.3296     5.1037     2.5509     3.9067     9.6056     0.392      33.3783   
2930.4     5.2224     2.0689     6.121      7.2731     4.9783     2.5262     3.675      9.3494     0.404      30.5882   
2930.6     5.2062     1.962      5.9305     7.165      4.8861     2.5678     3.5132     9.244      0.41       28.9528   
2930.8     5.2245     1.9047     5.656      7.1392     4.9341     2.6767     3.5546     9.5012     0.415      26.7169   
2931       5.2823     1.8876     5.5354     7.1843     5.0733     2.9025     3.7748     9.8933     0.415      24.6845   
2931.2     5.3887     1.8434     5.3194     7.2988     5.364      3.2546     3.727      10.4239    0.409      24.1539   
2931.4     5.5025     1.7857     5.2239     7.4292     5.8404     3.7283     3.8589     11.2014    0.397      23.1995   
2931.6     5.7097     1.7532     5.0799     7.6892     6.5549     4.4487     3.8875     12.2311    0.383      20.966    
2931.8     5.9861     1.7291     5.1772     8.0942     7.5214     5.2415     4.4637     13.3614    0.397      19.6561   
2932       6.2648     1.7865     5.4481     8.8442     8.8387     6.0866     5.1571     14.3101    0.401      20.8919   
2932.2     6.5054     1.8901     5.9824     9.7723     10.2611    6.7836     11.4773    14.1045    0.408      21.4117   
2932.4     6.5544     2.0218     6.4441     10.4886    11.1069    7.0159     20.4822    13.5004    0.417      20.3236   
2932.6     6.4427     2.6071     7.9552     11.5361    12.0001    7.1139     6.2861     11.9047    0.415      19.7749   
2932.8     6.2198     2.7571     8.1039     11.3802    11.6491    6.7486     3.8051     10.5002    0.398      19.954    
2933       6.0442     2.3943     7.5062     10.3499    10.5988    6.1392     3.6375     10.0073    0.39       20.8896   
2933.2     5.8986     2.1569     7.2782     9.5937     9.7278     5.455      3.7273     9.9798     0.398      21.9102   
2933.4     5.9125     2.0331     7.0226     9.0659     8.9874     5.0136     3.4651     10.2382    0.407      21.1412   
2933.6     6.0307     1.9046     6.4695     8.6776     8.3691     4.7716     3.7903     10.8149    0.414      20.7804   
2933.8     6.2475     1.8473     6.1245     8.6978     8.1763     4.6485     4.4308     11.7875    0.415      20.8974   
2934       6.4261     1.8276     6.1365     9.3436     8.4153     4.6942     12.2389    12.2571    0.41       20.1766   
2934.2     6.4845     2.1675     6.9853     10.6904    8.9858     4.6338     16.6282    11.9041    0.403      19.8587   
2934.4     6.4465     2.7284     8.1857     11.8243    9.1437     4.5036     5.4213     11.202     0.4        20.3689   
2934.6     6.2411     2.6877     7.7831     11.8936    8.5873     4.2787     3.7623     10.9704    0.395      21.1436   
2934.8     6.0623     2.4073     7.2592     10.7767    7.6217     3.9248     3.7302     11.1362    0.407      21.1545   
2935       5.9479     2.1957     7.074      9.8493     6.9626     3.5605     3.9439     11.7072    0.411      21.0545   
2935.2     5.8986     2.1185     7.0839     9.1906     6.5476     3.3747     4.0349     12.323     0.417      21.3014   
2935.4     5.971      2.0433     6.6346     8.7642     6.3114     3.2677     4.1109     12.7305    0.415      21.6186   
2935.6     6.0342     2.0166     6.283      8.4955     6.2045     3.3207     4.2806     12.7133    0.403      21.4201   
2935.8     6.1763     1.975      5.9644     8.3551     6.3227     3.4155     4.1102     12.8523    0.396      20.9341   
2936       6.3584     1.9404     5.7363     8.2859     6.5117     3.7215     4.1428     13.2897    0.391      21.0418   
2936.2     6.6904     1.8474     5.5231     8.4888     6.9979     4.1483     4.0929     14.1711    0.407      22.0824   
2936.4     7.1286     1.6923     5.3479     8.8574     7.915      4.5889     5.2978     15.5212    0.413      22.7964   
2936.6     7.5821     1.6963     5.5306     9.4803     9.1488     5.0446     15.9505    15.7866    0.41       22.0718   
2936.8     8.0602     1.9801     6.4032     10.3739    10.298     5.4975     16.2345    15.0279    0.41       22.1827   
2937       8.4431     2.3883     7.4058     11.096     11.0975    5.7751     7.1395     14.3528    0.398      24.2703   
2937.2     8.5602     2.4265     7.5305     11.524     11.5327    6.018      10.3686    14.1497    0.392      25.4597   
2937.4     8.4818     2.5324     8.2238     12.2624    12.1085    6.1565     28.4217    13.4933    0.402      23.7935   
2937.6     8.1532     2.9159     10.0238    13.5839    12.9016    6.0123     18.2254    12.3775    0.419      22.8011   
2937.8     7.7161     3.404      11.871     14.373     12.897     5.6977     5.0763     11.4701    0.429      23.7833   
2938       7.2621     3.0489     10.5807    13.8616    11.8342    5.3154     3.9024     11.1395    0.417      25.0208   
2938.2     6.8735     2.6573     9.5128     12.6912    10.5033    4.7592     4.0951     11.19      0.4        24.7562   
2938.4     6.6533     2.3523     8.851      12.003     9.7595     4.3112     4.0423     11.7073    0.387      23.3213   
2938.6     6.5115     2.1898     8.1037     11.5553    9.0445     4.0494     4.2636     12.5646    0.399      25.2249   
2938.8     6.4845     2.1073     7.4477     11.4337    8.4341     4.0288     4.0248     13.8316    0.41       28.1874   
2939       6.5249     2.0478     6.6839     11.1654    8.0087     4.1683     3.9941     15.2945    0.415      30.3737   
2939.2     6.6393     1.9165     6.1419     10.7411    7.8606     4.5505     4.478      16.838     0.412      32.5258   
2939.4     6.7935     1.9325     6.0492     10.6078    8.0583     5.2004     4.9224     18.0968    0.399      33.6742   
2939.6     7.0254     1.9003     5.9456     10.792     8.5626     6.1436     4.9417     19.43      0.388      33.3739   
