~Version
 VERS              .         2.0                           : CWLS LOG ASCII STANDARD - VERSION 2.0
 WRAP              .         NO                            : ONE LINE PER DEPTH STEP
 DLM               .         SPACE                         : DELIMITING CHARACTER(SPACE TAB OR COMMA)
~Well Information
#_______________________________________________________________________________
#
#PARAMETER_NAME    .UNIT     VALUE                         : DESCRIPTION
#_______________________________________________________________________________
STRT               .m        2779                          : First reference value
STOP               .m        3002                          : Last reference value
STEP               .m        0.2                           : Step increment
NULL               .         -9999                         : Missing value
COMP               .                                       : Company
WELL               .         601                           : Well name
FLD                .                                       : Field
LOC                .                                       : Location
CNTY               .                                       : County
STAT               .                                       : State
CTRY               .                                       : Country
SRVC               .                                       : Service Company
DATE               .                                       : Date
API                .                                       : API number
EREF               .m        134                           : 
X                  .m        225746                        : 
Y                  .m        235643                        : 
group              .         Pad6                          : 
Интер-р            .         Ярышев                        : 
Куст               .         6                             : 
Статус             .         Не проверено                  : 
Тип                .         Разведка                      : 
~Parameter Information Block
#_______________________________________________________________________________
#
#PARAMETER_NAME    .UNIT     VALUE                         : DESCRIPTION
#_______________________________________________________________________________
SET                .         LAS1                          : 
REAL_CREATION_DATE .         Ср апр 11 2012-13_17_22       : 
TLFamily_DEPTH     .         Measured Depth                : 
TLFamily_KS        .         Potential Resistivity         : 
TLFamily_KS1       .         Extra Shallow Resistivity     : 
TLFamily_KS2       .         Shallow Resistivity           : 
TLFamily_KS3       .         Medium Resistivity            : 
TLFamily_KS4       .         Deep Resistivity              : 
TLFamily_KS5       .         Extra Deep Resistivity        : 
TLFamily_LLD       .         Lateral Log Resistivity       : 
TLFamily_OKS3      .         Medium Resistivity Inverted   : 
TLFamily_RM        .         Mud Resistivity               : 
TLFamily_SP        .         Spontaneous Potential         : 
group              .         INI                           : 
~Curve Information
#_______________________________________________________________________________
#
#LOGNAME           .UNIT     LOG_ID                        : DESCRIPTION
#_______________________________________________________________________________
DEPTH              .m                                      : Measured Depth 
KS                 .ohm.m                                  : Potential Resistivity 
KS1                .ohm.m                                  : Extra Shallow Resistivity 
KS2                .ohm.m                                  : Shallow Resistivity 
KS3                .ohm.m                                  : Medium Resistivity 
KS4                .ohm.m                                  : Deep Resistivity 
KS5                .ohm.m                                  : Extra Deep Resistivity 
LLD                .ohm.m                                  : Lateral Log Resistivity 
OKS3               .ohm.m                                  : Medium Resistivity Inverted 
RM                 .ohm.m                                  : Mud Resistivity 
SP                 .mV                                     : Spontaneous Potential 
~Ascii
# ...
2980       9.1866     1.8606     6.3527     9.9993     7.2036     8.2487     6.4856     24.3725    0.403      81.5822   
2980.2     9.9771     1.6227     5.7246     10.1155    7.3208     8.3622     6.1599     25.1625    0.39       80.9655   
2980.4     10.7977    1.5865     5.8983     11.1389    7.972      8.5899     11.287     24.7362    0.401      80.1401   
2980.6     11.6689    1.9049     6.8523     12.9822    9.2688     8.9451     98.0988    22.5111    0.4        78.4806   
2980.8     12.2777    2.2901     8.16       14.9753    10.9615    9.317      198.7553   18.807     0.407      76.914    
2981       12.6244    2.63       9.498      16.879     12.8658    9.6011     146.8251   15.3628    0.41       77.1093   
2981.2     12.6539    2.9955     11.1414    18.8552    15.0334    9.7781     53.0336    12.4905    0.423      78.4299   
2981.4     12.3326    3.2488     12.8393    20.7375    17.1747    9.8867     47.5141    10.594     0.406      77.7462   
2981.6     11.6419    3.5886     14.7213    22.9918    19.7395    9.7035     34.9762    8.9169     0.429      76.1469   
2981.8     10.7993    3.8441     15.9247    24.5332    21.1924    9.3991     14.2218    8.0764     0.41       75.6262   
2982       9.9654     3.7423     15.8444    25.0724    21.553     8.9954     7.4847     7.8752     0.424      74.1685   
2982.2     9.1496     3.4171     14.9868    25.3691    21.8633    8.5424     7.4957     7.9285     0.404      72.9074   
2982.4     8.3962     3.309      14.5769    26.1102    22.8269    8.0373     7.2226     7.9987     0.425      71.8539   
2982.6     7.7216     3.1439     13.8602    27.2448    23.52      7.4781     6.746      8.0636     0.401      68.798    
2982.8     7.0841     3.1231     13.4931    27.4518    23.1488    6.9072     6.8778     8.0884     0.425      65.4515   
2983       6.5802     2.9078     12.0123    26.5807    21.5929    6.2297     5.5669     8.0884     0.41       62.669    
2983.2     6.179      2.7095     10.6373    24.3686    19.6148    5.4825     4.2882     8.1351     0.409      60.5757   
2983.4     5.7682     2.4568     9.2875     21.7686    17.9366    4.718      4.2303     8.195      0.409      58.65     
2983.6     5.3861     2.3187     8.6466     19.2499    16.5812    4.0718     4.1254     8.1417     0.391      57.1257   
2983.8     5.0986     2.2405     8.0109     16.9152    15.0199    3.5415     3.3426     8.1417     0.41       56.486    
2984       4.9151     1.9682     6.8722     14.3052    13.44      3.1316     3.0578     8.1417     0.402      56.6808   
2984.2     4.8334     1.7982     6.083      12.1236    12.275     2.7389     3.5794     8.1417     0.394      57.6945   
2984.4     4.9033     1.7636     5.5831     10.5929    11.4342    2.5185     3.6197     8.1417     0.401      58.4048   
2984.6     4.9719     1.6987     5.0069     9.3432     10.7837    2.4202     3.5535     8.1417     0.407      60.5344   
2984.8     5.0252     1.6721     4.66       8.4203     10.3062    2.4202     3.8319     8.1417     0.391      64.4338   
2985       5.0919     1.6667     4.4918     7.8041     10.0286    2.5877     4.1745     8.1417     0.392      68.9208   
2985.2     5.1424     1.6182     4.436      7.3172     9.6534     2.8502     4.1317     8.1417     0.398      73.2524   
2985.4     5.153      1.6182     4.2601     6.8679     9.3924     3.2858     4.14       8.1417     0.398      77.1266   
2985.6     5.1743     1.6182     4.2506     6.7373     9.3847     3.8402     5.3795     8.1417     0.398      80.2259   
2985.8     5.2756     1.6182     4.468      7.0747     9.8514     4.5795     7.7085     8.1417     0.398      81.5456   
2986       5.3411     1.6318     4.6183     7.5732     10.3414    5.3755     8.7826     8.1417     0.398      82.2383   
2986.2     5.366      1.6211     4.7115     8.1135     10.8294    6.0904     7.4721     8.1417     0.398      84.9005   
2986.4     5.366      1.6182     4.7289     8.6061     11.1642    6.7089     9.5659     8.1417     0.398      86.8936   
2986.6     5.366      1.6182     4.952      8.9811     11.3293    7.4113     9.6869     8.1417     0.398      86.411    
2986.8     5.366      1.6182     5.1774     9.1142     11.2115    8.0525     7.9696     8.1417     0.398      86.4924   
2987       5.366      1.6182     5.1829     9.2446     11.1599    8.7239     8.2691     8.1417     0.398      87.147    
2987.2     5.366      1.6182     5.1829     9.3476     11.3027    9.6747     8.2611     8.1417     0.398      88.782    
2987.4     5.366      1.6182     5.1829     9.3759     11.5497    10.8853    7.4596     8.1417     0.398      90.762    
2987.6     5.366      1.6182     5.1829     9.4114     12.1369    12.4179    7.2121     8.1417     0.398      91.1141   
2987.8     5.3447     1.6182     5.1829     9.6204     13.2645    14.0057    6.7069     8.1417     0.398      90.9318   
2988       5.366      1.6452     5.1829     9.7991     14.809     15.2682    8.7938     8.1417     0.398      90.0709   
2988.2     5.3567     1.6182     5.1829     9.8019     15.4614    16.0683    9.3243     8.1417     0.398      88.1252   
2988.4     5.3524     1.6182     5.1829     9.8019     14.9701    16.2979    8.5784     8.1417     0.398      86.6857   
2988.6     5.366      1.6182     5.1829     9.8019     14.3859    15.5787    8.7323     8.1417     0.398      85.2472   
2988.8     5.3432     1.6182     5.1829     9.8019     13.8914    14.5052    7.8165     8.1417     0.398      83.4148   
2989       5.366      1.6182     5.1829     9.8019     13.4532    13.6178    5.5858     8.1417     0.398      80.3885   
2989.2     5.3597     1.6182     5.1829     9.8019     13.2005    12.759     5.5855     8.1417     0.398      76.6838   
2989.4     5.3523     1.6182     5.1829     9.8019     13.0723    11.9722    5.7887     8.1417     0.398      73.3931   
2989.6     5.366      1.6182     5.1829     9.8019     12.9886    11.1615    5.8047     8.1417     0.398      70.8871   
2989.8     5.3448     1.6182     5.1829     9.8019     12.4767    10.6493    7.9385     8.1417     0.398      69.037    
2990       5.3443     1.6182     5.1829     9.8019     12.0997    10.1391    5.6498     8.1417     0.398      67.3609   
2990.2     5.3381     1.6182     5.1829     9.8019     12.0941    9.5786     5.1581     8.1417     0.398      66.9471   
2990.4     5.3397     1.6182     5.1829     9.8019     12.0941    8.9755     5.7148     8.1417     0.398      66.9853   
2990.6     5.366      1.6182     5.1829     9.8019     12.0941    8.4024     6.0604     8.1417     0.398      67.3417   
2990.8     5.366      1.6182     5.1829     9.8019     12.0941    7.9713     6.0402     8.1604     0.398      67.6751   
2991       5.366      1.6182     5.1829     9.8019     12.0941    7.77       6.968      8.1627     0.398      67.4033   
2991.2     5.3248     1.6182     5.1829     9.8019     12.0941    7.664      7.9434     8.1661     0.398      66.8131   
2991.4     5.3614     1.6182     5.1829     9.8019     12.0941    7.7423     8.3153     8.1561     0.398      65.7643   
2991.6     5.3497     1.6182     5.1829     9.8019     12.0941    7.8994     8.2332     8.1481     0.398      64.8277   
2991.8     5.3206     1.6182     5.1829     9.8019     12.0941    7.9511     10.8816    8.1417     0.398      64.5956   
2992       5.343      1.6182     5.1829     9.8019     12.0941    8.0552     12.3297    8.1417     0.398      64.7737   
2992.2     5.3433     1.6182     5.1829     9.8019     12.0941    8.2107     8.7534     0          0.398      65.1123   
2992.4     5.366      1.6182     5.1829     9.7797     12.0941    8.3628     7.685      0          0.398      65.4584   
2992.6     5.3343     1.6182     5.1829     9.8019     12.0941    8.6718     7.7444     0          0.398      65.8991   
2992.8     5.366      1.6182     5.1829     9.8019     12.0941    9.0844     7.5924     0          0.398      66.2127   
2993       5.3128     1.6182     5.1829     9.7776     12.0941    9.4812     8.9359     0          0.398      65.8358   
2993.2     5.3223     1.6182     5.1829     9.7857     12.0941    9.8835     9.6666     0          0.398      65.6629   
