~Version
 VERS              .         2.0                           : CWLS LOG ASCII STANDARD - VERSION 2.0
 WRAP              .         NO                            : ONE LINE PER DEPTH STEP
 DLM               .         SPACE                         : DELIMITING CHARACTER(SPACE TAB OR COMMA)
~Well Information
#_______________________________________________________________________________
#
#PARAMETER_NAME    .UNIT     VALUE                         : DESCRIPTION
#_______________________________________________________________________________
STRT               .m        2779                          : First reference value
STOP               .m        3002                          : Last reference value
STEP               .m        0.2                           : Step increment
NULL               .         -9999                         : Missing value
COMP               .                                       : Company
WELL               .         601                           : Well name
FLD                .                                       : Field
LOC                .                                       : Location
CNTY               .                                       : County
STAT               .                                       : State
CTRY               .                                       : Country
SRVC               .                                       : Service Company
DATE               .                                       : Date
API                .                                       : API number
EREF               .m        134                           : 
X                  .m        225746                        : 
Y                  .m        235643                        : 
group              .         Pad6                          : 
Интер-р            .         Ярышев                        : 
Куст               .         6                             : 
Статус             .         Не проверено                  : 
Тип                .         Разведка                      : 
~Parameter Information Block
#_______________________________________________________________________________
#
#PARAMETER_NAME    .UNIT     VALUE                         : DESCRIPTION
#_______________________________________________________________________________
SET                .         LAS1                          : 
REAL_CREATION_DATE .         Ср апр 11 2012-13_17_22       : 
TLFamily_DEPTH     .         Measured Depth                : 
TLFamily_KS        .         Potential Resistivity         : 
TLFamily_KS1       .         Extra Shallow Resistivity     : 
TLFamily_KS2       .         Shallow Resistivity           : 
TLFamily_KS3       .         Medium Resistivity            : 
TLFamily_KS4       .         Deep Resistivity              : 
TLFamily_KS5       .         Extra Deep Resistivity        : 
TLFamily_LLD       .         Lateral Log Resistivity       : 
TLFamily_OKS3      .         Medium Resistivity Inverted   : 
TLFamily_RM        .         Mud Resistivity               : 
TLFamily_SP        .         Spontaneous Potential         : 
group              .         INI                           : 
~Curve Information
#_______________________________________________________________________________
#
#LOGNAME           .UNIT     LOG_ID                        : DESCRIPTION
#_______________________________________________________________________________
DEPTH              .m                                      : Measured Depth 
KS                 .ohm.m                                  : Potential Resistivity 
KS1                .ohm.m                                  : Extra Shallow Resistivity 
KS2                .ohm.m                                  : Shallow Resistivity 
KS3                .ohm.m                                  : Medium Resistivity 
KS4                .ohm.m                                  : Deep Resistivity 
KS5                .ohm.m                                  : Extra Deep Resistivity 
LLD                .ohm.m                                  : Lateral Log Resistivity 
OKS3               .ohm.m                                  : Medium Resistivity Inverted 
RM                 .ohm.m                                  : Mud Resistivity 
SP                 .mV                                     : Spontaneous Potential 
~Ascii
# ...
2872.8     6.3297     2.2641     7.6405     11.0633    8.3594     5.0972     4.3306     10.7664    0.41       90.2421   
2873       6.3247     2.211      7.3729     10.8775    8.2073     4.9853     4.0299     11.0767    0.421      91.4195   
2873.2     6.3276     2.2364     7.3344     10.9351    8.187      4.9097     4.0249     11.2013    0.421      91.9891   
2873.4     6.3854     2.2648     7.3455     11.0238    8.2187     4.9532     4.506      11.2579    0.427      91.4967   
2873.6     6.4312     2.2335     7.1424     11.0822    8.2748     4.9627     4.8208     11.4476    0.427      90.8113   
2873.8     6.4312     2.2556     7.1922     11.2001    8.4796     4.9627     4.4374     11.5481    0.428      90.9825   
2874       6.4312     2.3582     7.5072     11.3271    8.7319     4.9627     4.6238     11.4996    0.434      90.1907   
2874.2     6.4312     2.3283     7.3341     11.245     8.9205     4.9436     5.2592     11.4637    0.439      89.2406   
2874.4     6.4312     2.3417     7.4696     11.076     9.032      4.8836     4.6404     11.4323    0.438      89.8782   
2874.6     6.4105     2.3465     7.5237     10.9446    9.1316     4.7711     4.8597     11.393     0.437      90.8398   
2874.8     6.3966     2.3187     7.3922     10.729     9.0941     4.6591     4.6236     11.4392    0.433      90.4883   
2875       6.3877     2.3138     7.454      10.5787    9.0249     4.5553     4.5129     11.5217    0.43       89.3261   
2875.2     6.4312     2.2648     7.3352     10.4649    8.9685     4.4344     4.662      11.6369    0.423      90.1663   
2875.4     6.4312     2.2648     7.3017     10.3567    8.8625     4.3695     4.6123     11.808     0.417      92.1067   
2875.6     6.4538     2.2648     7.221      10.2904    8.8052     4.2562     4.5663     12.0132    0.415      92.5501   
2875.8     6.4312     2.2398     7.1894     10.2669    8.7493     4.1433     4.5482     12.1897    0.41       91.2646   
2876       6.4513     2.2882     7.3504     10.3821    8.7269     4.0309     4.7998     12.2867    0.41       89.8189   
2876.2     6.4312     2.2934     7.43       10.5417    8.6642     3.9711     4.9868     12.2808    0.411      89.2694   
2876.4     6.3954     2.3693     7.5694     10.4707    8.456      3.8573     5.0165     12.3138    0.41       89.0152   
2876.6     6.378      2.2805     7.2533     10.2484    8.1279     3.745      4.6036     12.6028    0.409      89.7431   
2876.8     6.378      2.211      7.0969     9.9686     7.8322     3.6854     4.1355     13.085     0.404      89.8183   
2877       6.4401     2.1606     6.9229     9.7279     7.628      3.6385     4.2276     13.6865    0.399      89.5403   
2877.2     6.5539     2.062      6.6648     9.5567     7.5191     3.6566     4.1721     14.2783    0.408      90.3567   
2877.4     6.7174     2.069      6.6558     9.539      7.6428     3.7419     4.3536     14.8726    0.416      90.9857   
2877.6     6.8672     2.1032     6.674      9.7368     7.9105     3.916      4.8591     15.3427    0.421      91.333    
2877.8     7.0061     2.156      6.8809     10.0684    8.2954     4.1417     5.1885     15.6946    0.422      91.1746   
2878       7.1692     2.2147     7.0545     10.3816    8.6689     4.3675     5.7544     16.0201    0.427      91.7348   
2878.2     7.2829     2.2976     7.2144     10.6324    9.0178     4.6471     5.7848     16.4132    0.427      92.0483   
2878.4     7.4379     2.3187     7.3544     10.745     9.2468     4.9411     5.7633     16.9852    0.437      91.1717   
2878.6     7.5612     2.279      7.3902     10.8322    9.5505     5.3908     5.5661     17.6922    0.433      91.486    
2878.8     7.7199     2.282      7.5663     11.0322    9.9463     5.8586     5.7271     18.3293    0.434      92.2885   
2879       7.8398     2.3387     7.8143     11.3874    10.4716    6.3381     6.3603     18.8358    0.433      91.2276   
2879.2     7.9537     2.3962     8.0399     11.931     11.1612    6.6689     6.6155     19.3329    0.432      90.0314   
2879.4     8.034      2.4534     8.4621     12.4311    11.5746    6.9089     6.9397     19.5384    0.427      89.8795   
2879.6     8.1284     2.4804     8.5435     12.7533    11.6149    6.9754     7.2159     19.335     0.418      90.353    
2879.8     8.2421     2.4725     8.5597     12.7345    11.3047    6.9201     6.771      18.7008    0.415      90.5559   
2880       8.3136     2.4265     8.4605     12.769     11.02      6.6948     6.7481     18.4421    0.406      89.2593   
2880.2     8.4167     2.4111     8.5189     12.6776    10.7443    6.5369     6.4266     18.7634    0.41       89.293    
2880.4     8.5322     2.3284     8.2539     12.599     10.5837    6.4987     5.6985     19.3735    0.403      90.8958   
2880.6     8.6787     2.2712     8.1911     12.6641    10.5589    6.4987     5.8002     19.7944    0.399      91.044    
2880.8     8.9023     2.3179     8.3575     13.0627    10.7316    6.4987     6.9046     19.7181    0.406      90.5722   
2881       9.0929     2.4299     8.6916     13.6204    10.9956    6.4987     8.3517     19.3358    0.418      91.136    
2881.2     9.2522     2.4871     8.7972     14.1623    11.2448    6.4987     8.9831     18.9121    0.422      91.7356   
2881.4     9.3247     2.545      8.9777     14.5667    11.4462    6.4451     8.347      18.5393    0.427      92.447    
2881.6     9.3605     2.6029     9.2046     15.0553    11.7489    6.3841     8.4796     18.1469    0.427      92.4434   
2881.8     9.3605     2.642      9.5319     15.5671    12.1162    6.3241     8.7997     17.854     0.433      91.7791   
2882       9.2795     2.6893     9.8019     15.9848    12.5357    6.2623     8.6355     17.6683    0.439      90.8103   
2882.2     9.2193     2.6959     9.8972     16.2264    12.9067    6.1997     8.3373     17.593     0.439      91.4313   
2882.4     9.1414     2.6939     9.9151     16.2926    13.1469    6.1809     7.8286     17.7151    0.439      93.021    
2882.6     9.0569     2.6369     9.8608     16.3513    13.3686    6.128      7.285      18.153     0.433      93.1803   
2882.8     9.041      2.5545     9.5454     16.462     13.5899    6.128      6.7117     18.775     0.427      92.5177   
2883       9.0583     2.5343     9.4742     16.5567    13.8367    6.075      6.6229     19.167     0.421      92.6569   
2883.2     9.161      2.4945     9.3138     16.742     14.2201    6.075      7.2884     19.3599    0.415      92.7808   
2883.4     9.2271     2.4987     9.2764     16.7927    14.5593    6.055      7.4457     19.2861    0.41       92.7507   
2883.6     9.3354     2.5343     9.2505     16.8132    14.9218    6.022      8.1615     19.1878    0.41       93.7706   
2883.8     9.3929     2.5343     9.2163     16.7563    15.223     6.022      7.9354     19.2124    0.404      94.099    
2884       9.449      2.5343     9.2585     16.6997    15.5194    6.022      7.7099     19.3031    0.401      92.9698   
2884.2     9.4786     2.5404     9.3362     16.6716    15.8383    6.075      7.9365     19.2853    0.413      92.3942   
2884.4     9.5613     2.5882     9.4479     16.6716    16.1216    6.1315     8.3958     19.2287    0.422      93.4469   
2884.6     9.6168     2.5882     9.5829     16.6794    16.4589    6.2435     8.4208     19.2283    0.427      93.9251   
2884.8     9.6268     2.5882     9.5889     16.7468    16.9294    6.3398     8.3543     19.217     0.427      93.7262   
2885       9.675      2.6323     9.6882     16.939     17.4323    6.4142     8.4015     19.1056    0.433      93.9757   
2885.2     9.6801     2.642      9.867      17.2274    17.9289    6.4737     8.8015     18.8918    0.439      94.4667   
2885.4     9.713      2.6933     9.8972     17.4325    18.2365    6.5867     8.6269     18.7106    0.439      94.6644   
2885.6     9.7255     2.6678     9.8972     17.6218    18.4236    6.7004     8.4138     18.5141    0.439      94.0686   
2885.8     9.7065     2.6738     9.9651     17.8484    18.6268    6.8139     8.3732     18.3013    0.436      93.2824   
2886       9.6801     2.6959     10.0774    18.0458    18.7699    6.9262     8.7688     18.4592    0.429      92.6601   
