~Version
 VERS              .         2.0                           : CWLS LOG ASCII STANDARD - VERSION 2.0
 WRAP              .         NO                            : ONE LINE PER DEPTH STEP
 DLM               .         SPACE                         : DELIMITING CHARACTER(SPACE TAB OR COMMA)
~Well Information
#_______________________________________________________________________________
#
#PARAMETER_NAME    .UNIT     VALUE                         : DESCRIPTION
#_______________________________________________________________________________
STRT               .m        2779                          : First reference value
STOP               .m        3002                          : Last reference value
STEP               .m        0.2                           : Step increment
NULL               .         -9999                         : Missing value
COMP               .                                       : Company
WELL               .         601                           : Well name
FLD                .                                       : Field
LOC                .                                       : Location
CNTY               .                                       : County
STAT               .                                       : State
CTRY               .                                       : Country
SRVC               .                                       : Service Company
DATE               .                                       : Date
API                .                                       : API number
EREF               .m        134                           : 
X                  .m        225746                        : 
Y                  .m        235643                        : 
group              .         Pad6                          : 
Интер-р            .         Ярышев                        : 
Куст               .         6                             : 
Статус             .         Не проверено                  : 
Тип                .         Разведка                      : 
~Parameter Information Block
#_______________________________________________________________________________
#
#PARAMETER_NAME    .UNIT     VALUE                         : DESCRIPTION
#_______________________________________________________________________________
SET                .         LAS1                          : 
REAL_CREATION_DATE .         Ср апр 11 2012-13_17_22       : 
TLFamily_DEPTH     .         Measured Depth                : 
TLFamily_KS        .         Potential Resistivity         : 
TLFamily_KS1       .         Extra Shallow Resistivity     : 
TLFamily_KS2       .         Shallow Resistivity           : 
TLFamily_KS3       .         Medium Resistivity            : 
TLFamily_KS4       .         Deep Resistivity              : 
TLFamily_KS5       .         Extra Deep Resistivity        : 
TLFamily_LLD       .         Lateral Log Resistivity       : 
TLFamily_OKS3      .         Medium Resistivity Inverted   : 
TLFamily_RM        .         Mud Resistivity               : 
TLFamily_SP        .         Spontaneous Potential         : 
group              .         INI                           : 
~Curve Information
#_______________________________________________________________________________
#
#LOGNAME           .UNIT     LOG_ID                        : DESCRIPTION
#_______________________________________________________________________________
DEPTH              .m                                      : Measured Depth 
KS                 .ohm.m                                  : Potential Resistivity 
KS1                .ohm.m                                  : Extra Shallow Resistivity 
KS2                .ohm.m                                  : Shallow Resistivity 
KS3                .ohm.m                                  : Medium Resistivity 
KS4                .ohm.m                                  : Deep Resistivity 
KS5                .ohm.m                                  : Extra Deep Resistivity 
LLD                .ohm.m                                  : Lateral Log Resistivity 
OKS3               .ohm.m                                  : Medium Resistivity Inverted 
RM                 .ohm.m                                  : Mud Resistivity 
SP                 .mV                                     : Spontaneous Potential 
~Ascii
# ...
2819.2     5.6856     2.0493     6.4086     9.1071     7.0433     4.3271     4.3098     9.5275     0.403      72.3487   
2819.4     5.6856     2.0233     6.4462     9.2161     7.044      4.3271     4.2633     9.5692     0.402      71.1565   
2819.6     5.6856     2.0071     6.4505     9.2161     7.0959     4.3271     4.3725     9.6237     0.404      71.7766   
2819.8     5.7086     2.0396     6.53       9.2161     7.0959     4.3271     4.4845     9.6594     0.404      73.1554   
2820       5.7123     2.0493     6.5448     9.2161     7.0959     4.3271     4.4541     9.5857     0.404      74.5624   
2820.2     5.7172     2.0493     6.5448     9.2161     7.1076     4.3271     4.417      9.5552     0.404      75.7209   
2820.4     5.7388     2.0493     6.5272     9.2544     7.1874     4.3271     4.4482     9.4469     0.404      74.8928   
2820.6     5.7364     2.0493     6.5123     9.3736     7.341      4.3271     4.4591     9.3933     0.404      74.3098   
2820.8     5.6511     2.0813     6.6357     9.5655     7.5703     4.2429     4.6304     9.363      0.404      74.9773   
2821       5.6219     2.2061     6.9243     9.668      7.4628     4.3701     4.1355     9.2759     0.407      75.374    
2821.2     5.5665     2.1483     6.7582     9.5346     7.4758     4.3562     3.8536     9.182      0.404      76.1714   
2821.4     5.5117     2.1032     6.6476     9.3712     7.6657     4.2973     3.8709     9.2181     0.404      76.6352   
2821.6     5.4883     2.0529     6.5585     9.2432     7.6746     4.3271     4.3018     9.3244     0.4        74.4916   
2821.8     5.5439     1.9822     6.3553     9.0514     7.6746     4.2741     4.3513     9.5309     0.398      72.0792   
2822       5.5791     1.9568     6.1846     8.9073     7.6746     4.3236     4.3519     9.7098     0.398      71.9494   
2822.2     5.6018     2.081      6.1721     8.995      7.679      4.2741     4.4685     9.9213     0.409      71.8912   
2822.4     5.6323     2.1032     6.4502     9.2122     7.7904     4.3271     4.5942     10.0538    0.41       70.5309   
2822.6     5.6323     2.1032     6.5028     9.3463     7.8325     4.2741     4.4185     10.1315    0.41       71.0409   
2822.8     5.6323     2.1032     6.3985     9.2348     7.7967     4.2741     4.1611     10.1914    0.411      71.9891   
2823       5.6323     2.1032     6.4496     9.1198     7.7299     4.2741     4.205      10.2724    0.416      71.2493   
2823.2     5.6323     2.1032     6.5172     9.0564     7.6746     4.2741     4.3501     10.3284    0.421      71.039    
2823.4     5.6323     2.1032     6.5413     9.0564     7.7159     4.2741     4.2428     10.3838    0.421      71.4461   
2823.6     5.6323     2.1347     6.5961     8.9523     7.6664     4.2741     4.0328     10.476     0.421      71.6065   
2823.8     5.6707     2.0831     6.3814     8.6354     7.5371     4.2741     3.8199     10.6345    0.421      72.8865   
2824       5.7396     1.9954     6.1459     8.503      7.3728     4.2741     4.2503     10.7455    0.421      74.029    
2824.2     5.8506     1.9954     6.1094     8.659      7.3063     4.2741     4.7445     10.7444    0.425      73.7877   
2824.4     5.961      2.0351     6.25       8.8776     7.3322     4.2741     4.9998     10.5388    0.427      72.4257   
2824.6     6.0267     2.0911     6.3876     8.921      7.4136     4.2741     4.886      10.3764    0.427      71.1747   
2824.8     6.0584     2.147      6.5401     9.0284     7.4936     4.3025     4.7717     10.2662    0.427      70.1641   
2825       6.0584     2.1571     6.6627     9.1919     7.5594     4.4109     4.7587     10.1753    0.427      69.7335   
2825.2     6.0084     2.2051     6.8509     9.3058     7.6578     4.433      4.6892     10.1179    0.427      69.3847   
2825.4     6.0051     2.211      6.9292     9.4658     7.6746     4.486      4.6792     10.0618    0.427      69.6768   
2825.6     5.9732     2.211      7.0088     9.5356     7.6746     4.5389     4.438      9.9255     0.427      71.2129   
2825.8     5.9519     2.2105     6.9736     9.5703     7.6344     4.5389     4.4066     9.8151     0.427      71.758    
2826       5.9465     2.1571     6.8631     9.5889     7.6638     4.5389     4.4003     9.7351     0.427      70.627    
2826.2     5.8986     2.1571     6.809      9.6026     7.7369     4.5389     4.4836     9.6795     0.427      69.7651   
2826.4     5.8986     2.1571     6.7547     9.699      7.8477     4.5389     4.5993     9.6243     0.43       71.4276   
2826.6     5.8986     2.1571     6.7795     9.792      7.8851     4.5496     4.6127     9.5693     0.436      73.0124   
2826.8     5.8986     2.1571     6.7587     9.8675     7.9366     4.5919     4.5577     9.436      0.436      72.4707   
2827       5.8986     2.1571     6.8067     9.9084     8.0174     4.6449     4.513      9.3266     0.433      71.7536   
2827.2     5.8986     2.1571     6.8067     9.9084     8.0718     4.6449     4.5168     9.3143     0.433      72.3543   
2827.4     5.8527     2.1571     6.8067     9.9084     8.1317     4.6449     4.508      9.3334     0.438      72.6722   
2827.6     5.8183     2.1757     6.858      9.9355     8.2404     4.6678     4.4681     9.3676     0.433      72.7866   
2827.8     5.7411     2.211      6.9515     10.0149    8.3494     4.6978     4.2778     9.3933     0.433      73.2122   
2828       5.6856     2.211      6.9639     10.0105    8.4112     4.6978     4.08       9.4183     0.432      73.8077   
2828.2     5.5993     2.184      6.9458     9.9227     8.4112     4.6978     4.0395     9.5015     0.427      73.977    
2828.4     5.5445     2.1547     6.8442     9.8035     8.3958     4.6978     4.0029     9.6122     0.427      73.3607   
2828.6     5.5176     2.1032     6.7074     9.6476     8.3158     4.648      3.9859     9.6918     0.427      72.1394   
2828.8     5.4725     2.1032     6.6498     9.55       8.2863     4.5919     3.9166     9.753      0.424      70.3313   
2829       5.4725     2.1032     6.5927     9.4245     8.1636     4.5919     3.5501     9.8966     0.421      70.4009   
2829.2     5.5137     2.0447     6.3526     9.146      7.952      4.5764     3.804      10.1075    0.418      70.6236   
2829.4     5.5856     1.9415     6.0277     8.8339     7.7594     4.5389     4.3186     10.3233    0.406      70.4958   
2829.6     5.6963     1.956      6.0821     8.7594     7.7277     4.5389     4.5612     10.4197    0.409      71.3203   
2829.8     5.7606     1.9954     6.1827     8.8151     7.8075     4.5634     4.7408     10.3612    0.408      73.1373   
2830       5.8633     2.0582     6.3579     8.8964     7.8369     4.5919     4.7642     10.1938    0.41       74.168    
2830.2     5.925      2.1234     6.4158     8.9499     7.8851     4.6449     4.779      10.0262    0.41       73.9548   
2830.4     5.923      2.1571     6.566      8.9843     7.8937     4.6449     4.7034     9.8833     0.404      74.883    
2830.6     5.867      2.2073     6.7716     9.0954     7.9377     4.5919     4.3642     9.8473     0.404      75.3969   
2830.8     5.8127     2.211      6.9237     9.1974     7.9377     4.5919     4.1216     9.8732     0.404      75.4289   
2831       5.7579     2.209      6.9422     9.169      7.8828     4.5919     4.1845     9.9006     0.404      74.759    
2831.2     5.7743     2.1236     6.743      9.0591     7.7325     4.5919     4.3128     9.9006     0.406      73.9659   
2831.4     5.7921     2.0546     6.5737     9.0174     7.631      4.5389     4.3544     9.9061     0.41       73.8167   
2831.6     5.7539     2.1103     6.7291     9.1476     7.6896     4.5389     4.3022     9.9622     0.415      74.5661   
2831.8     5.7388     2.1222     6.7508     9.3753     7.7025     4.5389     4.246      10.0323    0.415      75.3544   
2832       5.7388     2.1032     6.6968     9.4748     7.6742     4.5389     4.2288     10.0072    0.419      74.5006   
2832.2     5.7388     2.1032     6.6427     9.4604     7.5921     4.5389     4.2215     9.9876     0.421      73.3069   
2832.4     5.7388     2.1032     6.5546     9.4051     7.4873     4.486      4.2047     9.9539     0.421      73.53     
