~Version
 VERS              .         2.0                           : CWLS LOG ASCII STANDARD - VERSION 2.0
 WRAP              .         NO                            : ONE LINE PER DEPTH STEP
 DLM               .         SPACE                         : DELIMITING CHARACTER(SPACE TAB OR COMMA)
~Well Information
#_______________________________________________________________________________
#
#PARAMETER_NAME    .UNIT     VALUE                         : DESCRIPTION
#_______________________________________________________________________________
STRT               .m        2779                          : First reference value
STOP               .m        3002                          : Last reference value
STEP               .m        0.2                           : Step increment
NULL               .         -9999                         : Missing value
COMP               .                                       : Company
WELL               .         601                           : Well name
FLD                .                                       : Field
LOC                .                                       : Location
CNTY               .                                       : County
STAT               .                                       : State
CTRY               .                                       : Country
SRVC               .                                       : Service Company
DATE               .                                       : Date
API                .                                       : API number
EREF               .m        134                           : 
X                  .m        225746                        : 
Y                  .m        235643                        : 
group              .         Pad6                          : 
Интер-р            .         Ярышев                        : 
Куст               .         6                             : 
Статус             .         Не проверено                  : 
Тип                .         Разведка                      : 
~Parameter Information Block
#_______________________________________________________________________________
#
#PARAMETER_NAME    .UNIT     VALUE                         : DESCRIPTION
#_______________________________________________________________________________
SET                .         LAS1                          : 
REAL_CREATION_DATE .         Ср апр 11 2012-13_17_22       : 
TLFamily_DEPTH     .         Measured Depth                : 
TLFamily_KS        .         Potential Resistivity         : 
TLFamily_KS1       .         Extra Shallow Resistivity     : 
TLFamily_KS2       .         Shallow Resistivity           : 
TLFamily_KS3       .         Medium Resistivity            : 
TLFamily_KS4       .         Deep Resistivity              : 
TLFamily_KS5       .         Extra Deep Resistivity        : 
TLFamily_LLD       .         Lateral Log Resistivity       : 
TLFamily_OKS3      .         Medium Resistivity Inverted   : 
TLFamily_RM        .         Mud Resistivity               : 
TLFamily_SP        .         Spontaneous Potential         : 
group              .         INI                           : 
~Curve Information
#_______________________________________________________________________________
#
#LOGNAME           .UNIT     LOG_ID                        : DESCRIPTION
#_______________________________________________________________________________
DEPTH              .m                                      : Measured Depth 
KS                 .ohm.m                                  : Potential Resistivity 
KS1                .ohm.m                                  : Extra Shallow Resistivity 
KS2                .ohm.m                                  : Shallow Resistivity 
KS3                .ohm.m                                  : Medium Resistivity 
KS4                .ohm.m                                  : Deep Resistivity 
KS5                .ohm.m                                  : Extra Deep Resistivity 
LLD                .ohm.m                                  : Lateral Log Resistivity 
OKS3               .ohm.m                                  : Medium Resistivity Inverted 
RM                 .ohm.m                                  : Mud Resistivity 
SP                 .mV                                     : Spontaneous Potential 
~Ascii
# ...
2859.4     8.6867     3.4185     12.2422    19.2464    19.1337    11.2595    8.0546     10.5481    0.45       29.443    
2859.6     8.2842     3.0862     11.3779    18.3252    18.0844    10.9489    4.82       10.3555    0.443      35.5305   
2859.8     7.9528     2.7056     10.4441    17.3041    16.8533    10.3822    4.7163     10.4278    0.439      41.3996   
2860       7.6837     2.5631     10.0628    16.9457    16.2635    10.0222    6.0466     10.2502    0.439      48.5139   
2860.2     7.5908     2.55       9.7089     16.7454    15.7988    9.9484     6.1427     9.8872     0.439      56.1464   
2860.4     7.4754     2.4452     8.9032     16.556     15.5494    9.9413     5.3317     9.6497     0.435      61.0204   
2860.6     7.2604     2.4655     8.7477     16.5858    15.5696    9.8887     5.7187     9.5713     0.433      64.818    
2860.8     7.0289     2.4804     8.8035     16.9044    15.7874    9.8887     5.6971     9.4773     0.432      67.8501   
2861       6.8492     2.4804     8.8297     16.8619    15.8743    9.866      5.2517     9.4209     0.427      69.8738   
2861.2     6.6819     2.4539     8.6286     16.3903    15.7349    9.7532     4.7677     9.4209     0.421      71.4816   
2861.4     6.5484     2.3699     8.3499     15.6521    15.4867    9.5518     4.5641     9.3974     0.415      73.4041   
2861.6     6.4344     2.3187     8.0651     14.8079    15.2681    9.2473     4.5806     9.3675     0.415      76.539    
2861.8     6.3367     2.3187     7.8849     14.0664    15.0094    8.853      4.6034     9.2818     0.41       78.9938   
2862       6.2601     2.28       7.6924     13.4791    14.7851    8.5637     4.5509     9.2002     0.415      79.7096   
2862.2     6.1932     2.2648     7.5257     12.9873    14.5602    8.4016     4.4625     9.1544     0.415      80.0254   
2862.4     6.1146     2.2648     7.3917     12.5752    14.3659    8.2996     4.3769     9.1406     0.415      79.3273   
2862.6     6.0563     2.2398     7.3173     12.1046    14.1633    8.2752     4.3524     9.1011     0.41       78.362    
2862.8     5.9694     2.211      7.2352     11.5468    13.8683    8.2467     4.2572     9.1229     0.407      78.4344   
2863       5.9136     2.211      7.1339     11.2122    13.5476    8.2467     4.1426     9.18       0.401      79.1462   
2863.2     5.8579     2.1856     7.0686     10.9595    13.1926    8.2463     4.3027     9.235      0.404      79.3646   
2863.4     5.8019     2.211      7.0686     10.7731    12.8013    8.1937     4.2921     9.261      0.408      79.4932   
2863.6     5.7456     2.211      7.0624     10.6475    12.3815    8.1407     4.1169     9.3051     0.415      80.7436   
2863.8     5.6895     2.211      6.973      10.4365    11.8726    8.0676     4.0179     9.4056     0.416      81.8588   
2864       5.6536     2.1621     6.8498     10.2095    11.3443    7.9544     3.8904     9.4789     0.421      81.6547   
2864.2     5.6323     2.105      6.714      9.9806     10.8495    7.7552     3.8713     9.547      0.427      82.1746   
2864.4     5.6323     2.1571     6.702      9.7788     10.4009    7.5286     4.0326     9.5582     0.427      82.9215   
2864.6     5.6323     2.1571     6.6545     9.6355     9.8918     7.3532     4.0713     9.5015     0.427      82.9158   
2864.8     5.6323     2.1571     6.6233     9.4667     9.4066     7.1816     4.0261     9.4209     0.427      82.9645   
2865       5.6323     2.1571     6.5448     9.2629     8.9884     6.9572     3.9201     9.3962     0.432      83.0714   
2865.2     5.6323     2.1401     6.4737     9.0752     8.6272     6.7843     3.8576     9.4084     0.438      83.3155   
2865.4     5.6323     2.1235     6.4683     8.9869     8.331      6.6348     4.0442     9.3676     0.438      83.8665   
2865.6     5.6323     2.1571     6.5066     8.9299     8.1418     6.5517     4.0808     9.3868     0.438      83.7191   
2865.8     5.6323     2.1301     6.4595     8.8        7.9485     6.4987     3.8877     9.5398     0.439      83.0518   
2866       5.6323     2.1032     6.3435     8.7385     7.842      6.5425     3.7455     9.7366     0.433      82.9075   
2866.2     5.6459     2.0952     6.3586     8.7693     7.8325     6.6026     3.7988     9.9911     0.429      83.34     
2866.4     5.7034     2.0608     6.4139     8.8832     7.9096     6.7158     3.9045     10.2105    0.427      83.2634   
2866.6     5.7604     2.1032     6.4401     8.9962     7.9377     6.7761     4.1236     10.3612    0.421      83.2928   
2866.8     5.8173     2.1032     6.4478     9.0701     7.9377     6.8695     4.2345     10.393     0.416      83.7521   
2867       5.8744     2.1244     6.5036     9.1263     7.9377     6.8972     4.2962     10.4501    0.415      85.1099   
2867.2     5.8986     2.1571     6.5985     9.1829     7.9501     6.838      4.3657     10.4869    0.41       85.4668   
2867.4     5.9071     2.2103     6.752      9.2161     7.9338     6.7636     4.5026     10.4151    0.41       85.3141   
2867.6     5.9519     2.2038     6.7861     9.1633     7.7769     6.6132     4.3126     10.3803    0.41       85.7039   
2867.8     5.9519     2.1571     6.7543     9.0805     7.6795     6.4489     4.2203     10.4419    0.409      85.2994   
2868       5.9073     2.1714     6.8322     9.0642     7.6746     6.2752     4.2871     10.5474    0.403      84.902    
2868.2     5.8454     2.211      7.0213     9.1345     7.633      5.9202     4.3681     10.5034    0.404      85.3343   
2868.4     5.8454     2.1875     6.8323     9.0352     7.4226     5.6568     4.2927     10.4472    0.411      86.2095   
2868.6     5.8454     2.105      6.5939     8.8858     7.1679     5.4006     3.8906     10.4515    0.415      86.3548   
2868.8     5.8526     2.1032     6.5204     8.8208     7.0409     5.1532     3.988      10.5769    0.418      85.2057   
2869       5.8986     2.0971     6.475      8.816      6.9297     5.0196     4.0872     10.7985    0.421      84.4141   
2869.2     5.8986     2.0839     6.4401     8.8433     6.8854     5.0178     4.0685     11.0551    0.421      85.2272   
2869.4     5.9423     2.1032     6.4371     8.877      6.9107     5.1387     4.1062     11.3704    0.426      87.7535   
2869.6     6.0223     2.0615     6.351      8.9091     7.0225     5.3278     4.0726     11.755     0.432      88.8079   
2869.8     6.1147     2.0493     6.2919     9.063      7.2338     5.6147     4.0028     12.2482    0.433      86.6486   
2870       6.2341     2.0748     6.457      9.5091     7.7959     5.9838     4.1416     12.8304    0.433      85.233    
2870.2     6.4199     2.1571     6.7768     9.9229     8.3626     6.2108     4.5092     12.9512    0.433      85.3256   
2870.4     6.5704     2.1628     6.7641     10.0943    8.5945     6.3362     5.1459     12.5731    0.43       86.0616   
2870.6     6.6844     2.2706     7.0964     10.1307    8.7613     6.3928     5.031      12.2488    0.43       87.5116   
2870.8     6.74       2.2648     7.0227     10.1952    8.9532     6.3928     5.5579     12.1969    0.423      89.2085   
2871       6.7957     2.2796     7.2447     10.1964    9.0692     6.3928     4.9697     12.2787    0.421      90.3294   
2871.2     6.8301     2.2755     7.4002     10.3104    9.2248     6.3928     4.7575     12.2382    0.416      90.6166   
2871.4     6.8573     2.3338     7.6916     10.5103    9.4147     6.3642     5.0157     12.0034    0.415      90.588    
2871.6     6.8573     2.3984     7.9859     10.8055    9.5547     6.1978     5.4084     11.6522    0.414      89.8226   
2871.8     6.8154     2.4541     8.1411     11.0456    9.4924     6.0849     5.827      11.2049    0.413      90.3897   
2872       6.7017     2.4746     8.154      11.1602    9.3447     5.8696     5.6327     10.861     0.412      91.1235   
2872.2     6.588      2.4265     8.1169     11.2533    9.1335     5.6436     5.2054     10.6681    0.409      90.6317   
2872.4     6.4749     2.4265     8.1665     11.4052    8.9858     5.4165     4.7307     10.562     0.404      89.8255   
2872.6     6.3853     2.4103     8.0337     11.3026    8.6779     5.2625     4.6787     10.5851    0.404      89.2935   
