~Version
 VERS              .         2.0                           : CWLS LOG ASCII STANDARD - VERSION 2.0
 WRAP              .         NO                            : ONE LINE PER DEPTH STEP
 DLM               .         SPACE                         : DELIMITING CHARACTER(SPACE TAB OR COMMA)
~Well Information
#_______________________________________________________________________________
#
#PARAMETER_NAME    .UNIT     VALUE                         : DESCRIPTION
#_______________________________________________________________________________
STRT               .m        2779                          : First reference value
STOP               .m        3002                          : Last reference value
STEP               .m        0.2                           : Step increment
NULL               .         -9999                         : Missing value
COMP               .                                       : Company
WELL               .         601                           : Well name
FLD                .                                       : Field
LOC                .                                       : Location
CNTY               .                                       : County
STAT               .                                       : State
CTRY               .                                       : Country
SRVC               .                                       : Service Company
DATE               .                                       : Date
API                .                                       : API number
EREF               .m        134                           : 
X                  .m        225746                        : 
Y                  .m        235643                        : 
group              .         Pad6                          : 
Интер-р            .         Ярышев                        : 
Куст               .         6                             : 
Статус             .         Не проверено                  : 
Тип                .         Разведка                      : 
~Parameter Information Block
#_______________________________________________________________________________
#
#PARAMETER_NAME    .UNIT     VALUE                         : DESCRIPTION
#_______________________________________________________________________________
SET                .         LAS1                          : 
REAL_CREATION_DATE .         Ср апр 11 2012-13_17_22       : 
TLFamily_DEPTH     .         Measured Depth                : 
TLFamily_KS        .         Potential Resistivity         : 
TLFamily_KS1       .         Extra Shallow Resistivity     : 
TLFamily_KS2       .         Shallow Resistivity           : 
TLFamily_KS3       .         Medium Resistivity            : 
TLFamily_KS4       .         Deep Resistivity              : 
TLFamily_KS5       .         Extra Deep Resistivity        : 
TLFamily_LLD       .         Lateral Log Resistivity       : 
TLFamily_OKS3      .         Medium Resistivity Inverted   : 
TLFamily_RM        .         Mud Resistivity               : 
TLFamily_SP        .         Spontaneous Potential         : 
group              .         INI                           : 
~Curve Information
#_______________________________________________________________________________
#
#LOGNAME           .UNIT     LOG_ID                        : DESCRIPTION
#_______________________________________________________________________________
DEPTH              .m                                      : Measured Depth 
KS                 .ohm.m                                  : Potential Resistivity 
KS1                .ohm.m                                  : Extra Shallow Resistivity 
KS2                .ohm.m                                  : Shallow Resistivity 
KS3                .ohm.m                                  : Medium Resistivity 
KS4                .ohm.m                                  : Deep Resistivity 
KS5                .ohm.m                                  : Extra Deep Resistivity 
LLD                .ohm.m                                  : Lateral Log Resistivity 
OKS3               .ohm.m                                  : Medium Resistivity Inverted 
RM                 .ohm.m                                  : Mud Resistivity 
SP                 .mV                                     : Spontaneous Potential 
~Ascii
# ...
2939.8     7.3473     1.9002     5.9967     11.1572    9.4695     7.1604     5.2574     20.8156    0.398      33.8249   
2940       7.6392     1.8876     6.1884     11.678     10.7139    8.1215     9.3887     20.8717    0.398      35.562    
2940.2     7.9602     2.0692     6.9419     12.1974    11.7877    9.0869     10.1326    19.3991    0.414      37.8277   
2940.4     8.3701     2.288      7.3414     12.2098    12.2796    10.0262    5.7314     17.631     0.41       38.3155   
2940.6     8.7588     2.1735     6.9622     11.6534    12.4952    10.9551    5.2896     17.2859    0.406      37.3586   
2940.8     9.2142     1.9802     6.5341     11.2717    13.1741    11.9195    8.8421     17.3851    0.388      38.1002   
2941       9.6725     1.9883     7.0627     11.716     14.4774    13.0359    32.1587    16.6788    0.391      39.2351   
2941.2     10.0785    2.3359     8.4062     13.0494    16.0921    14.1181    37.0464    15.0663    0.409      39.725    
2941.4     10.1594    2.7702     9.7551     14.544     17.5396    14.9075    17.1248    13.5291    0.421      38.8629   
2941.6     10.0927    3.0166     10.5442    15.7354    18.6203    15.5285    7.81       12.9085    0.421      37.4206   
2941.8     9.7322     2.9146     10.7509    16.9293    19.5108    15.821     21.2274    12.6153    0.415      36.7051   
2942       9.1698     3.2324     12.6053    19.1063    20.6104    15.6673    36.2895    11.8707    0.409      35.6157   
2942.2     8.453      3.604      14.3427    21.5711    21.2068    14.9263    11.5228    10.5289    0.401      33.6843   
2942.4     7.6778     3.6174     14.4207    22.5981    20.2536    13.6143    4.8259     9.3644     0.413      31.7154   
2942.6     7.0083     3.3068     13.029     21.2809    17.8405    11.8781    3.3663     8.6311     0.421      29.9219   
2942.8     6.5328     2.7262     10.8705    18.8289    14.9399    9.8572     3.2875     8.3695     0.421      28.8816   
2943       6.2166     2.3479     9.5255     16.8985    12.6302    7.9151     3.611      8.432      0.414      29.3988   
2943.2     6.0217     2.2138     8.5866     15.8207    11.1233    6.4825     3.7262     8.7562     0.402      30.5869   
2943.4     5.908      2.075      7.5221     14.8401    10.1715    5.4597     3.9424     9.2618     0.39       30.2001   
2943.6     5.8333     2.0561     6.9218     13.7977    9.5707     4.7339     4.3578     9.5855     0.393      28.7089   
2943.8     5.7506     2.0678     6.5101     12.8862    9.253      4.147      3.7769     10.0336    0.408      28.5466   
2944       5.6734     2.0493     6.2768     11.9804    8.9717     3.7505     3.9425     10.4338    0.415      30.3361   
2944.2     5.585      2.0316     6.085      11.2658    8.882      3.4664     3.7474     10.926     0.409      30.7713   
2944.4     5.529      1.9741     5.888      10.4163    8.759      3.3074     3.4297     11.6771    0.392      29.7095   
2944.6     5.5269     1.9169     5.666      9.5405     8.5786     3.2881     3.3508     12.7865    0.4        28.8917   
2944.8     5.6237     1.8067     5.3317     8.8258     8.5667     3.4811     3.2993     14.2058    0.41       29.3096   
2945       5.8785     1.692      5.0062     8.3773     8.9054     3.8811     3.4871     15.7385    0.406      30.0808   
2945.2     6.2905     1.5769     4.8246     8.3758     9.9223     4.3764     4.2348     17.4398    0.39       32.2884   
2945.4     6.8045     1.5226     4.7419     8.7434     11.2512    4.9446     8.7604     17.7507    0.385      34.3951   
2945.6     7.43       1.6372     5.1673     9.3801     12.6193    5.4547     13.4485    16.1849    0.402      34.1358   
2945.8     8.008      1.9176     5.8467     10.1539    13.8725    5.937      17.2766    13.3857    0.41       32.9606   
2946       8.3023     2.3101     6.8549     10.9482    15.0499    6.1984     14.3566    11.1367    0.413      32.3941   
2946.2     8.3452     2.6104     7.8963     11.5781    15.8746    6.3112     8.7328     9.5401     0.387      31.7378   
2946.4     8.2487     2.7187     8.6021     11.867     16.0208    6.3084     6.1748     8.3601     0.39       30.9203   
2946.6     8.1336     2.601      8.9372     11.8272    15.6634    6.2487     6.4209     7.4674     0.404      30.353    
2946.8     7.9583     2.5467     9.3119     12.0512    15.3256    6.136      8.2308     6.6628     0.414      30.502    
2947       7.7303     2.7022     10.0387    12.7586    15.2011    6.128      6.7533     6.1772     0.414      31.3843   
2947.2     7.4457     2.7839     10.224     13.7986    15.1763    6.1934     7.0034     5.957      0.397      30.6598   
2947.4     7.001      2.8695     10.5369    15.1577    15.3151    6.3928     10.3752    5.6684     0.396      28.9847   
2947.6     6.4099     3.0176     11.1669    17.3       15.7495    6.2975     10.5617    5.2601     0.414      28.0398   
2947.8     5.5922     3.4108     12.3237    19.1946    15.5309    6.1245     4.6116     4.8069     0.427      27.1188   
2948       4.9444     3.3408     11.679     18.9948    14.1632    5.8376     2.2696     4.4637     0.418      26.0984   
2948.2     4.4108     2.6281     9.1742     16.4723    11.8424    5.5602     2.1644     4.3618     0.401      26.7908   
2948.4     4.0054     2.1161     7.8824     14.2631    10.3663    5.0095     2.6279     4.4849     0.388      27.488    
2948.6     3.6587     2.0563     7.5817     13.1862    9.6724     4.7247     2.9537     4.5215     0.408      27.5579   
2948.8     3.3974     2.0823     7.0286     12.0888    8.8842     4.3874     2.2331     4.295      0.411      27.394    
2949       3.2557     1.9508     5.8149     10.1883    7.4857     3.9512     1.7559     4.0173     0.414      24.673    
2949.2     3.1412     1.6175     4.4645     8.1588     6.1174     3.3822     1.8117     3.9309     0.399      22.8193   
2949.4     3.0758     1.4566     3.9279     6.7059     5.3075     2.9043     2.0254     4.0871     0.389      24.7662   
2949.6     3.0758     1.4224     3.7056     5.9109     4.9907     2.6933     1.9186     4.4378     0.394      26.5172   
2949.8     3.0567     1.3651     3.3772     5.3704     4.8919     2.5278     1.9273     5.0666     0.404      25.489    
2950       3.0226     1.4223     3.4448     5.0288     4.86       2.4153     2.1131     5.9442     0.41       24.1875   
2950.2     3.0989     1.4457     3.3829     4.6195     4.6619     2.3673     2.1114     6.5782     0.409      24.7177   
2950.4     3.2438     1.3311     2.9782     4.0441     4.2612     2.3477     2.147      7.1364     0.391      26.1179   
2950.6     3.3456     1.3467     2.9705     3.7255     3.9585     2.3143     2.2869     8.0466     0.385      26.5906   
2950.8     3.4386     1.3998     2.9444     3.6045     3.8153     2.3804     2.2447     9.2339     0.406      26.553    
2951       3.6036     1.3424     2.8556     3.4377     3.685      2.6064     2.2656     10.5522    0.41       27.1346   
2951.2     3.8317     1.2949     2.8257     3.3582     3.7467     2.88       2.4516     12.3829    0.405      29.0827   
2951.4     4.1244     1.32       2.9796     3.4096     4.0395     3.2222     2.8606     14.5811    0.392      31.3558   
2951.6     4.7927     1.2893     3.056      3.6915     4.7233     3.718      4.1371     16.9642    0.393      33.2077   
2951.8     5.3389     1.5145     3.5384     3.8873     4.9711     3.9434     5.7021     17.4394    0.411      36.1203   
2952       5.9251     1.6182     3.6763     4.0364     5.1337     4.1701     4.8514     17.6888    0.413      40.2498   
2952.2     6.3946     1.7088     3.951      4.1738     5.2215     4.3618     5.8587     18.0547    0.401      45.1563   
2952.4     6.8874     1.827      4.4667     4.5057     5.4941     4.6116     5.9564     18.9173    0.389      50.0645   
2952.6     7.3398     1.8258     4.8388     4.8787     5.8738     4.896      6.6435     19.4643    0.405      54.6089   
2952.8     7.6992     1.9548     5.6647     5.4247     6.3733     5.2859     9.1423     19.6967    0.416      58.9427   
2953       8.0215     2.1311     6.4219     6.2159     6.8516     5.6864     9.7577     19.6695    0.421      62.6412   
