~Version
 VERS              .         2.0                           : CWLS LOG ASCII STANDARD - VERSION 2.0
 WRAP              .         NO                            : ONE LINE PER DEPTH STEP
 DLM               .         SPACE                         : DELIMITING CHARACTER(SPACE TAB OR COMMA)
~Well Information
#_______________________________________________________________________________
#
#PARAMETER_NAME    .UNIT     VALUE                         : DESCRIPTION
#_______________________________________________________________________________
STRT               .m        2779                          : First reference value
STOP               .m        3002                          : Last reference value
STEP               .m        0.2                           : Step increment
NULL               .         -9999                         : Missing value
COMP               .                                       : Company
WELL               .         601                           : Well name
FLD                .                                       : Field
LOC                .                                       : Location
CNTY               .                                       : County
STAT               .                                       : State
CTRY               .                                       : Country
SRVC               .                                       : Service Company
DATE               .                                       : Date
API                .                                       : API number
EREF               .m        134                           : 
X                  .m        225746                        : 
Y                  .m        235643                        : 
group              .         Pad6                          : 
Интер-р            .         Ярышев                        : 
Куст               .         6                             : 
Статус             .         Не проверено                  : 
Тип                .         Разведка                      : 
~Parameter Information Block
#_______________________________________________________________________________
#
#PARAMETER_NAME    .UNIT     VALUE                         : DESCRIPTION
#_______________________________________________________________________________
SET                .         LAS1                          : 
REAL_CREATION_DATE .         Ср апр 11 2012-13_17_22       : 
TLFamily_DEPTH     .         Measured Depth                : 
TLFamily_KS        .         Potential Resistivity         : 
TLFamily_KS1       .         Extra Shallow Resistivity     : 
TLFamily_KS2       .         Shallow Resistivity           : 
TLFamily_KS3       .         Medium Resistivity            : 
TLFamily_KS4       .         Deep Resistivity              : 
TLFamily_KS5       .         Extra Deep Resistivity        : 
TLFamily_LLD       .         Lateral Log Resistivity       : 
TLFamily_OKS3      .         Medium Resistivity Inverted   : 
TLFamily_RM        .         Mud Resistivity               : 
TLFamily_SP        .         Spontaneous Potential         : 
group              .         INI                           : 
~Curve Information
#_______________________________________________________________________________
#
#LOGNAME           .UNIT     LOG_ID                        : DESCRIPTION
#_______________________________________________________________________________
DEPTH              .m                                      : Measured Depth 
KS                 .ohm.m                                  : Potential Resistivity 
KS1                .ohm.m                                  : Extra Shallow Resistivity 
KS2                .ohm.m                                  : Shallow Resistivity 
KS3                .ohm.m                                  : Medium Resistivity 
KS4                .ohm.m                                  : Deep Resistivity 
KS5                .ohm.m                                  : Extra Deep Resistivity 
LLD                .ohm.m                                  : Lateral Log Resistivity 
OKS3               .ohm.m                                  : Medium Resistivity Inverted 
RM                 .ohm.m                                  : Mud Resistivity 
SP                 .mV                                     : Spontaneous Potential 
~Ascii
# ...
2792.4     6.5767     2.2648     7.5401     11.2477    9.5602     5.4924     5.2803     12.0296    0.427      57.6063   
2792.6     6.591      2.2648     7.468      11.2894    9.5687     5.4924     5.4114     11.9793    0.427      57.6807   
2792.8     6.6039     2.2648     7.3431     11.2398    9.5687     5.4924     5.3266     11.9793    0.427      58.0628   
2793       6.6443     2.2648     7.2782     11.2398    9.5687     5.4924     5.2517     11.9793    0.427      58.1495   
2793.2     6.6448     2.2161     7.2648     11.2398    9.5687     5.5453     5.3516     11.9793    0.422      59.3859   
2793.4     6.6975     2.211      7.2554     11.2398    9.6374     5.5983     5.3495     12.0363    0.425      59.9925   
2793.6     6.6975     2.2333     7.3044     11.3211    9.8492     5.5983     5.3304     12.1126    0.427      59.1543   
2793.8     6.6975     2.2444     7.4413     11.4238    9.9896     5.5983     5.4801     12.0728    0.427      58.9612   
2794       6.7091     2.3339     7.6337     11.3995    10.0206    5.5983     6.0422     11.7725    0.427      60.0831   
2794.2     6.7444     2.3187     7.481      11.3067    9.9896     5.6489     6.1779     11.47      0.427      60.8131   
2794.4     6.6656     2.3187     7.5374     11.2714    9.9975     5.5983     5.4219     11.3808    0.427      61.4358   
2794.6     6.6023     2.3187     7.5925     11.3611    10.087     5.5453     5.2918     11.473     0.431      62.4545   
2794.8     6.5377     2.2947     7.5925     11.3468    10.0539    5.5453     5.255      11.4716    0.433      62.7807   
2795       6.5377     2.2648     7.5611     11.2981    10.0222    5.5453     5.2566     11.393     0.433      63.2248   
2795.2     6.5377     2.241      7.4443     11.2501    9.9896     5.5364     5.2528     11.3397    0.433      63.6985   
2795.4     6.5377     2.2379     7.321      11.2398    10.0056    5.5217     5.2394     11.3727    0.438      63.4181   
2795.6     6.4934     2.2154     7.3648     11.2572    9.9896     5.4924     5.2532     11.3791    0.433      63.6803   
2795.8     6.4845     2.2648     7.3538     11.3067    10.0334    5.5453     5.3037     11.3397    0.433      64.2543   
2796       6.4845     2.211      7.3148     11.3463    10.0023    5.5453     5.3103     11.2874    0.433      63.787    
2796.2     6.4845     2.2648     7.3983     11.3937    9.9896     5.5453     5.4614     11.1898    0.433      63.64     
2796.4     6.4722     2.2648     7.3305     11.3298    9.9896     5.5983     5.2831     11.1798    0.433      63.9902   
2796.6     6.4312     2.2648     7.353      11.2538    9.9896     5.5983     5.3168     11.161     0.438      64.3162   
2796.8     6.429      2.2648     7.4018     11.205     9.9896     5.5983     5.1752     11.2088    0.438      64.3717   
2797       6.378      2.2204     7.3305     11.1036    9.9896     5.5983     5.0266     11.2598    0.433      64.8277   
2797.2     6.378      2.211      7.2792     11.0534    9.9633     5.5983     5.1244     11.3088    0.433      66.6692   
2797.4     6.3606     2.211      7.252      11.0267    9.9744     5.6368     5.1308     11.3814    0.43       68.0152   
2797.6     6.3449     2.2256     7.2782     11.0688    10.0069    5.6201     5.1512     11.393     0.433      66.9773   
2797.8     6.3247     2.2379     7.3464     11.08      10.0422    5.6513     5.2885     11.3397    0.433      65.064    
2798       6.3247     2.211      7.2975     11.0272    10.0064    5.5983     5.2611     11.2724    0.433      64.1727   
2798.2     6.3247     2.211      7.1841     10.9001    9.9002     5.5453     5.1767     11.1545    0.433      64.544    
2798.4     6.3247     2.1858     7.07       10.7247    9.7093     5.5435     5.0865     11.0729    0.427      65.3245   
2798.6     6.3247     2.1571     7.0686     10.5998    9.5439     5.4924     5.0928     11.0199    0.427      66.0472   
2798.8     6.3247     2.1571     7.0948     10.5475    9.5161     5.4924     5.1257     11.0419    0.427      65.8648   
2799       6.3247     2.1571     7.121      10.5475    9.5161     5.5219     5.1589     11.09      0.426      65.7954   
2799.2     6.3247     2.1571     7.1565     10.6007    9.5409     5.5453     5.2071     11.1265    0.421      66.8799   
2799.4     6.3247     2.1571     7.1734     10.6152    9.5161     5.5453     5.3068     11.1084    0.421      67.0138   
2799.6     6.3247     2.1571     7.1734     10.654     9.5161     5.5453     5.2358     11.1265    0.415      66.9694   
2799.8     6.2714     2.1762     7.1734     10.654     9.4635     5.5453     5.1257     11.1529    0.415      67.0728   
2800       6.2714     2.1571     7.1472     10.654     9.4635     5.5453     5.0712     11.2735    0.415      66.078    
2800.2     6.2222     2.1571     7.121      10.654     9.4635     5.5983     4.9776     11.3969    0.415      65.3248   
2800.4     6.2182     2.1571     7.0872     10.654     9.4635     5.5983     4.9932     11.5482    0.415      65.7954   
2800.6     6.2614     2.1328     7.0163     10.6373    9.4574     5.5983     5.075      11.6595    0.415      65.8456   
2800.8     6.2714     2.1571     7.0062     10.5725    9.4109     5.5983     5.1022     11.6819    0.415      65.9103   
2801       6.2913     2.1571     6.9377     10.4893    9.3881     5.5983     5.1173     11.6595    0.415      65.9691   
2801.2     6.3247     2.1032     6.9115     10.4386    9.2884     5.5453     5.1842     11.5965    0.415      65.5436   
2801.4     6.3319     2.1032     6.9115     10.364     9.2254     5.4924     5.2857     11.4629    0.415      66.669    
2801.6     6.378      2.1032     6.9115     10.3344    9.1837     5.4924     5.4041     11.2931    0.415      67.2295   
2801.8     6.378      2.1301     6.9278     10.3344    9.2066     5.4797     5.2929     11.2065    0.415      66.4147   
2802       6.378      2.1571     7.0163     10.3344    9.253      5.4883     5.1911     11.1532    0.412      66.5739   
2802.2     6.378      2.1032     7.0163     10.3827    9.2776     5.4924     5.2189     11.0999    0.41       67.8023   
2802.4     6.378      2.1188     7.0424     10.3903    9.3056     5.4924     5.2273     11.0732    0.41       68.6207   
2802.6     6.378      2.1034     7.0686     10.441     9.3056     5.5453     5.2009     10.9841    0.41       68.3871   
2802.8     6.3946     2.1032     7.0163     10.5154    9.3582     5.5983     5.1618     10.9666    0.409      67.1603   
2803       6.378      2.1512     7.0772     10.6497    9.442      5.6146     5.1704     10.9314    0.408      66.2128   
2803.2     6.378      2.1571     7.1732     10.799     9.5868     5.7042     5.234      10.9083    0.408      67.4116   
2803.4     6.4312     2.1571     7.1734     10.8936    9.6605     5.7572     5.2861     10.7888    0.41       70.0469   
2803.6     6.4312     2.1745     7.1996     10.9469    9.7079     5.797      5.3484     10.5215    0.41       69.7509   
2803.8     6.4312     2.211      7.252      11.0125    9.8089     5.8102     5.4923     10.2392    0.41       68.4857   
2804       6.3993     2.211      7.2782     11.0267    9.8419     5.8327     5.5294     9.9171     0.415      68.9056   
2804.2     6.378      2.2379     7.3107     11.0267    9.9107     5.8631     5.3388     9.6506     0.411      68.943    
2804.4     6.3247     2.2379     7.3708     11.0798    9.9396     5.9161     5.1742     9.5541     0.41       68.6958   
2804.6     6.2873     2.211      7.3651     11.08      10.0298    5.9161     5.0606     9.5256     0.41       68.6289   
2804.8     6.2182     2.211      7.431      11.08      10.0784    5.9691     5.1268     9.4479     0.412      68.7064   
2805       6.1862     2.211      7.4091     11.08      10.1112    5.9691     5.085      9.3306     0.414      69.1353   
2805.2     6.1123     2.263      7.4353     11.1023    10.1474    5.9691     5.0591     9.2293     0.415      69.7549   
2805.4     6.0148     2.2648     7.3829     11.1332    10.1954    5.9691     4.9993     9.2077     0.415      69.3326   
2805.6     5.8873     2.2648     7.4353     11.1865    10.2001    6.022      4.7906     9.2646     0.415      69.3265   
