~Version
 VERS              .         2.0                           : CWLS LOG ASCII STANDARD - VERSION 2.0
 WRAP              .         NO                            : ONE LINE PER DEPTH STEP
 DLM               .         SPACE                         : DELIMITING CHARACTER(SPACE TAB OR COMMA)
~Well Information
#_______________________________________________________________________________
#
#PARAMETER_NAME    .UNIT     VALUE                         : DESCRIPTION
#_______________________________________________________________________________
STRT               .m        2779                          : First reference value
STOP               .m        3002                          : Last reference value
STEP               .m        0.2                           : Step increment
NULL               .         -9999                         : Missing value
COMP               .                                       : Company
WELL               .         601                           : Well name
FLD                .                                       : Field
LOC                .                                       : Location
CNTY               .                                       : County
STAT               .                                       : State
CTRY               .                                       : Country
SRVC               .                                       : Service Company
DATE               .                                       : Date
API                .                                       : API number
EREF               .m        134                           : 
X                  .m        225746                        : 
Y                  .m        235643                        : 
group              .         Pad6                          : 
Интер-р            .         Ярышев                        : 
Куст               .         6                             : 
Статус             .         Не проверено                  : 
Тип                .         Разведка                      : 
~Parameter Information Block
#_______________________________________________________________________________
#
#PARAMETER_NAME    .UNIT     VALUE                         : DESCRIPTION
#_______________________________________________________________________________
SET                .         LAS1                          : 
REAL_CREATION_DATE .         Ср апр 11 2012-13_17_22       : 
TLFamily_DEPTH     .         Measured Depth                : 
TLFamily_KS        .         Potential Resistivity         : 
TLFamily_KS1       .         Extra Shallow Resistivity     : 
TLFamily_KS2       .         Shallow Resistivity           : 
TLFamily_KS3       .         Medium Resistivity            : 
TLFamily_KS4       .         Deep Resistivity              : 
TLFamily_KS5       .         Extra Deep Resistivity        : 
TLFamily_LLD       .         Lateral Log Resistivity       : 
TLFamily_OKS3      .         Medium Resistivity Inverted   : 
TLFamily_RM        .         Mud Resistivity               : 
TLFamily_SP        .         Spontaneous Potential         : 
group              .         INI                           : 
~Curve Information
#_______________________________________________________________________________
#
#LOGNAME           .UNIT     LOG_ID                        : DESCRIPTION
#_______________________________________________________________________________
DEPTH              .m                                      : Measured Depth 
KS                 .ohm.m                                  : Potential Resistivity 
KS1                .ohm.m                                  : Extra Shallow Resistivity 
KS2                .ohm.m                                  : Shallow Resistivity 
KS3                .ohm.m                                  : Medium Resistivity 
KS4                .ohm.m                                  : Deep Resistivity 
KS5                .ohm.m                                  : Extra Deep Resistivity 
LLD                .ohm.m                                  : Lateral Log Resistivity 
OKS3               .ohm.m                                  : Medium Resistivity Inverted 
RM                 .ohm.m                                  : Mud Resistivity 
SP                 .mV                                     : Spontaneous Potential 
~Ascii
# ...
2846       9.6386     3.9728     18.2416    39.5225    32.2771    11.5468    5.2662     9.7696     0.439      17.6493   
2846.2     8.7486     3.3567     15.822     35.4915    29.741     10.4514    5.3501     10.0533    0.434      20.601    
2846.4     8.2488     2.9668     14.0691    31.9618    27.8646    9.688      4.7303     10.3853    0.431      23.9823   
2846.6     7.8872     2.617      11.7807    29.3685    26.8137    9.1971     5.0446     10.9108    0.43       25.1251   
2846.8     7.6145     2.6        10.7892    27.3413    26.3132    8.8233     4.691      11.8128    0.427      23.1733   
2847       7.5068     2.5098     9.7427     25.6379    26.1358    8.6414     4.8432     12.535     0.431      21.3176   
2847.2     7.4964     2.3139     8.5816     23.2971    25.9309    8.7513     5.6466     12.8391    0.427      20.5303   
2847.4     7.4704     2.3117     8.5761     21.7416    26.4141    8.7763     7.9846     12.7538    0.411      20.8818   
2847.6     7.3621     2.6161     9.0395     20.9302    27.2302    8.7763     6.0298     12.683     0.421      20.2897   
2847.8     7.249      2.6165     8.7624     19.5406    26.8169    8.8293     4.845      12.9142    0.423      18.1815   
2848       7.2204     2.4409     8.2869     17.1005    24.8975    8.7763     5.3926     12.9994    0.42       15.9276   
2848.2     7.2167     2.2935     7.8985     15.0932    23.0573    8.5763     6.2532     12.7241    0.4        13.8652   
2848.4     7.2116     2.3795     8.1021     14.0716    21.8949    8.3523     5.3707     12.6385    0.389      12.9388   
2848.6     7.1769     2.4241     8.0566     13.42      21.2028    8.24       5.0929     12.9983    0.398      13.7827   
2848.8     7.08       2.3283     7.8298     12.8662    20.3976    8.1169     6.6477     13.3318    0.399      14.9542   
2849       7.0703     2.4367     8.1893     12.5261    19.2588    7.896      5.9864     13.494     0.403      15.4855   
2849.2     7.0703     2.378      7.824      12.2057    18.1124    7.6437     4.5238     14.4879    0.395      16.542    
2849.4     7.0703     2.3178     7.5557     11.7861    16.6161    7.5002     5.0974     15.5919    0.398      18.1593   
2849.6     7.0809     2.2138     7.2333     11.7159    15.5532    7.3661     6.2525     16.3441    0.393      19.9379   
2849.8     7.1641     2.3332     7.615      11.7284    14.753     7.3462     5.814      16.7294    0.403      21.5095   
2850       7.1526     2.3349     7.5649     11.7764    13.9705    7.2488     5.9269     17.065     0.402      22.5461   
2850.2     7.2458     2.3187     7.4906     11.581     12.8958    7.3442     5.3022     17.2126    0.403      22.6105   
2850.4     7.3321     2.2101     7.1366     11.435     12.2467    7.354      5.3321     17.1919    0.397      22.6918   
2850.6     7.4203     2.1571     7.1143     11.24      11.8215    7.469      6.1948     17.0962    0.397      22.3071   
2850.8     7.5706     2.184      7.2258     11.1643    11.6128    7.7384     5.5419     16.9424    0.39       21.5411   
2851       7.8407     2.1473     6.8959     10.9562    11.4055    8.1969     4.6642     17.3354    0.392      21.9766   
2851.2     8.243      1.9502     6.4431     10.5989    11.3418    8.7452     5.2392     18.5163    0.395      21.997    
2851.4     8.7934     1.8085     6.1834     10.6199    11.7487    9.464      8.8838     17.3669    0.402      21.0831   
2851.6     9.4215     1.9377     6.6629     11.3835    12.6809    10.4099    18.7628    15.4204    0.415      20.5339   
2851.8     9.9126     2.2831     7.6464     12.8271    13.9176    11.4164    24.5827    13.8868    0.421      20.066    
2852       9.993      2.6953     8.6655     14.4472    15.2199    12.3004    25.6342    13.6152    0.422      20.7596   
2852.2     9.6821     3.1227     10.1175    16.1736    16.6009    12.9849    29.5398    13.2392    0.428      20.8427   
2852.4     9.2408     3.4721     11.991     17.7035    17.559     13.2256    13.0272    12.459     0.429      18.9376   
2852.6     8.848      3.542      12.5351    18.1839    17.4456    13.0981    5.4266     12.0888    0.433      19.2514   
2852.8     8.4943     3.1937     11.4872    17.7297    16.3471    12.727     5.7665     11.9829    0.432      21.4315   
2853       8.0545     2.9342     11.1597    17.0965    15.4079    12.066     5.7342     12.0394    0.421      23.0757   
2853.2     7.6686     2.8073     11.0309    16.8382    14.9132    11.1778    4.785      12.322     0.427      25.6544   
2853.4     7.3572     2.7336     10.2567    16.3636    13.9613    10.5658    4.7019     12.9096    0.429      30.4987   
2853.6     7.1561     2.4648     9.3059     15.8015    13.1656    10.0012    4.7965     13.5257    0.428      36.5532   
2853.8     7.2082     2.2948     8.5783     15.4387    12.6582    9.4108     4.9429     13.9995    0.427      40.4362   
2854       7.3186     2.1069     8.1016     14.9073    12.2168    9.0279     5.0015     14.3915    0.421      42.1204   
2854.2     7.4343     2.237      7.4096     14.4418    12.113     8.8001     5.968      14.4608    0.421      42.6081   
2854.4     7.4964     2.211      7.391      14.2959    12.2861    8.6204     6.0077     14.6595    0.421      42.9377   
2854.6     7.4964     2.211      7.3347     14.1076    12.5113    8.559      5.5402     14.961     0.421      43.0298   
2854.8     7.5704     2.211      7.4144     13.7783    12.6729    8.4987     5.9068     15.3465    0.411      42.7389   
2855       7.6838     2.1638     7.5401     13.2038    12.7481    8.3849     6.4514     15.537     0.415      42.1298   
2855.2     7.8185     2.2079     7.5401     12.7817    12.9636    8.3526     6.7491     15.6007    0.408      42.6696   
2855.4     8.0001     2.2147     7.6252     12.6243    13.5424    8.3897     6.9996     15.5766    0.408      43.8316   
2855.6     8.0945     2.3358     8.1273     13.1572    14.6072    8.4487     9.0849     15.3634    0.41       45.9245   
2855.8     8.094      2.4722     8.4543     13.4757    15.2378    8.4585     8.409      15.1234    0.41       49.6894   
2856       7.9971     2.5594     8.7169     13.4391    15.3528    8.4585     6.7717     15.2144    0.414      51.9119   
2856.2     7.8506     2.4918     8.6812     13.2707    15.1922    8.4585     6.1477     15.6517    0.41       51.7664   
2856.4     7.816      2.4134     8.6885     13.2101    14.9153    8.4056     5.6307     16.4876    0.409      49.865    
2856.6     7.816      2.2724     8.3066     13.1902    14.6457    8.4056     5.2851     17.4093    0.404      47.2069   
2856.8     7.8558     2.2634     8.2064     13.1569    14.2223    8.3682     6.1364     18.0308    0.398      45.4175   
2857       7.9693     2.2156     7.9987     13.2353    13.8573    8.3967     6.3736     17.964     0.398      43.2361   
2857.2     8.0827     2.2648     7.9591     13.2953    13.554     8.4056     6.675      17.4422    0.402      41.0453   
2857.4     8.2138     2.2765     7.8805     13.3948    13.2353    8.4629     6.5862     16.9982    0.41       39.7733   
2857.6     8.3852     2.2634     7.7781     13.2897    12.9196    8.5226     6.2612     16.7967    0.41       37.9418   
2857.8     8.5562     2.1671     7.548      13.1191    13.1       8.7055     6.2043     16.7764    0.415      34.7841   
2858       8.7783     2.1823     7.6038     13.0084    13.7029    8.9571     6.8396     16.665     0.415      31.6581   
2858.2     9.0386     2.2081     7.6302     13.0386    14.638     9.3481     7.1929     16.4821    0.416      28.8188   
2858.4     9.3226     2.1597     7.6898     13.3021    14.8463    9.8289     7.8468     16.1571    0.421      26.754    
2858.6     9.5675     2.2237     8.1383     13.9721    15.1977    10.3291    11.0386    15.4061    0.421      26.0591   
2858.8     9.721      2.444      9.0509     15.2123    16.1466    10.8945    17.0648    14.0217    0.425      24.6365   
2859       9.6141     2.7417     10.0342    17.0067    17.4206    11.2787    21.8401    12.619     0.433      23.1779   
2859.2     9.1691     3.1409     11.2268    18.7541    18.7827    11.4247    17.8097    11.3787    0.439      24.5399   
