~Version
 VERS              .         2.0                           : CWLS LOG ASCII STANDARD - VERSION 2.0
 WRAP              .         NO                            : ONE LINE PER DEPTH STEP
 DLM               .         SPACE                         : DELIMITING CHARACTER(SPACE TAB OR COMMA)
~Well Information
#_______________________________________________________________________________
#
#PARAMETER_NAME    .UNIT     VALUE                         : DESCRIPTION
#_______________________________________________________________________________
STRT               .m        2779                          : First reference value
STOP               .m        3002                          : Last reference value
STEP               .m        0.2                           : Step increment
NULL               .         -9999                         : Missing value
COMP               .                                       : Company
WELL               .         601                           : Well name
FLD                .                                       : Field
LOC                .                                       : Location
CNTY               .                                       : County
STAT               .                                       : State
CTRY               .                                       : Country
SRVC               .                                       : Service Company
DATE               .                                       : Date
API                .                                       : API number
EREF               .m        134                           : 
X                  .m        225746                        : 
Y                  .m        235643                        : 
group              .         Pad6                          : 
Интер-р            .         Ярышев                        : 
Куст               .         6                             : 
Статус             .         Не проверено                  : 
Тип                .         Разведка                      : 
~Parameter Information Block
#_______________________________________________________________________________
#
#PARAMETER_NAME    .UNIT     VALUE                         : DESCRIPTION
#_______________________________________________________________________________
SET                .         LAS3                          : 
REAL_CREATION_DATE .         Ср апр 11 2012-13_17_22       : 
TLFamily_DEPTH     .         Measured Depth                : 
TLFamily_GR        .         Gamma Ray                     : 
TLFamily_TNPH      .         Neutron Porosity              : 
group              .         INI                           : 
~Curve Information
#_______________________________________________________________________________
#
#LOGNAME           .UNIT     LOG_ID                        : DESCRIPTION
#_______________________________________________________________________________
DEPTH              .m                                      : Measured Depth 
GR                 .gAPI                                   :  
TNPH               .v/v                                    : Neutron Porosity 
~Ascii
# ...
2924.8     146.7      0.301     
2925       147.22     0.307     
2925.2     143.79     0.304     
2925.4     144.41     0.305     
2925.6     144.55     0.313     
2925.8     143.9      0.309     
2926       143.93     0.314     
2926.2     144.76     0.322     
2926.4     146.24     0.317     
2926.6     151.11     0.305     
2926.8     151.04     0.283     
2927       144.15     0.289     
2927.2     137.47     0.31      
2927.4     136.65     0.303     
2927.6     140.77     0.286     
2927.8     144.1      0.288     
2928       147.48     0.302     
2928.2     148.23     0.301     
2928.4     148.11     0.284     
2928.6     148.24     0.277     
2928.8     150.64     0.27      
2929       155.98     0.242     
2929.2     167.22     0.215     
2929.4     174.24     0.209     
2929.6     152.04     0.216     
2929.8     100.35     0.205     
2930       68.42      0.206     
2930.2     58.07      0.218     
2930.4     50.05      0.221     
2930.6     50.02      0.208     
2930.8     49.65      0.2       
2931       48.02      0.195     
2931.2     48.79      0.181     
2931.4     49.32      0.177     
2931.6     48.11      0.182     
2931.8     46.15      0.176     
2932       46.95      0.157     
2932.2     47.35      0.155     
2932.4     49.42      0.165     
2932.6     53.19      0.163     
2932.8     53.79      0.187     
2933       55.84      0.192     
2933.2     59.15      0.188     
2933.4     57.45      0.178     
2933.6     54.97      0.179     
2933.8     49.79      0.163     
2934       43.59      0.142     
2934.2     42.04      0.159     
2934.4     43.92      0.178     
2934.6     44.87      0.181     
2934.8     47.53      0.198     
2935       54.37      0.2       
2935.2     61.6       0.191     
2935.4     63.72      0.187     
2935.6     58.49      0.178     
2935.8     52.51      0.166     
2936       50.53      0.157     
2936.2     46.74      0.147     
2936.4     43.31      0.132     
2936.6     40.58      0.126     
2936.8     45.31      0.119     
2937       47.68      0.118     
2937.2     46.39      0.112     
2937.4     47.02      0.122     
2937.6     52.61      0.133     
2937.8     61.13      0.174     
2938       69.7       0.201     
2938.2     77.07      0.211     
2938.4     79.66      0.216     
2938.6     78         0.206     
2938.8     75.35      0.19      
2939       75.60001   0.188     
2939.2     77.17      0.2       
2939.4     73.12      0.198     
2939.6     65.75      0.185     
2939.8     61.52      0.169     
2940       62.58      0.152     
2940.2     65.66      0.155     
2940.4     66.05      0.15      
2940.6     59.32      0.138     
2940.8     53.94      0.117     
2941       51.17      0.098     
2941.2     53.44      0.103     
2941.4     56.41      0.117     
2941.6     59.39      0.127     
2941.8     62.57      0.131     
2942       65.28      0.141     
2942.2     71.25      0.17      
2942.4     72.42      0.193     
2942.6     71.68      0.186     
2942.8     74.66      0.181     
2943       76.02      0.183     
2943.2     73.09      0.185     
2943.4     70.73      0.189     
2943.6     68.07999   0.191     
2943.8     64.74      0.19      
2944       63.27      0.195     
2944.2     60.96      0.204     
2944.4     60.1       0.201     
2944.6     62.05      0.199     
2944.8     62.9       0.199     
2945       60.22      0.187     
2945.2     55.16      0.172     
2945.4     48.43      0.151     
2945.6     43.85      0.129     
2945.8     41.79      0.127     
2946       42.57      0.141     
2946.2     44.99      0.139     
2946.4     48.37      0.118     
2946.6     50.39      0.111     
2946.8     48.65      0.11      
2947       46.45      0.11      
2947.2     43.19      0.111     
2947.4     41.41      0.119     
2947.6     45.51      0.129     
2947.8     49.79      0.166     
2948       52.56      0.203     
2948.2     55.04      0.207     
2948.4     56.95      0.21      
2948.6     53.6       0.226     
2948.8     49.83      0.234     
2949       48.92      0.221     
2949.2     46.21      0.213     
2949.4     46.56      0.213     
2949.6     48.32      0.219     
2949.8     48.35      0.227     
2950       47.2       0.228     
2950.2     48.66      0.225     
2950.4     53.36      0.232     
2950.6     54.92      0.238     
2950.8     54.01      0.223     
2951       54.71      0.203     
2951.2     56.22      0.197     
2951.4     58.7       0.196     
2951.6     61.62      0.214     
2951.8     67.39      0.211     
2952       76.32      0.2       
2952.2     88.94      0.202     
2952.4     107.01     0.216     
2952.6     120.36     0.217     
2952.8     122.51     0.258     
2953       120.73     0.28      
2953.2     119.59     0.278     
2953.4     116.92     0.291     
2953.6     116.38     0.282     
2953.8     115.99     0.28      
2954       108.57     0.268     
2954.2     99.06      0.262     
2954.4     98.36      0.26      
2954.6     103.49     0.255     
2954.8     108.12     0.264     
2955       108.98     0.258     
2955.2     109.75     0.263     
2955.4     110.69     0.269     
2955.6     104.33     0.276     
2955.8     100.72     0.29      
2956       103.09     0.346     
2956.2     106.85     0.383     
2956.4     111.03     0.36      
2956.6     114.31     0.354     
2956.8     114.1      0.313     
2957       111.67     0.277     
2957.2     110.66     0.275     
2957.4     110.08     0.257     
2957.6     106.88     0.258     
2957.8     104.29     0.25      
2958       102.87     0.251     
2958.2     105.56     0.252     
2958.4     108.06     0.275     
2958.6     107.46     0.29      
2958.8     101.98     0.293     
2959       89.98      0.259     
2959.2     81.6       0.243     
2959.4     83.50999   0.239     
2959.6     91.06      0.244     
2959.8     98.2       0.252     
2960       98.9       0.269     
2960.2     87.37      0.262     
2960.4     81.58      0.24      
2960.6     89.74      0.24      
2960.8     95.42      0.247     
2961       102.57     0.262     
2961.2     110.26     0.272     
2961.4     117.06     0.279     
2961.6     121.65     0.278     
2961.8     123.54     0.278     
2962       124.15     0.283     
2962.2     125.23     0.296     
2962.4     125.53     0.31      
2962.6     121.63     0.311     
2962.8     114.23     0.293     
2963       106.66     0.26      
2963.2     97.22      0.244     
2963.4     86.81      0.229     
2963.6     87.56      0.23      
2963.8     85.01      0.243     
2964       78.57001   0.233     
2964.2     73.19      0.217     
2964.4     68.86      0.196     
2964.6     68.91      0.198     
2964.8     72.12      0.213     
2965       79.20999   0.229     
2965.2     85.97      0.246     
2965.4     91.39      0.289     
2965.6     92.22      0.333     
2965.8     88.03001   0.36      
2966       73.67      0.337     
2966.2     44.7       0.345     
2966.4     17.84      0.351     
2966.6     9.18       0.366     
2966.8     9.9        0.365     
2967       13.98      0.365     
2967.2     20.42      0.357     
2967.4     31.03      0.34      
2967.6     45.44      0.321     
2967.8     63.77      0.295     
2968       81.07001   0.247     
2968.2     85.57999   0.221     
2968.4     79.17      0.206     
2968.6     73.55      0.206     
2968.8     69.44      0.215     
2969       69.39      0.22      
2969.2     67.60001   0.219     
2969.4     62.04      0.211     
2969.6     58.49      0.201     
2969.8     57.57      0.205     
2970       57.92      0.218     
2970.2     61.47      0.231     
2970.4     67.9       0.252     
2970.6     75.61      0.253     
2970.8     85.07      0.289     
2971       88.83      0.263     
2971.2     89.96001   0.231     
2971.4     97.44      0.215     
2971.6     102.55     0.216     
2971.8     102.73     0.226     
2972       103.87     0.24      
2972.2     110.46     0.259     
2972.4     111.78     0.276     
2972.6     108.43     0.265     
2972.8     106.17     0.248     
2973       102.26     0.253     
2973.2     91.38      0.267     
