~Version
 VERS              .         2.0                           : CWLS LOG ASCII STANDARD - VERSION 2.0
 WRAP              .         NO                            : ONE LINE PER DEPTH STEP
 DLM               .         SPACE                         : DELIMITING CHARACTER(SPACE TAB OR COMMA)
~Well Information
#_______________________________________________________________________________
#
#PARAMETER_NAME    .UNIT     VALUE                         : DESCRIPTION
#_______________________________________________________________________________
STRT               .m        2582                          : First reference value
STOP               .m        2760                          : Last reference value
STEP               .m        0.2                           : Step increment
NULL               .         -9999                         : Missing value
COMP               .                                       : Company
WELL               .         602                           : Well name
FLD                .                                       : Field
LOC                .                                       : Location
CNTY               .                                       : County
STAT               .                                       : State
CTRY               .                                       : Country
SRVC               .                                       : Service Company
DATE               .                                       : Date
API                .                                       : API number
EREF               .m        134                           : 
X                  .m        225746                        : 
Y                  .m        235643                        : 
group              .         Pad6                          : 
Интер-р            .         Ярышев                        : 
Куст               .         6                             : 
Статус             .         Не проверено                  : 
Тип                .         Разобраться                   : 
~Parameter Information Block
#_______________________________________________________________________________
#
#PARAMETER_NAME    .UNIT     VALUE                         : DESCRIPTION
#_______________________________________________________________________________
SET                .         LAS1                          : 
REAL_CREATION_DATE .         Ср апр 11 2012-13_17_22       : 
TLFamily_DEPTH     .         Measured Depth                : 
TLFamily_KS        .         Potential Resistivity         : 
TLFamily_KS1       .         Extra Shallow Resistivity     : 
TLFamily_KS2       .         Shallow Resistivity           : 
TLFamily_KS3       .         Medium Resistivity            : 
TLFamily_KS4       .         Deep Resistivity              : 
TLFamily_KS5       .         Extra Deep Resistivity        : 
TLFamily_LLD       .         Lateral Log Resistivity       : 
TLFamily_OKS3      .         Medium Resistivity Inverted   : 
TLFamily_RM        .         Mud Resistivity               : 
TLFamily_SP        .         Spontaneous Potential         : 
group              .         INI                           : 
~Curve Information
#_______________________________________________________________________________
#
#LOGNAME           .UNIT     LOG_ID                        : DESCRIPTION
#_______________________________________________________________________________
DEPTH              .m                                      : Measured Depth 
KS                 .ohm.m                                  : Potential Resistivity 
KS1                .ohm.m                                  : Extra Shallow Resistivity 
KS2                .ohm.m                                  : Shallow Resistivity 
KS3                .ohm.m                                  : Medium Resistivity 
KS4                .ohm.m                                  : Deep Resistivity 
KS5                .ohm.m                                  : Extra Deep Resistivity 
LLD                .ohm.m                                  : Lateral Log Resistivity 
OKS3               .ohm.m                                  : Medium Resistivity Inverted 
RM                 .ohm.m                                  : Mud Resistivity 
SP                 .mV                                     : Spontaneous Potential 
~Ascii
# ...
2662.4     5.8021     2.4841     7.2098     14.38      16.193     7.0721     4.0381     9.0631     0.12       60.5087   
2662.6     5.7233     2.3325     6.7214     12.4558    14.5965    6.58       3.5077     9.7765     0.121      59.3015   
2662.8     5.7105     2.2364     6.4512     11.1666    13.4667    6.1724     3.4823     10.8247    0.123      57.298    
2663       5.6989     2.1339     6.4013     10.5259    12.8452    5.9814     3.7841     11.4071    0.123      59.2561   
2663.2     5.7391     2.2566     6.4895     10.0141    12.4014    5.7972     4.5647     11.6724    0.123      61.1872   
2663.4     5.8488     2.2221     6.2386     9.3904     11.7303    5.7056     4.0123     11.8488    0.123      59.0491   
2663.6     5.9504     2.2155     6.0724     8.976      11.1157    5.6966     4.1602     12.202     0.123      57.804    
2663.8     6.0882     2.226      6.0815     8.6446     10.598     5.7712     4.4954     12.4879    0.123      58.9059   
2664       6.2265     2.1688     5.9827     8.4442     10.2348    5.9978     4.2314     13.129     0.123      60.6325   
2664.2     6.3828     2.0875     5.9413     8.322      10.0191    6.498      4.0524     14.224     0.123      58.0044   
2664.4     6.5501     1.9702     5.6544     8.3857     10.2999    7.6043     4.0087     16.0227    0.124      58.1378   
2664.6     6.8666     1.9977     5.863      8.5713     11.2919    9.1047     4.2182     17.79      0.126      60.3524   
2664.8     7.3301     1.9367     6.317      9.2154     12.9096    10.4711    5.1813     19.7676    0.126      60.0817   
2665       7.747      2.1296     7.2896     10.2172    14.5257    11.4485    9.2814     19.6625    0.13       57.8087   
2665.2     8.0221     2.7466     8.1852     11.7341    14.7846    12.0053    38.4684    17.3506    0.126      58.9461   
2665.4     8.1206     3.2034     9.0149     12.5626    14.0176    12.3476    14.0262    15.0072    0.126      60.624    
2665.6     7.9998     3.0776     8.7299     11.9719    12.5392    12.1256    5.8294     13.5929    0.128      59.6776   
2665.8     7.8745     2.9082     8.8823     11.5763    11.4644    11.4876    5.5986     12.7211    0.127      56.9341   
2666       7.8156     2.7361     8.9336     11.3267    10.6514    10.7392    5.2223     12.1256    0.124      58.4481   
2666.2     7.8038     2.6477     8.8758     11.2336    10.1581    10.3771    5.2302     11.9491    0.123      60.8137   
2666.4     7.8498     2.5327     8.4785     11.3245    10.021     10.316     5.271      11.8956    0.122      59.3132   
2666.6     7.918      2.5673     8.4997     11.6858    10.0907    10.828     5.8841     11.8953    0.12       56.8731   
2666.8     8.0868     2.5795     8.4845     12.378     10.4045    11.7192    5.8445     12.2288    0.12       57.8469   
2667       8.2345     2.4721     8.2223     13.5219    11.0151    12.726     5.3529     12.4842    0.119      60.0154   
2667.2     8.2316     2.6833     9.0147     15.8219    12.0916    13.5252    9.7747     11.8235    0.117      58.416    
2667.4     8.0897     3.2342     10.6693    18.2779    13.3244    13.9582    33.5054    10.3867    0.117      56.6136   
2667.6     7.7503     3.5476     11.2809    19.3077    13.4102    13.6574    10.3302    9.263      0.119      57.8739   
2667.8     7.1939     3.5433     11.248     18.895     12.5652    12.755     6.0732     8.4533     0.119      60.3736   
2668       6.7538     3.4098     11.2428    18.0387    11.7695    11.5539    5.3569     7.9858     0.12       57.9285   
2668.2     6.3255     3.0885     10.5988    16.8212    11.0602    10.3616    4.005      7.6354     0.122      56.3007   
2668.4     5.8404     2.9524     10.1491    15.5179    10.6329    9.0873     4.0779     7.4969     0.121      58.9516   
2668.6     5.6077     2.6092     9.0707     14.3763    10.0055    7.8245     3.4568     7.5036     0.123      60.7219   
2668.8     5.4404     2.4981     8.3635     13.3501    9.4735     6.5404     3.471      7.6112     0.12       58.7623   
2669       5.3477     2.3902     7.7698     12.6324    9.2097     5.5373     3.4638     7.7434     0.12       57.0143   
2669.2     5.3216     2.3073     6.978      11.9775    9.0439     4.8718     3.392      7.9291     0.12       58.4395   
2669.4     5.3189     2.2261     6.5668     11.5773    8.9223     4.3811     3.3628     8.1482     0.12       60.4063   
2669.6     5.2723     2.2732     6.5967     11.3291    8.8129     4.0163     3.7839     8.1755     0.12       58.1615   
2669.8     5.2358     2.4389     6.809      11.0421    8.6529     3.6836     4.5272     8.0984     0.12       57.5212   
2670       5.1775     2.3791     6.5545     10.5849    8.3732     3.3908     3.7421     8.0816     0.123      59.5189   
2670.2     5.0773     2.3763     6.508      10.0056    7.9818     3.112      3.5725     8.1271     0.123      60.1028   
2670.4     5.0408     2.3301     6.4689     9.2028     7.6732     2.8628     3.6944     8.1858     0.123      58.6429   
2670.6     5.0107     2.2327     6.2504     8.7143     7.3853     2.6731     3.3114     8.3089     0.123      57.9145   
2670.8     5.0112     2.2231     6.172      8.3111     7.1819     2.526      3.407      8.4956     0.123      60.1068   
2671       5.0672     2.1559     5.9449     8.0193     7.0413     2.4165     3.4353     8.6974     0.123      61.1438   
2671.2     5.1174     2.1121     5.8116     7.8591     6.9913     2.3405     3.3818     8.931      0.123      59.4641   
2671.4     5.1877     2.1616     5.9215     7.8467     7.1898     2.281      3.7314     9.023      0.123      58.2097   
2671.6     5.3087     2.189      5.9368     7.9058     7.3631     2.2741     3.967      8.9991     0.123      60.4873   
2671.8     5.4064     2.195      5.9211     7.9629     7.4259     2.3255     3.8864     8.9808     0.123      61.074    
2672       5.4739     2.2422     6.0673     8.0667     7.4575     2.3869     4.1166     8.9288     0.123      59.1701   
2672.2     5.5328     2.3104     6.2447     8.1803     7.4767     2.4487     4.4815     8.894      0.123      58.0518   
2672.4     5.5435     2.3606     6.4526     8.3051     7.4062     2.5048     4.4237     8.8172     0.123      60.6572   
2672.6     5.5149     2.4398     6.6959     8.4041     7.331      2.5383     4.438      8.7197     0.123      60.9178   
2672.8     5.4684     2.4398     6.783      8.4944     7.2295     2.5955     4.2647     8.6342     0.126      58.3712   
2673       5.4208     2.4456     6.8925     8.4877     7.0548     2.6888     4.1324     8.5796     0.126      58.7792   
2673.2     5.3837     2.3748     6.7333     8.4615     6.9057     2.8336     3.822      8.6615     0.126      60.7406   
2673.4     5.3371     2.3187     6.6953     8.4883     6.8114     3.0303     3.7038     8.7385     0.126      60.3849   
2673.6     5.3097     2.3475     6.7505     8.6499     6.7948     3.2377     4.0452     8.7623     0.126      57.9869   
2673.8     5.2798     2.3814     6.7731     8.7755     6.7569     3.4143     4.0105     8.679      0.126      58.8417   
2674       5.2698     2.3531     6.637      8.7802     6.6678     3.5269     3.5414     8.7087     0.129      60.4979   
2674.2     5.3181     2.3158     6.4442     8.5719     6.4942     3.6297     3.4151     8.958      0.13       59.1549   
2674.4     5.373      2.1142     6.0517     8.5099     6.4498     3.7073     3.5674     9.1228     0.13       58.2328   
2674.6     5.4459     2.2545     6.3776     8.5463     6.4556     3.778      4.7598     8.9739     0.133      60.4903   
2674.8     5.5002     2.3346     6.5023     8.7339     6.4786     3.8352     4.4969     8.6559     0.133      61.0982   
2675       5.4832     2.4303     6.6454     8.7746     6.4553     3.8806     4.336      8.4308     0.133      58.4718   
2675.2     5.4359     2.4363     6.6777     8.7573     6.4101     3.9257     3.9754     8.3633     0.133      57.5207   
2675.4     5.368      2.4047     6.7236     8.686      6.3495     3.9676     3.9818     8.3674     0.128      59.6613   
2675.6     5.3207     2.4048     6.8257     8.6237     6.3085     4.0431     3.7864     8.3235     0.126      60.3752   
