~Version
 VERS              .         2.0                           : CWLS LOG ASCII STANDARD - VERSION 2.0
 WRAP              .         NO                            : ONE LINE PER DEPTH STEP
 DLM               .         SPACE                         : DELIMITING CHARACTER(SPACE TAB OR COMMA)
~Well Information
#_______________________________________________________________________________
#
#PARAMETER_NAME    .UNIT     VALUE                         : DESCRIPTION
#_______________________________________________________________________________
STRT               .m        2582                          : First reference value
STOP               .m        2760                          : Last reference value
STEP               .m        0.2                           : Step increment
NULL               .         -9999                         : Missing value
COMP               .                                       : Company
WELL               .         602                           : Well name
FLD                .                                       : Field
LOC                .                                       : Location
CNTY               .                                       : County
STAT               .                                       : State
CTRY               .                                       : Country
SRVC               .                                       : Service Company
DATE               .                                       : Date
API                .                                       : API number
EREF               .m        134                           : 
X                  .m        225746                        : 
Y                  .m        235643                        : 
group              .         Pad6                          : 
Интер-р            .         Ярышев                        : 
Куст               .         6                             : 
Статус             .         Не проверено                  : 
Тип                .         Разобраться                   : 
~Parameter Information Block
#_______________________________________________________________________________
#
#PARAMETER_NAME    .UNIT     VALUE                         : DESCRIPTION
#_______________________________________________________________________________
SET                .         LAS3                          : 
REAL_CREATION_DATE .         Ср апр 11 2012-13_17_22       : 
TLFamily_DEPTH     .         Measured Depth                : 
TLFamily_GR        .         Gamma Ray                     : 
TLFamily_TNPH      .         Neutron Porosity              : 
group              .         INI                           : 
~Curve Information
#_______________________________________________________________________________
#
#LOGNAME           .UNIT     LOG_ID                        : DESCRIPTION
#_______________________________________________________________________________
DEPTH              .m                                      : Measured Depth 
GR                 .gAPI                                   :  
TNPH               .v/v                                    : Neutron Porosity 
~Ascii
# ...
2727.8     65.79001   0.202     
2728       60.12      0.2       
2728.2     57.37      0.2       
2728.4     56.4       0.191     
2728.6     56.06      0.183     
2728.8     54.6       0.178     
2729       52.81      0.18      
2729.2     53.03      0.186     
2729.4     55.36      0.196     
2729.6     58.16      0.209     
2729.8     60.75      0.22      
2730       62.83      0.221     
2730.2     64.18      0.221     
2730.4     64.93      0.225     
2730.6     66.12      0.225     
2730.8     68.59      0.229     
2731       72.22      0.233     
2731.2     78.11      0.234     
2731.4     86.68999   0.242     
2731.6     95.13      0.245     
2731.8     99.3       0.269     
2732       97.76      0.298     
2732.2     93.57001   0.297     
2732.4     90.64999   0.264     
2732.6     91.18      0.251     
2732.8     93.43001   0.243     
2733       91.56      0.237     
2733.2     86.56999   0.229     
2733.4     84.65      0.222     
2733.6     87.44      0.212     
2733.8     90.16      0.205     
2734       89.41      0.203     
2734.2     85.34      0.193     
2734.4     78.23      0.182     
2734.6     69.58      0.174     
2734.8     62.59      0.157     
2735       59.65      0.148     
2735.2     60.3       0.15      
2735.4     64.29      0.169     
2735.6     70.50999   0.18      
2735.8     76.28      0.189     
2736       81.11      0.2       
2736.2     87.19      0.208     
2736.4     94.89999   0.222     
2736.6     101.24     0.232     
2736.8     103.67     0.238     
2737       99.83      0.231     
2737.2     90.05      0.225     
2737.4     77.45      0.212     
2737.6     67.69      0.209     
2737.8     66.2       0.206     
2738       68.73      0.21      
2738.2     68.6       0.212     
2738.4     65.54      0.209     
2738.6     62.53      0.208     
2738.8     61.72      0.211     
2739       63.86      0.217     
2739.2     67.98      0.218     
2739.4     71.67      0.215     
2739.6     73.76      0.21      
2739.8     75.61      0.207     
2740       78.47      0.205     
2740.2     85.77      0.209     
2740.4     87.99      0.215     
2740.6     87.53999   0.22      
2740.8     89.39      0.224     
2741       93.34      0.223     
2741.2     95.75      0.227     
2741.4     96.12      0.232     
2741.6     96.72      0.239     
2741.8     98.48      0.247     
2742       100.33     0.25      
2742.2     101.59     0.25      
2742.4     102.05     0.251     
2742.6     101.63     0.252     
2742.8     101.26     0.256     
2743       100.75     0.262     
2743.2     100.55     0.262     
2743.4     102.65     0.253     
2743.6     104.96     0.242     
2743.8     102.02     0.225     
2744       96.5       0.217     
2744.2     93.81      0.221     
2744.4     94.69      0.227     
2744.6     94.53      0.228     
2744.8     89.12      0.221     
2745       79.39      0.215     
2745.2     71.45      0.215     
2745.4     69.89999   0.22      
2745.6     73.19      0.233     
2745.8     80.25      0.253     
2746       89.28001   0.261     
2746.2     94.82001   0.263     
2746.4     96.66      0.265     
2746.6     97.25999   0.265     
2746.8     95.52      0.255     
2747       92.38      0.252     
2747.2     90.89      0.249     
2747.4     92.3       0.253     
2747.6     94.39      0.253     
2747.8     95.8       0.248     
2748       96.02      0.242     
2748.2     95.94      0.24      
2748.4     96.04      0.24      
2748.6     95.57999   0.244     
2748.8     93.69      0.25      
2749       91         0.257     
2749.2     88.43001   0.263     
2749.4     86.41      0.266     
2749.6     85.37      0.263     
2749.8     85.64999   0.256     
2750       85.93001   0.253     
2750.2     85.88      0.255     
2750.4     83.39      0.262     
2750.6     77.60001   0.276     
2750.8     69.91      0.285     
2751       62.47      0.29      
2751.2     56.41      0.31      
2751.4     54.21      0.321     
2751.6     58.05      0.318     
2751.8     68.92      0.294     
2752       84.02      0.273     
2752.2     85.14      0.252     
2752.4     82.67999   0.246     
2752.6     75.9       0.233     
2752.8     76.81      0.233     
2753       83.42      0.24      
2753.2     89.61      0.248     
2753.4     98.55      0.259     
2753.6     102        0.266     
2753.8     101.57     0.257     
2754       100.72     0.252     
2754.2     100.85     0.258     
2754.4     103.95     0.263     
2754.6     108.75     0.264     
2754.8     113        0.263     
2755       116.35     0.267     
2755.2     117.78     0.268     
2755.4     117.42     0.271     
2755.6     115.93     0.276     
2755.8     113.17     0.282     
2756       108.5      0.284     
2756.2     104.33     0.281     
2756.4     103.79     0.279     
2756.6     103.06     0.272     
2756.8     98.91      0.267     
2757       95.95      0.259     
2757.2     100.28     0.256     
2757.4     106.77     0.26      
2757.6     108.03     0.268     
2757.8     108.89     0.267     
2758       111.03     0.272     
2758.2     111.48     0.282     
2758.4     110.57     0.29      
2758.6     111.35     0.293     
2758.8     110.48     0.295     
2759       107.47     0.292     
2759.2     106.53     0.289     
2759.4     107.47     0.285     
2759.6     111.29     0.26      
2759.8     114.78     0.264     
2760       115.24     0.27      
