~Version
 VERS              .         2.0                           : CWLS LOG ASCII STANDARD - VERSION 2.0
 WRAP              .         NO                            : ONE LINE PER DEPTH STEP
 DLM               .         SPACE                         : DELIMITING CHARACTER(SPACE TAB OR COMMA)
~Well Information
#_______________________________________________________________________________
#
#PARAMETER_NAME    .UNIT     VALUE                         : DESCRIPTION
#_______________________________________________________________________________
STRT               .m        2582                          : First reference value
STOP               .m        2760                          : Last reference value
STEP               .m        0.2                           : Step increment
NULL               .         -9999                         : Missing value
COMP               .                                       : Company
WELL               .         602                           : Well name
FLD                .                                       : Field
LOC                .                                       : Location
CNTY               .                                       : County
STAT               .                                       : State
CTRY               .                                       : Country
SRVC               .                                       : Service Company
DATE               .                                       : Date
API                .                                       : API number
EREF               .m        134                           : 
X                  .m        225746                        : 
Y                  .m        235643                        : 
group              .         Pad6                          : 
Интер-р            .         Ярышев                        : 
Куст               .         6                             : 
Статус             .         Не проверено                  : 
Тип                .         Разобраться                   : 
~Parameter Information Block
#_______________________________________________________________________________
#
#PARAMETER_NAME    .UNIT     VALUE                         : DESCRIPTION
#_______________________________________________________________________________
SET                .         LAS1                          : 
REAL_CREATION_DATE .         Ср апр 11 2012-13_17_22       : 
TLFamily_DEPTH     .         Measured Depth                : 
TLFamily_KS        .         Potential Resistivity         : 
TLFamily_KS1       .         Extra Shallow Resistivity     : 
TLFamily_KS2       .         Shallow Resistivity           : 
TLFamily_KS3       .         Medium Resistivity            : 
TLFamily_KS4       .         Deep Resistivity              : 
TLFamily_KS5       .         Extra Deep Resistivity        : 
TLFamily_LLD       .         Lateral Log Resistivity       : 
TLFamily_OKS3      .         Medium Resistivity Inverted   : 
TLFamily_RM        .         Mud Resistivity               : 
TLFamily_SP        .         Spontaneous Potential         : 
group              .         INI                           : 
~Curve Information
#_______________________________________________________________________________
#
#LOGNAME           .UNIT     LOG_ID                        : DESCRIPTION
#_______________________________________________________________________________
DEPTH              .m                                      : Measured Depth 
KS                 .ohm.m                                  : Potential Resistivity 
KS1                .ohm.m                                  : Extra Shallow Resistivity 
KS2                .ohm.m                                  : Shallow Resistivity 
KS3                .ohm.m                                  : Medium Resistivity 
KS4                .ohm.m                                  : Deep Resistivity 
KS5                .ohm.m                                  : Extra Deep Resistivity 
LLD                .ohm.m                                  : Lateral Log Resistivity 
OKS3               .ohm.m                                  : Medium Resistivity Inverted 
RM                 .ohm.m                                  : Mud Resistivity 
SP                 .mV                                     : Spontaneous Potential 
~Ascii
# ...
2595.4     6.6266     2.5077     7.2462     10.6809    10.5539    6.5506     4.8954     13.2415    0.126      64.861    
2595.6     6.6687     2.4439     7.1008     10.7276    10.7898    6.7228     5.2933     13.6828    0.126      62.459    
2595.8     6.7356     2.4259     7.2235     10.8496    11.0573    6.9143     5.9563     13.9007    0.123      60.4592   
2596       6.8177     2.4577     7.4127     11.1544    11.1569    7.0899     6.4558     13.5908    0.12       62.559    
2596.2     6.879      2.5785     7.6971     11.2963    11.0066    7.2134     5.4197     13.355     0.117      62.2961   
2596.4     6.9504     2.536      7.5612     11.2       10.6612    7.2442     5.3716     13.2152    0.12       61.5201   
2596.6     7.0297     2.4797     7.4388     10.8955    10.2558    7.247      5.3149     13.3822    0.117      60.0534   
2596.8     7.1749     2.397      7.2577     10.7299    10.0955    7.2789     5.5491     13.7009    0.117      62.2979   
2597       7.3234     2.3841     7.3149     10.7381    10.104     7.4583     6.0059     13.5056    0.117      63.8313   
2597.2     7.4839     2.3768     7.3706     11.1122    10.4471    7.6567     8.2751     13.0335    0.117      62.1599   
2597.4     7.5397     2.5379     7.9089     11.833     11.0099    7.8358     9.8782     12.4443    0.114      61.6882   
2597.6     7.5383     2.8661     8.7391     12.5166    11.3637    7.9207     7.4653     12.2109    0.116      66.1743   
2597.8     7.4106     2.8898     8.6823     12.8867    11.3208    7.9378     6.0797     11.8847    0.114      66.1318   
2598       7.2149     2.8672     8.8661     13.0463    11.2148    7.8022     6.2664     11.9639    0.115      63.1239   
2598.2     7.006      2.8879     9.0251     13.174     11.0852    7.6086     5.131      12.2663    0.116      63.1016   
2598.4     6.9213     2.7296     8.8821     13.0458    10.8609    7.4857     4.5706     12.923     0.117      65.5712   
2598.6     6.9095     2.5199     8.1831     12.6262    10.5322    7.423      4.6345     13.3145    0.118      65.8399   
2598.8     6.9354     2.4036     7.8129     12.414     10.4027    7.3814     6.3201     13.5717    0.117      63.0124   
2599       7.0108     2.4956     8.0092     12.5182    10.5625    7.3708     6.1604     13.5517    0.117      61.4242   
2599.2     7.0312     2.5846     7.9771     12.8555    10.7662    7.3532     5.9625     13.6394    0.115      63.2951   
2599.4     7.0294     2.5671     7.9523     13.0252    10.828     7.347      5.4595     13.6877    0.113      66.6044   
2599.6     7.0889     2.5792     7.8196     13.0204    10.7528    7.285      6.06       13.9293    0.114      64.8864   
2599.8     7.0845     2.5081     7.8907     12.6928    10.5888    7.2543     5.1041     14.3224    0.114      63.0227   
2600       7.1235     2.5446     7.8702     12.4593    10.5996    7.203      5.6324     14.8044    0.116      66.588    
2600.2     7.1465     2.5747     7.9025     12.2029    10.5878    7.1261     6.3609     14.6502    0.117      67.4121   
2600.4     7.1651     2.5982     8.0802     12.1035    10.6787    6.9856     6.2244     14.1005    0.117      66.4433   
2600.6     7.1992     2.6275     7.7704     12.0095    10.6562    6.8574     5.961      13.8646    0.117      67.2927   
2600.8     7.2649     2.4666     7.5043     11.8037    10.5881    6.7463     4.945      14.203     0.117      68.7397   
2601       7.3177     2.3968     7.4719     11.6657    10.4433    6.6687     5.2893     14.571     0.117      68.4337   
2601.2     7.4313     2.4659     7.7624     11.8809    10.48      6.6051     6.6007     14.5949    0.117      65.7394   
2601.4     7.5932     2.4876     7.762      11.9308    10.6957    6.6168     6.053      14.8153    0.118      65.8758   
2601.6     7.7795     2.431      7.482      11.8421    10.8225    6.6957     5.1567     15.5008    0.117      67.8691   
2601.8     8.0486     2.3332     7.3018     12.0879    10.8574    6.8019     5.7176     16.2135    0.12       69.1393   
2602       8.3336     2.3161     7.5205     12.7247    11.0592    6.9674     10.8879    15.9801    0.119      67.0302   
2602.2     8.4931     2.6789     8.5801     13.8406    11.7757    7.1858     21.8994    14.5942    0.117      66.6508   
2602.4     8.2554     3.2006     9.8023     15.1756    12.4403    7.2599     19.2886    13.2164    0.12       69.8442   
2602.6     7.8973     3.5445     10.5874    15.2563    12.7769    7.2346     7.8527     12.5966    0.12       69.0479   
2602.8     7.5687     3.1755     9.9639     14.3495    12.4317    7.1072     4.7538     12.9388    0.12       65.5952   
2603       7.3668     2.7902     9.4544     13.5579    11.5639    6.8929     4.359      13.6324    0.12       69.3317   
2603.2     7.2922     2.523      8.8653     13.2971    11.3127    6.662      5.294      14.3214    0.123      69.8907   
2603.4     7.3516     2.5042     8.6565     13.2922    11.3892    6.5478     5.5316     14.8848    0.122      67.7393   
2603.6     7.5044     2.4654     8.2134     13.1938    11.4715    6.6041     5.7632     15.0891    0.123      63.9161   
2603.8     7.7048     2.3257     7.5084     13.104     11.6084    6.768      5.2675     15.4533    0.123      64.7767   
2604       7.8638     2.41       7.6256     13.2737    11.978     6.9679     6.1826     15.6002    0.127      66.9469   
2604.2     7.9981     2.4337     7.8315     14.0851    12.4338    7.1883     9.0574     14.8784    0.126      66.1676   
2604.4     8.0905     2.7343     8.8095     14.8402    12.9157    7.421      12.7552    13.8373    0.13       65.1426   
2604.6     8.0334     2.8921     8.8798     15.2538    13.0698    7.5419     7.7595     13.1721    0.128      67.6018   
2604.8     7.8335     2.962      9.2447     14.9014    12.8905    7.5487     7.4298     12.6385    0.132      68.0349   
2605       7.6881     2.8853     9.286      14.4167    12.6473    7.4788     5.8294     12.4258    0.13       66.2366   
2605.2     7.571      2.7261     9.0805     13.8297    12.3098    7.2483     5.434      12.479     0.13       66.2175   
2605.4     7.5329     2.6199     8.858      13.3551    11.9337    7.0632     6.063      12.347     0.127      66.3372   
2605.6     7.4725     2.4751     8.2985     13.4834    11.9847    6.978      5.9547     12.4166    0.124      66.5639   
2605.8     7.3604     2.7456     8.9917     13.9294    12.2973    6.9918     5.8009     13.3069    0.125      64.2516   
2606       7.2759     2.6441     8.6164     14.2922    12.7876    7.1303     5.5259     13.706     0.125      65.4022   
2606.2     7.2374     2.6012     8.5156     14.4715    13.0844    7.3797     6.4232     13.7904    0.123      67.4149   
2606.4     7.2341     2.6961     8.7349     14.8612    13.3308    7.5176     5.9519     14.0176    0.123      65.8124   
2606.6     7.2759     2.6626     8.4564     14.7543    13.216     7.5973     5.0522     14.4621    0.123      63.4201   
2606.8     7.3171     2.5276     7.9485     14.2452    12.8301    7.6181     5.8297     14.6539    0.12       63.9818   
2607       7.4143     2.5653     8.0713     13.8923    12.5354    7.5977     6.5388     14.6571    0.121      66.8193   
2607.2     7.5224     2.5723     8.0451     13.6225    12.3692    7.5786     6.0804     14.7335    0.12       66.3347   
2607.4     7.5807     2.5884     8.0084     13.3802    12.3832    7.5573     6.3167     14.8362    0.117      65.2254   
2607.6     7.6252     2.6353     8.1633     13.3128    12.4609    7.514      6.4795     14.9259    0.117      66.3013   
2607.8     7.6558     2.6668     8.3213     13.1652    12.4978    7.4156     6.4057     14.6672    0.117      68.1944   
2608       7.6764     2.6777     8.4534     13.0406    12.494     7.2838     6.8771     14.3411    0.117      68.9433   
2608.2     7.6353     2.7162     8.6078     13.1306    12.5491    7.1292     6.8157     14.0574    0.117      67.4907   
2608.4     7.5558     2.8601     8.7979     13.3079    12.6449    6.9837     7.2314     14.0204    0.12       70.091    
2608.6     7.5118     2.7785     8.8952     13.1929    12.3577    6.8096     5.8421     14.3465    0.12       72.9659   
