~Version
 VERS              .         2.0                           : CWLS LOG ASCII STANDARD - VERSION 2.0
 WRAP              .         NO                            : ONE LINE PER DEPTH STEP
 DLM               .         SPACE                         : DELIMITING CHARACTER(SPACE TAB OR COMMA)
~Well Information
#_______________________________________________________________________________
#
#PARAMETER_NAME    .UNIT     VALUE                         : DESCRIPTION
#_______________________________________________________________________________
STRT               .m        2582                          : First reference value
STOP               .m        2760                          : Last reference value
STEP               .m        0.2                           : Step increment
NULL               .         -9999                         : Missing value
COMP               .                                       : Company
WELL               .         602                           : Well name
FLD                .                                       : Field
LOC                .                                       : Location
CNTY               .                                       : County
STAT               .                                       : State
CTRY               .                                       : Country
SRVC               .                                       : Service Company
DATE               .                                       : Date
API                .                                       : API number
EREF               .m        134                           : 
X                  .m        225746                        : 
Y                  .m        235643                        : 
group              .         Pad6                          : 
Интер-р            .         Ярышев                        : 
Куст               .         6                             : 
Статус             .         Не проверено                  : 
Тип                .         Разобраться                   : 
~Parameter Information Block
#_______________________________________________________________________________
#
#PARAMETER_NAME    .UNIT     VALUE                         : DESCRIPTION
#_______________________________________________________________________________
SET                .         LAS3                          : 
REAL_CREATION_DATE .         Ср апр 11 2012-13_17_22       : 
TLFamily_DEPTH     .         Measured Depth                : 
TLFamily_GR        .         Gamma Ray                     : 
TLFamily_TNPH      .         Neutron Porosity              : 
group              .         INI                           : 
~Curve Information
#_______________________________________________________________________________
#
#LOGNAME           .UNIT     LOG_ID                        : DESCRIPTION
#_______________________________________________________________________________
DEPTH              .m                                      : Measured Depth 
GR                 .gAPI                                   :  
TNPH               .v/v                                    : Neutron Porosity 
~Ascii
# ...
2630.6     215.49     0.298     
2630.8     209.2      0.297     
2631       205.39     0.292     
2631.2     206.52     0.281     
2631.4     211.69     0.277     
2631.6     221.03     0.287     
2631.8     237.37     0.299     
2632       257.86     0.302     
2632.2     278.46     0.307     
2632.4     297.12     0.324     
2632.6     310.23     0.338     
2632.8     320.47     0.343     
2633       336.72     0.334     
2633.2     363.23     0.324     
2633.4     397.88     0.329     
2633.6     416.4      0.329     
2633.8     450.07     0.319     
2634       474.47     0.303     
2634.2     490.83     0.302     
2634.4     503.13     0.304     
2634.6     501.66     0.298     
2634.8     476.44     0.293     
2635       445.77     0.292     
2635.2     425.66     0.292     
2635.4     410.1      0.296     
2635.6     396.42     0.305     
2635.8     387.72     0.31      
2636       379.42     0.302     
2636.2     365.05     0.283     
2636.4     343.48     0.273     
2636.6     318.07     0.279     
2636.8     296.38     0.279     
2637       285.24     0.283     
2637.2     285.85     0.285     
2637.4     293.36     0.29      
2637.6     303.85     0.3       
2637.8     314.13     0.304     
2638       318.05     0.301     
2638.2     315.73     0.304     
2638.4     313        0.312     
2638.6     312.5      0.316     
2638.8     310.66     0.318     
2639       304.11     0.324     
2639.2     297.28     0.337     
2639.4     291.14     0.35      
2639.6     284.16     0.357     
2639.8     279        0.356     
2640       276        0.342     
2640.2     275.35     0.339     
2640.4     276.15     0.351     
2640.6     274.29     0.356     
2640.8     266.16     0.352     
2641       247.42     0.36      
2641.2     221.63     0.377     
2641.4     200.74     0.387     
2641.6     192.46     0.39      
2641.8     195.2      0.377     
2642       198.48     0.36      
2642.2     193.34     0.337     
2642.4     182.71     0.315     
2642.6     175.26     0.309     
2642.8     176.59     0.306     
2643       182.12     0.303     
2643.2     182.1      0.3       
2643.4     176.72     0.298     
2643.6     169.94     0.298     
2643.8     161.86     0.308     
2644       153.71     0.312     
2644.2     147.81     0.313     
2644.4     145.35     0.313     
2644.6     147.18     0.313     
2644.8     151.18     0.306     
2645       154.91     0.297     
2645.2     158.91     0.288     
2645.4     164.33     0.281     
2645.6     170.54     0.281     
2645.8     175.88     0.285     
2646       178.26     0.285     
2646.2     172.58     0.286     
2646.4     158.27     0.285     
2646.6     146.83     0.284     
2646.8     142.96     0.275     
2647       138.95     0.265     
2647.2     130.8      0.257     
2647.4     122.62     0.247     
2647.6     118.68     0.241     
2647.8     119.25     0.246     
2648       121.19     0.251     
2648.2     121.07     0.256     
2648.4     120.92     0.262     
2648.6     122.97     0.27      
2648.8     126.09     0.271     
2649       129.64     0.274     
2649.2     132.87     0.281     
2649.4     135.66     0.289     
2649.6     137.69     0.295     
2649.8     136.86     0.291     
2650       134.01     0.282     
2650.2     134.11     0.279     
2650.4     137.09     0.285     
2650.6     139.77     0.3       
2650.8     141.04     0.318     
2651       140.49     0.323     
2651.2     138.69     0.314     
2651.4     135.48     0.313     
2651.6     129.71     0.315     
2651.8     122.68     0.312     
2652       120.35     0.308     
2652.2     125        0.3       
2652.4     130.42     0.288     
2652.6     131.89     0.279     
2652.8     127.8      0.278     
2653       119.8      0.281     
2653.2     115.62     0.296     
2653.4     117.46     0.306     
2653.6     121.23     0.297     
2653.8     124.92     0.289     
2654       128.85     0.291     
2654.2     134.04     0.295     
2654.4     138.38     0.296     
2654.6     138        0.287     
2654.8     131.56     0.279     
2655       122.69     0.283     
2655.2     118.78     0.299     
2655.4     123.15     0.322     
2655.6     131.32     0.337     
2655.8     140.18     0.34      
2656       150.82     0.341     
2656.2     161.04     0.336     
2656.4     165.4      0.331     
2656.6     165        0.321     
2656.8     164.15     0.307     
2657       165.39     0.296     
2657.2     171.14     0.299     
2657.4     178.94     0.316     
2657.6     182.92     0.326     
2657.8     180.36     0.326     
2658       174.81     0.323     
2658.2     168.2      0.326     
2658.4     163.71     0.327     
2658.6     167.96     0.327     
2658.8     177.12     0.331     
2659       183.1      0.333     
2659.2     187.96     0.324     
2659.4     192.72     0.315     
2659.6     188.8      0.312     
2659.8     173.19     0.317     
2660       156.66     0.32      
2660.2     148.97     0.311     
2660.4     147.75     0.29      
2660.6     145.48     0.275     
2660.8     140.89     0.264     
2661       140.39     0.247     
2661.2     146.8      0.247     
2661.4     152.84     0.258     
2661.6     153.25     0.265     
2661.8     150.58     0.269     
2662       147.62     0.273     
2662.2     144.56     0.27      
2662.4     141.52     0.273     
2662.6     139.15     0.277     
2662.8     137.42     0.279     
2663       137.04     0.277     
2663.2     138.96     0.276     
2663.4     142.86     0.28      
2663.6     144.81     0.286     
2663.8     142.86     0.283     
2664       139.75     0.268     
2664.2     134.73     0.262     
2664.4     127.28     0.259     
2664.6     120.07     0.252     
2664.8     113.04     0.247     
2665       104.71     0.23      
2665.2     96.70999   0.227     
2665.4     96.35001   0.232     
2665.6     106.73     0.241     
2665.8     119.4      0.24      
2666       127.03     0.259     
2666.2     130.65     0.252     
2666.4     130.44     0.238     
2666.6     127.58     0.235     
2666.8     124.55     0.235     
2667       118.94     0.229     
2667.2     109.71     0.233     
2667.4     103.1      0.231     
2667.6     109.07     0.244     
2667.8     127.31     0.261     
2668       142.1      0.295     
2668.2     142.86     0.292     
2668.4     136.5      0.285     
2668.6     130.58     0.279     
2668.8     127.67     0.28      
2669       128.02     0.291     
2669.2     128.72     0.303     
2669.4     129.39     0.305     
2669.6     130.31     0.295     
2669.8     130.64     0.288     
2670       131.71     0.288     
2670.2     132.92     0.285     
2670.4     134.22     0.283     
2670.6     135.74     0.287     
2670.8     135.29     0.29      
2671       135.22     0.295     
2671.2     137.97     0.292     
2671.4     140.5      0.284     
2671.6     139.21     0.278     
2671.8     135.02     0.278     
2672       134.47     0.274     
2672.2     139        0.269     
2672.4     144.95     0.267     
2672.6     149.8      0.268     
2672.8     151.79     0.271     
2673       152.51     0.274     
2673.2     152.52     0.275     
2673.4     150.89     0.275     
2673.6     149.76     0.278     
2673.8     149.93     0.286     
2674       148.94     0.291     
2674.2     147.09     0.285     
2674.4     147.22     0.283     
2674.6     148.68     0.285     
2674.8     147.9      0.282     
2675       144.11     0.281     
2675.2     140.71     0.282     
2675.4     138.5      0.28      
2675.6     135.48     0.275     
2675.8     132.4      0.267     
2676       129.87     0.27      
2676.2     127.55     0.279     
2676.4     126.08     0.281     
2676.6     125.4      0.275     
2676.8     124.32     0.272     
2677       123.01     0.276     
2677.2     124.14     0.284     
2677.4     128.54     0.298     
2677.6     134.69     0.308     
2677.8     139.54     0.313     
2678       141.4      0.323     
2678.2     142.03     0.327     
2678.4     141.77     0.324     
2678.6     139.87     0.32      
2678.8     138.56     0.309     
2679       138.36     0.306     
