~Version
 VERS              .         2.0                           : CWLS LOG ASCII STANDARD - VERSION 2.0
 WRAP              .         NO                            : ONE LINE PER DEPTH STEP
 DLM               .         SPACE                         : DELIMITING CHARACTER(SPACE TAB OR COMMA)
~Well Information
#_______________________________________________________________________________
#
#PARAMETER_NAME    .UNIT     VALUE                         : DESCRIPTION
#_______________________________________________________________________________
STRT               .m        2582                          : First reference value
STOP               .m        2760                          : Last reference value
STEP               .m        0.2                           : Step increment
NULL               .         -9999                         : Missing value
COMP               .                                       : Company
WELL               .         602                           : Well name
FLD                .                                       : Field
LOC                .                                       : Location
CNTY               .                                       : County
STAT               .                                       : State
CTRY               .                                       : Country
SRVC               .                                       : Service Company
DATE               .                                       : Date
API                .                                       : API number
EREF               .m        134                           : 
X                  .m        225746                        : 
Y                  .m        235643                        : 
group              .         Pad6                          : 
Интер-р            .         Ярышев                        : 
Куст               .         6                             : 
Статус             .         Не проверено                  : 
Тип                .         Разобраться                   : 
~Parameter Information Block
#_______________________________________________________________________________
#
#PARAMETER_NAME    .UNIT     VALUE                         : DESCRIPTION
#_______________________________________________________________________________
SET                .         LAS1                          : 
REAL_CREATION_DATE .         Ср апр 11 2012-13_17_22       : 
TLFamily_DEPTH     .         Measured Depth                : 
TLFamily_KS        .         Potential Resistivity         : 
TLFamily_KS1       .         Extra Shallow Resistivity     : 
TLFamily_KS2       .         Shallow Resistivity           : 
TLFamily_KS3       .         Medium Resistivity            : 
TLFamily_KS4       .         Deep Resistivity              : 
TLFamily_KS5       .         Extra Deep Resistivity        : 
TLFamily_LLD       .         Lateral Log Resistivity       : 
TLFamily_OKS3      .         Medium Resistivity Inverted   : 
TLFamily_RM        .         Mud Resistivity               : 
TLFamily_SP        .         Spontaneous Potential         : 
group              .         INI                           : 
~Curve Information
#_______________________________________________________________________________
#
#LOGNAME           .UNIT     LOG_ID                        : DESCRIPTION
#_______________________________________________________________________________
DEPTH              .m                                      : Measured Depth 
KS                 .ohm.m                                  : Potential Resistivity 
KS1                .ohm.m                                  : Extra Shallow Resistivity 
KS2                .ohm.m                                  : Shallow Resistivity 
KS3                .ohm.m                                  : Medium Resistivity 
KS4                .ohm.m                                  : Deep Resistivity 
KS5                .ohm.m                                  : Extra Deep Resistivity 
LLD                .ohm.m                                  : Lateral Log Resistivity 
OKS3               .ohm.m                                  : Medium Resistivity Inverted 
RM                 .ohm.m                                  : Mud Resistivity 
SP                 .mV                                     : Spontaneous Potential 
~Ascii
# ...
2622.2     6.0261     2.4552     7.1183     9.7593     6.9681     4.1673     4.3392     10.662     0.123      61.8398   
2622.4     6.0038     2.4134     7.0334     9.5644     6.7096     3.983      4.0954     10.7115    0.123      63.0111   
2622.6     6.0115     2.4201     7.0668     9.5137     6.5813     3.8065     4.3755     10.7859    0.123      64.8357   
2622.8     6.0497     2.3829     6.9244     9.4418     6.4907     3.7087     4.4724     10.9717    0.123      63.304    
2623       6.0737     2.3562     6.806      9.3632     6.4524     3.6893     4.2596     11.2735    0.123      62.1384   
2623.2     6.1091     2.3549     6.7738     9.3331     6.4849     3.7264     4.3619     11.658     0.123      62.5066   
2623.4     6.1794     2.3377     6.7553     9.3636     6.6244     3.8514     4.3476     12.1456    0.123      65.6055   
2623.6     6.2809     2.3005     6.699      9.4835     6.9227     4.0814     4.286      12.6738    0.123      61.4665   
2623.8     6.3777     2.3031     6.7515     9.8672     7.4768     4.3847     4.5243     13.2809    0.123      61.8784   
2624       6.4873     2.3999     7.1343     10.3295    8.0906     4.7053     5.0154     13.5502    0.123      64.1845   
2624.2     6.6489     2.4811     7.2909     10.6686    8.5513     5.024      5.6391     13.4483    0.122      64.2768   
2624.4     6.7839     2.4954     7.2889     10.7604    8.7696     5.2664     5.3197     13.1244    0.123      62.1455   
2624.6     6.8977     2.5802     7.4956     10.7579    8.8815     5.371      5.7252     12.9113    0.122      62.0822   
2624.8     6.9791     2.5595     7.4846     10.7567    8.9514     5.3971     5.1478     12.8328    0.123      64.6248   
2625       7.0548     2.586      7.6577     10.7596    9.0355     5.4185     5.3324     12.845     0.123      64.2502   
2625.2     7.1243     2.5817     7.8321     10.9049    9.1744     5.44       5.4703     12.7281    0.123      61.7992   
2625.4     7.1391     2.6767     8.1792     11.1658    9.3306     5.4754     6.1882     12.4483    0.123      62.3015   
2625.6     7.1133     2.7803     8.5101     11.5254    9.4965     5.4619     6.4325     12.0473    0.123      64.0027   
2625.8     7.0347     2.8673     8.7348     11.7954    9.4758     5.3894     6.1647     11.3911    0.123      63.3631   
2626       6.9218     2.8341     8.6723     11.9757    9.2976     5.2619     5.562      11.1143    0.123      60.7098   
2626.2     6.7769     2.7969     8.6996     12.1009    9.075      5.0614     5.1222     10.9851    0.123      61.2652   
2626.4     6.6464     2.7714     8.7205     12.2568    8.8528     4.7703     5.0948     10.9225    0.123      63.7617   
2626.6     6.5554     2.6959     8.5059     12.1205    8.5078     4.5237     4.6758     11.0691    0.124      62.7553   
2626.8     6.5042     2.5765     8.1032     11.8713    8.171      4.3653     4.3366     11.3721    0.125      60.1834   
2627       6.4853     2.4923     7.8282     11.72      8.0116     4.2423     4.306      11.6058    0.125      61.2202   
2627.2     6.4951     2.5087     7.7805     11.7805    8.0085     4.1861     4.7344     11.6463    0.126      64.4646   
2627.4     6.5616     2.5453     7.765      11.8409    8.0323     4.2008     5.2076     11.7613    0.126      62.6255   
2627.6     6.6017     2.5102     7.5383     11.8479    8.0918     4.2413     4.725      12.0549    0.126      60.2424   
2627.8     6.5785     2.5478     7.6687     12.0305    8.391      4.2737     4.9433     12.0672    0.126      62.3913   
2628       6.5857     2.6582     7.9934     12.1396    8.6296     4.3001     5.7653     12.0189    0.126      63.5309   
2628.2     6.5978     2.594      7.8499     12.0135    8.8321     4.3432     4.8466     11.8707    0.126      62.1379   
2628.4     6.5752     2.6192     7.7851     11.8004    8.9816     4.3035     4.9268     11.8193    0.126      59.7933   
2628.6     6.582      2.6011     8.0116     11.6548    9.0912     4.2196     5.3007     11.7869    0.125      61.5311   
2628.8     6.5674     2.5659     7.7877     11.4302    9.0663     4.14       4.8045     11.8169    0.123      63.4089   
2629       6.5771     2.5616     7.7835     11.1698    8.9356     4.033      4.8525     11.8875    0.124      61.8948   
2629.2     6.5919     2.5387     7.6965     11.0679    8.8864     3.9009     4.9627     11.9819    0.125      59.6257   
2629.4     6.6231     2.5355     7.6603     11.0011    8.7989     3.7857     4.9546     12.1774    0.125      62.4066   
2629.6     6.6441     2.5048     7.5604     10.9233    8.7326     3.6786     4.8266     12.4035    0.126      63.5319   
2629.8     6.6419     2.5279     7.697      10.9309    8.7074     3.6004     4.9997     12.6195    0.126      61.2648   
2630       6.6114     2.6044     7.8553     11.0989    8.7277     3.52       5.3637     12.7559    0.125      60.5512   
2630.2     6.5835     2.6617     7.9864     11.3147    8.6883     3.4342     5.2924     12.7215    0.126      62.5585   
2630.4     6.5745     2.6221     7.8617     11.1738    8.4572     3.3369     5.3797     12.8673    0.126      64.1866   
2630.6     6.5654     2.5376     7.5713     10.8557    8.1171     3.2215     4.6096     13.2768    0.126      62.6065   
2630.8     6.5883     2.5077     7.4874     10.5722    7.8039     3.0886     4.5301     13.8433    0.126      60.9668   
2631       6.685      2.4226     7.2364     10.3682    7.5871     3.0124     4.6865     14.4505    0.126      63.0669   
2631.2     6.8351     2.355      7.0536     10.186     7.4931     3.0104     4.4544     14.9886    0.125      63.7101   
2631.4     7.0077     2.3517     7.0183     10.2079    7.5523     3.0782     4.5868     15.5197    0.124      61.9852   
2631.6     7.1776     2.3955     7.0883     10.4167    7.7907     3.2081     5.2419     15.994     0.123      61.3389   
2631.8     7.3317     2.4904     7.3932     10.756     8.1451     3.3875     5.4448     16.4275    0.123      63.5012   
2632       7.4828     2.5539     7.5758     11.1352    8.5546     3.5964     6.1846     16.9376    0.123      63.7152   
2632.2     7.6246     2.6084     7.8067     11.3728    9.091      3.846      6.2903     17.5492    0.123      61.9213   
2632.4     7.7757     2.6102     7.8843     11.5535    9.3994     4.1574     6.196      18.2987    0.123      61.1332   
2632.6     7.9236     2.5924     7.942      11.6927    9.7865     4.5528     6.073      18.9854    0.123      63.1957   
2632.8     8.0671     2.6256     8.1728     11.9863    10.3232    5.0253     6.0068     19.603     0.123      63.6314   
2633       8.2001     2.6848     8.4655     12.5245    11.0123    5.5102     6.6768     20.1931    0.123      61.1465   
2633.2     8.2948     2.7783     8.9093     13.172     11.5979    5.8922     7.0663     20.572     0.123      60.9729   
2633.4     8.3928     2.858      9.1573     13.6525    11.8139    6.144      7.4154     20.5069    0.121      63.0904   
2633.6     8.4875     2.8566     9.1897     13.7593    11.5738    6.2367     7.7315     20.1023    0.12       63.0028   
2633.8     8.5977     2.8338     9.1598     13.6652    11.1718    6.1205     7.2295     19.7652    0.12       60.5034   
2634       8.7351     2.7499     8.9149     13.4617    10.7044    5.8967     6.6915     19.8709    0.12       62.0093   
2634.2     8.9028     2.6667     8.6877     13.2699    10.3939    5.7263     6.0737     20.1936    0.12       63.0888   
2634.4     9.1052     2.615      8.6431     13.4024    10.3977    5.6403     6.5908     20.4363    0.12       61.3703   
2634.6     9.2964     2.687      8.9224     13.8689    10.6028    5.6079     7.247      20.3003    0.12       59.8679   
2634.8     9.4741     2.8396     9.3596     14.5218    10.8604    5.6211     9.1022     19.8262    0.12       62.2055   
2635       9.6025     2.9129     9.5496     15.1262    11.0347    5.6502     9.772      19.4387    0.12       63.0767   
2635.2     9.681      2.9338     9.65       15.5957    11.2134    5.6392     8.6201     19.1552    0.12       60.7762   
2635.4     9.7288     2.9722     9.9374     16.1081    11.4391    5.5821     8.6847     18.9446    0.117      60.3437   
