~Version
 VERS              .         2.0                           : CWLS LOG ASCII STANDARD - VERSION 2.0
 WRAP              .         NO                            : ONE LINE PER DEPTH STEP
 DLM               .         SPACE                         : DELIMITING CHARACTER(SPACE TAB OR COMMA)
~Well Information
#_______________________________________________________________________________
#
#PARAMETER_NAME    .UNIT     VALUE                         : DESCRIPTION
#_______________________________________________________________________________
STRT               .m        2582                          : First reference value
STOP               .m        2760                          : Last reference value
STEP               .m        0.2                           : Step increment
NULL               .         -9999                         : Missing value
COMP               .                                       : Company
WELL               .         602                           : Well name
FLD                .                                       : Field
LOC                .                                       : Location
CNTY               .                                       : County
STAT               .                                       : State
CTRY               .                                       : Country
SRVC               .                                       : Service Company
DATE               .                                       : Date
API                .                                       : API number
EREF               .m        134                           : 
X                  .m        225746                        : 
Y                  .m        235643                        : 
group              .         Pad6                          : 
Интер-р            .         Ярышев                        : 
Куст               .         6                             : 
Статус             .         Не проверено                  : 
Тип                .         Разобраться                   : 
~Parameter Information Block
#_______________________________________________________________________________
#
#PARAMETER_NAME    .UNIT     VALUE                         : DESCRIPTION
#_______________________________________________________________________________
SET                .         LAS1                          : 
REAL_CREATION_DATE .         Ср апр 11 2012-13_17_22       : 
TLFamily_DEPTH     .         Measured Depth                : 
TLFamily_KS        .         Potential Resistivity         : 
TLFamily_KS1       .         Extra Shallow Resistivity     : 
TLFamily_KS2       .         Shallow Resistivity           : 
TLFamily_KS3       .         Medium Resistivity            : 
TLFamily_KS4       .         Deep Resistivity              : 
TLFamily_KS5       .         Extra Deep Resistivity        : 
TLFamily_LLD       .         Lateral Log Resistivity       : 
TLFamily_OKS3      .         Medium Resistivity Inverted   : 
TLFamily_RM        .         Mud Resistivity               : 
TLFamily_SP        .         Spontaneous Potential         : 
group              .         INI                           : 
~Curve Information
#_______________________________________________________________________________
#
#LOGNAME           .UNIT     LOG_ID                        : DESCRIPTION
#_______________________________________________________________________________
DEPTH              .m                                      : Measured Depth 
KS                 .ohm.m                                  : Potential Resistivity 
KS1                .ohm.m                                  : Extra Shallow Resistivity 
KS2                .ohm.m                                  : Shallow Resistivity 
KS3                .ohm.m                                  : Medium Resistivity 
KS4                .ohm.m                                  : Deep Resistivity 
KS5                .ohm.m                                  : Extra Deep Resistivity 
LLD                .ohm.m                                  : Lateral Log Resistivity 
OKS3               .ohm.m                                  : Medium Resistivity Inverted 
RM                 .ohm.m                                  : Mud Resistivity 
SP                 .mV                                     : Spontaneous Potential 
~Ascii
# ...
2608.8     7.5117     2.6167     8.4269     12.7835    11.7382    6.614      4.9586     15.1783    0.12       71.7961   
2609       7.6279     2.4617     7.8949     12.3663    11.1955    6.5227     5.1043     15.9196    0.12       70.0854   
2609.2     7.8114     2.3747     7.5744     12.1972    10.8953    6.5361     5.7984     16.0892    0.12       72.4384   
2609.4     8.0018     2.4869     7.8199     12.3231    10.9156    6.6287     6.8341     16.171     0.12       74.7842   
2609.6     8.0733     2.576      7.964      12.7873    11.2294    6.7896     7.3078     15.5467    0.12       72.7107   
2609.8     8.0757     2.8193     8.5999     13.4858    11.6116    6.9236     11.3004    14.277     0.12       71.4353   
2610       8.045      3.0154     9.1112     14.0792    11.8193    7.0058     9.5584     13.2688    0.12       72.8862   
2610.2     7.9905     2.8363     8.6325     13.838     11.7129    7.0686     5.97       13.2699    0.12       75.3585   
2610.4     7.9962     2.5293     8.0595     13.1398    11.3035    7.1898     4.8064     13.5668    0.12       73.3434   
2610.6     8.0668     2.4278     8.1455     13.0166    11.3643    7.3267     5.3617     13.8361    0.12       71.7491   
2610.8     8.276      2.4283     8.2657     13.2012    11.7964    7.5644     6.2948     14.0156    0.12       73.3164   
2611       8.5011     2.367      8.0118     13.5701    12.402     7.933      6.5319     13.5826    0.119      74.9219   
2611.2     8.5968     2.6701     8.6172     14.6172    13.2072    8.2767     11.9712    12.4748    0.118      73.6205   
2611.4     8.5293     3.0628     9.6124     15.938     14.1936    8.486      15.4108    11.2559    0.118      69.9003   
2611.6     8.2572     3.2231     9.9607     16.8105    14.8886    8.6384     9.4298     10.4395    0.117      70.9074   
2611.8     7.9529     3.2789     10.4483    17.0797    15.179     8.6832     7.5367     10.0452    0.12       71.5939   
2612       7.6525     3.0694     10.1077    16.9404    15.0961    8.6561     5.8969     9.8939     0.12       68.9529   
2612.2     7.3624     2.923      10.03      16.3751    14.7494    8.6274     5.5545     9.8559     0.122      66.2714   
2612.4     7.081      2.8645     9.871      16.0437    14.6794    8.5803     5.5811     9.8877     0.122      67.4285   
2612.6     6.8589     2.7992     9.5956     15.74      14.4857    8.5723     5.2049     9.9508     0.122      67.8121   
2612.8     6.7056     2.6929     9.1138     15.4344    14.1537    8.5822     4.8523     10.0151    0.122      64.2127   
2613       6.612      2.6033     8.6541     15.1463    13.8352    8.551      4.7387     10.0396    0.123      63.7281   
2613.2     6.5365     2.5987     8.3512     14.9815    13.5838    8.4806     4.9049     10.0039    0.123      66.317    
2613.4     6.4622     2.5855     8.1157     14.7874    13.4617    8.3947     4.9766     9.9486     0.123      66.0444   
2613.6     6.3959     2.5918     7.9798     14.3253    13.2349    8.286      4.8642     9.8991     0.123      63.9572   
2613.8     6.3236     2.5631     7.8346     13.7857    13.0555    8.1626     4.7285     9.8671     0.123      62.6538   
2614       6.2643     2.5457     7.7341     13.1459    12.7899    8.0476     4.7355     9.847      0.123      65.3402   
2614.2     6.2153     2.516      7.6369     12.595     12.4333    7.9336     4.6469     9.8616     0.123      63.3814   
2614.4     6.1532     2.5194     7.6035     12.1385    12.0893    7.8601     4.6725     9.8647     0.123      62.0177   
2614.6     6.1049     2.5106     7.5807     11.7796    11.7963    7.807      4.629      9.8524     0.123      64.4497   
2614.8     6.0555     2.5052     7.5094     11.4741    11.5269    7.7891     4.5572     9.8098     0.123      65.5298   
2615       5.996      2.4692     7.3787     11.2818    11.372     7.773      4.4508     9.8355     0.123      63.3391   
2615.2     5.9488     2.4842     7.4305     11.1304    11.258     7.7625     4.3256     9.9022     0.123      62.6471   
2615.4     5.9166     2.4164     7.232      11.0054    11.1273    7.7504     4.1986     9.9947     0.123      64.5723   
2615.6     5.9063     2.414      7.2219     10.8198    10.8456    7.7215     4.3559     10.024     0.123      63.4915   
2615.8     5.9097     2.4114     7.1682     10.6674    10.5245    7.6447     4.4824     9.947      0.123      63.4552   
2616       5.9472     2.3893     7.0553     10.4224    10.062     7.5352     4.4637     9.7771     0.123      61.9841   
2616.2     5.9592     2.3598     6.9237     10.2433    9.6367     7.4345     4.7509     9.6406     0.123      64.2993   
2616.4     5.932      2.4259     6.9888     10.2223    9.3752     7.2677     4.6506     9.539      0.123      65.9295   
2616.6     5.8622     2.4849     7.2287     10.3173    9.2356     7.114      4.2399     9.5593     0.123      63.1843   
2616.8     5.8156     2.4663     7.2547     10.2725    9.0021     6.9972     4.0694     9.6472     0.123      61.9986   
2617       5.7923     2.3929     7.1045     10.1124    8.7753     6.8356     4.0719     9.7392     0.123      63.8192   
2617.2     5.781      2.3702     7.0475     9.978      8.5807     6.6353     4.2774     9.7336     0.123      64.2633   
2617.4     5.7872     2.3722     7.0417     9.9174     8.4117     6.4359     4.4265     9.6188     0.123      63.523    
2617.6     5.7949     2.38       6.9665     9.8975     8.2507     6.2573     4.432      9.4896     0.123      62.0625   
2617.8     5.7814     2.3989     6.9577     9.8596     8.0679     6.061      4.2838     9.4699     0.123      64.446    
2618       5.7538     2.4132     6.9581     9.8358     7.9071     5.8888     4.2712     9.5342     0.123      65.3583   
2618.2     5.7381     2.3966     6.9578     9.7458     7.7215     5.7515     4.0445     9.6221     0.123      63.0867   
2618.4     5.7147     2.3802     6.8998     9.671      7.581      5.6045     4.3909     9.6402     0.123      62.6326   
2618.6     5.6975     2.4282     6.9707     9.6537     7.529      5.4446     4.4678     9.6048     0.123      64.1434   
2618.8     5.6975     2.4275     7.0196     9.6143     7.4459     5.291      4.2096     9.6697     0.123      64.8162   
2619       5.6986     2.3814     6.7895     9.4685     7.3224     5.189      3.9593     9.8553     0.123      62.8469   
2619.2     5.7132     2.3372     6.6826     9.3134     7.2249     5.1596     3.9849     10.1944    0.123      62.4898   
2619.4     5.7509     2.3283     6.7113     9.3017     7.2569     5.171      4.065      10.5066    0.123      64.9843   
2619.6     5.8025     2.3408     6.7369     9.3886     7.3863     5.2064     4.2403     10.6958    0.123      64.6214   
2619.8     5.8773     2.3704     6.797      9.4708     7.5165     5.2656     4.4048     10.6831    0.123      62.7622   
2620       5.9453     2.385      6.7963     9.517      7.6364     5.3182     4.5049     10.7145    0.123      62.1622   
2620.2     5.9995     2.4193     6.8765     9.5676     7.717      5.3233     4.545      10.7383    0.123      64.1845   
2620.4     6.0162     2.4602     6.9826     9.6412     7.7735     5.2727     4.6944     10.7032    0.123      63.9687   
2620.6     6.0357     2.5173     7.181      9.6707     7.7425     5.154      4.7718     10.5809    0.123      62.2422   
2620.8     6.0533     2.4924     7.1468     9.5955     7.6516     4.995      4.5209     10.4886    0.123      62.7226   
2621       6.0839     2.4609     7.0724     9.4313     7.4876     4.8327     4.4029     10.4846    0.123      64.9719   
2621.2     6.117      2.425      7.0264     9.2921     7.3361     4.7005     4.3363     10.6297    0.123      64.5871   
2621.4     6.1237     2.3906     6.9815     9.3386     7.2563     4.6214     4.3474     10.8526    0.123      62.6532   
2621.6     6.0949     2.5272     7.3378     9.5879     7.3453     4.5506     5.0043     10.8694    0.123      62.7809   
2621.8     6.0639     2.5619     7.4834     9.9669     7.468      4.4587     5.098      10.7657    0.123      64.5494   
2622       6.0352     2.6018     7.5307     9.9434     7.3931     4.3322     4.653      10.6714    0.123      63.5139   
