~Version
 VERS              .         2.0                           : CWLS LOG ASCII STANDARD - VERSION 2.0
 WRAP              .         NO                            : ONE LINE PER DEPTH STEP
 DLM               .         SPACE                         : DELIMITING CHARACTER(SPACE TAB OR COMMA)
~Well Information
#_______________________________________________________________________________
#
#PARAMETER_NAME    .UNIT     VALUE                         : DESCRIPTION
#_______________________________________________________________________________
STRT               .m        2582                          : First reference value
STOP               .m        2760                          : Last reference value
STEP               .m        0.2                           : Step increment
NULL               .         -9999                         : Missing value
COMP               .                                       : Company
WELL               .         602                           : Well name
FLD                .                                       : Field
LOC                .                                       : Location
CNTY               .                                       : County
STAT               .                                       : State
CTRY               .                                       : Country
SRVC               .                                       : Service Company
DATE               .                                       : Date
API                .                                       : API number
EREF               .m        134                           : 
X                  .m        225746                        : 
Y                  .m        235643                        : 
group              .         Pad6                          : 
Интер-р            .         Ярышев                        : 
Куст               .         6                             : 
Статус             .         Не проверено                  : 
Тип                .         Разобраться                   : 
~Parameter Information Block
#_______________________________________________________________________________
#
#PARAMETER_NAME    .UNIT     VALUE                         : DESCRIPTION
#_______________________________________________________________________________
SET                .         LAS1                          : 
REAL_CREATION_DATE .         Ср апр 11 2012-13_17_22       : 
TLFamily_DEPTH     .         Measured Depth                : 
TLFamily_KS        .         Potential Resistivity         : 
TLFamily_KS1       .         Extra Shallow Resistivity     : 
TLFamily_KS2       .         Shallow Resistivity           : 
TLFamily_KS3       .         Medium Resistivity            : 
TLFamily_KS4       .         Deep Resistivity              : 
TLFamily_KS5       .         Extra Deep Resistivity        : 
TLFamily_LLD       .         Lateral Log Resistivity       : 
TLFamily_OKS3      .         Medium Resistivity Inverted   : 
TLFamily_RM        .         Mud Resistivity               : 
TLFamily_SP        .         Spontaneous Potential         : 
group              .         INI                           : 
~Curve Information
#_______________________________________________________________________________
#
#LOGNAME           .UNIT     LOG_ID                        : DESCRIPTION
#_______________________________________________________________________________
DEPTH              .m                                      : Measured Depth 
KS                 .ohm.m                                  : Potential Resistivity 
KS1                .ohm.m                                  : Extra Shallow Resistivity 
KS2                .ohm.m                                  : Shallow Resistivity 
KS3                .ohm.m                                  : Medium Resistivity 
KS4                .ohm.m                                  : Deep Resistivity 
KS5                .ohm.m                                  : Extra Deep Resistivity 
LLD                .ohm.m                                  : Lateral Log Resistivity 
OKS3               .ohm.m                                  : Medium Resistivity Inverted 
RM                 .ohm.m                                  : Mud Resistivity 
SP                 .mV                                     : Spontaneous Potential 
~Ascii
# ...
2635.6     9.75       2.9976     10.1454    16.5768    11.7068    5.5272     8.8658     18.712     0.117      61.3531   
2635.8     9.7422     3.0183     10.302     16.959     12.002     5.4934     8.862      18.5184    0.117      62.0174   
2636       9.7039     3.0713     10.5388    17.3531    12.4055    5.4498     9.0692     18.3147    0.119      59.5261   
2636.2     9.6093     3.1017     10.6757    17.7918    12.9433    5.4175     9.1801     18.1819    0.118      59.2887   
2636.4     9.5266     3.1086     10.7056    18.0381    13.2414    5.4277     8.7052     18.2658    0.118      61.8836   
2636.6     9.4177     3.0932     10.7003    18.3115    13.601     5.4443     8.1703     18.7026    0.119      61.9498   
2636.8     9.3463     3.0343     10.5835    18.4415    13.9231    5.4814     7.5821     19.3983    0.12       59.0668   
2637       9.3186     2.9261     10.3125    18.4808    14.2893    5.49       7.0595     20.196     0.117      59.2284   
2637.2     9.3586     2.8869     10.1564    18.4512    14.7186    5.4835     6.8848     20.6541    0.117      61.8617   
2637.4     9.4573     2.8777     10.0539    18.3657    15.1206    5.4545     7.8678     20.7538    0.117      61.7321   
2637.6     9.5587     2.8503     9.8091     18.1769    15.3348    5.4194     7.8105     20.5921    0.119      59.5799   
2637.8     9.6707     2.8804     9.7515     17.9824    15.5352    5.3512     8.2717     20.447     0.117      59.5931   
2638       9.7758     2.8719     9.6453     17.7742    15.6343    5.3075     8.5558     20.4158    0.118      62.3665   
2638.2     9.843      2.8892     9.7575     17.6929    15.7865    5.2717     8.2991     20.5354    0.117      61.497    
2638.4     9.9106     2.9342     9.9741     17.7351    16.134     5.2937     8.6602     20.5039    0.12       58.8306   
2638.6     9.986      2.9467     10.0638    17.7467    16.4702    5.3344     9.0511     20.4564    0.117      59.2477   
2638.8     10.0733    2.9277     10.0665    17.5924    16.7068    5.3945     8.8564     20.4776    0.118      61.4027   
2639       10.1004    2.9298     10.0372    17.6673    17.0005    5.4697     8.7692     20.6205    0.118      60.3931   
2639.2     10.0981    3.0043     10.373     18.0995    17.4456    5.541      9.024      20.8235    0.117      58.3303   
2639.4     10.1128    3.0447     10.5941    18.5717    17.8534    5.6463     9.4365     20.8563    0.117      59.839    
2639.6     10.1397    3.0381     10.6365    18.8609    18.0381    5.7703     9.1697     20.849     0.119      61.9311   
2639.8     10.1699    3.0239     10.5877    19.0203    18.114     5.8771     8.9664     20.7947    0.12       60.3373   
2640       10.1814    3.0138     10.5672    19.161     18.1296    6          8.942      20.6365    0.12       59.1455   
2640.2     10.1853    3.0436     10.6517    19.3163    18.1613    6.127      9.4421     20.4212    0.123      60.1068   
2640.4     10.1829    3.0548     10.7307    19.46      18.1749    6.2305     9.348      20.4048    0.123      61.5842   
2640.6     10.2119    3.0375     10.6788    19.3716    17.9477    6.3395     9.083      20.2143    0.125      60.1724   
2640.8     10.2414    2.9501     10.3823    19.1583    17.6387    6.4668     9.122      19.9294    0.125      58.598    
2641       10.2395    2.9784     10.462     19.1078    17.5585    6.6261     9.0848     19.7053    0.125      60.6838   
2641.2     10.1883    3.0099     10.5849    19.318     17.8574    6.8539     9.066      19.6582    0.126      62.4028   
2641.4     10.1494    3.0311     10.6697    19.4829    18.1791    7.215      9.621      19.6535    0.126      60.168    
2641.6     10.0728    3.0392     10.7118    19.6814    18.5527    7.7068     9.4483     19.9862    0.125      58.5411   
2641.8     9.9979     3.0084     10.7216    19.8448    18.9707    8.3582     9.031      20.5363    0.122      60.6321   
2642       9.9042     3.0034     10.7515    20.368     19.7988    8.8551     8.753      21.4642    0.12       62.1779   
2642.2     9.8257     3.1337     11.3069    20.8681    20.5223    9.2635     8.6971     22.2771    0.12       59.8922   
2642.4     9.9172     2.9244     10.4909    20.6407    20.466     9.6355     9.1009     23.4053    0.119      58.9145   
2642.6     10.015     2.7794     10.0557    19.772     19.9549    9.9234     6.6195     23.9637    0.117      60.5393   
2642.8     10.1475    2.8685     10.307     20.0765    20.4302    10.015     7.8548     24.1639    0.117      61.6406   
2643       10.242     3.0003     10.5218    20.5203    20.9772    10.2036    11.1252    24.3206    0.113      59.5219   
2643.2     10.2376    3.0966     10.8045    20.7605    21.2331    10.2753    10.7942    24.4068    0.113      58.3961   
2643.4     10.2438    3.1456     10.9292    20.7441    21.0996    10.1591    10.1327    23.7825    0.113      60.4533   
2643.6     10.2849    3.1243     10.8911    20.1844    20.4935    9.8375     10.5398    22.9176    0.113      61.6632   
2643.8     10.3187    3.0222     10.6527    19.3889    19.6897    9.3514     9.73       22.4677    0.113      58.9296   
2644       10.3623    2.946      10.3684    18.6924    18.886     8.8799     8.8207     22.5421    0.113      57.9224   
2644.2     10.3845    2.9021     10.1923    18.2243    18.2741    8.5201     8.6151     22.9358    0.113      60.6784   
2644.4     10.4633    2.8935     10.2078    18.0332    17.8953    8.2794     8.7224     23.5226    0.112      60.8458   
2644.6     10.5974    2.8368     10.0288    17.9989    17.7115    8.1527     8.9047     24.4253    0.11       58.507    
2644.8     10.6717    2.8138     9.9295     18.019     17.6815    8.1443     8.9279     24.9988    0.11       58.0197   
2645       10.8295    2.7874     9.8509     18.3662    17.8182    8.2594     9.4874     26.1674    0.11       59.3986   
2645.2     11.0162    2.8425     10.0432    18.914     18.2082    8.5817     10.8584    26.9575    0.108      61.5864   
2645.4     11.1942    2.8793     10.2146    19.7264    18.9743    9.0693     11.1845    27.5111    0.11       59.4547   
2645.6     11.3377    2.9891     10.6326    20.8271    20.1246    9.507      12.687     28.0077    0.11       58.0035   
2645.8     11.4348    3.1189     11.171     21.8862    21.0671    9.7901     13.2218    27.699     0.108      60.2181   
2646       11.5512    3.1839     11.399     22.2712    21.3298    9.9556     13.2706    26.9588    0.107      61.6999   
2646.2     11.6389    3.123      11.3036    21.9576    21.0586    9.9128     11.373     26.5007    0.107      59.8111   
2646.4     11.6794    3.1232     11.2926    21.5909    20.7921    9.6165     11.0111    26.2344    0.107      58.22     
2646.6     11.7346    3.1287     11.3805    21.4422    20.8315    9.2488     11.2127    25.9297    0.109      59.7398   
2646.8     11.8207    3.0869     11.2316    21.2192    20.7282    8.9427     10.9771    25.8198    0.108      61.7798   
2647       11.9903    3.0224     10.9647    20.787     20.5762    8.7107     10.2732    25.9523    0.109      59.348    
2647.2     12.1741    2.9282     10.6722    20.5341    20.4486    8.5335     10.6063    25.9574    0.11       57.841    
2647.4     12.3559    2.9788     10.794     20.7609    20.6884    8.4377     12.7125    25.7033    0.107      59.83     
2647.6     12.498     3.0635     11.0564    21.373     21.2064    8.4321     13.6635    25.3279    0.107      61.68     
2647.8     12.5627    3.1324     11.2175    22.0518    21.7727    8.5179     13.5784    24.8785    0.107      59.6499   
2648       12.5887    3.1941     11.5572    22.7726    22.2938    8.6534     14.3472    24.3961    0.108      57.9829   
2648.2     12.5746    3.2556     11.9138    23.4385    22.8035    8.8097     14.3653    24.0681    0.11       60.3562   
2648.4     12.5068    3.2933     12.1155    23.8181    23.1452    8.9488     13.7896    24.1099    0.11       61.2753   
2648.6     12.4738    3.2364     11.9927    23.9204    23.2927    9.0894     11.9398    24.3309    0.11       59.5169   
2648.8     12.4398    3.1771     11.9076    23.9486    23.4241    9.2492     11.1375    24.3967    0.11       58.4474   
