~Version
 VERS              .         2.0                           : CWLS LOG ASCII STANDARD - VERSION 2.0
 WRAP              .         NO                            : ONE LINE PER DEPTH STEP
 DLM               .         SPACE                         : DELIMITING CHARACTER(SPACE TAB OR COMMA)
~Well Information
#_______________________________________________________________________________
#
#PARAMETER_NAME    .UNIT     VALUE                         : DESCRIPTION
#_______________________________________________________________________________
STRT               .m        2582                          : First reference value
STOP               .m        2760                          : Last reference value
STEP               .m        0.2                           : Step increment
NULL               .         -9999                         : Missing value
COMP               .                                       : Company
WELL               .         602                           : Well name
FLD                .                                       : Field
LOC                .                                       : Location
CNTY               .                                       : County
STAT               .                                       : State
CTRY               .                                       : Country
SRVC               .                                       : Service Company
DATE               .                                       : Date
API                .                                       : API number
EREF               .m        134                           : 
X                  .m        225746                        : 
Y                  .m        235643                        : 
group              .         Pad6                          : 
Интер-р            .         Ярышев                        : 
Куст               .         6                             : 
Статус             .         Не проверено                  : 
Тип                .         Разобраться                   : 
~Parameter Information Block
#_______________________________________________________________________________
#
#PARAMETER_NAME    .UNIT     VALUE                         : DESCRIPTION
#_______________________________________________________________________________
SET                .         LAS1                          : 
REAL_CREATION_DATE .         Ср апр 11 2012-13_17_22       : 
TLFamily_DEPTH     .         Measured Depth                : 
TLFamily_KS        .         Potential Resistivity         : 
TLFamily_KS1       .         Extra Shallow Resistivity     : 
TLFamily_KS2       .         Shallow Resistivity           : 
TLFamily_KS3       .         Medium Resistivity            : 
TLFamily_KS4       .         Deep Resistivity              : 
TLFamily_KS5       .         Extra Deep Resistivity        : 
TLFamily_LLD       .         Lateral Log Resistivity       : 
TLFamily_OKS3      .         Medium Resistivity Inverted   : 
TLFamily_RM        .         Mud Resistivity               : 
TLFamily_SP        .         Spontaneous Potential         : 
group              .         INI                           : 
~Curve Information
#_______________________________________________________________________________
#
#LOGNAME           .UNIT     LOG_ID                        : DESCRIPTION
#_______________________________________________________________________________
DEPTH              .m                                      : Measured Depth 
KS                 .ohm.m                                  : Potential Resistivity 
KS1                .ohm.m                                  : Extra Shallow Resistivity 
KS2                .ohm.m                                  : Shallow Resistivity 
KS3                .ohm.m                                  : Medium Resistivity 
KS4                .ohm.m                                  : Deep Resistivity 
KS5                .ohm.m                                  : Extra Deep Resistivity 
LLD                .ohm.m                                  : Lateral Log Resistivity 
OKS3               .ohm.m                                  : Medium Resistivity Inverted 
RM                 .ohm.m                                  : Mud Resistivity 
SP                 .mV                                     : Spontaneous Potential 
~Ascii
# ...
2729.4     6.4507     2.3092     6.2477     9.9565     10.8919    4.0429     7.6814     7.4331     0.126      61.6719   
2729.6     6.3593     2.5222     6.7581     10.0573    10.9595    4.0243     7.8676     7.364      0.121      63.6088   
2729.8     6.1619     2.6576     7.14       10.1068    10.8107    3.9884     6.9051     7.1862     0.129      66.3475   
2730       5.8971     2.7026     7.3036     9.7403     10.3341    3.9557     5.5557     7.0741     0.13       64.2205   
2730.2     5.6568     2.5438     7.0165     9.0848     9.6392     3.9989     4.5395     7.1489     0.123      62.438    
2730.4     5.4732     2.2978     6.5474     8.5423     9.2513     4.0846     4.0112     7.5996     0.128      64.0947   
2730.6     5.2582     2.1251     6.2518     8.4234     9.3825     4.3373     4.0563     8.5571     0.128      65.7889   
2730.8     5.1006     2.1756     6.3371     8.5053     9.7182     4.8698     4.4035     9.5823     0.125      64.7575   
2731       5.0966     2.083      5.76       8.3357     10.0494    5.8911     3.7988     10.6214    0.13       63.6713   
2731.2     5.1606     1.8779     5.0485     8.0253     10.9252    7.7068     3.5379     12.3427    0.125      64.4441   
2731.4     5.3071     1.7416     4.6016     8.3018     13.1401    10.3835    3.523      15.5636    0.13       64.9581   
2731.6     5.5905     1.6021     4.4729     9.1119     16.4643    13.86      3.7916     19.7678    0.123      63.7154   
2731.8     5.9929     1.5665     4.7197     10.2851    20.1883    17.6778    6.1306     22.8434    0.131      61.7824   
2732       6.5732     1.7672     5.3313     11.7497    23.612     20.5316    10.1966    24.5135    0.124      62.4933   
2732.2     7.0324     2.1202     6.2356     13.1522    25.8171    22.7042    15.8004    25.1527    0.121      63.6663   
2732.4     7.2811     2.5828     7.2204     13.8863    25.8166    23.4727    15.8035    24.5213    0.131      61.0314   
2732.6     7.503      2.8699     7.9599     13.1929    23.0019    22.6808    7.3728     22.6404    0.124      60.7012   
2732.8     7.6328     2.5623     7.4206     11.7605    19.0496    20.6609    5.6789     20.911     0.118      62.82     
2733       7.7146     2.4644     7.5949     10.3888    15.7244    18.137     7.0829     19.6674    0.125      62.9534   
2733.2     7.784      2.4484     7.8729     9.8728     13.7193    15.8744    7.6223     18.852     0.125      60.232    
2733.4     7.8604     2.523      8.1557     9.5532     12.0531    14.2498    7.5618     18.0787    0.119      60.8433   
2733.6     7.9301     2.4791     7.8386     9.3844     10.673     12.9254    6.7722     17.5412    0.125      63.9442   
2733.8     7.9522     2.4256     7.6497     9.5144     9.5122     11.8506    6.4955     17.0315    0.125      62.147    
2734       8.0649     2.4378     7.7872     10.0513    8.4982     10.9861    6.9686     17.0186    0.119      59.845    
2734.2     8.244      2.2669     7.3589     10.6448    7.6475     10.3446    7.7388     17.2559    0.118      61.0751   
2734.4     8.4704     2.2474     7.3159     11.2709    7.1619     9.7478     7.8272     17.348     0.123      62.4124   
2734.6     8.7614     2.2726     7.37       12.1334    6.9321     9.4252     8.1303     17.417     0.129      62.0767   
2734.8     9.1769     2.226      7.2692     12.9696    7.0346     9.3733     12.0398    17.6737    0.12       59.7546   
2735       9.5724     2.2247     7.6507     14.1291    7.5714     9.4675     23.1821    17.6641    0.115      60.9628   
2735.2     9.8869     2.4849     8.5745     15.7397    8.539      9.6462     38.12      15.7857    0.124      62.6612   
2735.4     10.0572    2.9097     9.6849     17.5711    9.6685     9.7994     30.4578    13.7468    0.123      61.1209   
2735.6     9.8863     3.2819     10.8307    19.5295    11.0949    9.6128     29.4372    11.7509    0.114      58.6742   
2735.8     9.3528     3.7242     12.4094    21.146     12.8154    9.0875     11.9901    10.1945    0.118      61.1406   
2736       8.7772     3.9235     13.4113    21.4262    14.365     8.3306     6.102      9.2565     0.126      62.2215   
2736.2     8.1789     3.4848     12.4113    20.4078    15.1877    7.3417     6.0616     8.8256     0.118      59.3375   
2736.4     7.6695     3.2243     12.0758    19.3193    15.5201    6.2914     5.7215     8.5547     0.123      57.703    
2736.6     7.363      2.9649     11.2895    18.6792    15.7428    5.4572     5.4288     8.3757     0.127      60.0615   
2736.8     7.1485     2.7049     10.1171    17.9535    15.6607    4.8296     6.5537     8.2816     0.118      59.932    
2737       6.92       2.6623     9.6937     17.9196    15.8656    4.2985     7.5028     8.1138     0.127      57.3792   
2737.2     6.6888     2.7604     9.6363     18.3856    15.9872    3.9062     6.5393     7.7988     0.125      56.6558   
2737.4     6.468      2.7801     9.3243     18.7179    15.9457    3.5599     6.3365     7.5306     0.126      59.6222   
2737.6     6.097      2.7679     9.139      18.6425    15.5972    3.1522     6.2566     7.219      0.126      58.9234   
2737.8     5.6854     2.8656     9.2858     17.8653    14.6331    2.7624     4.0311     7.0668     0.122      56.9863   
2738       5.4611     2.4929     8.575      16.1432    13.0809    2.4042     3.9115     7.1507     0.132      58.556    
2738.2     5.2535     2.2941     7.6003     14.0984    11.798     2.025      4.7471     7.3054     0.123      59.9315   
2738.4     5.1326     2.2994     7.2998     12.7171    11.1191    1.687      4.2815     7.4619     0.129      58.9456   
2738.6     5.0229     2.2195     6.7253     11.7081    10.5992    1.4739     3.8615     7.849      0.128      56.724    
2738.8     4.9391     2.1147     6.1735     10.7319    9.9728     1.2938     4.0031     8.4121     0.123      57.8144   
2739       4.89       2.0883     5.9672     9.9265     9.475      1.1584     4.1296     8.9018     0.132      59.3574   
2739.2     4.898      1.9919     5.5738     9.2512     9.0397     1.0888     3.9553     9.3454     0.128      56.7533   
2739.4     4.9149     1.9666     5.3607     8.6392     8.6845     1.0778     3.9012     9.8966     0.124      55.1017   
2739.6     4.9614     1.9562     5.2183     8.1119     8.4664     1.111      4.0417     10.6408    0.132      56.4607   
2739.8     5.1347     1.8646     4.9547     7.469      8.1924     1.24       3.9833     11.6315    0.125      56.2841   
2740       5.3558     1.8144     4.7672     7.0556     7.9292     1.4778     4.2381     12.7932    0.123      53.9028   
2740.2     5.6315     1.7965     4.7117     6.8639     7.8306     1.8703     4.8244     13.9942    0.13       53.0233   
2740.4     5.9188     1.854      4.803      6.9591     7.9586     2.4451     5.679      14.9748    0.127      55.7377   
2740.6     6.2304     1.9365     5.091      7.1487     8.2017     3.1515     5.9917     15.488     0.122      56.0487   
2740.8     6.5609     2.0718     5.4969     7.3512     8.4978     4.0363     6.4695     15.8829    0.132      53.1767   
2741       6.9081     2.1305     5.6806     7.6184     8.8093     4.9231     7.4149     16.2953    0.126      52.8204   
2741.2     7.1264     2.1566     5.9225     8.0678     9.2941     5.7396     6.9156     16.3242    0.12       55.4362   
2741.4     7.2786     2.3969     6.7472     8.7089     9.9343     6.3244     7.4154     16.3293    0.131      55.0947   
2741.6     7.4286     2.5303     7.3582     9.1569     10.2297    6.7656     10.0668    16.3217    0.127      52.4421   
2741.8     7.5327     2.5418     7.5318     9.3225     9.7902     7.0595     10.2999    16.3251    0.122      52.3169   
2742       7.5769     2.5193     7.5905     9.4425     9.3828     7.189      8.2377     16.349     0.132      54.6516   
2742.2     7.5661     2.4967     7.7255     9.7086     9.1452     7.3855     7.4943     16.349     0.123      53.2457   
2742.4     7.5682     2.4801     7.7848     10.1084    9.1372     7.8009     7.4704     16.349     0.125      52.1647   
2742.6     7.5948     2.4398     7.9146     10.6073    9.2371     8.4296     7.2997     16.349     0.133      52.9844   
