~Version
 VERS              .         2.0                           : CWLS LOG ASCII STANDARD - VERSION 2.0
 WRAP              .         NO                            : ONE LINE PER DEPTH STEP
 DLM               .         SPACE                         : DELIMITING CHARACTER(SPACE TAB OR COMMA)
~Well Information
#_______________________________________________________________________________
#
#PARAMETER_NAME    .UNIT     VALUE                         : DESCRIPTION
#_______________________________________________________________________________
STRT               .m        2582                          : First reference value
STOP               .m        2760                          : Last reference value
STEP               .m        0.2                           : Step increment
NULL               .         -9999                         : Missing value
COMP               .                                       : Company
WELL               .         602                           : Well name
FLD                .                                       : Field
LOC                .                                       : Location
CNTY               .                                       : County
STAT               .                                       : State
CTRY               .                                       : Country
SRVC               .                                       : Service Company
DATE               .                                       : Date
API                .                                       : API number
EREF               .m        134                           : 
X                  .m        225746                        : 
Y                  .m        235643                        : 
group              .         Pad6                          : 
Интер-р            .         Ярышев                        : 
Куст               .         6                             : 
Статус             .         Не проверено                  : 
Тип                .         Разобраться                   : 
~Parameter Information Block
#_______________________________________________________________________________
#
#PARAMETER_NAME    .UNIT     VALUE                         : DESCRIPTION
#_______________________________________________________________________________
SET                .         LAS1                          : 
REAL_CREATION_DATE .         Ср апр 11 2012-13_17_22       : 
TLFamily_DEPTH     .         Measured Depth                : 
TLFamily_KS        .         Potential Resistivity         : 
TLFamily_KS1       .         Extra Shallow Resistivity     : 
TLFamily_KS2       .         Shallow Resistivity           : 
TLFamily_KS3       .         Medium Resistivity            : 
TLFamily_KS4       .         Deep Resistivity              : 
TLFamily_KS5       .         Extra Deep Resistivity        : 
TLFamily_LLD       .         Lateral Log Resistivity       : 
TLFamily_OKS3      .         Medium Resistivity Inverted   : 
TLFamily_RM        .         Mud Resistivity               : 
TLFamily_SP        .         Spontaneous Potential         : 
group              .         INI                           : 
~Curve Information
#_______________________________________________________________________________
#
#LOGNAME           .UNIT     LOG_ID                        : DESCRIPTION
#_______________________________________________________________________________
DEPTH              .m                                      : Measured Depth 
KS                 .ohm.m                                  : Potential Resistivity 
KS1                .ohm.m                                  : Extra Shallow Resistivity 
KS2                .ohm.m                                  : Shallow Resistivity 
KS3                .ohm.m                                  : Medium Resistivity 
KS4                .ohm.m                                  : Deep Resistivity 
KS5                .ohm.m                                  : Extra Deep Resistivity 
LLD                .ohm.m                                  : Lateral Log Resistivity 
OKS3               .ohm.m                                  : Medium Resistivity Inverted 
RM                 .ohm.m                                  : Mud Resistivity 
SP                 .mV                                     : Spontaneous Potential 
~Ascii
# ...
2689.2     9.6543     2.7186     9.025      19.3531    19.1849    3.9267     9.1825     16.5799    0.117      69.8581   
2689.4     9.6237     2.7074     8.9801     18.8364    20.0213    3.9234     8.9546     16.5496    0.117      71.8686   
2689.6     9.5925     2.629      8.6741     18.3046    20.8768    3.956      8.1519     16.7027    0.116      70.4518   
2689.8     9.5276     2.6235     8.7625     17.987     21.9678    4.0278     8.7915     16.6711    0.113      69.1084   
2690       9.4596     2.6754     8.894      17.9743    23.2463    4.1236     8.859      16.8059    0.11       70.0152   
2690.2     9.4171     2.7106     9.0608     17.7055    24.0332    4.3182     8.6221     16.8611    0.11       71.3705   
2690.4     9.4496     2.5808     8.4799     17.1459    23.694     4.5025     7.749      16.5718    0.109      69.3464   
2690.6     9.5495     2.4919     8.2197     16.4976    23.3746    4.7404     7.5543     16.1901    0.107      69.8219   
2690.8     9.6746     2.4237     7.9872     16.3911    23.6664    5.1275     7.8575     16.3428    0.108      71.7919   
2691       9.8411     2.4825     8.1403     16.5949    24.4132    5.7766     9.0997     16.6276    0.107      71.8518   
2691.2     10.0561    2.5395     8.2917     17.2669    25.9373    6.5876     9.1835     17.5792    0.109      69.209    
2691.4     10.4124    2.6416     8.8001     18.4416    28.4643    8.2404     9.4605     18.3087    0.109      71.3523   
2691.6     10.5299    2.7805     9.3496     20.0326    30.7469    9.7618     15.5428    18.1235    0.108      72.5205   
2691.8     10.5726    3.3062     10.8843    21.9158    33.8124    11.5239    21.7884    18.4859    0.115      71.1079   
2692       10.4823    3.2457     11.1966    23.528     36.5477    13.6005    10.3409    19.2435    0.116      69.5226   
2692.2     10.1921    3.3176     11.823     25.1864    39.0108    15.5352    16.81      18.9221    0.117      70.9019   
2692.4     9.6973     3.8036     13.5914    27.0401    40.7224    16.5878    40.4708    17.2675    0.115      72.4215   
2692.6     8.7902     4.1317     14.6401    26.5386    36.7853    16.9221    19.4679    15.1201    0.113      68.6546   
2692.8     8.3471     3.4492     12.5142    23.3333    30.6216    16.2593    6.6469     14.3707    0.11       70.2139   
2693       8.0941     2.9292     11.0138    20.1096    25.6518    14.9089    4.6605     14.3168    0.113      71.3652   
2693.2     7.9724     2.6658     9.9793     18.1516    22.3522    13.7126    4.9566     14.6812    0.111      70.2336   
2693.4     7.9684     2.5989     9.1994     16.9692    20.0146    13.14      5.8106     15.3276    0.11       67.3539   
2693.6     8.0119     2.5316     8.3627     16.2436    18.1932    13.1167    5.7201     16.4203    0.11       69.0266   
2693.8     8.0834     2.5192     7.9329     15.5723    16.9696    13.7203    6.0543     17.8118    0.114      69.4415   
2694       8.2749     2.4767     7.7337     15.31      16.216     14.685     6.1603     20.1891    0.12       66.6618   
2694.2     8.3426     2.495      7.9279     15.8817    16.4849    15.4777    7.0713     21.5109    0.117      66.9817   
2694.4     8.3343     2.8125     8.9313     16.6377    16.9303    15.9231    10.7218    22.4924    0.116      69.3958   
2694.6     8.3652     3.0245     9.1127     16.5688    16.599     16.0203    9.0342     23.4045    0.115      69.3421   
2694.8     8.4523     2.7378     8.4194     15.1788    15.2557    15.8269    6.0081     24.9117    0.111      66.9498   
2695       8.6646     2.4832     7.8288     13.6135    14.0217    14.9143    5.3859     27.1698    0.11       68.0104   
2695.2     9.1213     2.3128     7.4484     12.604     13.5602    14.2799    6.0865     30.4768    0.11       68.9862   
2695.4     9.6621     2.2131     7.1791     12.469     13.9273    14.1575    6.2204     32.3018    0.114      66.3089   
2695.6     10.3329    2.152      7.0217     12.7777    14.5959    14.1916    7.9115     31.1302    0.115      64.6452   
2695.8     11.1212    2.3737     7.659      13.289     15.4152    14.18      16.1948    29.927     0.114      67.0347   
2696       11.9097    2.5176     7.905      13.6856    16.1311    14.113     14.3375    30.821     0.107      67.3893   
2696.2     12.6793    2.3508     7.5519     13.6478    16.3317    14.0721    7.6437     30.6519    0.102      64.2508   
2696.4     13.4078    2.3187     7.8436     14.1498    16.8478    14.073     15.763     27.6679    0.1        63.9989   
2696.6     14.153     2.6665     9.2365     15.6513    18.1096    14.2151    47.7037    25.0066    0.1        65.8026   
2696.8     14.5161    3.0927     10.6909    17.6334    19.5467    14.6085    69.3586    22.871     0.1        66.8034   
2697       14.4002    3.5472     12.2431    19.9617    21.2049    15.0414    70.5588    21.1688    0.101      64.0387   
2697.2     13.8809    4.0096     14.1108    22.7493    23.0665    15.2744    83.01      19.692     0.103      63.6057   
2697.4     13.1124    4.4303     16.3777    25.934     24.4699    15.0688    32.4895    19.3046    0.106      65.4773   
2697.6     12.4498    4.5308     17.6273    27.7117    24.1251    14.4925    8.3493     19.8903    0.113      65.8704   
2697.8     11.8031    3.8701     15.2494    27.4365    22.4439    13.6564    6.3887     21.3971    0.112      64.1664   
2698       11.6623    3.1758     13.471     25.7461    20.6352    12.6703    6.6182     23.5523    0.11       63.0587   
2698.2     11.6263    2.9266     12.2527    24.5505    19.8221    11.9814    7.4556     24.1031    0.105      64.7922   
2698.4     11.561     3.1967     11.497     25.3779    20.7429    11.6864    19.1346    23.7415    0.106      64.5307   
2698.6     11.5255    3.4544     12.5726    26.9542    21.5916    11.6768    17.109     23.7304    0.106      63.1249   
2698.8     11.5205    3.1343     11.1597    26.953     21.6935    11.9287    7.2242     25.772     0.105      61.9721   
2699       11.6796    2.8112     10.3518    24.8556    21.2724    12.2701    6.3618     28.8875    0.103      64.2952   
2699.2     11.9652    2.6235     9.9458     23.6006    21.555     12.6693    7.246      29.4507    0.103      63.0253   
2699.4     12.2525    2.9336     10.7985    23.7824    22.9904    13.372     20.1441    27.1945    0.106      60.9257   
2699.6     12.2415    3.4061     12.0473    24.9532    25.5379    14.0634    63.1609    23.1129    0.107      61.2833   
2699.8     12.1083    3.704      12.8517    26.1408    28.4101    14.3912    36.8434    19.9849    0.109      63.0573   
2700       11.9758    3.5339     11.9657    24.8655    29.1942    14.7281    9.0641     19.4358    0.115      61.0903   
2700.2     11.8785    3.0933     11.3636    22.9327    28.0755    14.9332    6.5875     20.8992    0.113      58.8867   
2700.4     12.0167    2.8688     11.0465    21.9402    27.0253    15.1074    6.8925     21.0486    0.112      60.1455   
2700.6     12.3541    2.7528     10.766     21.8404    27.2951    15.6452    11.5787    20.2108    0.107      62.3776   
2700.8     12.6745    2.8105     10.7883    22.7472    28.2733    16.6216    14.0972    18.8594    0.103      61.5307   
2701       12.6404    3.1755     11.8103    24.9895    30.435     17.6013    23.1377    17.5452    0.103      59.8378   
2701.2     12.4214    3.5685     13.2921    28.0966    33.084     18.5606    71.356     15.6144    0.107      61.2019   
2701.4     11.8288    3.9616     14.7945    31.4776    35.2608    19.2714    69.8156    13.6192    0.114      63.6829   
2701.6     11.2435    4.2509     15.9793    33.3908    36.3273    19.4295    45.5215    12.3234    0.114      63.2374   
2701.8     10.4272    4.4542     16.8953    34.7855    37.0661    19.0864    19.5462    11.2763    0.111      61.2071   
2702       9.5341     4.5348     17.6386    34.1902    35.6282    18.151     6.7124     10.5848    0.11       61.4042   
2702.2     8.7689     3.8754     15.2131    30.9397    31.6915    16.8601    4.8132     10.347     0.112      64.1658   
2702.4     8.1857     3.2725     13.2706    26.5511    27.2158    15.2437    5.0588     10.2295    0.113      64.0371   
