~Version
 VERS              .         2.0                           : CWLS LOG ASCII STANDARD - VERSION 2.0
 WRAP              .         NO                            : ONE LINE PER DEPTH STEP
 DLM               .         SPACE                         : DELIMITING CHARACTER(SPACE TAB OR COMMA)
~Well Information
#_______________________________________________________________________________
#
#PARAMETER_NAME    .UNIT     VALUE                         : DESCRIPTION
#_______________________________________________________________________________
STRT               .m        2582                          : First reference value
STOP               .m        2760                          : Last reference value
STEP               .m        0.2                           : Step increment
NULL               .         -9999                         : Missing value
COMP               .                                       : Company
WELL               .         602                           : Well name
FLD                .                                       : Field
LOC                .                                       : Location
CNTY               .                                       : County
STAT               .                                       : State
CTRY               .                                       : Country
SRVC               .                                       : Service Company
DATE               .                                       : Date
API                .                                       : API number
EREF               .m        134                           : 
X                  .m        225746                        : 
Y                  .m        235643                        : 
group              .         Pad6                          : 
Интер-р            .         Ярышев                        : 
Куст               .         6                             : 
Статус             .         Не проверено                  : 
Тип                .         Разобраться                   : 
~Parameter Information Block
#_______________________________________________________________________________
#
#PARAMETER_NAME    .UNIT     VALUE                         : DESCRIPTION
#_______________________________________________________________________________
SET                .         LAS3                          : 
REAL_CREATION_DATE .         Ср апр 11 2012-13_17_22       : 
TLFamily_DEPTH     .         Measured Depth                : 
TLFamily_GR        .         Gamma Ray                     : 
TLFamily_TNPH      .         Neutron Porosity              : 
group              .         INI                           : 
~Curve Information
#_______________________________________________________________________________
#
#LOGNAME           .UNIT     LOG_ID                        : DESCRIPTION
#_______________________________________________________________________________
DEPTH              .m                                      : Measured Depth 
GR                 .gAPI                                   :  
TNPH               .v/v                                    : Neutron Porosity 
~Ascii
# ...
2679.2     139.39     0.309     
2679.4     141.5      0.316     
2679.6     142.71     0.321     
2679.8     143.04     0.317     
2680       143.38     0.312     
2680.2     144.74     0.316     
2680.4     147.51     0.315     
2680.6     150.77     0.306     
2680.8     152.75     0.297     
2681       151.86     0.298     
2681.2     149.43     0.297     
2681.4     147.44     0.292     
2681.6     146.23     0.287     
2681.8     146.2      0.29      
2682       146.08     0.294     
2682.2     145.26     0.298     
2682.4     144.43     0.296     
2682.6     143.81     0.292     
2682.8     143.76     0.28      
2683       143.49     0.267     
2683.2     141.36     0.257     
2683.4     140.74     0.246     
2683.6     144.11     0.233     
2683.8     146.72     0.225     
2684       146.35     0.204     
2684.2     140.99     0.197     
2684.4     121.77     0.183     
2684.6     89.18999   0.17      
2684.8     61.94      0.159     
2685       51.31      0.144     
2685.2     49.13      0.137     
2685.4     47.89      0.124     
2685.6     45.63      0.107     
2685.8     43.23      0.095     
2686       42.67      0.076     
2686.2     43.25      0.07      
2686.4     45         0.08      
2686.6     49.17      0.108     
2686.8     52.5       0.145     
2687       55.12      0.177     
2687.2     57.14      0.188     
2687.4     58.62      0.198     
2687.6     59.08      0.198     
2687.8     57.63      0.197     
2688       54.66      0.192     
2688.2     52         0.19      
2688.4     50.17      0.191     
2688.6     49.25      0.193     
2688.8     49.52      0.195     
2689       50.75      0.201     
2689.2     51.5       0.204     
2689.4     51.26      0.203     
2689.6     51.48      0.199     
2689.8     53.86      0.196     
2690       56.51      0.189     
2690.2     56.96      0.185     
2690.4     57.36      0.178     
2690.6     59.85      0.171     
2690.8     63.29      0.168     
2691       64.67      0.173     
2691.2     59.41      0.164     
2691.4     54.34      0.159     
2691.6     51.19      0.149     
2691.8     49.68      0.137     
2692       48.62      0.122     
2692.2     48.12      0.112     
2692.4     48.85      0.112     
2692.6     49.95      0.134     
2692.8     51.04      0.169     
2693       53.3       0.186     
2693.2     57.31      0.191     
2693.4     62.56      0.187     
2693.6     66.99001   0.183     
2693.8     69.11      0.181     
2694       69.02      0.182     
2694.2     67.72      0.178     
2694.4     65.5       0.173     
2694.6     62.44      0.168     
2694.8     61.5       0.168     
2695       64.77      0.17      
2695.2     65.87      0.166     
2695.4     64.91      0.161     
2695.6     63.51      0.15      
2695.8     62.27      0.138     
2696       61.12      0.123     
2696.2     60.89      0.111     
2696.4     61.2       0.107     
2696.6     59.74      0.095     
2696.8     56.21      0.093     
2697       54.07      0.094     
2697.2     55.12      0.101     
2697.4     57.74      0.109     
2697.6     60.54      0.126     
2697.8     64.37      0.139     
2698       68.82      0.155     
2698.2     71.02      0.16      
2698.4     68.78999   0.156     
2698.6     64.49001   0.143     
2698.8     63.03001   0.131     
2699       65.13      0.13      
2699.2     63.53      0.129     
2699.4     57.88      0.121     
2699.6     53.04      0.12      
2699.8     52.22      0.125     
2700       54.22      0.127     
2700.2     56.65      0.131     
2700.4     57.42      0.131     
2700.6     54.35      0.117     
2700.8     48.62      0.103     
2701       43.97      0.089     
2701.2     42.85      0.085     
2701.4     45.8       0.088     
2701.6     51.15      0.102     
2701.8     56.4       0.122     
2702       59.68      0.161     
2702.2     58.89      0.194     
2702.4     55.54      0.213     
2702.6     53.73      0.22      
2702.8     56.08      0.223     
2703       57.3       0.223     
2703.2     55.11      0.219     
2703.4     50.56      0.215     
2703.6     46.31      0.198     
2703.8     44.74      0.186     
2704       45.76      0.193     
2704.2     47.27      0.211     
2704.4     49.75      0.214     
2704.6     49.97      0.212     
2704.8     48.31      0.21      
2705       46.3       0.206     
2705.2     45.46      0.201     
2705.4     46.13      0.196     
2705.6     48.36      0.196     
2705.8     51.72      0.191     
2706       54.25      0.184     
2706.2     55.34      0.173     
2706.4     57.14      0.164     
2706.6     62.77      0.16      
2706.8     70.11      0.173     
2707       81.95      0.193     
2707.2     94.71      0.215     
2707.4     105.8      0.223     
2707.6     115.18     0.236     
2707.8     122.88     0.255     
2708       126.01     0.269     
2708.2     123.19     0.267     
2708.4     118.75     0.254     
2708.6     110.93     0.243     
2708.8     105.04     0.236     
2709       102.76     0.236     
2709.2     103.96     0.241     
2709.4     103.89     0.243     
2709.6     100.9      0.242     
2709.8     96.24      0.237     
2710       90.38      0.228     
2710.2     83.87      0.223     
2710.4     84.04      0.23      
2710.6     89.12      0.248     
2710.8     94.86      0.264     
2711       100.22     0.286     
2711.2     104.8      0.282     
2711.4     106.7      0.265     
2711.6     102.32     0.237     
2711.8     98.14999   0.232     
2712       94.91      0.228     
2712.2     94.22      0.231     
2712.4     98         0.241     
2712.6     104.22     0.259     
2712.8     108.81     0.266     
2713       110.43     0.278     
2713.2     110.92     0.297     
2713.4     111.15     0.313     
2713.6     110.21     0.329     
2713.8     107.04     0.324     
2714       101.99     0.316     
2714.2     97.81999   0.314     
2714.4     95.91      0.288     
2714.6     95.50999   0.262     
2714.8     91         0.252     
2715       81.68      0.229     
2715.2     72.91      0.225     
2715.4     70.06      0.232     
2715.6     74.84      0.244     
2715.8     83.77      0.245     
2716       90.99      0.25      
2716.2     94.46      0.245     
2716.4     96.62      0.243     
2716.6     100.05     0.243     
2716.8     104.72     0.248     
2717       109.11     0.268     
2717.2     111.54     0.293     
2717.4     111.47     0.31      
2717.6     110.98     0.315     
2717.8     111.67     0.309     
2718       113.52     0.291     
2718.2     115.24     0.267     
2718.4     114.41     0.249     
2718.6     112.06     0.239     
2718.8     105.31     0.229     
2719       96.32      0.217     
2719.2     91.13      0.209     
2719.4     86.70999   0.208     
2719.6     81.22      0.213     
2719.8     79.42001   0.218     
2720       80.88      0.222     
2720.2     81.81      0.221     
2720.4     82.17      0.226     
2720.6     83.86      0.24      
2720.8     86.56      0.247     
2721       87.81      0.245     
2721.2     86.26      0.25      
2721.4     84         0.276     
2721.6     81.17      0.295     
2721.8     74.74      0.301     
2722       61.81      0.307     
2722.2     42.17      0.322     
2722.4     24.5       0.382     
2722.6     17.25      0.402     
2722.8     18.73      0.428     
2723       24.02      0.421     
2723.2     30.84      0.4       
2723.4     39.65      0.373     
2723.6     52.14      0.353     
2723.8     67.85      0.312     
2724       82.29      0.283     
2724.2     90.31999   0.279     
2724.4     91.27      0.263     
2724.6     87.36      0.271     
2724.8     79.8       0.3       
2725       73.92999   0.328     
2725.2     76.32      0.33      
2725.4     86.65      0.308     
2725.6     94.25999   0.285     
2725.8     99.38      0.266     
2726       98.84      0.26      
2726.2     95.31      0.258     
2726.4     94.96001   0.25      
2726.6     99.54001   0.237     
2726.8     103.91     0.223     
2727       103.58     0.217     
2727.2     99.06999   0.214     
2727.4     89.78      0.206     
2727.6     76.53      0.204     
