~Version
 VERS              .         2.0                           : CWLS LOG ASCII STANDARD - VERSION 2.0
 WRAP              .         NO                            : ONE LINE PER DEPTH STEP
 DLM               .         SPACE                         : DELIMITING CHARACTER(SPACE TAB OR COMMA)
~Well Information
#_______________________________________________________________________________
#
#PARAMETER_NAME    .UNIT     VALUE                         : DESCRIPTION
#_______________________________________________________________________________
STRT               .m        2582                          : First reference value
STOP               .m        2760                          : Last reference value
STEP               .m        0.2                           : Step increment
NULL               .         -9999                         : Missing value
COMP               .                                       : Company
WELL               .         602                           : Well name
FLD                .                                       : Field
LOC                .                                       : Location
CNTY               .                                       : County
STAT               .                                       : State
CTRY               .                                       : Country
SRVC               .                                       : Service Company
DATE               .                                       : Date
API                .                                       : API number
EREF               .m        134                           : 
X                  .m        225746                        : 
Y                  .m        235643                        : 
group              .         Pad6                          : 
Интер-р            .         Ярышев                        : 
Куст               .         6                             : 
Статус             .         Не проверено                  : 
Тип                .         Разобраться                   : 
~Parameter Information Block
#_______________________________________________________________________________
#
#PARAMETER_NAME    .UNIT     VALUE                         : DESCRIPTION
#_______________________________________________________________________________
SET                .         LAS1                          : 
REAL_CREATION_DATE .         Ср апр 11 2012-13_17_22       : 
TLFamily_DEPTH     .         Measured Depth                : 
TLFamily_KS        .         Potential Resistivity         : 
TLFamily_KS1       .         Extra Shallow Resistivity     : 
TLFamily_KS2       .         Shallow Resistivity           : 
TLFamily_KS3       .         Medium Resistivity            : 
TLFamily_KS4       .         Deep Resistivity              : 
TLFamily_KS5       .         Extra Deep Resistivity        : 
TLFamily_LLD       .         Lateral Log Resistivity       : 
TLFamily_OKS3      .         Medium Resistivity Inverted   : 
TLFamily_RM        .         Mud Resistivity               : 
TLFamily_SP        .         Spontaneous Potential         : 
group              .         INI                           : 
~Curve Information
#_______________________________________________________________________________
#
#LOGNAME           .UNIT     LOG_ID                        : DESCRIPTION
#_______________________________________________________________________________
DEPTH              .m                                      : Measured Depth 
KS                 .ohm.m                                  : Potential Resistivity 
KS1                .ohm.m                                  : Extra Shallow Resistivity 
KS2                .ohm.m                                  : Shallow Resistivity 
KS3                .ohm.m                                  : Medium Resistivity 
KS4                .ohm.m                                  : Deep Resistivity 
KS5                .ohm.m                                  : Extra Deep Resistivity 
LLD                .ohm.m                                  : Lateral Log Resistivity 
OKS3               .ohm.m                                  : Medium Resistivity Inverted 
RM                 .ohm.m                                  : Mud Resistivity 
SP                 .mV                                     : Spontaneous Potential 
~Ascii
2582.0     -9999      -9999      -9999      -9999      -9999      -9999      -9999      -9999      -9999      -9999     
2582.2     -9999      -9999      -9999      -9999      -9999      -9999      -9999      -9999      -9999      -9999     
2582.4     -9999      -9999      -9999      -9999      -9999      -9999      -9999      -9999      -9999      -9999     
2582.6     -9999      -9999      -9999      -9999      -9999      -9999      -9999      -9999      -9999      -9999     
2582.8     -9999      -9999      -9999      -9999      -9999      -9999      -9999      -9999      -9999      -9999     
2583       -9999      -9999      -9999      -9999      -9999      -9999      -9999      -9999      -9999      -9999     
2583.2     -9999      -9999      -9999      -9999      -9999      -9999      -9999      -9999      -9999      -9999     
2583.4     -9999      -9999      -9999      -9999      -9999      -9999      -9999      -9999      -9999      -9999     
2583.6     -9999      -9999      -9999      -9999      -9999      -9999      -9999      -9999      -9999      -9999     
2583.8     -9999      -9999      -9999      -9999      -9999      -9999      -9999      -9999      -9999      -9999     
2584       6.0394     2.2322     6.0331     -0.2307    -0.445     -0.6389    -9999      18.1225    0.126      69.8002   
2584.2     6.2704     2.2417     6.1478     1.2779     -0.4559    -0.6389    -9999      18.6328    0.126      66.4396   
2584.4     6.5375     2.2008     6.1428     3.7901     -0.445     -0.6389    -9999      19.367     0.128      67.6958   
2584.6     6.9034     2.1296     6.0289     5.313      -0.445     -0.6389    -9999      20.0119    0.13       66.8468   
2584.8     7.373      2.089      6.0523     6.3114     -0.445     -0.6389    -9999      20.6649    0.126      63.9804   
2585       7.9351     2.0517     6.0444     7.0907     -0.445     -0.6389    -9999      21.0755    0.126      64.803    
2585.2     8.4302     2.1464     6.345      7.9621     -0.445     -0.6389    -9999      20.9358    0.126      67.628    
2585.4     8.8482     2.45       7.1776     9.0523     -0.445     -0.6389    -9999      20.3988    0.124      66.9968   
2585.6     9.1365     2.675      7.983      10.259     -0.445     -0.6389    10.7058    19.666     0.124      64.0959   
2585.8     9.1555     2.8693     8.901      11.6363    -0.445     -0.6389    15.4068    18.2288    0.121      65.4289   
2586       9.082      3.2713     10.3044    12.8624    -0.429     -0.6389    7.1263     17.4344    0.12       67.5495   
2586.2     9.0013     3.1428     10.2547    13.3951    1.1377     -0.6389    5.7927     17.2337    0.12       68.6507   
2586.4     8.8439     2.9158     9.8719     13.48      3.6262     -0.6389    7.0543     17.1532    0.12       64.3684   
2586.6     8.6932     2.918      10.1377    13.9539    5.389      -0.6389    7.5248     17.1874    0.119      64.9259   
2586.8     8.6441     2.9621     10.3804    14.5361    6.6472     -0.6389    5.5899     17.4199    0.117      68.4784   
2587       8.5828     2.7357     9.6173     14.9488    7.4736     -0.6389    6.6179     18.0681    0.117      64.9369   
2587.2     8.6234     2.7978     9.5803     15.1002    8.0266     -0.6389    5.2327     18.9262    0.115      64.0917   
2587.4     8.7697     2.5894     8.7452     15.1937    8.4719     -0.6389    5.9807     19.7321    0.117      67.1013   
2587.6     8.9954     2.4703     8.4897     15.0993    8.8302     -0.6389    8.7729     19.3777    0.113      66.4673   
2587.8     9.2182     2.5421     8.5674     15.7328    9.6274     -0.6389    12.0546    18.5525    0.113      66.6793   
2588       9.4213     2.8829     9.3376     16.4287    10.473     -0.6389    7.3094     17.8685    0.113      65.2713   
2588.2     9.4877     2.8274     9.1267     16.7479    11.181     -0.6389    9.4689     16.9585    0.113      65.7464   
2588.4     9.4541     3.0245     9.3605     16.8835    11.8671    -0.6389    11.5348    16.0153    0.111      68.9902   
2588.6     9.4253     3.1306     10.3429    17.2462    12.7118    -0.6389    8.5361     15.4291    0.112      66.1447   
2588.8     9.3713     2.983      10.2794    17.1343    13.2267    -0.6389    6.5467     15.3952    0.111      65.1355   
2589       9.3379     2.8212     9.6515     16.4701    13.3629    -0.6389    6.4992     15.476     0.113      68.0935   
2589.2     9.3171     2.7917     9.8251     16.3294    13.9667    -0.6389    8.0281     15.4209    0.112      69.166    
2589.4     9.2404     2.9089     10.1759    16.6776    14.8412    -0.6389    11.0235    14.4261    0.112      66.6611   
2589.6     9.1912     3.1607     10.6941    17.6867    16.0144    -0.6389    10.2328    13.4476    0.111      65.024    
2589.8     9.0525     3.0671     10.3721    18.3547    16.684     -0.6389    7.2796     13.0642    0.113      66.7222   
2590       8.7648     3.0407     10.2947    18.8751    17.1429    -0.6389    9.6224     12.445     0.111      68.6836   
2590.2     8.4713     3.2733     11.1905    19.6675    17.7449    -0.6389    10.0323    11.6945    0.112      67.2602   
2590.4     8.213      3.2301     10.9745    19.5896    17.8365    -0.3151    5.9604     11.2787    0.113      66.2969   
2590.6     7.9909     2.8753     9.9038     18.3667    17.0774    1.0282     4.8762     11.479     0.113      68.622    
2590.8     7.828      2.6466     9.2778     17.4163    16.3669    2.1629     5.316      11.9471    0.113      68.7178   
2591       7.7405     2.5951     9.2053     17.2349    16.3705    3.1333     5.7054     12.6312    0.113      66.8771   
2591.2     7.6066     2.6518     9.3267     17.9605    17.2034    4.0064     6.8016     12.9664    0.113      64.7788   
2591.4     7.4284     2.9379     10.096     18.9999    18.3514    4.7401     10.9899    12.434     0.113      67.1745   
2591.6     7.2741     3.1103     10.1696    19.2804    19.1291    5.2246     7.6284     11.3515    0.113      66.9774   
2591.8     7.1157     3.0032     9.4145     17.9533    18.4732    5.5097     5.0642     10.4462    0.113      66.0892   
2592       6.8947     2.6379     8.4358     16.347     17.1946    5.5249     4.5607     9.986      0.116      65.5561   
2592.2     6.7099     2.595      8.4648     15.2848    15.5757    5.3821     4.6695     9.9693     0.117      68.1329   
2592.4     6.5719     2.5466     8.3824     14.4562    14.9407    5.2645     4.7221     10.2163    0.119      68.3507   
2592.6     6.5213     2.4359     7.9544     13.594     14.3419    5.3238     4.3976     10.6436    0.12       65.175    
2592.8     6.469      2.3826     7.6484     13.0569    13.9837    5.4373     5.1625     10.9674    0.12       64.3529   
2593       6.4632     2.4571     7.6262     12.9424    13.8188    5.6026     5.2499     11.2593    0.12       66.0711   
2593.2     6.4506     2.4713     7.5365     12.8798    13.6345    5.8247     5.5158     11.2416    0.12       65.4159   
2593.4     6.4053     2.5009     7.5258     12.8481    13.3637    6.0429     5.2071     11.2842    0.123      63.547    
2593.6     6.366      2.498      7.4475     12.7537    13.0457    6.2116     4.4525     11.5247    0.123      62.9855   
2593.8     6.2992     2.4347     7.3039     12.4658    12.6624    6.3101     5.3597     11.6915    0.124      66.2924   
2594       6.2965     2.4822     7.4649     12.0764    12.254     6.3294     5.1006     11.5814    0.125      65.6792   
2594.2     6.3171     2.4763     7.3824     11.5152    11.7578    6.3195     4.6252     11.3789    0.126      64.6244   
2594.4     6.3542     2.4003     7.0454     10.8699    11.0821    6.3193     4.589      11.4702    0.126      65.1606   
2594.6     6.3788     2.3365     6.8297     10.5026    10.6742    6.2951     5.1043     11.8099    0.126      67.5545   
2594.8     6.4454     2.355      6.9226     10.3192    10.4034    6.2887     4.9407     12.3955    0.127      65.5735   
2595       6.5243     2.3162     6.844      10.3378    10.3284    6.3469     6.18       12.7373    0.127      63.6214   
2595.2     6.5692     2.4337     7.1164     10.4889    10.3845    6.4213     5.6306     12.9378    0.126      63.9722   
