~Version
 VERS              .         2.0                           : CWLS LOG ASCII STANDARD - VERSION 2.0
 WRAP              .         NO                            : ONE LINE PER DEPTH STEP
 DLM               .         SPACE                         : DELIMITING CHARACTER(SPACE TAB OR COMMA)
~Well Information
#_______________________________________________________________________________
#
#PARAMETER_NAME    .UNIT     VALUE                         : DESCRIPTION
#_______________________________________________________________________________
STRT               .m        2582                          : First reference value
STOP               .m        2760                          : Last reference value
STEP               .m        0.2                           : Step increment
NULL               .         -9999                         : Missing value
COMP               .                                       : Company
WELL               .         602                           : Well name
FLD                .                                       : Field
LOC                .                                       : Location
CNTY               .                                       : County
STAT               .                                       : State
CTRY               .                                       : Country
SRVC               .                                       : Service Company
DATE               .                                       : Date
API                .                                       : API number
EREF               .m        134                           : 
X                  .m        225746                        : 
Y                  .m        235643                        : 
group              .         Pad6                          : 
Интер-р            .         Ярышев                        : 
Куст               .         6                             : 
Статус             .         Не проверено                  : 
Тип                .         Разобраться                   : 
~Parameter Information Block
#_______________________________________________________________________________
#
#PARAMETER_NAME    .UNIT     VALUE                         : DESCRIPTION
#_______________________________________________________________________________
SET                .         LAS1                          : 
REAL_CREATION_DATE .         Ср апр 11 2012-13_17_22       : 
TLFamily_DEPTH     .         Measured Depth                : 
TLFamily_KS        .         Potential Resistivity         : 
TLFamily_KS1       .         Extra Shallow Resistivity     : 
TLFamily_KS2       .         Shallow Resistivity           : 
TLFamily_KS3       .         Medium Resistivity            : 
TLFamily_KS4       .         Deep Resistivity              : 
TLFamily_KS5       .         Extra Deep Resistivity        : 
TLFamily_LLD       .         Lateral Log Resistivity       : 
TLFamily_OKS3      .         Medium Resistivity Inverted   : 
TLFamily_RM        .         Mud Resistivity               : 
TLFamily_SP        .         Spontaneous Potential         : 
group              .         INI                           : 
~Curve Information
#_______________________________________________________________________________
#
#LOGNAME           .UNIT     LOG_ID                        : DESCRIPTION
#_______________________________________________________________________________
DEPTH              .m                                      : Measured Depth 
KS                 .ohm.m                                  : Potential Resistivity 
KS1                .ohm.m                                  : Extra Shallow Resistivity 
KS2                .ohm.m                                  : Shallow Resistivity 
KS3                .ohm.m                                  : Medium Resistivity 
KS4                .ohm.m                                  : Deep Resistivity 
KS5                .ohm.m                                  : Extra Deep Resistivity 
LLD                .ohm.m                                  : Lateral Log Resistivity 
OKS3               .ohm.m                                  : Medium Resistivity Inverted 
RM                 .ohm.m                                  : Mud Resistivity 
SP                 .mV                                     : Spontaneous Potential 
~Ascii
# ...
2702.6     7.7908     2.902      11.7647    24.1373    24.8042    13.4282    5.0116     10.2866    0.113      62.2008   
2702.8     7.445      2.8118     10.8424    23.3939    23.5331    12.0462    5.9386     10.4108    0.116      62.198    
2703       7.1892     2.8906     10.4612    23.0353    22.7356    11.1656    6.0964     10.4174    0.119      64.1604   
2703.2     6.9933     2.8507     9.7335     22.1925    21.5124    10.5152    5.772      10.1723    0.121      64.6247   
2703.4     6.848      2.695      8.8556     20.7785    20.4218    9.9803     5.3205     9.875      0.126      63.1537   
2703.6     6.6906     2.599      8.338      19.2251    19.6973    9.3886     5.2329     9.5939     0.126      63.641    
2703.8     6.5201     2.5757     8.19       17.9468    18.9884    8.7736     5.5352     9.2785     0.122      65.8111   
2704       6.3897     2.4953     7.8517     16.659     18.0427    8.2812     4.7977     8.8627     0.12       63.1277   
2704.2     6.2749     2.4172     7.5488     15.1373    16.793     7.9626     4.6261     8.4762     0.118      62.9363   
2704.4     6.1482     2.3286     7.2476     13.8914    15.8708    7.6586     4.9294     8.3363     0.117      64.7351   
2704.6     5.9873     2.3406     7.2355     13.2572    15.5796    7.3259     5.3386     8.26       0.117      65.2546   
2704.8     5.8692     2.3841     7.3434     12.7999    15.4985    7.0621     5.1562     7.9228     0.12       63.1711   
2705       5.8074     2.364      7.0394     12.1104    14.8876    6.8041     4.4729     7.6321     0.12       62.7698   
2705.2     5.7469     2.2953     6.5991     11.4179    13.9995    6.4623     4.1655     7.676      0.123      64.9566   
2705.4     5.7159     2.1884     6.2214     10.8217    13.2487    6.0617     3.9669     8.2741     0.126      66.1025   
2705.6     5.7446     2.1068     5.9845     10.3671    12.6917    5.8066     4.0819     8.9182     0.126      63.3189   
2705.8     5.7846     2.0326     5.8325     10.0719    12.4063    5.7427     4.3364     9.6737     0.126      63.6307   
2706       5.8604     2.0297     5.7833     10.0662    12.457     5.8535     4.536      10.5699    0.123      64.7623   
2706.2     5.9749     2.0554     5.9519     10.3593    12.8067    6.3443     5.1446     11.5309    0.123      64.1403   
2706.4     6.0881     2.094      6.0476     10.7838    13.484     6.7789     7.6676     12.2255    0.12       61.1297   
2706.6     6.134      2.2692     6.4296     11.1663    13.9783    7.1974     7.2289     12.1616    0.117      60.4902   
2706.8     6.0905     2.6474     7.085      11.3326    13.7808    7.5356     3.5762     12.471     0.118      62.2691   
2707       6.1015     2.6928     6.9573     10.7903    13.0103    7.7018     2.7868     14.495     0.12       62.1145   
2707.2     6.1993     2.1854     5.8582     9.5557     12.0231    7.8229     4.5865     16.4859    0.123      59.5418   
2707.4     6.4828     1.8925     5.5254     8.6266     11.4648    8.0433     7.3802     17.1758    0.125      59.0767   
2707.6     7.0024     1.8801     5.6325     8.5553     11.4881    8.5476     8.3999     16.9201    0.127      60.9077   
2707.8     7.3612     2.2021     6.0794     8.9486     11.9765    9.2217     8.2542     16.8016    0.123      60.3201   
2708       7.4709     2.5087     6.5974     9.6586     12.8153    9.7547     7.1616     16.9555    0.12       57.7874   
2708.2     7.4906     2.8082     7.3216     10.4585    13.339     10.017     3.8524     16.9709    0.117      58.0218   
2708.4     7.7015     2.5686     8.0964     10.3464    12.4932    10.0582    6.7486     17.0485    0.117      59.2777   
2708.6     7.9116     2.2666     6.8652     9.7908     11.0507    9.8979     6.9782     16.6178    0.116      58.7284   
2708.8     8.2297     2.2509     7.1494     9.3376     9.9701     9.5114     7.4854     16.1948    0.116      56.2875   
2709       8.4593     2.3705     7.3004     9.4791     9.5919     9.381      8.0631     16.119     0.12       57.6893   
2709.2     8.6237     2.4558     7.4905     9.6804     9.4114     9.6525     8.1506     16.1395    0.126      59.68     
2709.4     8.7148     2.5624     7.7637     10.1548    9.3918     10.0847    7.429      16.1332    0.126      58.4858   
2709.6     8.781      2.6503     8.2155     11.1876    9.4899     10.7042    7.9703     16.1364    0.124      56.6944   
2709.8     8.7719     2.6742     8.4439     12.1462    9.6363     11.4289    7.9345     16.2829    0.12       58.8269   
2710       8.7881     2.7498     8.7488     13.0056    9.8174     12.2045    7.7129     16.5072    0.117      60.9482   
2710.2     8.7846     2.6633     8.749      13.4456    10.1338    13.202     6.6643     16.6851    0.114      59.2822   
2710.4     8.7308     2.7081     8.8586     13.9895    10.6286    14.5523    6.081      17.3666    0.113      57.2228   
2710.6     8.6441     2.7939     9.1391     14.5809    11.5992    16.4799    6.0207     18.9381    0.12       59.3807   
2710.8     8.5998     2.725      9.0177     15.2058    12.7782    19.3427    6.5555     21.1896    0.124      61.6989   
2711       8.6742     2.5788     8.6908     15.6695    14.1175    23.3571    6.6217     23.8181    0.125      59.2589   
2711.2     8.8232     2.5008     8.639      16.7072    16.0878    27.2636    12.9876    26.9999    0.121      56.621    
2711.4     9.0089     2.461      8.7791     18.1417    19.0134    30.2831    18.902     29.4523    0.116      59.1954   
2711.6     9.1425     2.6921     9.525      19.4114    22.0696    31.8624    8.615      29.7752    0.113      59.5568   
2711.8     9.3794     2.9977     10.2826    19.6805    22.9456    32.0271    8.114      27.2318    0.11       57.4384   
2712       9.5077     2.8658     9.6403     18.9006    21.1275    29.9778    6.8052     24.2649    0.115      56.6197   
2712.2     9.584      2.8179     9.4708     17.478     19.2807    26.2121    6.4341     21.674     0.122      59.1277   
2712.4     9.6936     2.6197     8.9351     16.081     17.5387    21.958     6.6548     20.0901    0.122      60.066    
2712.6     9.8397     2.4739     8.5872     14.6623    15.8559    18.828     7.7057     19.2558    0.116      57.4816   
2712.8     9.9936     2.3718     8.2902     13.9709    14.8746    16.5233    9.2705     18.8339    0.111      56.5348   
2713       10.1366    2.4383     8.4397     14.0656    14.5824    14.9222    9.9134     18.2549    0.11       58.3323   
2713.2     10.2685    2.5539     8.7745     14.768     14.7816    14.0072    10.3799    17.6137    0.116      58.9782   
2713.4     10.3283    2.6645     9.1295     15.9921    15.3903    13.6693    12.913     17.3413    0.123      57.0428   
2713.6     10.3459    2.8052     9.7675     17.8264    16.347     13.6107    13.2619    17.5607    0.123      57.3242   
2713.8     10.3124    2.9096     10.3903    20.0868    17.398     13.6008    13.0605    17.9873    0.118      59.6181   
2714       10.2624    3.0501     10.9694    21.7335    18.172     13.6169    12.1201    18.0711    0.113      58.0574   
2714.2     10.1564    3.0966     11.2053    22.771     18.8126    13.7297    10.4677    17.7474    0.11       55.8738   
2714.4     9.8974     3.2162     11.6955    23.7654    19.8422    13.9308    11.12      17.6282    0.116      58.1303   
2714.6     9.4673     3.3863     12.4401    25.1295    21.4811    14.2193    8.3541     18.2608    0.126      59.5629   
2714.8     8.8672     3.4853     13.0864    26.8383    23.5156    14.4481    4.8121     19.4282    0.12       58.0925   
2715       8.1558     3.603      13.876     28.068     25.1965    14.2885    3.9329     19.6941    0.115      57.1608   
2715.2     7.506      3.6753     14.1698    27.6485    25.2264    13.4705    4.3559     18.9012    0.122      59.2538   
2715.4     7.1083     3.321      12.9895    24.9658    23.2624    12.0264    4.4771     17.6865    0.129      61.0062   
2715.6     6.9104     2.7087     10.4978    20.9765    20.2744    9.9417     4.516      17.5201    0.121      59.2891   
2715.8     6.8909     2.4081     8.9521     17.7855    17.9573    7.7855     6.6621     18.0819    0.117      56.8281   
