~Version
 VERS              .         2.0                           : CWLS LOG ASCII STANDARD - VERSION 2.0
 WRAP              .         NO                            : ONE LINE PER DEPTH STEP
 DLM               .         SPACE                         : DELIMITING CHARACTER(SPACE TAB OR COMMA)
~Well Information
#_______________________________________________________________________________
#
#PARAMETER_NAME    .UNIT     VALUE                         : DESCRIPTION
#_______________________________________________________________________________
STRT               .m        2582                          : First reference value
STOP               .m        2760                          : Last reference value
STEP               .m        0.2                           : Step increment
NULL               .         -9999                         : Missing value
COMP               .                                       : Company
WELL               .         602                           : Well name
FLD                .                                       : Field
LOC                .                                       : Location
CNTY               .                                       : County
STAT               .                                       : State
CTRY               .                                       : Country
SRVC               .                                       : Service Company
DATE               .                                       : Date
API                .                                       : API number
EREF               .m        134                           : 
X                  .m        225746                        : 
Y                  .m        235643                        : 
group              .         Pad6                          : 
Интер-р            .         Ярышев                        : 
Куст               .         6                             : 
Статус             .         Не проверено                  : 
Тип                .         Разобраться                   : 
~Parameter Information Block
#_______________________________________________________________________________
#
#PARAMETER_NAME    .UNIT     VALUE                         : DESCRIPTION
#_______________________________________________________________________________
SET                .         LAS1                          : 
REAL_CREATION_DATE .         Ср апр 11 2012-13_17_22       : 
TLFamily_DEPTH     .         Measured Depth                : 
TLFamily_KS        .         Potential Resistivity         : 
TLFamily_KS1       .         Extra Shallow Resistivity     : 
TLFamily_KS2       .         Shallow Resistivity           : 
TLFamily_KS3       .         Medium Resistivity            : 
TLFamily_KS4       .         Deep Resistivity              : 
TLFamily_KS5       .         Extra Deep Resistivity        : 
TLFamily_LLD       .         Lateral Log Resistivity       : 
TLFamily_OKS3      .         Medium Resistivity Inverted   : 
TLFamily_RM        .         Mud Resistivity               : 
TLFamily_SP        .         Spontaneous Potential         : 
group              .         INI                           : 
~Curve Information
#_______________________________________________________________________________
#
#LOGNAME           .UNIT     LOG_ID                        : DESCRIPTION
#_______________________________________________________________________________
DEPTH              .m                                      : Measured Depth 
KS                 .ohm.m                                  : Potential Resistivity 
KS1                .ohm.m                                  : Extra Shallow Resistivity 
KS2                .ohm.m                                  : Shallow Resistivity 
KS3                .ohm.m                                  : Medium Resistivity 
KS4                .ohm.m                                  : Deep Resistivity 
KS5                .ohm.m                                  : Extra Deep Resistivity 
LLD                .ohm.m                                  : Lateral Log Resistivity 
OKS3               .ohm.m                                  : Medium Resistivity Inverted 
RM                 .ohm.m                                  : Mud Resistivity 
SP                 .mV                                     : Spontaneous Potential 
~Ascii
# ...
2742.8     7.6187     2.4193     7.8596     11.2615    9.551      9.1624     7.4438     16.349     0.125      55.414    
2743       7.6187     2.4714     7.911      12.1177    10.0537    10.2499    6.9388     16.349     0.12       53.9214   
2743.2     7.6172     2.573      8.2017     13.0994    10.7408    11.7323    7.8775     16.349     0.12       51.6301   
2743.4     7.5895     2.5882     8.4453     14.008     11.6645    13.6937    8.0699     16.349     0.12       54.5133   
2743.6     7.5491     2.6738     8.5888     15.1044    12.9829    15.7395    7.8919     16.349     0.12       54.6164   
2743.8     7.5419     2.7762     9.4088     16.1759    14.3877    17.218     6.7426     16.3492    0.12       52.3861   
2744       7.5438     2.7891     9.2967     16.9536    14.8497    18.0157    8.512      16.3627    0.12       53.1681   
2744.2     7.5479     2.8009     8.7384     16.8403    14.2563    18.0642    9.2488     16.349     0.12       55.3848   
2744.4     7.5146     2.7888     8.5069     15.7979    13.36      17.2812    8.0044     16.3602    0.123      53.4717   
2744.6     7.5073     2.8225     8.5014     14.7811    12.7759    16.1261    6.5883     16.3597    0.12       52.4189   
2744.8     7.5073     2.843      8.496      14.7876    12.9204    15.0168    6.4646     16.349     0.121      53.0148   
2745       7.5073     2.8416     8.493      15.0538    13.2383    14.0085    6.7144     16.349     0.12       55.2476   
2745.2     7.5073     2.8301     8.4816     13.9021    12.8326    13.0808    7.9722     16.3519    0.121      53.0462   
2745.4     7.5073     2.8301     8.4732     12.6643    11.8508    12.0732    7.5535     16.3624    0.12       52.6123   
2745.6     7.5073     2.8313     8.4767     12.1693    10.8988    11.0327    5.0519     16.349     0.12       55.818    
2745.8     7.5073     2.8301     8.4693     12.1181    10.3272    10.4086    4.7855     16.363     0.121      56.3663   
2746       7.5073     2.8301     8.4783     12.1181    10.084     10.2882    4.5151     16.3435    0.122      54.9671   
2746.2     7.5073     2.8301     8.4761     12.1169    10.2079    10.3345    4.5336     16.3443    0.121      53.6536   
2746.4     7.5073     2.8314     8.4776     11.9081    10.7513    10.1906    5.7494     16.3489    0.12       55.9125   
2746.6     7.5073     2.844      8.4653     11.8323    10.5404    9.7751     7.9012     16.3348    0.12       55.4796   
2746.8     7.5073     2.844      8.4653     11.8323    9.4059     9.0438     5.9137     16.3418    0.12       53.3935   
2747       7.5073     2.844      8.4666     11.8323    8.8075     8.296      5.8332     16.3385    0.121      52.8879   
2747.2     7.5073     2.844      8.4653     11.8246    8.85       7.7817     7.4122     16.3362    0.121      54.8022   
2747.4     7.5073     2.844      8.4653     11.8292    9.2446     7.594      8.0661     16.3439    0.123      55.2723   
2747.6     7.5073     2.844      8.4653     11.8054    9.6178     7.5267     7.3353     16.3358    0.122      53.1159   
2747.8     7.5073     2.844      8.4653     11.8187    9.675      7.4886     9.4562     16.349     0.12       54.3797   
2748       7.5073     2.844      8.4653     11.8236    9.6804     7.5374     14.4052    16.3375    0.122      57.0109   
2748.2     7.5073     2.844      8.4653     11.8071    9.6852     7.627      11.1319    16.3498    0.12       55.7238   
2748.4     7.5073     2.844      8.4653     11.8181    9.8523     7.7418     8.2924     16.3529    0.12       54.5117   
2748.6     7.5073     2.844      8.4653     11.8181    9.9139     7.9596     9.1532     16.349     0.12       57.1172   
2748.8     7.5047     2.8367     8.4732     11.8181    9.9127     8.3715     9.7035     16.349     0.12       59.2851   
2749       7.5073     2.8412     8.4653     11.8181    9.9139     9.0979     9.6172     16.3419    0.12       58.0589   
2749.2     7.5073     2.8303     8.4787     11.8181    9.9139     10.2045    9.7241     16.349     0.12       56.7173   
2749.4     7.5073     2.8392     8.4717     11.8181    9.9139     11.6911    9.0535     16.3372    0.12       58.2695   
2749.6     7.5073     2.844      8.4653     11.8181    9.9139     13.4079    8.3859     16.3348    0.12       59.7693   
2749.8     7.5073     2.8319     8.4675     11.8181    9.9134     15.4013    8.9554     16.3348    0.12       58.3437   
2750       7.5073     2.8436     8.4737     11.8181    9.9002     17.6782    10.4374    16.3227    0.12       58.9623   
2750.2     7.5073     2.836      8.4663     11.8181    9.9016     20.8484    10.3764    16.3252    0.12       61.9691   
2750.4     7.5073     2.8312     8.4778     11.8181    9.9006     24.9582    11.373     16.3272    0.12       64.2805   
2750.6     7.5073     2.8428     8.4681     11.8114    9.9139     29.3823    9.8175     16.3241    0.121      60.3469   
2750.8     7.5073     2.844      8.472      11.8181    9.905      33.861     5.4649     16.3345    0.12       59.6081   
2751       7.5073     2.844      8.4692     11.8038    9.9004     36.7262    6.7496     16.3213    0.12       62.61     
2751.2     7.4934     2.844      8.4773     11.8093    9.9134     35.1681    24.2939    16.3262    0.12       62.719    
2751.4     7.4948     2.8329     8.4747     11.817     9.9002     30.77      81.3342    16.3334    0.12       60.3387   
2751.6     7.4971     2.844      8.4653     11.8162    9.9016     26.0641    52.0991    16.3206    0.12       61.2985   
2751.8     7.4934     2.844      8.4653     11.8177    9.91       23.2706    11.7166    16.3287    0.12       63.4966   
2752       -9999      -9999      -9999      -9999      -9999      -9999      7.47       -9999      -9999      -9999     
2752.2     -9999      -9999      -9999      -9999      -9999      -9999      6.6682     -9999      -9999      -9999     
2752.4     -9999      -9999      -9999      -9999      -9999      -9999      6.1045     -9999      -9999      -9999     
2752.6     -9999      -9999      -9999      -9999      -9999      -9999      5.8089     -9999      -9999      -9999     
2752.8     -9999      -9999      -9999      -9999      -9999      -9999      4.7422     -9999      -9999      -9999     
2753       -9999      -9999      -9999      -9999      -9999      -9999      5.1364     -9999      -9999      -9999     
2753.2     -9999      -9999      -9999      -9999      -9999      -9999      6.3492     -9999      -9999      -9999     
2753.4     -9999      -9999      -9999      -9999      -9999      -9999      6.0811     -9999      -9999      -9999     
2753.6     -9999      -9999      -9999      -9999      -9999      -9999      6.4034     -9999      -9999      -9999     
2753.8     -9999      -9999      -9999      -9999      -9999      -9999      7.1031     -9999      -9999      -9999     
2754       -9999      -9999      -9999      -9999      -9999      -9999      7.4194     -9999      -9999      -9999     
2754.2     -9999      -9999      -9999      -9999      -9999      -9999      7.6176     -9999      -9999      -9999     
2754.4     -9999      -9999      -9999      -9999      -9999      -9999      7.4754     -9999      -9999      -9999     
2754.6     -9999      -9999      -9999      -9999      -9999      -9999      7.4913     -9999      -9999      -9999     
2754.8     -9999      -9999      -9999      -9999      -9999      -9999      7.1899     -9999      -9999      -9999     
2755       -9999      -9999      -9999      -9999      -9999      -9999      6.9306     -9999      -9999      -9999     
2755.2     -9999      -9999      -9999      -9999      -9999      -9999      6.5314     -9999      -9999      -9999     
2755.4     -9999      -9999      -9999      -9999      -9999      -9999      6.3947     -9999      -9999      -9999     
2755.6     -9999      -9999      -9999      -9999      -9999      -9999      6.4383     -9999      -9999      -9999     
2755.8     -9999      -9999      -9999      -9999      -9999      -9999      6.6445     -9999      -9999      -9999     
2756       -9999      -9999      -9999      -9999      -9999      -9999      6.5448     -9999      -9999      -9999     
