~Version
 VERS              .         2.0                           : CWLS LOG ASCII STANDARD - VERSION 2.0
 WRAP              .         NO                            : ONE LINE PER DEPTH STEP
 DLM               .         SPACE                         : DELIMITING CHARACTER(SPACE TAB OR COMMA)
~Well Information
#_______________________________________________________________________________
#
#PARAMETER_NAME    .UNIT     VALUE                         : DESCRIPTION
#_______________________________________________________________________________
STRT               .m        2582                          : First reference value
STOP               .m        2760                          : Last reference value
STEP               .m        0.2                           : Step increment
NULL               .         -9999                         : Missing value
COMP               .                                       : Company
WELL               .         602                           : Well name
FLD                .                                       : Field
LOC                .                                       : Location
CNTY               .                                       : County
STAT               .                                       : State
CTRY               .                                       : Country
SRVC               .                                       : Service Company
DATE               .                                       : Date
API                .                                       : API number
EREF               .m        134                           : 
X                  .m        225746                        : 
Y                  .m        235643                        : 
group              .         Pad6                          : 
Интер-р            .         Ярышев                        : 
Куст               .         6                             : 
Статус             .         Не проверено                  : 
Тип                .         Разобраться                   : 
~Parameter Information Block
#_______________________________________________________________________________
#
#PARAMETER_NAME    .UNIT     VALUE                         : DESCRIPTION
#_______________________________________________________________________________
SET                .         LAS3                          : 
REAL_CREATION_DATE .         Ср апр 11 2012-13_17_22       : 
TLFamily_DEPTH     .         Measured Depth                : 
TLFamily_GR        .         Gamma Ray                     : 
TLFamily_TNPH      .         Neutron Porosity              : 
group              .         INI                           : 
~Curve Information
#_______________________________________________________________________________
#
#LOGNAME           .UNIT     LOG_ID                        : DESCRIPTION
#_______________________________________________________________________________
DEPTH              .m                                      : Measured Depth 
GR                 .gAPI                                   :  
TNPH               .v/v                                    : Neutron Porosity 
~Ascii
2582.0     73.00999   0.268     
2582.2     87.35      0.26      
2582.4     95.57      0.241     
2582.6     98.94      0.238     
2582.8     102.66     0.239     
2583       107.16     0.247     
2583.2     111.35     0.243     
2583.4     114.64     0.237     
2583.6     115.8      0.236     
2583.8     116.3      0.233     
2584       116.69     0.233     
2584.2     115.26     0.232     
2584.4     113.4      0.229     
2584.6     112.34     0.228     
2584.8     108.27     0.22      
2585       99.5       0.21      
2585.2     89.18999   0.196     
2585.4     82.11      0.19      
2585.6     78.35      0.193     
2585.8     75.33      0.197     
2586       73.44      0.209     
2586.2     75.03      0.223     
2586.4     80.17      0.227     
2586.6     82.81      0.22      
2586.8     80.43      0.219     
2587       77.58      0.223     
2587.2     76.96999   0.219     
2587.4     76.34      0.209     
2587.6     73.50999   0.202     
2587.8     69.23      0.191     
2588       65.67001   0.19      
2588.2     64.98      0.195     
2588.4     66.07001   0.202     
2588.6     66.18      0.204     
2588.8     65.9       0.208     
2589       66.78001   0.208     
2589.2     67.1       0.205     
2589.4     65.45      0.198     
2589.6     62.96      0.192     
2589.8     62.37      0.192     
2590       63.59      0.201     
2590.2     63.74      0.214     
2590.4     63.59      0.223     
2590.6     65.71999   0.228     
2590.8     68.68      0.232     
2591       69.57      0.227     
2591.2     69.12      0.219     
2591.4     68.45      0.219     
2591.6     67.29      0.222     
2591.8     67.22      0.224     
2592       69.2       0.224     
2592.2     71.31      0.224     
2592.4     73.36      0.219     
2592.6     75.84      0.219     
2592.8     79.32      0.22      
2593       84.2       0.223     
2593.2     89.3       0.232     
2593.4     93.98      0.246     
2593.6     95.23      0.252     
2593.8     91.68999   0.26      
2594       87.35      0.265     
2594.2     83.72      0.261     
2594.4     78.72      0.25      
2594.6     74.28001   0.243     
2594.8     73.26      0.239     
2595       74.3       0.245     
2595.2     76.31      0.256     
2595.4     79.48      0.262     
2595.6     83.07      0.259     
2595.8     87.32001   0.246     
2596       91.99001   0.227     
2596.2     92.97      0.216     
2596.4     86.42      0.212     
2596.6     76.48      0.215     
2596.8     70.77      0.213     
2597       70.27      0.212     
2597.2     72.7       0.206     
2597.4     75.87      0.199     
2597.6     78.16      0.195     
2597.8     80.05      0.205     
2598       81.22      0.219     
2598.2     81.32      0.227     
2598.4     81.62      0.221     
2598.6     83.48      0.217     
2598.8     89.01      0.219     
2599       97.9       0.224     
2599.2     104.95     0.229     
2599.4     105.12     0.228     
2599.6     98.58      0.225     
2599.8     90.45      0.217     
2600       84.09      0.213     
2600.2     77.91      0.21      
2600.4     71.41      0.207     
2600.6     67.93      0.201     
2600.8     69.41      0.196     
2601       74.42001   0.194     
2601.2     80.81001   0.193     
2601.4     85.12      0.188     
2601.6     83.73      0.177     
2601.8     76.82      0.163     
2602       68.49      0.155     
2602.2     64.02      0.149     
2602.4     64.78      0.152     
2602.6     68.09      0.157     
2602.8     74.06      0.172     
2603       79.89999   0.182     
2603.2     84.51      0.194     
2603.4     88.58      0.203     
2603.6     92.18001   0.204     
2603.8     94.71      0.203     
2604       94.25999   0.199     
2604.2     88.64999   0.191     
2604.4     79.69      0.191     
2604.6     73.84      0.195     
2604.8     73.06      0.201     
2605       74.25999   0.214     
2605.2     74.01      0.228     
2605.4     72.17      0.221     
2605.6     72.75      0.203     
2605.8     76.07001   0.193     
2606       80.12      0.196     
2606.2     85.03      0.213     
2606.4     90.43      0.234     
2606.6     96.16      0.248     
2606.8     101.38     0.254     
2607       103.87     0.247     
2607.2     102.78     0.239     
2607.4     100.31     0.235     
2607.6     99         0.23      
2607.8     97.72      0.227     
2608       94.39      0.223     
2608.2     87.18001   0.214     
2608.4     78.77      0.206     
2608.6     74.44      0.206     
2608.8     73.6       0.203     
2609       74.63      0.201     
2609.2     75.91      0.193     
2609.4     76.1       0.186     
2609.6     75.89      0.186     
2609.8     75.63      0.189     
2610       75.54      0.191     
2610.2     75.99      0.191     
2610.4     76.09      0.196     
2610.6     75.03      0.209     
2610.8     73.48      0.217     
2611       70.74001   0.21      
2611.2     67.88      0.191     
2611.4     68.71001   0.181     
2611.6     73.6       0.179     
2611.8     79.78      0.19      
2612       86.73      0.208     
2612.2     96.93      0.23      
2612.4     107.78     0.241     
2612.6     114.97     0.248     
2612.8     119.48     0.248     
2613       121.1      0.234     
2613.2     121.33     0.225     
2613.4     121.9      0.231     
2613.6     122.49     0.245     
2613.8     124.64     0.255     
2614       128.69     0.259     
2614.2     131.96     0.257     
2614.4     133.85     0.257     
2614.6     136.72     0.269     
2614.8     140.48     0.287     
2615       143.3      0.298     
2615.2     144.61     0.304     
2615.4     145.19     0.297     
2615.6     143.92     0.285     
2615.8     139.51     0.277     
2616       133.79     0.268     
2616.2     129.51     0.256     
2616.4     127.69     0.249     
2616.6     127.78     0.241     
2616.8     129.98     0.237     
2617       133.21     0.239     
2617.2     134.02     0.248     
2617.4     131.64     0.255     
2617.6     127.92     0.258     
2617.8     125.22     0.252     
2618       124.41     0.249     
2618.2     123.03     0.244     
2618.4     123.86     0.238     
2618.6     128.35     0.232     
2618.8     133.3      0.232     
2619       137.49     0.239     
2619.2     141.43     0.245     
2619.4     144.11     0.254     
2619.6     147.68     0.26      
2619.8     153.04     0.262     
2620       156.82     0.263     
2620.2     158.75     0.265     
2620.4     160.17     0.267     
2620.6     161.4      0.271     
2620.8     162.42     0.278     
2621       162.6      0.281     
2621.2     159.57     0.277     
2621.4     153.28     0.27      
2621.6     146.91     0.271     
2621.8     142.25     0.276     
2622       140.39     0.277     
2622.2     141.65     0.277     
2622.4     142.19     0.273     
2622.6     139.47     0.265     
2622.8     137.58     0.254     
2623       138.87     0.251     
2623.2     141.8      0.256     
2623.4     146.37     0.27      
2623.6     154.34     0.285     
2623.8     165.2      0.291     
2624       177.64     0.288     
2624.2     193.16     0.28      
2624.4     207.8      0.277     
2624.6     211.38     0.27      
2624.8     205.01     0.261     
2625       202.53     0.259     
2625.2     209.03     0.272     
2625.4     216.82     0.29      
2625.6     221.9      0.298     
2625.8     227.13     0.295     
2626       232.67     0.284     
2626.2     234.11     0.28      
2626.4     229.86     0.28      
2626.6     222.86     0.278     
2626.8     216.49     0.276     
2627       212.76     0.272     
2627.2     212.88     0.268     
2627.4     218.08     0.276     
2627.6     226.77     0.285     
2627.8     237.03     0.29      
2628       245.08     0.294     
2628.2     254.62     0.311     
2628.4     261.46     0.323     
2628.6     265.66     0.32      
2628.8     269.78     0.317     
2629       274.08     0.32      
2629.2     275.86     0.315     
2629.4     271.41     0.303     
2629.6     262.08     0.298     
2629.8     252.03     0.299     
2630       241.78     0.302     
2630.2     231.88     0.303     
2630.4     223.08     0.299     
