~Version
 VERS              .         2.0                           : CWLS LOG ASCII STANDARD - VERSION 2.0
 WRAP              .         NO                            : ONE LINE PER DEPTH STEP
 DLM               .         SPACE                         : DELIMITING CHARACTER(SPACE TAB OR COMMA)
~Well Information
#_______________________________________________________________________________
#
#PARAMETER_NAME    .UNIT     VALUE                         : DESCRIPTION
#_______________________________________________________________________________
STRT               .m        2582                          : First reference value
STOP               .m        2760                          : Last reference value
STEP               .m        0.2                           : Step increment
NULL               .         -9999                         : Missing value
COMP               .                                       : Company
WELL               .         602                           : Well name
FLD                .                                       : Field
LOC                .                                       : Location
CNTY               .                                       : County
STAT               .                                       : State
CTRY               .                                       : Country
SRVC               .                                       : Service Company
DATE               .                                       : Date
API                .                                       : API number
EREF               .m        134                           : 
X                  .m        225746                        : 
Y                  .m        235643                        : 
group              .         Pad6                          : 
Интер-р            .         Ярышев                        : 
Куст               .         6                             : 
Статус             .         Не проверено                  : 
Тип                .         Разобраться                   : 
~Parameter Information Block
#_______________________________________________________________________________
#
#PARAMETER_NAME    .UNIT     VALUE                         : DESCRIPTION
#_______________________________________________________________________________
SET                .         LAS1                          : 
REAL_CREATION_DATE .         Ср апр 11 2012-13_17_22       : 
TLFamily_DEPTH     .         Measured Depth                : 
TLFamily_KS        .         Potential Resistivity         : 
TLFamily_KS1       .         Extra Shallow Resistivity     : 
TLFamily_KS2       .         Shallow Resistivity           : 
TLFamily_KS3       .         Medium Resistivity            : 
TLFamily_KS4       .         Deep Resistivity              : 
TLFamily_KS5       .         Extra Deep Resistivity        : 
TLFamily_LLD       .         Lateral Log Resistivity       : 
TLFamily_OKS3      .         Medium Resistivity Inverted   : 
TLFamily_RM        .         Mud Resistivity               : 
TLFamily_SP        .         Spontaneous Potential         : 
group              .         INI                           : 
~Curve Information
#_______________________________________________________________________________
#
#LOGNAME           .UNIT     LOG_ID                        : DESCRIPTION
#_______________________________________________________________________________
DEPTH              .m                                      : Measured Depth 
KS                 .ohm.m                                  : Potential Resistivity 
KS1                .ohm.m                                  : Extra Shallow Resistivity 
KS2                .ohm.m                                  : Shallow Resistivity 
KS3                .ohm.m                                  : Medium Resistivity 
KS4                .ohm.m                                  : Deep Resistivity 
KS5                .ohm.m                                  : Extra Deep Resistivity 
LLD                .ohm.m                                  : Lateral Log Resistivity 
OKS3               .ohm.m                                  : Medium Resistivity Inverted 
RM                 .ohm.m                                  : Mud Resistivity 
SP                 .mV                                     : Spontaneous Potential 
~Ascii
# ...
2675.8     5.2685     2.3337     6.6906     8.6046     6.2697     4.1188     3.8536     8.2236     0.124      58.0227   
2676       5.223      2.3807     6.7993     8.5332     6.2084     4.1655     4.0495     8.0762     0.123      58.1701   
2676.2     5.1908     2.2993     6.5321     8.4385     6.1172     4.1678     3.6146     8.132      0.122      59.7372   
2676.4     5.1418     2.2847     6.4529     8.3187     6.0397     4.1562     3.5668     8.2455     0.123      60.6226   
2676.6     5.0869     2.248      6.3635     8.3844     6.0403     4.1029     3.6244     8.3146     0.123      57.9638   
2676.8     5.0704     2.2562     6.4111     8.4934     6.0619     4.059      3.7793     8.3471     0.122      58.1656   
2677       5.0571     2.2723     6.3794     8.476      6.0432     4.0317     3.7369     8.4309     0.12       60.7724   
2677.2     5.0781     2.2393     6.1955     8.3484     5.9968     4.0439     3.4243     8.7154     0.12       60.4452   
2677.4     5.111      2.1382     5.9589     8.2141     6.031      4.055      3.3467     9.0394     0.12       58.9849   
2677.6     5.1029     2.1596     6.0735     8.2582     6.1863     4.0577     4.2121     9.0914     0.12       58.2061   
2677.8     5.1528     2.2606     6.3032     8.379      6.3071     4.0718     4.1932     8.9622     0.12       60.2937   
2678       5.1907     2.2681     6.237      8.3763     6.3145     4.0736     3.7509     8.9313     0.123      59.7029   
2678.2     5.2076     2.2654     6.2034     8.3099     6.3361     4.0324     3.8819     8.9666     0.129      57.6293   
2678.4     5.1932     2.2636     6.2347     8.315      6.4227     3.9867     4.153      8.9185     0.127      57.9337   
2678.6     5.1954     2.3401     6.4708     8.2888     6.4552     3.9464     4.1189     8.8793     0.13       60.6751   
2678.8     5.1899     2.3191     6.4514     8.2477     6.4409     3.91       3.6031     9.0345     0.133      60.2047   
2679       5.2138     2.2567     6.3412     8.1261     6.3803     3.8893     3.5009     9.3388     0.133      57.9251   
2679.2     5.3135     2.1916     6.1879     8.0326     6.3707     3.8839     3.6345     9.6239     0.132      58.3278   
2679.4     5.3844     2.2102     6.2734     8.0608     6.4187     3.9049     3.959      9.7042     0.129      60.2817   
2679.6     5.4364     2.36       6.5796     8.2516     6.5303     3.9051     4.7757     9.5369     0.125      59.4775   
2679.8     5.4747     2.4388     6.692      8.5371     6.5699     3.8776     4.7082     9.2523     0.123      56.8674   
2680       5.4593     2.4446     6.6788     8.6364     6.4592     3.8109     4.2421     9.1076     0.123      57.8822   
2680.2     5.4139     2.4384     6.7457     8.5781     6.2883     3.6991     4.003      9.1051     0.12       59.8731   
2680.4     5.3981     2.4051     6.7887     8.486      6.1176     3.5816     3.9635     9.2239     0.12       58.7596   
2680.6     5.4051     2.3635     6.7525     8.4222     5.9572     3.4892     3.8277     9.4191     0.12       57.6862   
2680.8     5.4074     2.3332     6.6646     8.3522     5.8521     3.4117     3.7971     9.5759     0.117      59.2732   
2681       5.4379     2.3029     6.5865     8.2915     5.7659     3.3516     3.9454     9.7714     0.117      60.7905   
2681.2     5.4819     2.2865     6.4568     8.2761     5.703      3.2969     3.9873     10.0373    0.119      59.7899   
2681.4     5.5133     2.2916     6.4393     8.3131     5.6289     3.2425     4.0605     10.5622    0.12       57.6969   
2681.6     5.5445     2.3005     6.4042     8.4047     5.5867     3.1939     4.0819     11.409     0.12       59.299    
2681.8     5.5443     2.3256     6.4752     8.5542     5.6242     3.1286     4.1453     12.2406    0.121      61.1721   
2682       5.5454     2.3751     6.6476     8.6542     5.69       3.0412     4.5364     12.9384    0.123      58.8873   
2682.2     5.5599     2.3919     6.6545     8.5297     5.6589     2.9501     4.3421     13.7284    0.123      57.2578   
2682.4     5.5848     2.3103     6.4132     8.2362     5.4236     2.8513     3.7653     14.9274    0.129      59.3323   
2682.6     5.6182     2.2136     6.1887     8.0019     5.3065     2.7457     3.6814     16.5357    0.13       60.8439   
2682.8     5.6695     2.2195     6.2511     7.9329     5.2539     2.6128     4.0462     18.0227    0.13       59.3964   
2683       5.8073     2.2893     6.3881     7.8551     5.1399     2.4824     4.6086     19.2732    0.128      58.5463   
2683.2     5.9801     2.1549     5.9497     7.5859     4.8982     2.3563     3.986      20.7761    0.123      60.7833   
2683.4     6.2341     2.0994     5.6792     7.0253     4.5787     2.2305     3.9837     22.5141    0.121      61.7397   
2683.6     6.6514     1.8382     4.9452     6.4582     4.2953     2.1328     3.8662     24.1864    0.114      60.0728   
2683.8     7.1304     1.7624     4.8454     6.0916     4.1753     2.1365     4.7719     25.5641    0.113      59.5258   
2684       7.6492     1.8888     5.111      6.2671     4.3547     2.2738     7.1887     26.6702    0.111      62.9438   
2684.2     8.1083     2.0272     5.3808     6.7247     4.8099     2.5513     6.8944     28.3805    0.112      64.1228   
2684.4     8.4997     2.1791     5.8467     7.2996     5.3734     2.9662     8.0181     29.7028    0.113      62.9622   
2684.6     8.984      2.2446     6.2652     7.8609     5.9592     3.5215     9.0353     29.773     0.11       65.366    
2684.8     9.5505     2.2304     6.4989     8.4806     6.6169     4.1952     8.4242     29.9633    0.11       67.3114   
2685       10.1452    2.2239     6.6912     9.2825     7.4645     4.9617     9.1677     30.6738    0.107      66.0215   
2685.2     10.8378    2.2577     6.9911     10.2567    8.6501     5.9154     11.3273    31.4018    0.107      64.7252   
2685.4     11.5814    2.2611     7.28       11.4511    10.1503    6.9555     12.1054    32.3691    0.107      66.9879   
2685.6     12.3301    2.3625     7.9488     12.875     11.7904    7.9764     16.0624    32.6562    0.107      68.8893   
2685.8     13.0542    2.5041     8.6992     14.7792    13.4202    8.9287     43.4418    31.2903    0.109      67.2653   
2686       13.6256    2.9158     10.1651    17.0637    14.8957    9.7618     180.5748   28.5152    0.113      65.9512   
2686.2     13.7684    3.3511     11.7009    19.789     16.6301    10.4698    145.603    25.8913    0.112      67.3877   
2686.4     13.4253    3.86       13.6016    22.8538    18.6018    11.094     255.3596   23.6156    0.107      69.3583   
2686.6     12.6531    4.3743     15.9701    26.6034    20.8947    11.1501    87.9978    21.8537    0.107      68.0529   
2686.8     11.9415    4.7895     18.3456    28.7431    21.7382    10.6859    15.699     20.2162    0.107      67.155    
2687       11.3378    4.0758     16.198     28.1518    20.5878    9.8967     7.3711     18.7014    0.107      68.9528   
2687.2     10.8919    3.539      14.5358    26.0267    18.7785    8.7069     7.3819     17.2816    0.107      70.5673   
2687.4     10.5726    3.2064     13.1857    24.9193    17.7067    7.3966     7.5901     16.5106    0.107      69.0345   
2687.6     10.3608    3.0432     12.0761    24.1119    17.0035    6.4951     7.8109     16.1134    0.107      67.6962   
2687.8     10.1907    2.918      11.027     23.611     16.5459    5.8586     7.6153     15.9729    0.107      70.3247   
2688       10.0451    2.8477     10.2935    23.3575    16.3493    5.3409     7.8946     15.9772    0.107      71.0979   
2688.2     9.9274     2.8456     9.9789     22.9468    16.3323    4.9257     8.505      15.8787    0.108      69.4305   
2688.4     9.8731     2.7766     9.5528     22.2211    16.3252    4.5976     7.9874     15.7907    0.11       68.3885   
2688.6     9.8068     2.6895     9.1203     21.3837    16.5785    4.3411     7.9309     15.8927    0.11       70.5695   
2688.8     9.7734     2.691      9.1405     20.6743    17.129     4.1401     8.5016     16.1163    0.11       72.5152   
2689       9.7105     2.671      8.9486     19.7632    18.2028    3.9938     8.8938     16.4612    0.115      68.2976   
