~Version
 VERS              .         2.0                           : CWLS LOG ASCII STANDARD - VERSION 2.0
 WRAP              .         NO                            : ONE LINE PER DEPTH STEP
 DLM               .         SPACE                         : DELIMITING CHARACTER(SPACE TAB OR COMMA)
~Well Information
#_______________________________________________________________________________
#
#PARAMETER_NAME    .UNIT     VALUE                         : DESCRIPTION
#_______________________________________________________________________________
STRT               .m        2582                          : First reference value
STOP               .m        2760                          : Last reference value
STEP               .m        0.2                           : Step increment
NULL               .         -9999                         : Missing value
COMP               .                                       : Company
WELL               .         602                           : Well name
FLD                .                                       : Field
LOC                .                                       : Location
CNTY               .                                       : County
STAT               .                                       : State
CTRY               .                                       : Country
SRVC               .                                       : Service Company
DATE               .                                       : Date
API                .                                       : API number
EREF               .m        134                           : 
X                  .m        225746                        : 
Y                  .m        235643                        : 
group              .         Pad6                          : 
Интер-р            .         Ярышев                        : 
Куст               .         6                             : 
Статус             .         Не проверено                  : 
Тип                .         Разобраться                   : 
~Parameter Information Block
#_______________________________________________________________________________
#
#PARAMETER_NAME    .UNIT     VALUE                         : DESCRIPTION
#_______________________________________________________________________________
SET                .         LAS1                          : 
REAL_CREATION_DATE .         Ср апр 11 2012-13_17_22       : 
TLFamily_DEPTH     .         Measured Depth                : 
TLFamily_KS        .         Potential Resistivity         : 
TLFamily_KS1       .         Extra Shallow Resistivity     : 
TLFamily_KS2       .         Shallow Resistivity           : 
TLFamily_KS3       .         Medium Resistivity            : 
TLFamily_KS4       .         Deep Resistivity              : 
TLFamily_KS5       .         Extra Deep Resistivity        : 
TLFamily_LLD       .         Lateral Log Resistivity       : 
TLFamily_OKS3      .         Medium Resistivity Inverted   : 
TLFamily_RM        .         Mud Resistivity               : 
TLFamily_SP        .         Spontaneous Potential         : 
group              .         INI                           : 
~Curve Information
#_______________________________________________________________________________
#
#LOGNAME           .UNIT     LOG_ID                        : DESCRIPTION
#_______________________________________________________________________________
DEPTH              .m                                      : Measured Depth 
KS                 .ohm.m                                  : Potential Resistivity 
KS1                .ohm.m                                  : Extra Shallow Resistivity 
KS2                .ohm.m                                  : Shallow Resistivity 
KS3                .ohm.m                                  : Medium Resistivity 
KS4                .ohm.m                                  : Deep Resistivity 
KS5                .ohm.m                                  : Extra Deep Resistivity 
LLD                .ohm.m                                  : Lateral Log Resistivity 
OKS3               .ohm.m                                  : Medium Resistivity Inverted 
RM                 .ohm.m                                  : Mud Resistivity 
SP                 .mV                                     : Spontaneous Potential 
~Ascii
# ...
2649       12.4445    3.175      11.9432    24.0746    23.8078    9.412      12.0492    24.2001    0.112      60.0818   
2649.2     12.4634    3.1726     11.9069    24.3177    24.4326    9.6339     12.8061    23.9489    0.113      61.4401   
2649.4     12.4477    3.1893     11.902     24.6051    25.061     9.8892     12.4093    23.7335    0.113      59.2108   
2649.6     12.4166    3.2332     12.0051    24.9532    25.8036    10.1507    12.8727    23.4039    0.116      58.4348   
2649.8     12.3848    3.2482     12.0425    25.2222    26.61      10.4384    13.1578    22.9816    0.117      60.5265   
2650       12.352     3.2476     12.097     25.3453    27.4505    10.761     12.2533    22.5189    0.12       60.5145   
2650.2     12.3674    3.212      11.9657    25.2504    28.0424    11.1523    12.1025    22.1723    0.12       58.4191   
2650.4     12.3799    3.134      11.7135    24.8688    28.3206    11.6513    10.804     21.9851    0.12       58.3679   
2650.6     12.3786    3.1225     11.773     25.0546    28.7378    12.2828    11.0537    21.6617    0.12       60.3303   
2650.8     12.3606    3.2464     12.2182    25.7708    29.6289    13.0506    14.4132    20.9701    0.12       60.1535   
2651       12.2924    3.3667     12.5926    26.5625    30.9845    13.8438    16.4312    20.0643    0.12       57.954    
2651.2     12.141     3.4756     12.9043    26.979     31.968     14.5623    15.3373    19.1099    0.117      57.7195   
2651.4     11.9728    3.5062     12.963     26.9278    32.0445    15.1637    14.2749    18.5101    0.114      60.1534   
2651.6     11.7799    3.3853     12.6968    26.6134    31.7707    15.6591    11.3624    18.5015    0.114      59.9181   
2651.8     11.5304    3.3267     12.6492    26.5488    31.8252    16.1457    10.1219    18.1876    0.113      57.5201   
2652       11.2276    3.3957     13.0517    27.0172    32.3329    16.5923    11.458     17.4813    0.113      57.3569   
2652.2     10.8618    3.5332     13.4176    27.7755    32.9015    16.9535    14.4995    16.7808    0.111      60.1699   
2652.4     10.4553    3.652      13.645     27.9055    32.6663    17.0202    13.9367    15.8821    0.113      59.5352   
2652.6     10.1174    3.4772     13.1496    26.9971    31.233     16.7125    10.4553    15.6948    0.113      57.1453   
2652.8     9.8708     3.2542     12.1864    25.3036    28.8567    16.2238    7.2735     16.3416    0.113      58.0836   
2653       9.7265     2.9761     11.0857    23.6536    26.8704    15.7068    6.357      17.4388    0.113      59.9605   
2653.2     9.6651     2.8168     10.4495    22.3362    25.5531    15.2832    5.9887     18.3205    0.113      59.0892   
2653.4     9.6823     2.7545     10.2422    21.8523    25.1407    15.1941    6.9058     18.7044    0.113      58.1091   
2653.6     9.7769     2.7089     9.906      21.4108    24.9209    15.248     7.8724     19.376     0.11       57.8431   
2653.8     9.8963     2.7777     9.9603     21.2449    25.0405    15.5573    9.7297     19.427     0.11       60.1406   
2654       9.9507     2.9194     10.0582    21.3403    25.1645    16.0146    10.5968    19.0781    0.11       60.598    
2654.2     9.8584     3.0675     10.2109    21.4119    25.2069    16.4815    10.393     18.9056    0.11       57.7077   
2654.4     9.6991     3.2098     10.532     21.5014    25.2773    16.7053    9.8274     18.7089    0.112      58.4268   
2654.6     9.6143     3.1391     11.0091    20.904     24.6377    16.666     8.1495     18.7016    0.113      60.5359   
2654.8     9.5675     2.9634     10.2704    19.8622    23.4549    16.4462    6.714      19.1603    0.113      59.286    
2655       9.5414     2.8959     9.6849     18.4754    22.0599    16.1975    6.3885     20.4612    0.113      56.6577   
2655.2     9.5954     2.6978     9.3889     17.614     21.2243    15.8726    6.6147     22.0551    0.113      58.7442   
2655.4     9.7508     2.6909     9.4595     17.1008    20.7862    15.6677    8.1155     23.2977    0.113      60.3276   
2655.6     10.0336    2.6302     9.1997     16.9418    20.5377    15.7962    7.5439     24.469     0.113      57.6603   
2655.8     10.2521    2.5934     8.787      16.9116    20.2881    16.1415    8.8199     25.4867    0.113      56.7073   
2656       10.4724    2.7361     9.225      17.5742    20.4039    16.4144    11.9007    26.0589    0.113      58.2306   
2656.2     10.7184    2.8726     9.6878     18.1706    20.7144    16.6481    11.9188    25.8852    0.113      59.7992   
2656.4     10.8861    2.9375     9.8545     18.3272    20.8005    16.8551    9.8498     25.9714    0.113      57.5242   
2656.6     11.0144    2.9752     10.0505    18.1606    20.5536    16.9812    9.8524     26.4362    0.114      56.3372   
2656.8     11.1513    2.8702     9.9982     18.0282    20.2042    17.1129    8.8074     26.94      0.115      58.2214   
2657       11.2978    2.8262     9.9536     17.7502    19.806     17.2853    9.4919     27.0076    0.117      59.2412   
2657.2     11.4905    2.8314     10.2244    17.9443    19.7472    17.4781    11.1225    26.3241    0.117      57.5082   
2657.4     11.7584    2.9154     10.4331    18.315     19.9068    17.7704    11.6301    25.6641    0.122      55.7126   
2657.6     12.0539    2.8622     10.1384    18.7644    20.2012    18.1025    10.5597    24.9845    0.121      57.8899   
2657.8     12.281     2.9057     10.347     19.1729    20.5849    18.4109    14.0365    24.0928    0.12       58.9622   
2658       12.5031    2.9985     10.7064    19.9953    21.3318    18.7491    13.0146    22.6844    0.12       57.7157   
2658.2     12.657     3.0596     11.0242    21.1323    22.1976    19.1932    13.8321    21.3487    0.12       56.3822   
2658.4     12.7744    3.1392     11.4624    22.343     23.0343    19.6066    13.692     19.7695    0.117      58.7164   
2658.6     12.7751    3.3226     12.0804    23.3695    23.7801    20.1746    16.9997    17.7943    0.117      59.7539   
2658.8     12.7042    3.4084     12.5042    24.3303    24.4287    20.8251    15.3716    16.2978    0.113      56.8597   
2659       12.4424    3.5634     13.1317    25.3183    25.5308    21.4461    16.1751    14.8418    0.113      56.8075   
2659.2     11.9956    3.814      14.5218    27.1862    27.3553    21.7628    21.0516    13.2874    0.113      59.1605   
2659.4     11.5008    3.9817     15.1686    29.0953    28.3739    21.715     16.8648    11.9492    0.113      59.5651   
2659.6     11.0213    3.824      14.8435    29.706     28.2096    21.2748    9.8376     11.1465    0.113      57.1665   
2659.8     10.5873    3.5933     13.9939    29.0361    27.5763    20.4918    7.7702     10.5729    0.113      56.4593   
2660       10.1329    3.5648     13.9159    28.5757    27.2641    19.3687    8.7865     9.9562     0.113      58.9667   
2660.2     9.707      3.5563     13.8056    28.5993    27.5581    18.2241    9.0667     9.417      0.113      59.0382   
2660.4     9.209      3.5199     13.3124    28.4192    27.7431    17.506     8.0403     9.0398     0.116      57.1925   
2660.6     8.419      3.4839     13.1762    28.8949    28.4245    16.7739    7.7008     8.7639     0.117      57.2174   
2660.8     7.6984     3.769      14.075     29.0854    28.7098    15.7249    10.9322    8.1613     0.117      60.3384   
2661       7.1728     3.5364     13.2079    27.4114    28.2504    14.6054    6.268      7.4575     0.118      60.2439   
2661.2     6.7365     3.0174     11.5078    23.9141    25.7249    13.4364    3.7274     7.8281     0.117      57.4832   
2661.4     6.4315     2.7227     9.916      20.7569    22.7388    12.0209    3.5272     8.3065     0.117      57.4378   
2661.6     6.2606     2.5248     8.9526     18.7078    20.7271    10.6347    3.8183     8.604      0.117      60.2005   
2661.8     6.1478     2.4538     8.3774     17.434     19.4366    9.4495     4.0645     8.735      0.12       58.3966   
2662       6.0028     2.5274     8.1016     16.5534    18.7282    8.5879     4.7367     8.8292     0.12       56.8261   
2662.2     5.8965     2.6218     7.8605     15.7424    18.0989    7.7794     4.9804     8.8251     0.12       58.7364   
