~Version
 VERS              .         2.0                           : CWLS LOG ASCII STANDARD - VERSION 2.0
 WRAP              .         NO                            : ONE LINE PER DEPTH STEP
 DLM               .         SPACE                         : DELIMITING CHARACTER(SPACE TAB OR COMMA)
~Well Information
#_______________________________________________________________________________
#
#PARAMETER_NAME    .UNIT     VALUE                         : DESCRIPTION
#_______________________________________________________________________________
STRT               .m        2582                          : First reference value
STOP               .m        2760                          : Last reference value
STEP               .m        0.2                           : Step increment
NULL               .         -9999                         : Missing value
COMP               .                                       : Company
WELL               .         602                           : Well name
FLD                .                                       : Field
LOC                .                                       : Location
CNTY               .                                       : County
STAT               .                                       : State
CTRY               .                                       : Country
SRVC               .                                       : Service Company
DATE               .                                       : Date
API                .                                       : API number
EREF               .m        134                           : 
X                  .m        225746                        : 
Y                  .m        235643                        : 
group              .         Pad6                          : 
Интер-р            .         Ярышев                        : 
Куст               .         6                             : 
Статус             .         Не проверено                  : 
Тип                .         Разобраться                   : 
~Parameter Information Block
#_______________________________________________________________________________
#
#PARAMETER_NAME    .UNIT     VALUE                         : DESCRIPTION
#_______________________________________________________________________________
SET                .         LAS1                          : 
REAL_CREATION_DATE .         Ср апр 11 2012-13_17_22       : 
TLFamily_DEPTH     .         Measured Depth                : 
TLFamily_KS        .         Potential Resistivity         : 
TLFamily_KS1       .         Extra Shallow Resistivity     : 
TLFamily_KS2       .         Shallow Resistivity           : 
TLFamily_KS3       .         Medium Resistivity            : 
TLFamily_KS4       .         Deep Resistivity              : 
TLFamily_KS5       .         Extra Deep Resistivity        : 
TLFamily_LLD       .         Lateral Log Resistivity       : 
TLFamily_OKS3      .         Medium Resistivity Inverted   : 
TLFamily_RM        .         Mud Resistivity               : 
TLFamily_SP        .         Spontaneous Potential         : 
group              .         INI                           : 
~Curve Information
#_______________________________________________________________________________
#
#LOGNAME           .UNIT     LOG_ID                        : DESCRIPTION
#_______________________________________________________________________________
DEPTH              .m                                      : Measured Depth 
KS                 .ohm.m                                  : Potential Resistivity 
KS1                .ohm.m                                  : Extra Shallow Resistivity 
KS2                .ohm.m                                  : Shallow Resistivity 
KS3                .ohm.m                                  : Medium Resistivity 
KS4                .ohm.m                                  : Deep Resistivity 
KS5                .ohm.m                                  : Extra Deep Resistivity 
LLD                .ohm.m                                  : Lateral Log Resistivity 
OKS3               .ohm.m                                  : Medium Resistivity Inverted 
RM                 .ohm.m                                  : Mud Resistivity 
SP                 .mV                                     : Spontaneous Potential 
~Ascii
# ...
2716       7.0585     2.2144     7.7056     15.7703    16.2774    6.069      7.2186     19.0263    0.12       58.8119   
2716.2     7.295      2.0979     7.0204     14.5458    15.0131    4.5608     6.9468     19.3031    0.129      59.5603   
2716.4     7.6508     2.2235     6.9244     13.8662    14.1258    3.9629     7.4995     19.1706    0.122      56.9271   
2716.6     8.0319     2.2819     6.7815     13.2833    13.2977    3.5608     7.5347     19.2689    0.114      56.0727   
2716.8     8.3445     2.3367     6.7949     12.6808    12.4902    3.2589     9.5426     19.5197    0.119      58.0253   
2717       8.7259     2.3367     6.9056     12.2414    11.9252    3          10.4171    19.6909    0.127      58.686    
2717.2     9.1185     2.3294     7.1039     12.0872    11.6318    2.8118     10.5616    19.7022    0.119      56.4277   
2717.4     9.4553     2.4686     7.6642     12.2789    11.8319    2.6929     11.5557    19.6726    0.113      55.0126   
2717.6     9.6956     2.561      8.0048     12.5691    12.1723    2.7007     11.5606    19.6256    0.114      57.7902   
2717.8     9.9293     2.6519     8.3967     12.9648    12.6124    2.759      11.0284    19.5857    0.124      57.6765   
2718       10.1512    2.7609     8.9565     13.559     13.117     2.8338     11.2059    19.5112    0.122      54.7592   
2718.2     10.2609    2.8473     9.3998     14.2588    13.6564    2.9317     10.8155    19.4416    0.114      55.2789   
2718.4     10.3233    2.8993     9.7156     15.0794    14.0735    3.0407     9.9421     19.4651    0.112      56.9547   
2718.6     10.3459    2.9514     10.1287    16.1008    14.4653    3.1725     9.6216     19.5519    0.121      56.2447   
2718.8     10.3579    2.9262     10.1589    16.5359    14.6151    3.2269     8.5839     19.6213    0.124      54.9978   
2719       10.4483    2.8323     9.9223     16.6161    14.5603    3.3061     9.7955     19.7891    0.117      56.7947   
2719.2     10.5359    2.697      9.4233     16.4863    14.3855    3.4294     10.1682    19.9333    0.113      58.9872   
2719.4     10.6938    2.7424     9.4674     16.493     14.1827    3.752      9.1633     20.2136    0.113      56.1988   
2719.6     10.797     2.6972     9.2741     16.5657    14.1754    4.1591     9.4616     20.6685    0.119      57.3733   
2719.8     10.8745    2.6726     9.1212     16.5067    14.1953    4.7098     9.6013     21.5113    0.123      60.3996   
2720       10.9534    2.6895     9.2063     16.6115    14.4399    5.2729     10.1204    22.4903    0.12       58.7343   
2720.2     11.0748    2.6984     9.2456     16.7035    15.0113    6.0769     9.5023     23.7083    0.114      57.2377   
2720.4     11.272     2.6335     9.0225     16.6872    15.8264    6.8729     9.6963     26.0154    0.112      59.6165   
2720.6     11.4268    2.6353     9.0509     16.7849    16.4368    7.6675     9.8595     28.1362    0.116      60.78     
2720.8     11.6178    2.5965     8.9949     16.9921    17.4134    8.6561     10.664     30.2833    0.122      58.6238   
2721       11.8528    2.621      9.1044     17.2386    18.5303    9.8908     10.8275    32.539     0.12       57.5275   
2721.2     12.1349    2.6397     9.1435     17.6582    19.945     11.5117    10.7596    37.3616    0.114      60.25     
2721.4     12.386     2.6681     9.2517     18.0034    20.9721    13.3235    11.0643    39.8676    0.111      60.3563   
2721.6     12.7445    2.6592     9.3383     18.4071    23.3161    15.8467    11.8188    42.2173    0.111      58.0025   
2721.8     13.2219    2.6227     9.3015     18.7773    25.206     19.0379    11.7382    44.1889    0.117      57.2115   
2722       13.7733    2.6341     9.3716     19.2133    27.4045    23.1453    12.6925    45.6022    0.118      59.7733   
2722.2     14.3972    2.5667     9.3585     19.9012    30.3855    27.9977    12.7305    47.0597    0.111      60.2867   
2722.4     15.1314    2.4061     9.1354     20.7971    33.4875    32.9617    22.0033    47.8388    0.103      57.7792   
2722.6     15.8522    2.5618     9.9097     22         35.8468    37.7988    56.2959    46.2998    0.105      56.6927   
2722.8     16.6072    2.8058     10.7694    23.3079    37.0339    41.5018    51.7994    42.2313    0.108      60.0248   
2723       17.3058    3.019      11.5448    23.4734    35.1019    41.0581    80.8774    37.172     0.098      59.2874   
2723.2     18.4686    3.0314     11.6336    20.1704    28.7248    42.7799    80.8343    26.9997    0.097      57.054    
2723.4     18.7983    1.5702     5.9484     20.7753    29.2731    44.6393    102.0018   20.3539    0.093      59.1348   
2723.6     18.1722    3.6564     14.13      26.9141    37.5295    46.2723    30.4783    18.5892    0.094      59.7697   
2723.8     16.9936    4.115      17.1582    34.8323    43.9076    48.0562    14.6017    20.0529    0.101      57.4949   
2724       16.1973    4.2931     19.2755    38.5786    45.8245    53.3822    13.7542    18.1218    0.109      55.4401   
2724.2     15.4243    4.3672     19.7811    40.6216    45.956     53.4373    12.2017    16.5104    0.101      57.2791   
2724.4     14.651     4.0963     18.6212    41.2603    44.3616    50.9814    12.8876    15.6835    0.104      58.6501   
2724.6     13.9375    3.9602     17.4445    41.6194    42.9695    47.764     11.1816    15.3132    0.116      56.2943   
2724.8     13.2185    3.7874     16.5686    42.7859    42.7902    44.6688    11.9132    15.3123    0.111      55.2843   
2725       12.4121    3.8817     16.8243    44.7407    44.2556    42.2866    16.3053    15.5311    0.119      57.3253   
2725.2     11.5513    3.9294     16.9737    47.2106    46.5095    40.6128    13.1995    16.2189    0.119      58.5649   
2725.4     10.6587    3.9764     17.1647    49.1826    49.1654    39.0989    7.6285     16.2827    0.113      56.5938   
2725.6     9.8601     4.1288     17.6946    48.5237    50.0651    36.7839    5.5024     15.0098    0.122      55.3068   
2725.8     9.2301     3.9613     16.6314    43.7242    47.8244    33.0288    6.156      13.5379    0.125      57.4525   
2726       8.7211     3.4614     14.1597    38.4745    43.8157    28.7401    5.7763     12.2753    0.118      58.5063   
2726.2     8.3015     3.1764     12.8828    33.8909    40.9412    24.5494    5.6678     11.4047    0.117      56.4648   
2726.4     8.0827     2.9615     11.8097    30.1047    38.8394    20.9823    6.2596     10.7091    0.127      57.2401   
2726.6     7.9057     2.7443     10.4814    26.7384    36.7277    18.3703    6.5544     10.2401    0.125      59.9201   
2726.8     7.7346     2.7347     10.0146    24.1867    35.1893    16.1764    7.6359     9.892      0.121      60.2062   
2727       7.5        2.7311     9.5784     22.7738    34.5548    14.3403    5.526      9.5033     0.118      58.8757   
2727.2     7.3033     2.9232     9.8878     21.2503    32.9231    12.911     5.4746     9.0896     0.128      60.1163   
2727.4     7.114      2.6618     8.9188     19.5934    30.4236    11.6087    6.6516     8.8457     0.131      63.1621   
2727.6     6.8002     2.7051     8.8983     18.2045    27.4093    10.233     5.8882     8.4266     0.124      64.3392   
2727.8     6.5586     2.8004     9.0752     17.2484    24.464     8.9535     4.6332     7.947      0.121      61.8762   
2728       6.2995     2.6541     8.387      15.7858    21.532     7.8788     4.1166     7.5164     0.121      61.3502   
2728.2     6.1256     2.5195     7.9048     13.9183    18.3979    6.7208     3.854      7.3709     0.131      63.9983   
2728.4     6.0643     2.2612     6.9724     12.2898    15.6034    5.7697     3.9786     7.3634     0.132      62.5488   
2728.6     6.0979     2.0982     6.4238     11.0095    13.5027    5.0019     4.5227     7.3861     0.124      61.6159   
2728.8     6.2017     2.0379     6.0409     10.2613    12.2072    4.4794     5.2305     7.3635     0.12       62.4277   
2729       6.3312     2.0904     5.9488     9.9261     11.4167    4.1994     5.8821     7.3835     0.126      64.6095   
2729.2     6.4371     2.1886     6.0282     9.8646     10.9814    4.0818     6.5834     7.4155     0.132      63.459    
