~Version
 VERS              .         2.0                           : CWLS LOG ASCII STANDARD - VERSION 2.0
 WRAP              .         NO                            : ONE LINE PER DEPTH STEP
 DLM               .         SPACE                         : DELIMITING CHARACTER(SPACE TAB OR COMMA)
~Well Information
#_______________________________________________________________________________
#
#PARAMETER_NAME    .UNIT     VALUE                         : DESCRIPTION
#_______________________________________________________________________________
STRT               .m        2491                          : First reference value
STOP               .m        2703                          : Last reference value
STEP               .m        0.2                           : Step increment
NULL               .         -9999                         : Missing value
COMP               .                                       : Company
WELL               .         603                           : Well name
FLD                .                                       : Field
LOC                .                                       : Location
CNTY               .                                       : County
STAT               .                                       : State
CTRY               .                                       : Country
SRVC               .                                       : Service Company
DATE               .                                       : Date
API                .                                       : API number
EREF               .m        134                           : 
X                  .m        225746                        : 
Y                  .m        235643                        : 
group              .         Pad6                          : 
Интер-р            .         Старостина                    : 
Куст               .         6                             : 
Статус             .         Не проверено                  : 
Тип                .         Нагнетательные                : 
~Parameter Information Block
#_______________________________________________________________________________
#
#PARAMETER_NAME    .UNIT     VALUE                         : DESCRIPTION
#_______________________________________________________________________________
SET                .         LAS3                          : 
REAL_CREATION_DATE .         Ср апр 11 2012-13_17_23       : 
TLFamily_DEPTH     .         Measured Depth                : 
TLFamily_GR        .         Gamma Ray                     : 
TLFamily_TNPH      .         Neutron Porosity              : 
group              .         INI                           : 
~Curve Information
#_______________________________________________________________________________
#
#LOGNAME           .UNIT     LOG_ID                        : DESCRIPTION
#_______________________________________________________________________________
DEPTH              .m                                      : Measured Depth 
GR                 .gAPI                                   :  
TNPH               .v/v                                    : Neutron Porosity 
~Ascii
# ...
2539.6     87.14799   0.251337  
2539.8     88.429     0.241885  
2540       88.75301   0.231159  
2540.2     89.95599   0.223071  
2540.4     83.672     0.217213  
2540.6     72.551     0.217772  
2540.8     64.44      0.225739  
2541       58.305     0.236909  
2541.2     56.952     0.231015  
2541.4     59.735     0.217925  
2541.6     59.327     0.210037  
2541.8     57.681     0.212541  
2542       57.988     0.220945  
2542.2     59.408     0.222504  
2542.4     63.37      0.232994  
2542.6     67.479     0.243509  
2542.8     75.794     0.253984  
2543       82.38499   0.254668  
2543.2     83.294     0.255577  
2543.4     85.373     0.260259  
2543.6     88.833     0.246837  
2543.8     95.19301   0.233069  
2544       98.457     0.225228  
2544.2     95.48      0.230228  
2544.4     89.80099   0.245148  
2544.6     83.504     0.252989  
2544.8     86.755     0.241713  
2545       90.66901   0.229064  
2545.2     88.279     0.236595  
2545.4     84.017     0.241682  
2545.6     82.584     0.23316   
2545.8     84.802     0.230487  
2546       90.547     0.237069  
2546.2     96.83099   0.250459  
2546.4     106.372    0.2514    
2546.6     118.382    0.232198  
2546.8     123.272    0.232807  
2547       120.45     0.247646  
2547.2     114.314    0.2541    
2547.4     111.603    0.248632  
2547.6     108.615    0.241099  
2547.8     102.064    0.238642  
2548       97.054     0.240296  
2548.2     92.533     0.240352  
2548.4     95.099     0.246182  
2548.6     102.141    0.254586  
2548.8     99.981     0.248749  
2549       85.948     0.224469  
2549.2     77.832     0.200855  
2549.4     79.804     0.204885  
2549.6     100.613    0.227742  
2549.8     113.465    0.250648  
2550       121.877    0.261357  
2550.2     122.411    0.249117  
2550.4     115.762    0.245788  
2550.6     101.879    0.242187  
2550.8     95.915     0.24164   
2551       103.451    0.244951  
2551.2     113.798    0.236176  
2551.4     118.397    0.234436  
2551.6     114.418    0.23447   
2551.8     107.723    0.248537  
2552       97.61      0.247207  
2552.2     82.924     0.22966   
2552.4     73.66299   0.229509  
2552.6     74.343     0.225472  
2552.8     76.861     0.226806  
2553       79.168     0.239385  
2553.2     76.89201   0.24265   
2553.4     76.75101   0.230392  
2553.6     78.60699   0.218389  
2553.8     81.10699   0.205501  
2554       80.77      0.204287  
2554.2     80.603     0.206684  
2554.4     78.891     0.196705  
2554.6     74.63      0.19339   
2554.8     69.451     0.202476  
2555       67.856     0.216393  
2555.2     64.15      0.202     
2555.4     61.285     0.18109   
2555.6     60.595     0.17498   
2555.8     62.834     0.20103   
2556       64.82899   0.214582  
2556.2     68.09399   0.215891  
2556.4     71.15401   0.229199  
2556.6     75.512     0.242563  
2556.8     81.356     0.256623  
2557       86.731     0.255994  
2557.2     90.07      0.254946  
2557.4     91.481     0.25543   
2557.6     99.145     0.26089   
2557.8     110.555    0.260529  
2558       119.204    0.249765  
2558.2     128.749    0.248247  
2558.4     129.17     0.253912  
2558.6     129.997    0.262821  
2558.8     127.913    0.273682  
2559       125.42     0.271351  
2559.2     125.254    0.250682  
2559.4     125.035    0.241395  
2559.6     125.914    0.250641  
2559.8     124.692    0.244077  
2560       126.58     0.242715  
2560.2     132.488    0.260095  
2560.4     130.698    0.27614   
2560.6     130.237    0.282486  
2560.8     133.032    0.290209  
2561       139.785    0.289375  
2561.2     141.893    0.291948  
2561.4     142.158    0.303527  
2561.6     140.42     0.303038  
2561.8     131.625    0.292344  
2562       123.857    0.278164  
2562.2     122.601    0.273698  
2562.4     122.498    0.275709  
2562.6     125.202    0.281709  
2562.8     129.188    0.29276   
2563       130.716    0.291086  
2563.2     130.965    0.281347  
2563.4     132.83     0.279214  
2563.6     131.287    0.271715  
2563.8     128.816    0.265176  
2564       124.035    0.279652  
2564.2     119.689    0.297462  
2564.4     117.72     0.297604  
2564.6     116.772    0.295831  
2564.8     115.591    0.290133  
2565       112.923    0.27453   
2565.2     109.738    0.261493  
2565.4     110.704    0.259004  
2565.6     119.428    0.283428  
2565.8     127.335    0.288006  
2566       130.493    0.283153  
2566.2     136.865    0.282446  
2566.4     158.095    0.278748  
2566.6     167.252    0.272505  
2566.8     171.86     0.283838  
2567       171.261    0.298093  
2567.2     173.077    0.293233  
2567.4     170.087    0.28456   
2567.6     156.846    0.281384  
2567.8     155.951    0.273062  
2568       160.746    0.271085  
2568.2     168.095    0.279609  
2568.4     174.869    0.271063  
2568.6     168.99     0.276939  
2568.8     150.636    0.300598  
2569       133.681    0.291022  
2569.2     121.588    0.278063  
2569.4     119.249    0.279018  
2569.6     122.498    0.274596  
2569.8     128.746    0.284594  
2570       136.386    0.300328  
2570.2     147.15     0.30389   
2570.4     162.225    0.309173  
2570.6     183.63     0.309719  
2570.8     204.622    0.307527  
2571       219.934    0.310756  
2571.2     210.915    0.30272   
2571.4     202.547    0.284175  
2571.6     205.027    0.283952  
2571.8     209.258    0.281072  
2572       210.962    0.282968  
2572.2     226.155    0.293489  
2572.4     232.977    0.285902  
2572.6     231.702    0.288565  
2572.8     224.684    0.30277   
2573       218.84     0.332587  
2573.2     213.407    0.32162   
2573.4     213.286    0.323707  
2573.6     222.143    0.320196  
2573.8     230.661    0.31506   
2574       234.048    0.298841  
2574.2     249.334    0.288598  
2574.4     264.273    0.286996  
2574.6     266.01     0.296845  
2574.8     266.919    0.311167  
2575       273.27     0.293868  
2575.2     270.377    0.307152  
2575.4     262.581    0.303217  
2575.6     249.571    0.311126  
2575.8     237.979    0.309439  
2576       231.542    0.307611  
2576.2     219.999    0.309271  
2576.4     200.264    0.295936  
2576.6     194.342    0.274838  
2576.8     196.186    0.288268  
2577       206.688    0.315082  
2577.2     221.275    0.330633  
2577.4     242.096    0.343185  
2577.6     282.126    0.32459   
2577.8     299.075    0.309334  
2578       305.352    0.315911  
2578.2     312.493    0.319835  
2578.4     339.1      0.308015  
2578.6     385.48     0.312656  
2578.8     435.297    0.33269   
2579       476.913    0.345847  
2579.2     510.428    0.334466  
2579.4     537.551    0.320887  
2579.6     500.567    0.327324  
2579.8     428.704    0.32839   
2580       413.394    0.342417  
2580.2     407.376    0.341045  
2580.4     391.308    0.341179  
2580.6     384.784    0.346336  
2580.8     382.571    0.324842  
2581       380.608    0.304726  
2581.2     380.488    0.298267  
2581.4     375.422    0.294306  
2581.6     366.02     0.284208  
2581.8     351.915    0.279411  
2582       333.07     0.286081  
2582.2     313.264    0.288122  
2582.4     307.742    0.280265  
2582.6     309.425    0.282787  
2582.8     307.654    0.30523   
2583       315.408    0.339801  
2583.2     335.756    0.346227  
2583.4     356.677    0.339625  
2583.6     339.145    0.329653  
2583.8     319.743    0.327975  
2584       326.335    0.338792  
2584.2     327.52     0.330841  
2584.4     312.886    0.325879  
2584.6     297.448    0.349867  
2584.8     298.029    0.359337  
2585       294.715    0.345825  
2585.2     289.886    0.33277   
2585.4     282.117    0.321772  
2585.6     279.117    0.304713  
2585.8     274.325    0.281385  
2586       267.835    0.28467   
2586.2     255.522    0.303597  
2586.4     232.495    0.304835  
2586.6     207.636    0.297178  
2586.8     190.231    0.295098  
2587       180.145    0.289759  
2587.2     182.92     0.277242  
2587.4     186.383    0.273179  
2587.6     164.232    0.277782  
2587.8     129.507    0.274601  
2588       112.39     0.29311   
