~Version
 VERS              .         2.0                           : CWLS LOG ASCII STANDARD - VERSION 2.0
 WRAP              .         NO                            : ONE LINE PER DEPTH STEP
 DLM               .         SPACE                         : DELIMITING CHARACTER(SPACE TAB OR COMMA)
~Well Information
#_______________________________________________________________________________
#
#PARAMETER_NAME    .UNIT     VALUE                         : DESCRIPTION
#_______________________________________________________________________________
STRT               .m        2491                          : First reference value
STOP               .m        2703                          : Last reference value
STEP               .m        0.2                           : Step increment
NULL               .         -9999                         : Missing value
COMP               .                                       : Company
WELL               .         603                           : Well name
FLD                .                                       : Field
LOC                .                                       : Location
CNTY               .                                       : County
STAT               .                                       : State
CTRY               .                                       : Country
SRVC               .                                       : Service Company
DATE               .                                       : Date
API                .                                       : API number
EREF               .m        134                           : 
X                  .m        225746                        : 
Y                  .m        235643                        : 
group              .         Pad6                          : 
Интер-р            .         Старостина                    : 
Куст               .         6                             : 
Статус             .         Не проверено                  : 
Тип                .         Нагнетательные                : 
~Parameter Information Block
#_______________________________________________________________________________
#
#PARAMETER_NAME    .UNIT     VALUE                         : DESCRIPTION
#_______________________________________________________________________________
SET                .         LAS1                          : 
REAL_CREATION_DATE .         Ср апр 11 2012-13_17_22       : 
TLFamily_DEPTH     .         Measured Depth                : 
TLFamily_GZ1       .         Extra Shallow Resistivity     : 
TLFamily_GZ2       .         Shallow Resistivity           : 
TLFamily_GZ3       .         Medium Resistivity            : 
TLFamily_GZ4       .         Deep Resistivity              : 
TLFamily_GZ5       .         Extra Deep Resistivity        : 
TLFamily_GZr       .         Medium Resistivity Inverted   : 
TLFamily_LLD       .         Lateral Log Resistivity       : 
TLFamily_PS        .         Spontaneous Potential         : 
TLFamily_PZ        .         Potential Resistivity         : 
TLFamily_RS        .         Mud Resistivity               : 
group              .         INI                           : 
~Curve Information
#_______________________________________________________________________________
#
#LOGNAME           .UNIT     LOG_ID                        : DESCRIPTION
#_______________________________________________________________________________
DEPTH              .m                                      : Measured Depth 
GZ1                .ohm.m                                  : Extra Shallow Resistivity 
GZ2                .ohm.m                                  : Shallow Resistivity 
GZ3                .ohm.m                                  : Medium Resistivity 
GZ4                .ohm.m                                  : Deep Resistivity 
GZ5                .ohm.m                                  : Extra Deep Resistivity 
GZr                .ohm.m                                  : Medium Resistivity Inverted 
LLD                .ohm.m                                  : Lateral Log Resistivity 
PS                 .mV                                     : Spontaneous Potential 
PZ                 .ohm.m                                  : Potential Resistivity 
RS                 .ohm.m                                  : Mud Resistivity 
~Ascii
# ...
2611.6     2.1798     6.9653     9.315      9.5823     10.2294    11.449     5.3346     73.8461    7.1946     0.4476    
2611.8     2.1597     7.1402     10.2942    9.8167     10.8808    11.393     5.9474     74.235     7.3039     0.4487    
2612       2.1396     7.5804     11.4079    10.626     12.5641    11.4039    5.4316     73.3883    7.4131     0.4542    
2612.2     2.1195     8.1276     12.5217    11.6284    14.0077    11.7495    6.3014     72.8988    7.5576     0.4483    
2612.4     2.1838     8.6747     13.6762    12.6307    15.2061    11.9347    20.4918    73.5274    7.5927     0.4458    
2612.6     2.6358     9.2219     15.0125    13.633     15.9337    11.1558    23.2494    73.0391    7.4604     0.4552    
2612.8     3.077      9.7691     15.9636    13.8813    15.9739    10.1372    6.6074     72.8282    7.2605     0.4536    
2613       3.0318     10.1788    16.1489    13.4068    15.0046    9.1187     5.5494     73.3462    6.8546     0.4498    
2613.2     3.0367     10.3122    15.4306    12.5353    13.3978    8.1226     4.1244     72.6697    6.5001     0.4461    
2613.4     2.8551     9.6154     14.6261    11.5737    11.7298    7.544      3.8        72.434     6.1513     0.4424    
2613.6     2.6616     8.8856     13.8217    10.4627    10.0618    7.293      3.3807     72.7789    5.8025     0.4387    
2613.8     2.468      8.5813     13.0172    9.7112     8.6548     7.2404     3.2823     71.9709    5.4537     0.4369    
2614       2.2745     8.0556     12.2127    9.0432     7.5171     7.3845     3.289      71.6323    5.1898     0.4316    
2614.2     2.1188     7.5355     11.4263    8.3751     6.6117     7.5165     3.1985     71.6452    5.1123     0.4316    
2614.4     2.0244     7.0153     10.6108    7.7743     5.8645     7.5296     3.2372     70.794     5.0997     0.4259    
2614.6     1.8989     6.4951     10.2987    7.6895     5.3815     7.5901     3.7972     71.0842    5.0591     0.4153    
2614.8     2.0193     6.2638     10.4694    7.9387     4.9122     7.6506     4.2317     71.8817    5.0069     0.4311    
2615       2.0812     6.2795     10.3061    7.9162     4.4429     7.7111     3.4878     71.581     4.9868     0.4295    
2615.2     2.0475     6.013      9.8426     7.6881     4.0033     7.7625     3.4869     72.1507    4.9476     0.4279    
2615.4     2.0347     5.9079     9.3589     7.5213     3.6371     7.7686     3.1592     72.6812    4.904      0.4259    
2615.6     2.02       5.6624     8.8751     7.3545     3.3701     7.8806     3.3858     71.9539    4.8604     0.4215    
2615.8     2.0053     5.9052     8.3914     7.1877     3.1345     8.222      3.2984     71.8306    4.7964     0.4316    
2616       1.9766     5.8179     7.9741     7.0209     3.0029     8.4827     3.268      71.5102    4.8157     0.4315    
2616.2     1.9101     5.7177     7.6541     6.8906     2.9178     8.6747     3.7174     71.2268    4.8691     0.4264    
2616.4     1.9061     5.6176     7.512      6.9201     2.8523     8.8309     3.7772     70.8211    4.9619     0.4375    
2616.6     1.9415     5.5324     7.4884     7.1044     2.7868     8.8865     3.9003     70.2837    5.0296     0.4375    
2616.8     1.9769     5.4809     7.437      7.304      2.7212     8.8742     4.2856     70.7084    5.1393     0.4375    
2617       1.9465     5.5163     7.4498     7.3547     2.6688     8.8598     4.2226     70.7136    5.1894     0.4375    
2617.2     1.9883     5.7045     7.5455     7.3339     2.6321     8.8453     4.2618     70.8407    5.2257     0.4375    
2617.4     2.0372     5.8624     7.6327     7.3117     2.6851     8.8071     4.1631     72.0137    5.262      0.4375    
2617.6     2.0861     6.0872     7.72       7.2894     2.6851     8.7679     4.0489     72.5328    5.2983     0.4375    
2617.8     2.1351     6.1724     7.7597     7.2672     2.6933     8.7009     3.6751     71.9525    5.2939     0.4375    
2618       2.1396     6.22       7.796      7.1926     2.7854     8.6214     3.6882     71.8586    5.2645     0.4375    
2618.2     2.1095     6.2676     7.8498     7.0588     2.8513     8.7012     4.0339     71.6093    5.2595     0.4375    
2618.4     2.1032     6.3152     7.9031     6.953      2.9173     8.728      3.8731     70.7222    5.2275     0.4438    
2618.6     2.1032     6.2718     8.1161     6.876      3.0349     8.7024     3.8103     70.5989    5.2382     0.4534    
2618.8     2.1032     6.245      8.162      6.7587     3.1618     8.6334     3.5363     70.6992    5.2424     0.4552    
2619       2.0709     6.0903     8.1862     6.7134     3.2923     8.5644     3.7937     71.103     5.2645     0.4552    
2619.2     2.0239     5.9698     8.2104     6.6846     3.4266     8.4955     4.3017     72.2783    5.3025     0.4552    
2619.4     2.0368     6.0223     8.2346     6.6559     3.5056     8.4265     4.5599     72.4854    5.3459     0.4552    
2619.6     2.0807     6.2422     8.2693     6.6284     3.6044     8.3307     4.1845     71.5252    5.3894     0.4546    
2619.8     2.1246     6.1903     8.3563     6.5777     3.7032     8.0888     4.1318     71.3798    5.4029     0.4493    
2620       2.1849     6.2866     8.452      6.596      3.802      7.9064     3.7748     71.5713    5.35       0.4486    
2620.2     2.1571     6.4005     8.4836     6.6223     3.9008     7.808      3.8869     70.5748    5.2805     0.435     
2620.4     2.1571     6.5143     8.4706     6.6223     3.9734     7.7686     3.6151     69.6883    5.2062     0.4434    
2620.6     2.143      6.5447     8.4511     6.6004     4.0792     7.7419     3.8028     69.9477    5.1531     0.4434    
2620.8     2.089      6.4022     8.3997     6.5426     4.2349     7.7039     3.894      69.3895    5.121      0.4428    
2621       2.1191     6.4541     8.3571     6.4829     4.38       7.6014     3.465      69.4257    5.0462     0.4396    
2621.2     2.1026     6.2957     8.296      6.4231     4.4288     7.5287     3.4418     70.0509    5.0102     0.4363    
2621.4     2.0945     6.1409     8.2236     6.3634     4.4176     7.5021     3.4098     69.7719    4.9708     0.433     
2621.6     2.0846     6.027      8.1513     6.3173     4.4064     7.5021     3.5934     69.6174    4.9314     0.4298    
2621.8     2.0746     5.9625     8.0978     6.3392     4.3952     7.5021     3.6355     70.4558    4.892      0.4266    
2622       2.0646     5.9108     8.071      6.3383     4.384      7.5021     3.4592     70.9229    4.8526     0.4304    
2622.2     2.0547     5.843      7.9501     6.2513     4.38       7.5293     3.1924     70.7057    4.8334     0.4297    
2622.4     2.0224     5.7752     7.7899     6.1668     4.2782     7.5818     3.284      71.12      4.8063     0.4316    
2622.6     1.9954     5.7074     7.6327     6.1296     4.2211     7.7129     3.2813     71.237     4.7802     0.4374    
2622.8     1.9685     5.6396     7.5026     6.0962     4.2211     7.8992     3.2981     70.3306    4.7685     0.4372    
2623       1.9151     5.5507     7.4105     6.1347     4.2741     8.1007     3.6765     70.3943    4.8111     0.4319    
2623.2     1.9534     5.5944     7.4312     6.243      4.2812     8.2232     3.4487     70.4613    4.8334     0.4375    
2623.4     1.9954     5.6379     7.4608     6.3431     4.3101     8.3431     3.5654     69.6448    4.8623     0.4327    
2623.6     1.9954     5.6162     7.4903     6.4431     4.339      8.4348     3.7706     69.6526    4.9128     0.4376    
2623.8     1.9954     5.6809     7.5198     6.5443     4.3679     8.4614     3.7648     70.3726    4.8867     0.4391    
2624       2.0835     5.8611     7.5494     6.5565     4.38       8.4512     3.2773     70.233     4.9076     0.4407    
2624.2     2.0736     5.8413     7.5311     6.5032     4.38       8.4375     3.2524     70.2801    4.9368     0.4423    
2624.4     2.0293     5.7245     7.3322     6.3708     4.38       8.4238     3.4388     71.1385    4.966      0.4443    
2624.6     1.985      5.6222     7.2029     6.3067     4.433      8.4102     3.979      71.1065    4.9947     0.4472    
2624.8     1.9573     5.6798     7.2448     6.3949     4.486      8.3965     4.4297     70.4594    5.0212     0.4487    
