~Version
 VERS              .         2.0                           : CWLS LOG ASCII STANDARD - VERSION 2.0
 WRAP              .         NO                            : ONE LINE PER DEPTH STEP
 DLM               .         SPACE                         : DELIMITING CHARACTER(SPACE TAB OR COMMA)
~Well Information
#_______________________________________________________________________________
#
#PARAMETER_NAME    .UNIT     VALUE                         : DESCRIPTION
#_______________________________________________________________________________
STRT               .m        2491                          : First reference value
STOP               .m        2703                          : Last reference value
STEP               .m        0.2                           : Step increment
NULL               .         -9999                         : Missing value
COMP               .                                       : Company
WELL               .         603                           : Well name
FLD                .                                       : Field
LOC                .                                       : Location
CNTY               .                                       : County
STAT               .                                       : State
CTRY               .                                       : Country
SRVC               .                                       : Service Company
DATE               .                                       : Date
API                .                                       : API number
EREF               .m        134                           : 
X                  .m        225746                        : 
Y                  .m        235643                        : 
group              .         Pad6                          : 
Интер-р            .         Старостина                    : 
Куст               .         6                             : 
Статус             .         Не проверено                  : 
Тип                .         Нагнетательные                : 
~Parameter Information Block
#_______________________________________________________________________________
#
#PARAMETER_NAME    .UNIT     VALUE                         : DESCRIPTION
#_______________________________________________________________________________
SET                .         LAS1                          : 
REAL_CREATION_DATE .         Ср апр 11 2012-13_17_22       : 
TLFamily_DEPTH     .         Measured Depth                : 
TLFamily_GZ1       .         Extra Shallow Resistivity     : 
TLFamily_GZ2       .         Shallow Resistivity           : 
TLFamily_GZ3       .         Medium Resistivity            : 
TLFamily_GZ4       .         Deep Resistivity              : 
TLFamily_GZ5       .         Extra Deep Resistivity        : 
TLFamily_GZr       .         Medium Resistivity Inverted   : 
TLFamily_LLD       .         Lateral Log Resistivity       : 
TLFamily_PS        .         Spontaneous Potential         : 
TLFamily_PZ        .         Potential Resistivity         : 
TLFamily_RS        .         Mud Resistivity               : 
group              .         INI                           : 
~Curve Information
#_______________________________________________________________________________
#
#LOGNAME           .UNIT     LOG_ID                        : DESCRIPTION
#_______________________________________________________________________________
DEPTH              .m                                      : Measured Depth 
GZ1                .ohm.m                                  : Extra Shallow Resistivity 
GZ2                .ohm.m                                  : Shallow Resistivity 
GZ3                .ohm.m                                  : Medium Resistivity 
GZ4                .ohm.m                                  : Deep Resistivity 
GZ5                .ohm.m                                  : Extra Deep Resistivity 
GZr                .ohm.m                                  : Medium Resistivity Inverted 
LLD                .ohm.m                                  : Lateral Log Resistivity 
PS                 .mV                                     : Spontaneous Potential 
PZ                 .ohm.m                                  : Potential Resistivity 
RS                 .ohm.m                                  : Mud Resistivity 
~Ascii
# ...
2665.2     1.8179     8.4592     14.9086    14.697     10.4608    16.6847    8.7149     48.3543    9.4391     0.4408    
2665.4     2.0062     8.4941     15.099     14.6321    10.3413    16.8975    9.189      48.1161    9.2778     0.4386    
2665.6     2.1945     8.5278     15.1213    14.5672    10.296     17.1019    8.2343     48.6212    9.1165     0.4532    
2665.8     2.3828     8.4803     14.8096    14.5022    10.2294    17.3063    7.8909     49.0293    9.041      0.447     
2666       2.4073     8.4071     14.4991    14.4373    10.0728    17.5107    7.7235     48.8301    9.09       0.439     
2666.2     2.3726     8.3339     14.2999    14.3724    10.0476    17.7151    8.0566     49.9112    9.1496     0.4323    
2666.4     2.3678     8.2606     14.1247    14.3074    10.2871    17.926     8.1152     49.4558    9.2138     0.4375    
2666.6     2.3196     8.1645     13.9291    14.2592    10.7277    18.3967    7.7925     50.0164    9.2673     0.4464    
2666.8     2.3187     8.0655     13.7361    14.3532    11.1625    19.4121    7.4163     50.1872    9.3392     0.446     
2667       2.2796     7.8695     13.699     14.5137    11.7461    20.5722    7.9417     50.3268    9.4292     0.4434    
2667.2     2.211      7.7915     13.7114    14.8035    12.5679    21.8774    8.4478     50.4104    9.5694     0.43      
2667.4     2.2248     7.7227     13.7238    15.1736    13.5844    24.1685    8.6314     50.5646    9.7547     0.4317    
2667.6     2.2437     7.6744     13.7362    15.8704    14.7948    26.0053    8.6384     51.5682    9.9447     0.435     
2667.8     2.211      7.6326     13.7828    16.4475    16.2095    28.2082    9.4573     51.4002    10.1635    0.4388    
2668       2.2321     7.793      14.1123    17.3795    18.0303    30.8042    10.4906    50.1977    10.4103    0.4426    
2668.2     2.2665     8.2092     14.806     18.8101    20.4906    33.4991    10.9784    49.5838    10.6571    0.4463    
2668.4     2.301      8.6377     15.6553    20.5894    23.1843    36.069     11.5957    48.5508    10.9039    0.4501    
2668.6     2.3354     8.8555     16.2878    22.3987    24.5527    38.6389    10.6936    45.1035    11.1507    0.4534    
2668.8     2.3699     8.9476     16.6387    24.1829    25.9211    41.2088    9.913      42.0744    11.3975    0.4432    
2669       2.4043     9.0397     17.1226    24.4263    27.2895    43.7031    12.0684    36.0545    11.7155    0.4329    
2669.2     2.4265     9.1318     16.9612    24.1812    28.6579    41.3338    15.7442    34.4977    12.2435    0.4391    
2669.4     2.0944     9.2238     14.951     23.9361    30.0263    34.542     25.562     30.5238    13.3914    0.4208    
2669.6     1.2728     9.3159     14.6647    23.6909    31.3947    29.5697    36.2089    29.2674    14.2018    0.3812    
2669.8     2.4982     9.8243     16.2383    27.2943    32.7632    26.6215    55.69      30.5032    14.313     0.4276    
2670       2.3903     9.8058     19.0889    27.0071    34.1316    25.5527    67.6438    32.9037    14.2922    0.4138    
2670.2     2.1216     8.481      21.9394    21.6992    35.5       16.8844    40.1857    33.4678    15.2359    0.4247    
2670.4     1.2821     5.1416     24.79      20.3633    36.8684    12.9148    44.3       33.8601    15.6155    0.3873    
2670.6     2.41       11.1367    27.6405    26.7776    38.2368    13.0881    73.2052    33.4408    15.1193    0.3992    
2670.8     2.596      13.9824    30.491     35.8953    39.6052    13.4492    53.8878    32.1121    14.3533    0.4112    
2671       1.9847     16.75      33.9665    39.9267    44.6282    13.8103    20.1089    32.0885    13.5872    0.4231    
2671.2     1.3734     16.9331    36.6135    40.7355    45.4066    14.2918    11.947     32.3162    12.8211    0.4343    
2671.4     0.762      16.4185    37.5414    39.8463    44.6534    14.5295    10.8369    32.3521    12.0551    0.4379    
2671.6     0.1507     16.4715    38.9223    39.7329    42.4961    14.7576    11.0472    32.3662    11.3508    0.4518    
2671.8     5.2346     16.5246    39.5728    39.495     40.3412    15.5322    8.6709     32.3014    10.6934    0.4405    
2672       3.8106     16.5777    40.9243    38.6207    39.394     16.9669    19.0582    32.2367    9.9271     0.4328    
2672.2     3.5646     16.6307    43.5006    37.7464    37.4047    17.4928    19.4116    32.1408    9.1164     0.4439    
2672.4     3.7061     16.1295    43.3754    36.8721    34.5291    17.0972    7.6231     32.0425    8.4346     0.4547    
2672.6     3.4319     14.2413    38.8664    35.9978    30.0733    15.4011    4.3968     31.9929    7.8602     0.4518    
2672.8     2.8927     11.8863    33.8606    35.1235    25.0864    14.064     3.716      31.9707    7.4552     0.4453    
2673       2.3751     9.766      28.8548    32.7345    20.0995    13.7044    4.0178     31.8811    7.3621     0.4411    
2673.2     2.1872     8.3621     23.849     28.6416    16.7637    13.4557    4.3107     31.7763    7.4022     0.4387    
2673.4     2.1467     7.2899     18.8433    26.5216    14.9253    13.207     5.7146     31.5665    7.4223     0.4343    
2673.6     2.1264     6.9268     15.6967    25.5308    13.0869    12.9582    6.9867     31.4931    7.4623     0.4307    
2673.8     2.0858     6.8989     14.7732    24.1961    11.2485    12.7095    7.5809     31.5226    7.5284     0.4216    
2674       2.0807     6.9647     14.0112    22.7301    9.6096     12.3523    7.7777     31.553     7.6799     0.4324    
2674.2     2.186      6.9975     13.485     21.9687    8.7227     11.7661    7.5169     31.5862    7.7554     0.4478    
2674.4     2.2599     7.0633     13.0338    20.4902    8.0178     11.3169    6.7483     31.6194    7.7627     0.4395    
2674.6     2.2468     7.0698     12.4849    19.0018    7.3595     10.9603    7.4104     31.545     7.7901     0.4288    
2674.8     2.2188     7.3031     11.9619    17.808     6.8827     10.7574    7.1615     31.082     7.7236     0.432     
2675       2.2559     7.441      11.7474    16.6142    6.351      10.7007    7.2927     31.331     7.6548     0.4433    
2675.2     2.298      7.5596     11.6137    15.4205    5.9713     10.8959    6.0832     31.9463    7.5234     0.4409    
2675.4     2.333      7.6893     11.5469    14.2267    5.7566     11.1556    5.8603     31.1881    7.4808     0.4377    
2675.6     2.1966     7.1475     11.4133    13.4998    5.6504     11.4152    7.0985     29.5278    7.4522     0.4345    
2675.8     2.1676     7.1009     11.3912    13.5613    5.5983     11.6826    8.0903     28.5446    7.4235     0.4314    
2676       2.1386     7.3443     11.955     13.7465    5.8694     11.7411    7.3717     27.652     7.3948     0.4282    
2676.2     2.1096     7.3566     12.3311    13.7089    6.6141     11.4527    6.2122     26.687     7.3661     0.4293    
2676.4     2.0806     7.3001     12.1759    14.0072    7.3589     11.1871    6.0223     26.6087    7.3241     0.4386    
2676.6     2.109      7.2437     12.0268    14.4623    8.1037     11.4602    5.6625     27.2335    7.2251     0.4242    
2676.8     2.2516     7.1873     12.1238    15.7557    8.8485     12.2289    6.3058     27.9306    7.1594     0.4297    
2677       2.1297     7.1309     12.2891    17.7324    9.5932     13.2516    7.2981     28.6613    7.1236     0.4354    
2677.2     2.1032     7.0927     12.6094    20.1747    10.4999    14.1951    7.8993     30.6323    7.1761     0.4257    
2677.4     2.1108     7.1353     13.2052    21.3958    13.1952    15.1387    7.882      31.4738    7.2473     0.4275    
2677.6     2.1854     7.3186     13.9507    23.8381    16.6338    16.0521    8.6189     32.162     7.3323     0.4307    
2677.8     2.2258     7.5446     14.6962    26.6366    19.7363    17.0556    10.8586    33.8159    7.3178     0.4339    
2678       2.2841     8.2226     15.4417    30.3288    21.8282    18.058     7.3029     34.779     7.3034     0.4354    
2678.2     2.3425     9.1304     16.1872    31.3395    21.9924    18.1054    6.6116     34.4165    7.289      0.433     
2678.4     2.4008     9.0105     16.7331    28.7675    21.8733    17.0448    7.0719     33.7208    7.3664     0.441     
