~Version
 VERS              .         2.0                           : CWLS LOG ASCII STANDARD - VERSION 2.0
 WRAP              .         NO                            : ONE LINE PER DEPTH STEP
 DLM               .         SPACE                         : DELIMITING CHARACTER(SPACE TAB OR COMMA)
~Well Information
#_______________________________________________________________________________
#
#PARAMETER_NAME    .UNIT     VALUE                         : DESCRIPTION
#_______________________________________________________________________________
STRT               .m        2491                          : First reference value
STOP               .m        2703                          : Last reference value
STEP               .m        0.2                           : Step increment
NULL               .         -9999                         : Missing value
COMP               .                                       : Company
WELL               .         603                           : Well name
FLD                .                                       : Field
LOC                .                                       : Location
CNTY               .                                       : County
STAT               .                                       : State
CTRY               .                                       : Country
SRVC               .                                       : Service Company
DATE               .                                       : Date
API                .                                       : API number
EREF               .m        134                           : 
X                  .m        225746                        : 
Y                  .m        235643                        : 
group              .         Pad6                          : 
Интер-р            .         Старостина                    : 
Куст               .         6                             : 
Статус             .         Не проверено                  : 
Тип                .         Нагнетательные                : 
~Parameter Information Block
#_______________________________________________________________________________
#
#PARAMETER_NAME    .UNIT     VALUE                         : DESCRIPTION
#_______________________________________________________________________________
SET                .         LAS1                          : 
REAL_CREATION_DATE .         Ср апр 11 2012-13_17_22       : 
TLFamily_DEPTH     .         Measured Depth                : 
TLFamily_GZ1       .         Extra Shallow Resistivity     : 
TLFamily_GZ2       .         Shallow Resistivity           : 
TLFamily_GZ3       .         Medium Resistivity            : 
TLFamily_GZ4       .         Deep Resistivity              : 
TLFamily_GZ5       .         Extra Deep Resistivity        : 
TLFamily_GZr       .         Medium Resistivity Inverted   : 
TLFamily_LLD       .         Lateral Log Resistivity       : 
TLFamily_PS        .         Spontaneous Potential         : 
TLFamily_PZ        .         Potential Resistivity         : 
TLFamily_RS        .         Mud Resistivity               : 
group              .         INI                           : 
~Curve Information
#_______________________________________________________________________________
#
#LOGNAME           .UNIT     LOG_ID                        : DESCRIPTION
#_______________________________________________________________________________
DEPTH              .m                                      : Measured Depth 
GZ1                .ohm.m                                  : Extra Shallow Resistivity 
GZ2                .ohm.m                                  : Shallow Resistivity 
GZ3                .ohm.m                                  : Medium Resistivity 
GZ4                .ohm.m                                  : Deep Resistivity 
GZ5                .ohm.m                                  : Extra Deep Resistivity 
GZr                .ohm.m                                  : Medium Resistivity Inverted 
LLD                .ohm.m                                  : Lateral Log Resistivity 
PS                 .mV                                     : Spontaneous Potential 
PZ                 .ohm.m                                  : Potential Resistivity 
RS                 .ohm.m                                  : Mud Resistivity 
~Ascii
# ...
2558       2.4804     8.2751     14.7516    13.9186    8.6174     10.0589    5.53       63.5671    6.7545     0.4493    
2558.2     2.4792     8.2003     14.332     14.0364    8.6933     10.0045    5.1475     67.5452    6.6546     0.4493    
2558.4     2.4437     8.0777     13.6963    14.0407    8.6704     9.9553     4.9919     70.6715    6.5417     0.4493    
2558.6     2.3981     7.8963     13.1142    13.829     8.6589     9.9539     4.8294     74.2673    6.445      0.4434    
2558.8     2.3714     7.7309     12.6808    13.5973    8.5658     9.8881     4.8061     76.1127    6.346      0.4434    
2559       2.3187     7.6096     12.2778    13.4095    8.5645     9.8198     4.9968     77.2926    6.2744     0.4437    
2559.2     2.3187     7.4986     12.0615    13.4095    8.5006     9.7553     4.9515     79.1562    6.2351     0.4493    
2559.4     2.3187     7.4356     11.8469    13.4095    8.4585     9.6964     4.7668     79.6928    6.217      0.4551    
2559.6     2.3187     7.344      11.6578    13.293     8.4056     9.6863     4.8003     80.5201    6.1649     0.4582    
2559.8     2.3187     7.2805     11.4364    12.9481    8.3871     9.6556     4.8201     82.7344    6.123      0.461     
2560       2.3187     7.2111     11.1914    12.5522    8.3611     9.6341     4.6945     83.9473    6.0698     0.461     
2560.2     2.3187     7.1748     11.0065    12.1497    8.2996     9.6749     4.733      84.2312    6.0277     0.4675    
2560.4     2.3187     7.1748     10.8484    11.7439    8.2994     9.6489     4.7185     83.5883    5.9701     0.4982    
2560.6     2.3187     7.1748     10.692     11.3458    8.2733     9.6341     4.6479     82.8343    5.9245     0.4514    
2560.8     1.8065     7.1748     10.5863    11.0523    8.2471     9.6107     4.4951     83.5837    5.8608     0.4539    
2561       2.161      7.1497     10.473     10.7696    8.1937     9.6213     4.3375     83.3821    5.8149     0.4558    
2561.2     2.2361     7.0088     10.2854    10.4762    8.0595     9.7246     4.1607     82.3031    5.7636     0.4576    
2561.4     2.211      6.8891     10.1074    10.1551    7.9645     9.7598     4.293      82.5534    5.7558     0.4601    
2561.6     2.195      6.8264     9.9497     9.9089     7.7782     9.787      4.4285     82.2446    5.7779     0.461     
2561.8     2.1725     6.7242     9.7907     9.6314     7.6245     9.794      4.3388     82.2586    5.7921     0.4678    
2562       2.1571     6.6143     9.631      9.3206     7.4752     9.718      4.5313     83.8816    5.8134     0.5       
2562.2     2.1751     6.6763     9.5356     9.1635     7.3433     9.5358     4.8096     84.0045    5.8454     0.461     
2562.4     2.2232     6.7853     9.5668     9.052      7.1783     9.3633     4.7832     83.4324    5.8454     0.4574    
2562.6     2.2753     6.9088     9.5889     8.9223     7.1343     9.2912     4.6526     84.0913    5.7921     0.4557    
2562.8     2.305      6.9955     9.5889     8.8166     7.0668     9.2698     4.5134     83.7695    5.7388     0.4585    
2563       2.2907     7.0058     9.532      8.6533     6.9687     9.3228     4.1981     83.5245    5.6725     0.4552    
2563.2     2.2537     6.9551     9.4215     8.468      6.8104     9.3816     4.022      84.9764    5.6311     0.4552    
2563.4     2.1874     6.7557     9.2952     8.1859     6.6686     9.4475     4.0692     86.0784    5.5791     0.4493    
2563.6     2.1571     6.7295     9.2307     8.0635     6.5759     9.4678     4.2856     86.7881    5.5791     0.4493    
2563.8     2.1947     6.7033     9.2161     7.9329     6.4737     9.4378     4.3695     86.803     5.5995     0.4493    
2564       2.211      6.6804     9.215      7.795      6.3028     9.3753     4.3924     85.9742    5.6267     0.4493    
2564.2     2.211      6.6111     9.1843     7.638      6.1165     9.2691     4.4712     86.1487    5.5791     0.4513    
2564.4     2.211      6.6509     9.0935     7.4828     5.9177     9.175      4.435      86.0418    5.5669     0.4542    
2564.6     2.2        6.6134     8.9867     7.3258     5.7329     9.243      4.1331     85.3317    5.5409     0.4491    
2564.8     2.1737     6.5599     8.8552     7.2045     5.565      9.3557     4.0037     85.7681    5.4998     0.4375    
2565       2.179      6.546      8.8433     7.2011     5.3844     9.4524     4.2683     85.5848    5.4725     0.4375    
2565.2     2.1749     6.4831     8.8667     7.1757     5.2275     9.4136     4.3263     85.0984    5.4725     0.4375    
2565.4     2.1511     6.4575     8.8157     7.0682     5.0686     9.3676     4.3247     86.2331    5.4725     0.4375    
2565.6     2.1154     6.2787     8.6398     6.9573     4.9749     9.3676     4.0107     86.5015    5.4725     0.4375    
2565.8     2.0758     6.2668     8.539      6.8814     4.8827     9.48       3.8684     85.9563    5.4725     0.4375    
2566       2.0493     6.3366     8.4845     6.9073     4.8567     9.7486     3.9779     86.6932    5.5093     0.4375    
2566.2     2.1032     6.3366     8.504      7.0636     4.8591     9.9824     4.0488     86.8361    5.548      0.4375    
2566.4     2.1032     6.3366     8.5879     7.217      4.904      10.0638    4.2336     86.7316    5.5754     0.4375    
2566.6     2.1032     6.3366     8.6161     7.2988     4.9489     10.1519    4.3766     87.5854    5.655      0.4375    
2566.8     2.1571     6.3698     8.6879     7.2665     4.9627     10.0663    4.4934     87.1383    5.7293     0.439     
2567       2.0899     6.4179     8.9909     7.315      5.0157     10.0864    4.4964     86.5921    5.7997     0.4414    
2567.2     2.1701     6.5606     9.0505     7.4281     4.9517     10.154     4.6825     87.1619    5.8222     0.4434    
2567.4     2.2157     6.7606     9.0152     7.5819     4.9202     10.2125    4.7785     86.258     5.8424     0.4431    
2567.6     2.2574     6.829      8.976      7.5469     4.8567     10.1471    4.6622     85.5005    5.8454     0.4375    
2567.8     2.234      6.8017     8.9306     7.4791     4.8058     10.1325    4.4918     86.3855    5.8454     0.4375    
2568       2.2481     6.7796     8.8966     7.4253     4.7776     10.2965    4.4221     86.2784    5.8454     0.4375    
2568.2     2.2364     6.7593     8.9586     7.4444     4.7512     10.4958    4.3143     86.2045    5.8336     0.4404    
2568.4     2.2385     6.8755     9.0591     7.4213     4.647      10.6816    4.5313     87.1723    5.7921     0.4434    
2568.6     2.2768     6.9549     9.2453     7.3185     4.5945     10.6568    4.7132     87.1232    5.7921     0.4434    
2568.8     2.2891     6.8267     9.2        7.0121     4.4393     10.4637    4.583      86.7985    5.7921     0.4434    
2569       2.2474     6.6441     9.0645     6.6924     4.2809     10.3851    4.0239     86.2641    5.7921     0.4428    
2569.2     2.2268     6.4958     8.9069     6.6473     4.121      10.327     4.3684     84.7542    5.7921     0.4429    
2569.4     2.1842     6.5891     8.7628     6.5936     4.0093     10.4211    4.5764     84.9088    5.7957     0.4404    
2569.6     2.1571     6.4951     8.676      6.5162     4.0305     10.5644    4.24       86.165     5.8341     0.438     
2569.8     2.1571     6.4351     8.6345     6.4645     4.0526     10.8398    4.2931     85.9024    5.8791     0.4395    
2570       2.1571     6.427      8.6866     6.5494     4.0974     11.1789    4.4393     86.1421    5.8986     0.4438    
2570.2     2.1497     6.4705     8.7357     6.7127     4.3448     11.5244    4.3699     86.9178    5.9538     0.4483    
2570.4     2.1032     6.5026     8.9742     7.1383     4.8174     12.2439    4.3325     86.9008    6.0481     0.445     
2570.6     2.1424     6.5827     9.3301     7.7452     5.1304     12.682     4.5381     87.7028    6.1405     0.4434    
2570.8     2.1878     6.8514     9.574      8.1383     5.2882     12.803     5.1494     87.956     6.1962     0.4434    
2571       2.2331     6.9653     9.8179     8.3777     5.5217     12.7298    5.3379     87.5305    6.3014     0.4434    
2571.2     2.2648     6.8761     10.0269    8.4444     5.6401     12.514     4.9981     88.8487    6.4275     0.4434    
