~Version
 VERS              .         2.0                           : CWLS LOG ASCII STANDARD - VERSION 2.0
 WRAP              .         NO                            : ONE LINE PER DEPTH STEP
 DLM               .         SPACE                         : DELIMITING CHARACTER(SPACE TAB OR COMMA)
~Well Information
#_______________________________________________________________________________
#
#PARAMETER_NAME    .UNIT     VALUE                         : DESCRIPTION
#_______________________________________________________________________________
STRT               .m        2491                          : First reference value
STOP               .m        2703                          : Last reference value
STEP               .m        0.2                           : Step increment
NULL               .         -9999                         : Missing value
COMP               .                                       : Company
WELL               .         603                           : Well name
FLD                .                                       : Field
LOC                .                                       : Location
CNTY               .                                       : County
STAT               .                                       : State
CTRY               .                                       : Country
SRVC               .                                       : Service Company
DATE               .                                       : Date
API                .                                       : API number
EREF               .m        134                           : 
X                  .m        225746                        : 
Y                  .m        235643                        : 
group              .         Pad6                          : 
Интер-р            .         Старостина                    : 
Куст               .         6                             : 
Статус             .         Не проверено                  : 
Тип                .         Нагнетательные                : 
~Parameter Information Block
#_______________________________________________________________________________
#
#PARAMETER_NAME    .UNIT     VALUE                         : DESCRIPTION
#_______________________________________________________________________________
SET                .         LAS1                          : 
REAL_CREATION_DATE .         Ср апр 11 2012-13_17_22       : 
TLFamily_DEPTH     .         Measured Depth                : 
TLFamily_GZ1       .         Extra Shallow Resistivity     : 
TLFamily_GZ2       .         Shallow Resistivity           : 
TLFamily_GZ3       .         Medium Resistivity            : 
TLFamily_GZ4       .         Deep Resistivity              : 
TLFamily_GZ5       .         Extra Deep Resistivity        : 
TLFamily_GZr       .         Medium Resistivity Inverted   : 
TLFamily_LLD       .         Lateral Log Resistivity       : 
TLFamily_PS        .         Spontaneous Potential         : 
TLFamily_PZ        .         Potential Resistivity         : 
TLFamily_RS        .         Mud Resistivity               : 
group              .         INI                           : 
~Curve Information
#_______________________________________________________________________________
#
#LOGNAME           .UNIT     LOG_ID                        : DESCRIPTION
#_______________________________________________________________________________
DEPTH              .m                                      : Measured Depth 
GZ1                .ohm.m                                  : Extra Shallow Resistivity 
GZ2                .ohm.m                                  : Shallow Resistivity 
GZ3                .ohm.m                                  : Medium Resistivity 
GZ4                .ohm.m                                  : Deep Resistivity 
GZ5                .ohm.m                                  : Extra Deep Resistivity 
GZr                .ohm.m                                  : Medium Resistivity Inverted 
LLD                .ohm.m                                  : Lateral Log Resistivity 
PS                 .mV                                     : Spontaneous Potential 
PZ                 .ohm.m                                  : Potential Resistivity 
RS                 .ohm.m                                  : Mud Resistivity 
~Ascii
# ...
2544.6     2.1684     6.5856     10.2651    10.313     2.8299     12.5321    4.2617     22.7941    6.434      0.4434    
2544.8     2.1121     6.4941     10.0026    10.5358    3.5916     12.9958    5.1269     23.0668    6.5361     0.4323    
2545       2.2038     6.467      10.0149    10.9466    4.2426     13.3871    6.1727     24.0338    6.683      0.4354    
2545.2     2.2159     6.7539     10.3204    11.4227    4.8044     13.4948    6.1538     24.8923    6.82       0.4369    
2545.4     2.2781     6.9797     10.5944    11.8158    5.2996     13.38      7.9144     25.9731    6.8573     0.4274    
2545.6     2.452      7.2331     10.7866    11.9202    5.7035     13.2778    5.6096     27.3704    6.9091     0.4434    
2545.8     2.3996     7.355      10.8137    11.7639    6.0117     13.4912    5.4569     28.6313    6.8668     0.4407    
2546       2.3726     7.4105     10.8469    11.5422    6.2431     13.7584    5.8286     30.8611    6.8573     0.44      
2546.2     2.3457     7.543      10.8856    11.3611    6.4241     13.871     5.7245     34.7057    6.8451     0.4477    
2546.4     2.3187     7.569      10.9147    11.1791    6.5517     14.325     5.4667     39.5172    6.8062     0.4434    
2546.6     2.3187     7.4995     10.865     10.9046    6.6562     14.8938    5.0789     44.4376    6.8411     0.4434    
2546.8     2.2454     7.2615     10.7344    10.5698    6.7106     15.5349    5.1172     48.9041    6.9003     0.4386    
2547       2.1915     7.0924     10.654     10.2097    6.7734     15.9225    5.3414     52.4061    6.9984     0.4434    
2547.2     2.1575     6.9518     10.6158    9.9727     6.8097     15.9912    5.8176     54.4681    7.1887     0.4434    
2547.4     2.1731     6.9318     10.7087    9.8861     6.8387     15.6789    6.5503     54.6178    7.3793     0.445     
2547.6     2.2282     7.0032     10.8767    9.9802     6.9823     15.31      6.7895     54.5382    7.5479     0.4493    
2547.8     2.2085     7.1271     11.1338    10.2888    7.1679     15.0741    6.8346     54.949     7.6785     0.4538    
2548       1.949      7.5016     11.5798    10.7124    7.4054     14.8111    8.4335     55.171     7.7095     0.461     
2548.2     2.4688     7.9033     12.0101    11.0284    7.7058     14.6444    7.211      54.8485    7.7435     0.461     
2548.4     2.4864     8.0627     12.0167    11.1725    8.029      14.8837    5.5259     54.3254    7.8543     0.4551    
2548.6     2.2963     7.7651     11.9138    11.2521    8.32       15.2748    5.7771     53.268     7.9529     0.4507    
2548.8     2.2648     7.766      12.0523    11.5471    8.7008     15.3332    7.112      52.0657    8.1342     0.4552    
2549       1.9734     7.9744     12.5572    12.1872    9.0951     14.7808    9.5549     51.5835    8.2714     0.4552    
2549.2     2.4472     9.0227     13.6501    13.2944    9.4579     13.9164    17.7976    52.1426    8.2905     0.4589    
2549.4     2.6697     9.7527     14.7935    14.0489    9.7298     12.9473    12.9507    53.4076    8.1798     0.4669    
2549.6     1.2193     9.8446     15.6465    14.3003    9.7298     12.3395    7.3819     55.236     7.9411     0.4669    
2549.8     2.9384     9.9216     15.5816    14.0389    9.5813     12.6584    5.6046     57.9652    7.6626     0.4669    
2550       2.7233     9.5518     15.198     13.452     9.241      13.1325    4.644      60.9163    7.4054     0.4609    
2550.2     2.5011     9.0052     14.42      12.75      8.9381     13.594     4.5606     63.1685    7.2834     0.4565    
2550.4     2.2918     8.4153     13.7889    12.4071    8.6638     13.6491    5.5766     64.338     7.2834     0.4552    
2550.6     2.3166     8.2989     13.8068    12.4115    8.4433     13.3178    7.7534     64.4042    7.2849     0.4566    
2550.8     2.4534     8.4099     14.1429    12.6103    8.2792     13.0031    7.5927     63.5609    7.323      0.4615    
2551       2.5089     8.4267     14.385     12.7994    8.1163     12.9399    6.484      62.9871    7.2475     0.4669    
2551.2     2.5343     8.3839     14.3589    12.6997    7.8681     13.1853    5.3464     62.6622    7.1144     0.4662    
2551.4     2.4211     8.1688     13.9531    12.4307    7.5857     13.6188    4.9398     62.3853    7.0736     0.4633    
2551.6     2.316      7.9819     13.409     12.159     7.4045     14.2444    4.937      61.6474    7.0968     0.461     
2551.8     2.2933     7.5952     12.8463    12.0029    7.1354     14.7063    5.3083     59.9213    7.1367     0.4493    
2552       2.2692     7.7119     12.462     11.9363    7.0353     14.3758    6.908      56.7395    7.2624     0.4509    
2552.2     2.2795     7.6625     12.4516    12.1168    6.8565     13.6758    8.2068     52.4665    7.3123     0.4538    
2552.4     2.4873     8.0167     12.6458    12.28      6.6785     13.2562    8.1936     48.0611    7.2334     0.4552    
2552.6     2.5139     8.3421     12.8638    12.1118    6.4274     13.4762    6.0633     44.5961    7.1639     0.4552    
2552.8     2.4688     7.9845     12.6198    11.6679    6.1473     13.9502    4.9672     42.1365    7.0917     0.4552    
2553       2.2839     7.6787     11.8705    11.1123    5.9605     14.3127    5.4102     40.3853    7.0703     0.4526    
2553.2     2.2286     7.6011     11.378     10.884     5.714      14.6389    5.8753     39.034     7.0703     0.4508    
2553.4     2.2588     7.5835     11.3039    10.9019    5.602      14.9866    6.0687     37.6131    7.1023     0.4492    
2553.6     2.2568     7.4477     11.1675    10.8871    5.7071     15.308     5.4168     36.258     7.1236     0.447     
2553.8     2.1726     7.1091     11.0481    10.6411    5.8704     16.0633    4.9261     34.9539    7.2075     0.4447    
2554       2.0749     6.7564     11.0814    10.5929    6.0865     16.2614    4.9568     33.8109    7.3666     0.4486    
2554.2     2.1286     7.0039     11.5953    11.0297    6.3031     15.7604    9.5971     32.9933    7.5531     0.4402    
2554.4     2.4443     7.8636     12.1478    11.6145    6.5234     15.1698    10.6919    32.8295    7.7188     0.4508    
2554.6     2.3453     7.5499     12.3816    11.8309    6.7893     14.8855    6.063      32.5212    7.9351     0.4513    
2554.8     2.1328     6.6892     11.5945    11.6043    7.0647     15.7244    4.6715     31.8988    8.1555     0.4441    
2555       1.9954     6.8646     11.6599    11.8092    7.3142     15.966     5.837      31.7098    8.3972     0.447     
2555.2     2.1183     7.5355     12.2565    12.8783    7.7089     15.7443    11.0066    32.3369    8.6674     0.4493    
2555.4     2.4607     8.5359     13.275     13.9399    8.2602     14.307     22.7704    33.1097    8.9013     0.4434    
2555.6     2.8428     9.6017     14.5215    14.8807    8.5851     12.9907    23.2244    34.0675    8.8873     0.4434    
2555.8     3.0731     10.1127    15.3018    15.7851    8.8823     11.9288    11.7229    34.8536    8.5551     0.4434    
2556       3.0799     10.357     15.779     16.2629    8.812      10.9088    9.6077     35.4958    8.1531     0.4434    
2556.2     2.8933     10.5208    15.8285    15.8189    8.6101     10.2958    6.6977     36.4117    7.7916     0.4434    
2556.4     2.6974     9.8627     15.256     14.961     8.2615     10.2244    4.9194     37.2786    7.5252     0.4434    
2556.6     2.4689     9.1372     14.5986    14.1197    7.9219     10.4789    4.6656     37.9648    7.3135     0.4434    
2556.8     2.326      8.7636     14.1547    13.5938    7.7457     10.7112    4.7237     39.4775    7.2206     0.4407    
2557       2.3469     8.5117     14.3089    13.5663    7.77       10.7257    6.5888     42.1354    7.1495     0.4444    
2557.2     2.3684     8.4099     14.5808    13.6548    7.9354     10.6089    5.9359     45.2039    7.1652     0.4518    
2557.4     2.3316     7.9526     14.8485    13.6384    8.1148     10.4491    5.7282     49.3161    7.0576     0.4455    
2557.6     2.4288     8.1002     15.0995    13.6048    8.3616     10.2892    6.3482     53.5379    6.9936     0.4489    
2557.8     2.4638     8.2462     15.0979    13.7877    8.4798     10.1822    6.0006     58.0942    6.881      0.4493    
