~Version
 VERS              .         2.0                           : CWLS LOG ASCII STANDARD - VERSION 2.0
 WRAP              .         NO                            : ONE LINE PER DEPTH STEP
 DLM               .         SPACE                         : DELIMITING CHARACTER(SPACE TAB OR COMMA)
~Well Information
#_______________________________________________________________________________
#
#PARAMETER_NAME    .UNIT     VALUE                         : DESCRIPTION
#_______________________________________________________________________________
STRT               .m        2491                          : First reference value
STOP               .m        2703                          : Last reference value
STEP               .m        0.2                           : Step increment
NULL               .         -9999                         : Missing value
COMP               .                                       : Company
WELL               .         603                           : Well name
FLD                .                                       : Field
LOC                .                                       : Location
CNTY               .                                       : County
STAT               .                                       : State
CTRY               .                                       : Country
SRVC               .                                       : Service Company
DATE               .                                       : Date
API                .                                       : API number
EREF               .m        134                           : 
X                  .m        225746                        : 
Y                  .m        235643                        : 
group              .         Pad6                          : 
Интер-р            .         Старостина                    : 
Куст               .         6                             : 
Статус             .         Не проверено                  : 
Тип                .         Нагнетательные                : 
~Parameter Information Block
#_______________________________________________________________________________
#
#PARAMETER_NAME    .UNIT     VALUE                         : DESCRIPTION
#_______________________________________________________________________________
SET                .         LAS3                          : 
REAL_CREATION_DATE .         Ср апр 11 2012-13_17_23       : 
TLFamily_DEPTH     .         Measured Depth                : 
TLFamily_GR        .         Gamma Ray                     : 
TLFamily_TNPH      .         Neutron Porosity              : 
group              .         INI                           : 
~Curve Information
#_______________________________________________________________________________
#
#LOGNAME           .UNIT     LOG_ID                        : DESCRIPTION
#_______________________________________________________________________________
DEPTH              .m                                      : Measured Depth 
GR                 .gAPI                                   :  
TNPH               .v/v                                    : Neutron Porosity 
~Ascii
# ...
2636.8     66.883     0.19777   
2637       64.978     0.202036  
2637.2     62.336     0.204924  
2637.4     59.329     0.196962  
2637.6     59.51      0.19204   
2637.8     59.549     0.181558  
2638       55.479     0.167725  
2638.2     53.688     0.161465  
2638.4     56.112     0.157652  
2638.6     60.749     0.180854  
2638.8     63.804     0.199787  
2639       66.326     0.218111  
2639.2     65.38901   0.21273   
2639.4     59.789     0.205613  
2639.6     55.837     0.190654  
2639.8     57.183     0.186169  
2640       60.534     0.182579  
2640.2     61.308     0.186227  
2640.4     59.82      0.193977  
2640.6     63.04      0.193341  
2640.8     65.442     0.190305  
2641       65.42599   0.192556  
2641.2     63.051     0.191655  
2641.4     60.778     0.178266  
2641.6     61.162     0.172211  
2641.8     66.37901   0.170477  
2642       66.231     0.187742  
2642.2     69.241     0.19676   
2642.4     70.462     0.198486  
2642.6     67.014     0.198461  
2642.8     66.23299   0.187047  
2643       64.852     0.176622  
2643.2     61.743     0.16222   
2643.4     63.191     0.154929  
2643.6     67.602     0.149218  
2643.8     70.13      0.167954  
2644       63.63      0.207219  
2644.2     55.453     0.204843  
2644.4     48.563     0.191044  
2644.6     44.424     0.17845   
2644.8     37.859     0.162482  
2645       33.406     0.155735  
2645.2     38.08      0.176443  
2645.4     41.327     0.23066   
2645.6     40.521     0.225936  
2645.8     36.785     0.186743  
2646       34.874     0.153323  
2646.2     28.438     0.114927  
2646.4     25.191     0.09632301
2646.6     24.372     0.076396  
2646.8     24.758     0.070511  
2647       23.29      0.068892  
2647.2     24.812     0.067143  
2647.4     26.899     0.064124  
2647.6     29.741     0.065963  
2647.8     29.409     0.077513  
2648       30.162     0.095252  
2648.2     34.522     0.127794  
2648.4     40.74      0.179778  
2648.6     47.348     0.213417  
2648.8     47.983     0.227094  
2649       47.385     0.225306  
2649.2     54.326     0.23493   
2649.4     65.48199   0.236937  
2649.6     73.031     0.247587  
2649.8     81.20499   0.259984  
2650       95.851     0.254155  
2650.2     117.941    0.273482  
2650.4     125.097    0.274637  
2650.6     115.69     0.270987  
2650.8     109.107    0.265262  
2651       104.816    0.25959   
2651.2     100.805    0.274835  
2651.4     101.974    0.268918  
2651.6     104.875    0.267393  
2651.8     103.088    0.262253  
2652       98.645     0.254113  
2652.2     99.651     0.254569  
2652.4     110.589    0.261693  
2652.6     117.076    0.265179  
2652.8     114.676    0.271541  
2653       110.029    0.271199  
2653.2     105.385    0.265521  
2653.4     105.049    0.267021  
2653.6     105.182    0.277519  
2653.8     108.464    0.287154  
2654       111.783    0.292596  
2654.2     115.64     0.308177  
2654.4     109.477    0.318247  
2654.6     110.94     0.317935  
2654.8     105.534    0.34288   
2655       103.489    0.327683  
2655.2     113.196    0.316528  
2655.4     115.399    0.273979  
2655.6     103.691    0.285015  
2655.8     100.557    0.263132  
2656       111.691    0.244135  
2656.2     125.792    0.247982  
2656.4     134.025    0.263316  
2656.6     126.12     0.264839  
2656.8     111.449    0.25866   
2657       98.356     0.256294  
2657.2     92.13      0.245159  
2657.4     94.83      0.240432  
2657.6     101.311    0.248346  
2657.8     105.297    0.256969  
2658       105.861    0.260547  
2658.2     111.417    0.272504  
2658.4     113.099    0.28713   
2658.6     112.526    0.294953  
2658.8     110.351    0.286695  
2659       112.385    0.266891  
2659.2     115.556    0.279682  
2659.4     115.467    0.306307  
2659.6     110.58     0.302517  
2659.8     108.828    0.296816  
2660       108.181    0.293043  
2660.2     104.189    0.282412  
2660.4     100.454    0.273983  
2660.6     95.176     0.265476  
2660.8     87.621     0.272674  
2661       84.803     0.262624  
2661.2     91.82999   0.267633  
2661.4     99.384     0.268531  
2661.6     108.742    0.274505  
2661.8     115.469    0.270354  
2662       119.084    0.279595  
2662.2     117.848    0.295999  
2662.4     120.793    0.29421   
2662.6     120.878    0.294206  
2662.8     121.133    0.326177  
2663       121.389    0.32792   
2663.2     123.268    0.319451  
2663.4     115.793    0.300767  
2663.6     107.046    0.282385  
2663.8     102.511    0.274409  
2664       97.022     0.267703  
2664.2     91.09399   0.247285  
2664.4     84.625     0.243461  
2664.6     86.468     0.240549  
2664.8     94.705     0.245133  
2665       93.49      0.237671  
2665.2     85.033     0.223324  
2665.4     75.873     0.227736  
2665.6     73.323     0.227551  
2665.8     72.54501   0.215566  
2666       74.049     0.207946  
2666.2     75.334     0.207799  
2666.4     74.37199   0.220366  
2666.6     74.029     0.227084  
2666.8     80.826     0.231489  
2667       82.51601   0.241998  
2667.2     82.321     0.258331  
2667.4     87.873     0.259928  
2667.6     94.472     0.258896  
2667.8     93.806     0.255137  
2668       88.85001   0.247949  
2668.2     83.429     0.249321  
2668.4     81.162     0.261057  
2668.6     81.656     0.282191  
2668.8     64.881     0.308886  
2669       37.791     0.363452  
2669.2     22.867     0.346707  
2669.4     18.974     0.319598  
2669.6     18.802     0.33901   
2669.8     24.412     0.331232  
2670       32.75      0.310773  
2670.2     38.873     0.293601  
2670.4     49.878     0.326505  
2670.6     67.08299   0.332996  
2670.8     85.28      0.315482  
2671       96.882     0.295163  
2671.2     97.56699   0.284942  
2671.4     76.565     0.285434  
2671.6     62.936     0.310735  
2671.8     70.114     0.315293  
2672       84.23801   0.261837  
2672.2     89.776     0.247712  
2672.4     86.995     0.236912  
2672.6     84.778     0.221814  
2672.8     85.562     0.213998  
2673       97.443     0.224827  
2673.2     110.473    0.249263  
2673.4     113.16     0.282712  
2673.6     109.566    0.278433  
2673.8     108.718    0.274927  
2674       104.238    0.296832  
2674.2     99.291     0.294975  
2674.4     94.98299   0.282865  
2674.6     88.151     0.295063  
2674.8     88.912     0.306561  
2675       92.67101   0.296988  
2675.2     97.776     0.282326  
2675.4     98.15601   0.284613  
2675.6     104.415    0.290946  
2675.8     98.263     0.268245  
2676       89.072     0.261329  
2676.2     84.634     0.253268  
2676.4     76.136     0.256937  
2676.6     75.871     0.260013  
2676.8     86.229     0.267125  
2677       101.519    0.279274  
2677.2     114.248    0.311724  
2677.4     125.313    0.328571  
2677.6     121.638    0.334948  
2677.8     108.744    0.300154  
2678       104.914    0.269038  
2678.2     111.481    0.256039  
2678.4     112.33     0.266462  
2678.6     105.904    0.267607  
2678.8     105.213    0.260747  
2679       108.732    0.263712  
2679.2     110.338    0.272266  
2679.4     108.712    0.280198  
2679.6     108.033    0.2595    
2679.8     96.045     0.248286  
2680       86.92799   0.256758  
2680.2     85.147     0.272213  
2680.4     82.443     0.278253  
2680.6     76.98399   0.277133  
2680.8     68.44      0.256172  
2681       74.77      0.243354  
2681.2     77.248     0.229271  
2681.4     73.87299   0.208048  
2681.6     64.522     0.195317  
2681.8     62.436     0.187222  
2682       60.859     0.18606   
2682.2     63.174     0.184521  
2682.4     72.454     0.1965    
2682.6     81.945     0.222495  
2682.8     89.06      0.255963  
2683       98.146     0.262925  
2683.2     106.393    0.265486  
2683.4     101.006    0.261175  
2683.6     95.56599   0.249635  
2683.8     89.771     0.239053  
2684       76.619     0.229818  
2684.2     72.119     0.232681  
2684.4     78.53699   0.248766  
2684.6     81.216     0.252054  
2684.8     79.742     0.253527  
2685       73.91      0.252853  
2685.2     66.383     0.241218  
