~Version
 VERS              .         2.0                           : CWLS LOG ASCII STANDARD - VERSION 2.0
 WRAP              .         NO                            : ONE LINE PER DEPTH STEP
 DLM               .         SPACE                         : DELIMITING CHARACTER(SPACE TAB OR COMMA)
~Well Information
#_______________________________________________________________________________
#
#PARAMETER_NAME    .UNIT     VALUE                         : DESCRIPTION
#_______________________________________________________________________________
STRT               .m        2491                          : First reference value
STOP               .m        2703                          : Last reference value
STEP               .m        0.2                           : Step increment
NULL               .         -9999                         : Missing value
COMP               .                                       : Company
WELL               .         603                           : Well name
FLD                .                                       : Field
LOC                .                                       : Location
CNTY               .                                       : County
STAT               .                                       : State
CTRY               .                                       : Country
SRVC               .                                       : Service Company
DATE               .                                       : Date
API                .                                       : API number
EREF               .m        134                           : 
X                  .m        225746                        : 
Y                  .m        235643                        : 
group              .         Pad6                          : 
Интер-р            .         Старостина                    : 
Куст               .         6                             : 
Статус             .         Не проверено                  : 
Тип                .         Нагнетательные                : 
~Parameter Information Block
#_______________________________________________________________________________
#
#PARAMETER_NAME    .UNIT     VALUE                         : DESCRIPTION
#_______________________________________________________________________________
SET                .         LAS1                          : 
REAL_CREATION_DATE .         Ср апр 11 2012-13_17_22       : 
TLFamily_DEPTH     .         Measured Depth                : 
TLFamily_GZ1       .         Extra Shallow Resistivity     : 
TLFamily_GZ2       .         Shallow Resistivity           : 
TLFamily_GZ3       .         Medium Resistivity            : 
TLFamily_GZ4       .         Deep Resistivity              : 
TLFamily_GZ5       .         Extra Deep Resistivity        : 
TLFamily_GZr       .         Medium Resistivity Inverted   : 
TLFamily_LLD       .         Lateral Log Resistivity       : 
TLFamily_PS        .         Spontaneous Potential         : 
TLFamily_PZ        .         Potential Resistivity         : 
TLFamily_RS        .         Mud Resistivity               : 
group              .         INI                           : 
~Curve Information
#_______________________________________________________________________________
#
#LOGNAME           .UNIT     LOG_ID                        : DESCRIPTION
#_______________________________________________________________________________
DEPTH              .m                                      : Measured Depth 
GZ1                .ohm.m                                  : Extra Shallow Resistivity 
GZ2                .ohm.m                                  : Shallow Resistivity 
GZ3                .ohm.m                                  : Medium Resistivity 
GZ4                .ohm.m                                  : Deep Resistivity 
GZ5                .ohm.m                                  : Extra Deep Resistivity 
GZr                .ohm.m                                  : Medium Resistivity Inverted 
LLD                .ohm.m                                  : Lateral Log Resistivity 
PS                 .mV                                     : Spontaneous Potential 
PZ                 .ohm.m                                  : Potential Resistivity 
RS                 .ohm.m                                  : Mud Resistivity 
~Ascii
# ...
2678.6     2.4265     8.812      15.6892    25.099     19.8705    15.7046    6.6952     34.9932    7.358      0.4288    
2678.8     2.4265     8.6135     14.6385    22.43      17.9487    14.8705    6.1894     36.1945    7.3305     0.433     
2679       2.4265     8.415      13.7488    19.9018    16.5108    14.0651    6.6504     36.827     7.2834     0.4425    
2679.2     2.3549     8.1404     12.9531    17.4192    15.073     13.2597    6.8344     38.0961    7.2834     0.4316    
2679.4     2.3187     7.966      12.4294    15.8573    13.6351    12.5053    6.9572     38.1175    7.2095     0.4316    
2679.6     2.3212     8.0059     12.3764    14.8469    12.1972    12.1553    6.7668     37.0415    7.1062     0.4316    
2679.8     2.3358     8.0853     12.4485    13.8365    10.9124    11.9949    6.0627     37.2242    6.9944     0.4307    
2680       2.352      8.2104     12.5205    12.8261    10.1336    11.935     5.9146     36.8302    6.8825     0.425     
2680.2     2.3682     7.9919     12.5926    11.8158    9.3789     11.9746    4.129      35.3287    6.7496     0.4375    
2680.4     2.3774     7.664      12.5941    10.8117    8.7375     12.0155    5.1483     33.3667    6.6133     0.4322    
2680.6     2.1895     7.3339     12.1342    9.939      8.4119     12.1373    7.2043     31.4167    6.591      0.4317    
2680.8     1.9954     7.0038     11.5476    9.103      8.0924     12.1741    8.0184     29.7935    6.6388     0.4374    
2681       2.0463     6.9016     11.6235    8.9656     7.8774     11.7959    8.3333     28.5411    6.8094     0.4361    
2681.2     2.1201     7.0429     11.8525    9.1083     7.7076     11.237     6.4284     28.4518    6.8669     0.4346    
2681.4     2.2019     7.3516     12.1003    9.4625     7.5215     11.0243    4.8137     27.5856    6.8801     0.4332    
2681.6     2.1886     7.3745     12.0437    9.8693     7.4285     10.8133    6.4377     26.5943    6.8933     0.432     
2681.8     2.1753     6.871      11.9478    10.6382    7.2424     10.7309    8.0274     25.8113    6.9065     0.4355    
2682       2.1619     7.1413     11.8519    11.4072    7.0564     10.4347    11.6167    24.1474    6.9425     0.4202    
2682.2     2.1571     7.7123     12.3159    12.1761    7.0568     10.1333    16.0021    24.8455    7.042      0.4348    
2682.4     2.2394     8.2833     13.0716    13.5386    6.9937     9.9734     10.2808    24.9116    7.0547     0.4419    
2682.6     2.5639     8.8543     13.9089    14.9861    6.7811     9.882      4.8625     26.5237    6.8214     0.4465    
2682.8     2.6392     9.366      14.2057    15.2812    6.4821     9.7231     4.5198     26.9734    6.5555     0.4453    
2683       2.5564     8.8298     13.7594    14.6581    6.0203     9.3501     4.3695     28.7148    6.2656     0.4237    
2683.2     2.4494     8.3892     13.2092    13.8164    5.4984     9.2077     5.2163     29.4104    5.9636     0.4363    
2683.4     2.2751     8.0681     12.8134    13.2978    5.0577     9.2226     5.6042     29.7687    5.774      0.4316    
2683.6     2.1757     7.7662     12.4177    12.9537    4.792      9.2452     5.6103     29.2568    5.6536     0.4316    
2683.8     2.1571     7.4514     12.022     12.6222    4.5258     9.261      6.4048     27.5886    5.5349     0.4316    
2684       2.1835     7.2136     11.9175    12.2907    4.2596     9.261      5.1957     26.3203    5.4119     0.4316    
2684.2     2.219      7.461      12.0784    11.8908    3.9934     9.261      4.2343     25.3603    5.2889     0.4247    
2684.4     2.2546     7.339      11.8833    11.0437    3.7272     9.261      4.3146     22.6028    5.0081     0.4053    
2684.6     2.1337     6.9556     11.2562    10.0353    3.4611     9.261      4.1139     21.7854    4.8044     0.395     
2684.8     2.0493     6.731      10.5811    9.3571     3.1888     9.261      3.8654     21.4616    4.7323     0.3874    
2685       2.0493     6.5063     9.8791     8.842      3.002      9.261      3.8158     20.032     4.7269     0.3801    
2685.2     2.0493     6.1087     9.2215     8.2695     2.791      9.261      3.4838     19.9329    4.7269     0.3786    
2685.4     2.0493     5.6478     8.5728     7.67       2.7095     9.261      3.0637     20.3994    4.6373     0.3786    
2685.6     2.0493     5.4599     7.7959     7.0705     2.6321     0          3.0527     20.7407    4.5671     0.3786    
2685.8     2.0493     5.4068     7.2011     6.471      2.6864     0          3.1        22.5823    4.5671     0.3786    
2686       2.0493     5.3619     6.6391     5.954      3.0018     0          3.7259     24.5863    4.5671     0.3786    
2686.2     2.0493     5.1712     6.077      5.7207     3.3171     0          4.2901     26.9649    4.5671     0.3786    
2686.4     2.0493     5.0268     5.7555     5.7472     3.6325     0          4.9637     30.9775    4.5671     0.3786    
2686.6     2.0493     5.0268     5.6481     5.9191     4.0881     0          5.1285     37.0691    4.5671     0.3875    
2686.8     2.0493     5.0268     5.6481     6.1212     4.8559     0          5.6297     40.8559    4.5671     0.5791    
2687       2.0493     5.0268     5.6481     6.3268     5.7231     0          6.158      44.8221    4.5671     0.7142    
2687.2     2.0493     5.0268     5.6481     6.6986     6.6543     0          7.1032     48.045     4.5671     0.3786    
2687.4     2.0493     5.0268     5.5874     7.2376     7.6487     0          8.6851     51.6941    4.5671     0.3786    
2687.6     2.0493     5.0268     5.5416     7.9495     8.5208     0          11.0159    55.3929    4.5671     0.3786    
2687.8     2.0493     5.0268     5.5416     8.4317     8.8757     0          9.8355     58.1706    4.5922     0         
2688       2.0493     5.0268     5.5416     8.8134     9.13       0          8.3772     59.3894    1.8348     0         
2688.2     1.0247     5.0268     5.5416     9.1952     9.3843     0          7.4176     59.1415    0          0         
2688.4     0          5.0268     5.5416     8.9181     9.3398     0          7.4005     57.8095    0          0         
2688.6     0          5.0268     5.5416     8.4682     9.0462     0          6.8175     56.0083    0          0         
2688.8     0          2.5134     5.5416     8.3166     8.8437     0          6.2145     54.3723    0          0         
2689       0          0          5.5416     8.2667     8.7293     0          6.9681     52.7735    0          0         
2689.2     0          0          5.5416     8.2216     8.7297     0          6.2989     51.3139    0          0         
2689.4     0          0          5.5416     8.2398     9.0469     0          5.9364     50.0635    0          0         
2689.6     0          0          5.5416     8.306      9.5586     0          5.6007     48.8784    0          0         
2689.8     0          0          5.5416     8.306      10.0703    0          5.8852     47.7864    0          0         
2690       0          0          2.7708     8.306      10.582     0          7.9182     46.5442    0          0         
2690.2     0          0          0          8.306      11.0514    0          9.3236     45.3832    0          0         
2690.4     0          0          0          8.306      11.3182    0          8.1469     45.0606    0          0         
2690.6     0          0          0          8.306      11.338     0          7.603      45.4017    0          0         
2690.8     0          0          0          8.306      11.0179    0          7.646      45.4837    0          0         
2691       0          0          0          8.306      10.5702    0          7.6564     44.8473    0          0         
2691.2     0          0          0          8.306      10.1225    0          5.3361     44.4397    0          0         
2691.4     0          0          0          8.306      9.7807     0          4.1196     44.6963    0          0         
2691.6     0          0          0          8.306      9.4975     0          4.3542     45.3186    0          0         
2691.8     0          0          0          8.306      9.2606     0          5.3672     45.8519    0          0         
