~Version
 VERS              .         2.0                           : CWLS LOG ASCII STANDARD - VERSION 2.0
 WRAP              .         NO                            : ONE LINE PER DEPTH STEP
 DLM               .         SPACE                         : DELIMITING CHARACTER(SPACE TAB OR COMMA)
~Well Information
#_______________________________________________________________________________
#
#PARAMETER_NAME    .UNIT     VALUE                         : DESCRIPTION
#_______________________________________________________________________________
STRT               .m        2491                          : First reference value
STOP               .m        2703                          : Last reference value
STEP               .m        0.2                           : Step increment
NULL               .         -9999                         : Missing value
COMP               .                                       : Company
WELL               .         603                           : Well name
FLD                .                                       : Field
LOC                .                                       : Location
CNTY               .                                       : County
STAT               .                                       : State
CTRY               .                                       : Country
SRVC               .                                       : Service Company
DATE               .                                       : Date
API                .                                       : API number
EREF               .m        134                           : 
X                  .m        225746                        : 
Y                  .m        235643                        : 
group              .         Pad6                          : 
Интер-р            .         Старостина                    : 
Куст               .         6                             : 
Статус             .         Не проверено                  : 
Тип                .         Нагнетательные                : 
~Parameter Information Block
#_______________________________________________________________________________
#
#PARAMETER_NAME    .UNIT     VALUE                         : DESCRIPTION
#_______________________________________________________________________________
SET                .         LAS1                          : 
REAL_CREATION_DATE .         Ср апр 11 2012-13_17_22       : 
TLFamily_DEPTH     .         Measured Depth                : 
TLFamily_GZ1       .         Extra Shallow Resistivity     : 
TLFamily_GZ2       .         Shallow Resistivity           : 
TLFamily_GZ3       .         Medium Resistivity            : 
TLFamily_GZ4       .         Deep Resistivity              : 
TLFamily_GZ5       .         Extra Deep Resistivity        : 
TLFamily_GZr       .         Medium Resistivity Inverted   : 
TLFamily_LLD       .         Lateral Log Resistivity       : 
TLFamily_PS        .         Spontaneous Potential         : 
TLFamily_PZ        .         Potential Resistivity         : 
TLFamily_RS        .         Mud Resistivity               : 
group              .         INI                           : 
~Curve Information
#_______________________________________________________________________________
#
#LOGNAME           .UNIT     LOG_ID                        : DESCRIPTION
#_______________________________________________________________________________
DEPTH              .m                                      : Measured Depth 
GZ1                .ohm.m                                  : Extra Shallow Resistivity 
GZ2                .ohm.m                                  : Shallow Resistivity 
GZ3                .ohm.m                                  : Medium Resistivity 
GZ4                .ohm.m                                  : Deep Resistivity 
GZ5                .ohm.m                                  : Extra Deep Resistivity 
GZr                .ohm.m                                  : Medium Resistivity Inverted 
LLD                .ohm.m                                  : Lateral Log Resistivity 
PS                 .mV                                     : Spontaneous Potential 
PZ                 .ohm.m                                  : Potential Resistivity 
RS                 .ohm.m                                  : Mud Resistivity 
~Ascii
# ...
2584.8     2.6223     9.41       15.6962    16.2436    6.2881     21.1832    8.5768     91.2143    9.4872     0.461     
2585       2.642      9.5847     15.8749    16.3424    6.3398     21.4688    9.0838     90.8399    9.5405     0.461     
2585.2     2.642      9.6372     16.0856    16.435     6.3665     21.7774    8.9491     90.9818    9.6228     0.4607    
2585.4     2.642      9.6703     16.282     16.4084    6.4475     22.2841    8.6813     90.3072    9.6801     0.4551    
2585.6     2.642      9.6716     16.5783    16.4084    6.501      22.7816    8.7346     90.7055    9.7245     0.4532    
2585.8     2.642      9.7766     16.808     16.443     6.6053     22.9921    9.1704     91.2486    9.7866     0.4552    
2586       2.6959     9.8567     17.0033    16.4257    6.6863     23.0353    8.9601     91.1083    9.8356     0.4554    
2586.2     1.4415     9.8808     17.1986    16.3198    6.7747     23.1726    9.0811     92.0682    9.8802     0.4603    
2586.4     2.1588     9.7886     17.1617    16.0977    6.863      23.2062    8.7602     92.2447    9.9639     0.461     
2586.6     2.6089     9.6078     16.9909    15.8905    6.9225     23.2649    8.7903     91.2388    10.0863    0.4598    
2586.8     2.5882     9.5439     16.8846    15.8608    7.0767     23.3784    9.1763     91.5486    10.2126    0.4576    
2587       2.571      9.5325     16.8846    15.8411    7.2941     23.554     8.9588     91.349     10.3718    0.4548    
2587.2     2.5106     9.4035     16.8645    15.9347    7.6644     24.1438    8.5726     90.3885    10.5309    0.4487    
2587.4     2.4502     9.2339     16.7448    16.2172    8.0649     25.1067    8.2244     90.7088    10.7923    0.4458    
2587.6     2.3587     9.3032     17.0379    17.0184    8.6009     25.9473    8.7363     90.6968    11.0579    0.4353    
2587.8     2.5585     10.3404    18.2815    18.1272    9.0053     25.3429    20.0741    90.6484    11.2144    0.4466    
2588       2.9373     11.3776    19.8187    19.2324    9.3501     23.905     52.5608    91.7919    11.375     0.4587    
2588.2     1.5958     11.1486    20.4716    20.3375    9.5286     22.7472    16.9089    91.6129    11.4053    0.4552    
2588.4     1.7921     11.2496    20.5673    20.5718    9.7071     22.6545    10.7435    90.776     11.2473    0.453     
2588.6     2.9115     11.293     20.6993    20.9002    9.7827     23.2665    11.3874    91.3296    11.1117    0.4497    
2588.8     2.8926     11.6461    20.9013    21.2997    9.8357     24.0734    10.2546    91.054     10.9279    0.4607    
2589       2.9322     11.8438    20.9808    21.616     9.802      24.4701    10.1186    90.2717    10.7689    0.4582    
2589.2     2.8595     11.469     21.0604    21.7026    9.6429     24.5875    10.4242    90.6537    10.7047    0.4549    
2589.4     2.7801     11.1814    20.8195    21.2525    9.4838     24.7292    9.2493     90.5379    10.6594    0.4537    
2589.6     2.6883     10.7875    20.5884    20.8907    9.2925     25.3317    8.7019     90.476     10.6442    0.443     
2589.8     2.6151     10.367     20.3132    20.496     9.116      26.0461    8.4676     91.0987    10.697     0.432     
2590       2.584      10.0358    20.1506    20.2062    8.9882     26.8976    8.7041     90.6017    10.8278    0.4372    
2590.2     2.5073     9.7012     19.753     19.9694    9.0156     27.6146    8.8188     90.6378    11.0418    0.4343    
2590.4     2.4348     9.3454     19.115     19.7838    9.076      28.176     9.0946     91.7713    11.3783    0.4316    
2590.6     2.4052     9.2181     18.7299    19.837     9.3712     28.9466    10.398     91.4799    11.7452    0.4312    
2590.8     2.3797     9.1211     18.8099    20.5907    9.8183     29.4661    11.4735    91.0162    12.1648    0.4316    
2591       2.5822     9.808      19.9944    22.5559    10.634     28.8943    16.3909    90.89      12.5406    0.4328    
2591.2     2.9115     10.8544    21.4138    24.4604    11.187     27.4937    36.7855    90.2005    12.819     0.4434    
2591.4     1.9549     11.5223    22.4833    25.5689    11.6361    26.2929    20.0072    90.3403    12.8112    0.4434    
2591.6     1.0064     12.3777    23.4453    26.8502    11.8954    25.0921    16.6995    90.1597    12.7134    0.4444    
2591.8     2.0348     13.2645    24.1301    27.832     11.9994    24.1538    24.7677    89.7337    12.6108    0.446     
2592       2.9826     12.8128    24.0938    28.0417    11.8064    23.9846    14.1688    90.5493    12.4281    0.4434    
2592.2     3.0649     12.5109    23.6501    27.3258    11.5945    24.1144    10.5148    90.1664    12.26      0.4405    
2592.4     2.9581     12.0686    23.3105    26.3678    11.3825    24.2747    10.6106    89.0794    12.2007    0.4375    
2592.6     2.414      11.6352    22.9988    25.5357    11.2236    24.3963    10.0582    89.2851    12.235     0.4402    
2592.8     1.2909     11.3453    22.9428    25.0759    11.0678    24.3792    10.1288    88.674     12.2497    0.4438    
2593       2.6855     11.3358    23.4354    25.1899    11.0999    24.0438    12.3035    87.8093    12.3198    0.445     
2593.2     2.8587     11.4709    24.0595    25.4811    11.1795    23.5726    13.8387    87.8202    12.3431    0.4493    
2593.4     2.9115     11.5039    24.3942    25.7366    11.2528    23.1326    13.5075    86.6325    12.3431    0.4493    
2593.6     2.9564     11.6425    24.5701    25.939     11.409     22.7175    13.7839    85.8267    12.2747    0.4493    
2593.8     2.9621     11.7661    24.7234    26.3198    11.4777    22.5285    13.7817    86.301     12.1662    0.4493    
2594       2.9454     11.935     24.526     26.5754    11.6166    22.4018    12.9855    85.523     12.0603    0.4493    
2594.2     2.9275     11.7549    24.1154    26.8316    11.7229    22.4455    11.6752    85.0059    11.9766    0.4502    
2594.4     2.9128     11.573     23.8085    27.1929    11.8818    22.4936    10.5568    85.6577    11.9267    0.461     
2594.6     2.9115     11.4981    23.7451    27.624     12.0838    22.2454    11.1912    85.3642    11.8638    0.466     
2594.8     2.8719     11.4287    23.7143    28.2486    12.3057    21.9235    11.9918    85.1915    11.8638    0.461     
2595       2.8576     11.3993    23.7845    28.931     12.5896    21.6193    11.6812    85.4165    11.8105    0.461     
2595.2     1.3957     11.5229    23.9383    29.6413    12.8864    21.3267    12.2663    84.5113    11.7495    0.461     
2595.4     1.7101     11.4325    23.9899    29.9772    13.1832    20.878     12.0177    84.5223    11.704     0.4608    
2595.6     2.9115     11.4186    23.8184    30.0544    13.5471    20.2922    11.335     85.6189    11.6507    0.4499    
2595.8     2.8373     11.2126    23.7484    30.1264    13.9855    19.9127    10.8147    85.593     11.6507    0.4552    
2596       2.8037     11.1323    23.6955    30.2253    14.5504    19.6191    10.1399    86.0643    11.6507    0.4552    
2596.2     1.9218     11.2922    23.7353    30.7838    15.3087    19.2387    11.5486    87.0344    11.6194    0.4552    
2596.4     0.8062     11.7162    24.2639    31.5206    15.9631    18.7157    14.5697    86.7361    11.5411    0.4552    
2596.6     2.1787     12.0307    24.7195    32.0446    16.3915    18.1677    14.5029    86.8597    11.414     0.4552    
2596.8     3.127      12.1858    24.7947    32.1316    16.7003    17.6197    13.6744    86.6669    11.222     0.4552    
2597       3.0489     12.134     24.5569    31.8507    16.8942    17.17      11.4558    85.0519    11.0622    0.4552    
2597.2     2.9654     12.0827    24.4466    31.6525    17.1007    16.8207    9.576      84.992     10.8155    0.4552    
2597.4     3.0127     12.2072    24.6425    31.9895    17.191     16.2198    10.7798    85.5954    10.5197    0.4552    
2597.6     3.0872     12.6891    25.2237    32.1104    17.2812    16.2458    13.7528    84.7889    10.1824    0.4548    
2597.8     3.11       12.8307    25.0588    30.5451    17.0654    21.8293    13.0415    84.8094    9.851      0.4463    
2598       3.0645     11.948     23.7134    28.6946    16.5911    19.7989    9.1979     85.0926    9.5138     0.4487    
