~Version
 VERS              .         2.0                           : CWLS LOG ASCII STANDARD - VERSION 2.0
 WRAP              .         NO                            : ONE LINE PER DEPTH STEP
 DLM               .         SPACE                         : DELIMITING CHARACTER(SPACE TAB OR COMMA)
~Well Information
#_______________________________________________________________________________
#
#PARAMETER_NAME    .UNIT     VALUE                         : DESCRIPTION
#_______________________________________________________________________________
STRT               .m        2491                          : First reference value
STOP               .m        2703                          : Last reference value
STEP               .m        0.2                           : Step increment
NULL               .         -9999                         : Missing value
COMP               .                                       : Company
WELL               .         603                           : Well name
FLD                .                                       : Field
LOC                .                                       : Location
CNTY               .                                       : County
STAT               .                                       : State
CTRY               .                                       : Country
SRVC               .                                       : Service Company
DATE               .                                       : Date
API                .                                       : API number
EREF               .m        134                           : 
X                  .m        225746                        : 
Y                  .m        235643                        : 
group              .         Pad6                          : 
Интер-р            .         Старостина                    : 
Куст               .         6                             : 
Статус             .         Не проверено                  : 
Тип                .         Нагнетательные                : 
~Parameter Information Block
#_______________________________________________________________________________
#
#PARAMETER_NAME    .UNIT     VALUE                         : DESCRIPTION
#_______________________________________________________________________________
SET                .         LAS1                          : 
REAL_CREATION_DATE .         Ср апр 11 2012-13_17_22       : 
TLFamily_DEPTH     .         Measured Depth                : 
TLFamily_GZ1       .         Extra Shallow Resistivity     : 
TLFamily_GZ2       .         Shallow Resistivity           : 
TLFamily_GZ3       .         Medium Resistivity            : 
TLFamily_GZ4       .         Deep Resistivity              : 
TLFamily_GZ5       .         Extra Deep Resistivity        : 
TLFamily_GZr       .         Medium Resistivity Inverted   : 
TLFamily_LLD       .         Lateral Log Resistivity       : 
TLFamily_PS        .         Spontaneous Potential         : 
TLFamily_PZ        .         Potential Resistivity         : 
TLFamily_RS        .         Mud Resistivity               : 
group              .         INI                           : 
~Curve Information
#_______________________________________________________________________________
#
#LOGNAME           .UNIT     LOG_ID                        : DESCRIPTION
#_______________________________________________________________________________
DEPTH              .m                                      : Measured Depth 
GZ1                .ohm.m                                  : Extra Shallow Resistivity 
GZ2                .ohm.m                                  : Shallow Resistivity 
GZ3                .ohm.m                                  : Medium Resistivity 
GZ4                .ohm.m                                  : Deep Resistivity 
GZ5                .ohm.m                                  : Extra Deep Resistivity 
GZr                .ohm.m                                  : Medium Resistivity Inverted 
LLD                .ohm.m                                  : Lateral Log Resistivity 
PS                 .mV                                     : Spontaneous Potential 
PZ                 .ohm.m                                  : Potential Resistivity 
RS                 .ohm.m                                  : Mud Resistivity 
~Ascii
# ...
2625       2.0226     5.7947     7.4431     6.508      4.4761     8.3829     3.9986     70.6217    5.0437     0.4434    
2625.2     2.0927     5.9095     7.604      6.4324     4.428      8.3692     3.633      70.8239    5.0997     0.4428    
2625.4     2.1032     6.0159     7.6185     6.3352     4.3799     8.325      3.5849     70.1955    5.0636     0.4375    
2625.6     2.1032     6.0748     7.6185     6.2379     4.3318     8.2188     3.4941     70.6802    5.0275     0.4375    
2625.8     2.0637     6.1387     7.6718     6.1406     4.2837     8.1417     3.4328     70.7877    4.9759     0.4401    
2626       2.0493     6.1401     7.6718     6.0433     4.2492     8.1712     3.472      70.2899    4.9399     0.4289    
2626.2     1.9954     6.0746     7.6718     5.9647     4.2211     8.2483     3.581      70.5205    4.9399     0.4324    
2626.4     2.0354     6.0591     7.6718     5.9142     4.1682     8.2216     3.6199     71.8895    4.9337     0.4339    
2626.6     1.9989     5.9698     7.6718     5.8595     4.1682     8.1659     3.6802     71.6235    4.9132     0.4355    
2626.8     2.0128     5.9174     7.6718     5.8073     4.1682     8.1196     3.8474     72.1968    4.8927     0.437     
2627       2.0266     5.8388     7.6905     5.7805     4.1682     8.0711     4.7009     71.932     4.8723     0.4385    
2627.2     2.0404     5.8212     7.9334     5.8961     4.1682     8.2711     4.7856     72.2229    4.8518     0.44      
2627.4     2.0542     5.8548     8.1969     6.0235     4.1383     8.5228     3.6767     73.0763    4.8313     0.4415    
2627.6     2.068      5.8883     8.4016     6.1488     4.0952     8.7744     3.2476     73.2087    4.8108     0.4433    
2627.8     2.0818     5.9219     8.3358     6.1488     4.052      9.026      2.9098     73.9893    4.7904     0.4493    
2628       2.0956     5.9555     8.1638     6.1103     4.0076     9.2777     3.1684     73.3724    4.7768     0.4489    
2628.2     2.0573     5.989      8.0041     6.0526     3.9034     9.5293     3.5439     72.6446    4.6949     0.4434    
2628.4     2.0417     6.0226     7.8614     5.995      3.7966     9.7917     3.7433     72.0124    4.6417     0.4493    
2628.6     2.1032     6.0562     7.5612     5.9207     3.6363     10.0805    3.21       70.273     4.6505     0.4493    
2628.8     2.0604     5.8965     7.2609     5.7537     3.4799     10.4961    3.0447     70.4197    4.6204     0.4434    
2629       2.0493     5.8126     6.9607     5.5939     3.2206     10.8945    3.1376     69.5286    4.5752     0.4543    
2629.2     2.0224     5.8098     6.6605     5.4168     2.9564     11.0199    3.0828     68.405     4.5159     0.5918    
2629.4     1.9926     5.6574     6.3602     5.0235     2.6816     10.9931    3.047      68.3811    4.6126     0.6094    
2629.6     1.839      5.0117     6.06       4.4421     2.5053     10.9       3.1411     66.8814    4.7734     0.579     
2629.8     1.7434     4.6172     5.7597     3.9742     2.3291     11.2183    4.2452     65.9275    4.9777     0.5485    
2630       1.7832     4.5035     5.5523     3.8338     2.1528     11.6589    4.3443     64.6982    5.182      0.5181    
2630.2     1.8229     4.7378     5.6168     3.8602     1.9765     12.0841    4.129      62.2775    5.3863     0.4877    
2630.4     1.8627     4.9813     5.8271     3.9941     1.8715     12.4357    4.2193     61.0257    5.5906     0.4573    
2630.6     1.9024     5.2364     6.0553     4.2099     1.9017     13.0608    4.8193     59.6942    5.7948     0.4282    
2630.8     1.9422     5.4915     6.3942     4.4256     1.9757     13.3961    7.615      57.9575    5.9991     0.426     
2631       1.9819     5.7466     6.9342     4.6413     2.0495     13.0733    8.5439     57.6961    6.1946     0.4313    
2631.2     2.2352     6.0016     7.5798     4.857      2.1275     12.8792    5.1608     56.0826    6.2554     0.4364    
2631.4     2.2838     6.2567     7.9415     5.0728     2.1795     12.8716    5.0041     55.8104    6.3084     0.4375    
2631.6     2.2301     6.5118     8.2458     5.2885     2.231      12.8641    4.9744     55.8865    6.3438     0.4434    
2631.8     2.1571     6.622      8.5836     5.5042     2.3143     12.8565    4.8303     55.2779    6.3947     0.4487    
2632       2.1032     6.6524     8.9215     5.7649     2.4346     12.849     4.8866     56.1383    6.4793     0.4402    
2632.2     2.0358     6.574      9.2593     6.0841     2.5339     12.8415    5.7296     55.9953    6.5856     0.4434    
2632.4     2.0762     6.7722     9.5971     6.5242     2.679      12.8289    7.7803     55.9848    6.6836     0.4429    
2632.6     2.196      7.1805     9.935      7.0416     2.8242     12.513     7.0608     56.4722    6.75       0.4434    
2632.8     2.3545     7.4764     10.2728    7.3986     2.9693     12.5462    5.0178     55.8638    6.7003     0.4375    
2633       2.272      7.1356     10.4152    7.5032     3.1632     12.6622    4.2956     56.5619    6.7075     0.437     
2633.2     2.1082     6.7827     10.3704    7.627      3.3719     12.9896    4.7245     55.8649    6.7618     0.4369    
2633.4     1.9907     6.6929     10.3439    8.1023     3.6603     13.2999    5.2204     57.0898    6.9059     0.4316    
2633.6     1.9769     6.7563     10.5657    8.5506     4.04       13.432     6.5168     57.0255    7.1091     0.4316    
2633.8     2.0672     7.0325     11.3214    8.8689     4.3936     13.0261    9.1925     56.1183    7.0714     0.4316    
2634       2.1206     7.8529     12.4525    9.1871     4.6481     12.0309    14.3897    55.4454    7.0337     0.4316    
2634.2     2.174      8.6746     13.2368    9.5054     4.7508     11.073     6.9586     53.7997    6.996      0.4316    
2634.4     2.2273     8.3574     13.1672    9.8236     4.7507     10.5855    4.76       52.8409    6.9584     0.4316    
2634.6     2.2807     8.2907     12.6895    10.1419    4.6443     10.4756    5.1496     51.884     6.9207     0.4316    
2634.8     2.3341     8.224      12.4947    10.4601    4.5357     10.1776    6.6712     49.5029    6.883      0.4269    
2635       2.3874     8.1573     12.5878    10.8006    4.4271     9.659      6.1784     48.3834    6.8059     0.4283    
2635.2     2.4484     8.0906     12.5664    10.9025    4.3185     9.3781     6.0108     45.8686    6.6127     0.4311    
2635.4     2.4481     8.0239     12.5178    10.8501    4.2099     9.1545     4.8669     43.9281    6.4034     0.4318    
2635.6     2.3952     7.9571     12.272     10.6187    4.1014     9.208      4.4604     42.8408    6.1962     0.4363    
2635.8     2.362      7.823      11.8576    10.2221    3.9928     9.4511     3.8431     40.3307    6.0181     0.4399    
2636       2.2321     7.385      11.4432    9.7784     3.8842     9.782      3.7328     41.1406    5.8699     0.4398    
2636.2     2.1095     6.8702     11.0289    9.2402     3.7974     10.1129    3.9448     42.5204    5.7956     0.4417    
2636.4     2.0405     6.4398     10.6145    8.8151     3.7652     10.4439    4.0951     42.9246    5.7921     0.443     
2636.6     1.9954     6.0913     10.2001    8.5771     3.8297     10.7008    4.0605     43.3179    5.8394     0.4316    
2636.8     1.949      5.849      9.7857     8.3884     3.9658     10.9245    4.3927     42.6446    5.8962     0.4316    
2637       1.9862     5.7998     9.439      8.3109     4.2231     11.2103    4.4343     44.0286    5.9562     0.4316    
2637.2     1.9512     5.7127     9.2643     8.3323     4.5628     11.4982    4.461      43.835     6.0559     0.4366    
2637.4     1.9415     5.7079     9.0811     8.5245     5.1745     11.7862    4.4309     42.7618    6.193      0.4308    
2637.6     1.9415     5.738      9.0652     9.2778     6.088      12.0741    4.7473     43.2062    6.3487     0.4254    
2637.8     1.9415     5.8424     9.2809     9.9775     6.9989     12.362     5.106      42.8975    6.5377     0.4198    
2638       1.9415     6.0298     9.7872     10.6772    7.4053     12.6499    6.0384     42.4359    6.8456     0.4201    
2638.2     1.9276     6.3328     10.7158    11.3769    7.8116     12.9379    15.8149    43.3903    7.0812     0.4248    
