~Version
 VERS              .         2.0                           : CWLS LOG ASCII STANDARD - VERSION 2.0
 WRAP              .         NO                            : ONE LINE PER DEPTH STEP
 DLM               .         SPACE                         : DELIMITING CHARACTER(SPACE TAB OR COMMA)
~Well Information
#_______________________________________________________________________________
#
#PARAMETER_NAME    .UNIT     VALUE                         : DESCRIPTION
#_______________________________________________________________________________
STRT               .m        2491                          : First reference value
STOP               .m        2703                          : Last reference value
STEP               .m        0.2                           : Step increment
NULL               .         -9999                         : Missing value
COMP               .                                       : Company
WELL               .         603                           : Well name
FLD                .                                       : Field
LOC                .                                       : Location
CNTY               .                                       : County
STAT               .                                       : State
CTRY               .                                       : Country
SRVC               .                                       : Service Company
DATE               .                                       : Date
API                .                                       : API number
EREF               .m        134                           : 
X                  .m        225746                        : 
Y                  .m        235643                        : 
group              .         Pad6                          : 
Интер-р            .         Старостина                    : 
Куст               .         6                             : 
Статус             .         Не проверено                  : 
Тип                .         Нагнетательные                : 
~Parameter Information Block
#_______________________________________________________________________________
#
#PARAMETER_NAME    .UNIT     VALUE                         : DESCRIPTION
#_______________________________________________________________________________
SET                .         LAS1                          : 
REAL_CREATION_DATE .         Ср апр 11 2012-13_17_22       : 
TLFamily_DEPTH     .         Measured Depth                : 
TLFamily_GZ1       .         Extra Shallow Resistivity     : 
TLFamily_GZ2       .         Shallow Resistivity           : 
TLFamily_GZ3       .         Medium Resistivity            : 
TLFamily_GZ4       .         Deep Resistivity              : 
TLFamily_GZ5       .         Extra Deep Resistivity        : 
TLFamily_GZr       .         Medium Resistivity Inverted   : 
TLFamily_LLD       .         Lateral Log Resistivity       : 
TLFamily_PS        .         Spontaneous Potential         : 
TLFamily_PZ        .         Potential Resistivity         : 
TLFamily_RS        .         Mud Resistivity               : 
group              .         INI                           : 
~Curve Information
#_______________________________________________________________________________
#
#LOGNAME           .UNIT     LOG_ID                        : DESCRIPTION
#_______________________________________________________________________________
DEPTH              .m                                      : Measured Depth 
GZ1                .ohm.m                                  : Extra Shallow Resistivity 
GZ2                .ohm.m                                  : Shallow Resistivity 
GZ3                .ohm.m                                  : Medium Resistivity 
GZ4                .ohm.m                                  : Deep Resistivity 
GZ5                .ohm.m                                  : Extra Deep Resistivity 
GZr                .ohm.m                                  : Medium Resistivity Inverted 
LLD                .ohm.m                                  : Lateral Log Resistivity 
PS                 .mV                                     : Spontaneous Potential 
PZ                 .ohm.m                                  : Potential Resistivity 
RS                 .ohm.m                                  : Mud Resistivity 
~Ascii
# ...
2692       0          0          0          4.153      9.4066     0          6.4108     45.81      0          0         
2692.2     0          0          0          0          9.8259     0          7.0697     45.3143    0          0         
2692.4     0          0          0          0          10.2452    0          7.3788     45.3045    0          0         
2692.6     0          0          0          0          11.0221    0          8.8475     45.6042    0          0         
2692.8     0          0          0          0          11.7986    0          13.4865    46.2487    0          0         
2693       0          0          0          0          11.9804    0          13.9697    -9999      0          0         
2693.2     0          0          0          0          12.0214    0          8.6563     -9999      0          0         
2693.4     0          0          0          0          12.0441    0          7.6068     -9999      0          0         
2693.6     0          0          0          0          12.1242    0          7.5955     -9999      0          0         
2693.8     0          0          0          0          12.1862    0          9.1651     -9999      0          0         
2694       0          0          0          0          12.1863    0          8.5776     -9999      0          0         
2694.2     0          0          0          0          12.1663    0          9.7914     -9999      0          0         
2694.4     0          0          0          0          12.1663    0          9.416      -9999      0          0         
2694.6     0          0          0          0          12.1663    0          9.101      -9999      0          0         
2694.8     0          0          0          0          12.1663    0          12.228     -9999      0          0         
2695       0          0          0          0          12.1663    0          11.6333    -9999      0          0         
2695.2     0          0          0          0          12.1663    0          7.9664     -9999      0          0         
2695.4     0          0          0          0          12.1663    0          18.2111    -9999      0          0         
2695.6     0          0          0          0          12.1663    0          67.2015    -9999      0          0         
2695.8     0          0          0          0          12.1663    0          32.7152    -9999      0          0         
2696       0          0          0          0          12.1663    0          8.4759     -9999      0          0         
2696.2     0          0          0          0          12.1663    0          6.0339     -9999      0          0         
2696.4     0          0          0          0          0          0          5.7804     -9999      0          0         
2696.6     0          0          0          0          0          0          5.6603     -9999      0          0         
2696.8     0          0          0          0          0          0          5.2704     -9999      0          0         
2697       0          0          0          0          0          0          4.0862     -9999      0          0         
2697.2     0          0          0          0          0          0          3.7614     -9999      0          0         
2697.4     0          0          0          0          0          0          4.3635     -9999      0          0         
2697.6     0          0          0          0          0          0          4.9105     -9999      0          0         
2697.8     0          0          0          0          0          0          5.8034     -9999      0          0         
2698       0          0          0          0          0          0          6.5496     -9999      0          0         
2698.2     0          0          0          0          0          0          6.6935     -9999      0          0         
2698.4     0          0          0          0          0          0          6.7518     -9999      0          0         
2698.6     0          0          0          0          0          0          6.6864     -9999      0          0         
2698.8     0          0          0          0          0          0          6.5005     -9999      0          0         
2699       0          0          0          0          0          0          6.2974     -9999      0          0         
2699.2     0          0          0          0          0          0          6.8473     -9999      0          0         
2699.4     0          0          0          0          0          0          7.7797     -9999      0          0         
2699.6     0          0          0          0          0          0          5.8049     -9999      0          0         
2699.8     0          0          0          0          0          0          5.6095     -9999      0          0         
2700       0          0          0          0          0          0          5.6249     -9999      0          0         
2700.2     0          0          0          0          0          0          5.6348     -9999      0          0         
2700.4     0          0          0          0          0          0          5.6361     -9999      0          0         
2700.6     0          0          0          0          0          0          5.636      -9999      0          0         
2700.8     0          0          0          0          0          0          5.6325     -9999      0          0         
2701       0          0          0          0          0          0          5.6323     -9999      0          0         
2701.2     0          0          0          0          0          0          5.6314     -9999      0          0         
2701.4     0          0          0          0          0          0          5.6295     -9999      0          0         
2701.6     0          0          0          0          0          0          5.6329     -9999      0          0         
2701.8     0          0          0          0          0          0          5.6306     -9999      0          0         
2702       0          0          0          0          0          0          5.6304     -9999      0          0         
2702.2     0          0          0          0          0          0          5.6306     -9999      0          0         
2702.4     0          0          0          0          0          -9999      5.6284     -9999      0          0         
2702.6     0          0          0          0          0          -9999      5.6284     -9999      0          0         
2702.8     0          0          0          0          0          -9999      5.6338     -9999      0          0         
2703       0          0          0          0          0          -9999      5.632      -9999      0          0         
