~Version
 VERS              .         2.0                           : CWLS LOG ASCII STANDARD - VERSION 2.0
 WRAP              .         NO                            : ONE LINE PER DEPTH STEP
 DLM               .         SPACE                         : DELIMITING CHARACTER(SPACE TAB OR COMMA)
~Well Information
#_______________________________________________________________________________
#
#PARAMETER_NAME    .UNIT     VALUE                         : DESCRIPTION
#_______________________________________________________________________________
STRT               .m        2491                          : First reference value
STOP               .m        2703                          : Last reference value
STEP               .m        0.2                           : Step increment
NULL               .         -9999                         : Missing value
COMP               .                                       : Company
WELL               .         603                           : Well name
FLD                .                                       : Field
LOC                .                                       : Location
CNTY               .                                       : County
STAT               .                                       : State
CTRY               .                                       : Country
SRVC               .                                       : Service Company
DATE               .                                       : Date
API                .                                       : API number
EREF               .m        134                           : 
X                  .m        225746                        : 
Y                  .m        235643                        : 
group              .         Pad6                          : 
Интер-р            .         Старостина                    : 
Куст               .         6                             : 
Статус             .         Не проверено                  : 
Тип                .         Нагнетательные                : 
~Parameter Information Block
#_______________________________________________________________________________
#
#PARAMETER_NAME    .UNIT     VALUE                         : DESCRIPTION
#_______________________________________________________________________________
SET                .         LAS3                          : 
REAL_CREATION_DATE .         Ср апр 11 2012-13_17_23       : 
TLFamily_DEPTH     .         Measured Depth                : 
TLFamily_GR        .         Gamma Ray                     : 
TLFamily_TNPH      .         Neutron Porosity              : 
group              .         INI                           : 
~Curve Information
#_______________________________________________________________________________
#
#LOGNAME           .UNIT     LOG_ID                        : DESCRIPTION
#_______________________________________________________________________________
DEPTH              .m                                      : Measured Depth 
GR                 .gAPI                                   :  
TNPH               .v/v                                    : Neutron Porosity 
~Ascii
# ...
2588.2     136.716    0.290025  
2588.4     170.3      0.289765  
2588.6     178.131    0.302459  
2588.8     175.276    0.306617  
2589       168.335    0.300312  
2589.2     165.714    0.295213  
2589.4     164.997    0.304854  
2589.6     158.128    0.31535   
2589.8     150.151    0.314688  
2590       146.695    0.303111  
2590.2     155.695    0.290548  
2590.4     160.393    0.290188  
2590.6     156.46     0.278233  
2590.8     141.166    0.271278  
2591       128.931    0.272657  
2591.2     130.037    0.27419   
2591.4     145.791    0.27406   
2591.6     143.928    0.270313  
2591.8     114.811    0.257779  
2592       110.749    0.264234  
2592.2     129.053    0.277147  
2592.4     137.517    0.268002  
2592.6     133.916    0.260471  
2592.8     126.931    0.253403  
2593       117.571    0.25803   
2593.2     109.646    0.257643  
2593.4     111.529    0.254295  
2593.6     114.599    0.253539  
2593.8     112.996    0.263204  
2594       114.394    0.290629  
2594.2     123.619    0.291642  
2594.4     130.249    0.267693  
2594.6     133.299    0.256017  
2594.8     136.537    0.260619  
2595       133.618    0.247979  
2595.2     131.289    0.249131  
2595.4     129.827    0.258818  
2595.6     125.78     0.275778  
2595.8     124.784    0.288427  
2596       129.811    0.293786  
2596.2     136.335    0.296712  
2596.4     139.849    0.310082  
2596.6     147.042    0.30584   
2596.8     150.181    0.289492  
2597       144.037    0.263767  
2597.2     132.094    0.261662  
2597.4     124.611    0.275306  
2597.6     125.186    0.292733  
2597.8     128.75     0.296102  
2598       125.758    0.303839  
2598.2     120.959    0.307874  
2598.4     113.618    0.301028  
2598.6     111.095    0.296124  
2598.8     111.736    0.287098  
2599       116.843    0.284323  
2599.2     125.925    0.299614  
2599.4     134.432    0.314275  
2599.6     137.918    0.320759  
2599.8     135.702    0.325792  
2600       123.995    0.322036  
2600.2     116.468    0.318139  
2600.4     116.368    0.315624  
2600.6     117.457    0.313473  
2600.8     125.639    0.30789   
2601       139.256    0.30569   
2601.2     154.985    0.300138  
2601.4     154.681    0.303845  
2601.6     150.132    0.31828   
2601.8     149.512    0.345629  
2602       154.035    0.346199  
2602.2     163.141    0.343892  
2602.4     173.793    0.337684  
2602.6     179.209    0.30466   
2602.8     173.958    0.292509  
2603       167.812    0.293846  
2603.2     158.643    0.294554  
2603.4     157.723    0.295273  
2603.6     165.367    0.306386  
2603.8     167.526    0.320642  
2604       166.458    0.326931  
2604.2     171.056    0.330351  
2604.4     181.665    0.320372  
2604.6     184.397    0.304193  
2604.8     169.017    0.28775   
2605       147.672    0.278956  
2605.2     142.099    0.283772  
2605.4     142.666    0.305811  
2605.6     141.388    0.290115  
2605.8     133.061    0.277992  
2606       125.687    0.277201  
2606.2     127.242    0.282318  
2606.4     135.671    0.276221  
2606.6     148.387    0.267229  
2606.8     157.008    0.282334  
2607       161.468    0.294992  
2607.2     153.922    0.30377   
2607.4     144.05     0.296759  
2607.6     143.6      0.293989  
2607.8     144.254    0.295503  
2608       140.972    0.292302  
2608.2     136.411    0.291912  
2608.4     132.021    0.293021  
2608.6     129.904    0.290708  
2608.8     134.906    0.276892  
2609       137.381    0.26558   
2609.2     135.931    0.267538  
2609.4     136.281    0.268681  
2609.6     132.165    0.263885  
2609.8     133.581    0.265379  
2610       135.646    0.273747  
2610.2     133.9      0.28772   
2610.4     128.078    0.28231   
2610.6     127.491    0.261698  
2610.8     132.313    0.255651  
2611       136.861    0.262971  
2611.2     141.108    0.262431  
2611.4     143.6      0.265935  
2611.6     145.396    0.267142  
2611.8     142.608    0.259443  
2612       133.955    0.255741  
2612.2     120.363    0.247433  
2612.4     102.678    0.232843  
2612.6     96.344     0.234004  
2612.8     117.185    0.254715  
2613       145.181    0.271547  
2613.2     149.581    0.282705  
2613.4     143.386    0.280055  
2613.6     137.169    0.269027  
2613.8     138.011    0.277112  
2614       138.396    0.277776  
2614.2     137.231    0.286871  
2614.4     136.693    0.299796  
2614.6     137.713    0.289841  
2614.8     139.783    0.285418  
2615       139.042    0.296569  
2615.2     137.324    0.310957  
2615.4     138.185    0.322577  
2615.6     138.657    0.301768  
2615.8     140.606    0.284225  
2616       139.375    0.277439  
2616.2     139.115    0.277892  
2616.4     144.105    0.278151  
2616.6     147.916    0.273701  
2616.8     148.563    0.271017  
2617       148.383    0.269858  
2617.2     148.838    0.284142  
2617.4     149.814    0.298052  
2617.6     150.39     0.309467  
2617.8     153.116    0.290735  
2618       152.722    0.272236  
2618.2     151.845    0.269438  
2618.4     152.689    0.282082  
2618.6     153.315    0.28309   
2618.8     148.892    0.268538  
2619       145.332    0.27024   
2619.2     146.011    0.275533  
2619.4     145.766    0.264941  
2619.6     140.472    0.26843   
2619.8     139.597    0.277148  
2620       137.79     0.284898  
2620.2     136.353    0.280947  
2620.4     135.718    0.281165  
2620.6     134.602    0.29607   
2620.8     132.87     0.315272  
2621       131.218    0.314714  
2621.2     128.748    0.308832  
2621.4     130.363    0.308465  
2621.6     131.804    0.308794  
2621.8     130.404    0.303322  
2622       126.738    0.280335  
2622.2     125.779    0.254526  
2622.4     129.791    0.259145  
2622.6     132.971    0.26786   
2622.8     131.104    0.260443  
2623       132.34     0.265312  
2623.2     135.197    0.279598  
2623.4     135.388    0.28921   
2623.6     136.167    0.299516  
2623.8     140.638    0.316747  
2624       143.687    0.313294  
2624.2     146.654    0.297219  
2624.4     145.416    0.278015  
2624.6     145.547    0.260558  
2624.8     144.266    0.265901  
2625       141.554    0.278649  
2625.2     142.145    0.293691  
2625.4     146.395    0.293994  
2625.6     147.363    0.295522  
2625.8     149.125    0.289277  
2626       149.205    0.286896  
2626.2     148.459    0.291457  
2626.4     147.847    0.305542  
2626.6     145.794    0.309285  
2626.8     144.719    0.29775   
2627       140.872    0.286097  
2627.2     133.684    0.290235  
2627.4     135.602    0.295285  
2627.6     147.725    0.305805  
2627.8     153.147    0.312096  
2628       153.979    0.312785  
2628.2     151.691    0.316321  
2628.4     147.304    0.315622  
2628.6     144.506    0.308742  
2628.8     143.288    0.304408  
2629       146.916    0.293711  
2629.2     150.796    0.282748  
2629.4     148.491    0.266961  
2629.6     145.335    0.255173  
2629.8     149.893    0.246341  
2630       152.777    0.23507   
2630.2     133.817    0.223945  
2630.4     103.286    0.219643  
2630.6     87.401     0.217297  
2630.8     78.572     0.211637  
2631       75.675     0.202529  
2631.2     77.043     0.214598  
2631.4     80.886     0.230802  
2631.6     84.16701   0.231776  
2631.8     83.481     0.229805  
2632       84.254     0.229713  
2632.2     86.08      0.230571  
2632.4     84.3       0.221421  
2632.6     83.097     0.210157  
2632.8     82.691     0.202589  
2633       82.827     0.206715  
2633.2     83.774     0.209308  
2633.4     81.007     0.208993  
2633.6     76.796     0.205639  
2633.8     73.082     0.20635   
2634       74.759     0.215026  
2634.2     76.832     0.21863   
2634.4     79.133     0.215869  
2634.6     78.459     0.221817  
2634.8     80.663     0.225269  
2635       83.979     0.222366  
2635.2     86.744     0.219772  
2635.4     80.779     0.216879  
2635.6     72.787     0.215928  
2635.8     67.897     0.213814  
2636       67.68401   0.209594  
2636.2     66.955     0.207285  
2636.4     63.29601   0.198488  
2636.6     63.349     0.19979   
