~Version
 VERS              .         2.0                           : CWLS LOG ASCII STANDARD - VERSION 2.0
 WRAP              .         NO                            : ONE LINE PER DEPTH STEP
 DLM               .         SPACE                         : DELIMITING CHARACTER(SPACE TAB OR COMMA)
~Well Information
#_______________________________________________________________________________
#
#PARAMETER_NAME    .UNIT     VALUE                         : DESCRIPTION
#_______________________________________________________________________________
STRT               .m        2491                          : First reference value
STOP               .m        2703                          : Last reference value
STEP               .m        0.2                           : Step increment
NULL               .         -9999                         : Missing value
COMP               .                                       : Company
WELL               .         603                           : Well name
FLD                .                                       : Field
LOC                .                                       : Location
CNTY               .                                       : County
STAT               .                                       : State
CTRY               .                                       : Country
SRVC               .                                       : Service Company
DATE               .                                       : Date
API                .                                       : API number
EREF               .m        134                           : 
X                  .m        225746                        : 
Y                  .m        235643                        : 
group              .         Pad6                          : 
Интер-р            .         Старостина                    : 
Куст               .         6                             : 
Статус             .         Не проверено                  : 
Тип                .         Нагнетательные                : 
~Parameter Information Block
#_______________________________________________________________________________
#
#PARAMETER_NAME    .UNIT     VALUE                         : DESCRIPTION
#_______________________________________________________________________________
SET                .         LAS1                          : 
REAL_CREATION_DATE .         Ср апр 11 2012-13_17_22       : 
TLFamily_DEPTH     .         Measured Depth                : 
TLFamily_GZ1       .         Extra Shallow Resistivity     : 
TLFamily_GZ2       .         Shallow Resistivity           : 
TLFamily_GZ3       .         Medium Resistivity            : 
TLFamily_GZ4       .         Deep Resistivity              : 
TLFamily_GZ5       .         Extra Deep Resistivity        : 
TLFamily_GZr       .         Medium Resistivity Inverted   : 
TLFamily_LLD       .         Lateral Log Resistivity       : 
TLFamily_PS        .         Spontaneous Potential         : 
TLFamily_PZ        .         Potential Resistivity         : 
TLFamily_RS        .         Mud Resistivity               : 
group              .         INI                           : 
~Curve Information
#_______________________________________________________________________________
#
#LOGNAME           .UNIT     LOG_ID                        : DESCRIPTION
#_______________________________________________________________________________
DEPTH              .m                                      : Measured Depth 
GZ1                .ohm.m                                  : Extra Shallow Resistivity 
GZ2                .ohm.m                                  : Shallow Resistivity 
GZ3                .ohm.m                                  : Medium Resistivity 
GZ4                .ohm.m                                  : Deep Resistivity 
GZ5                .ohm.m                                  : Extra Deep Resistivity 
GZr                .ohm.m                                  : Medium Resistivity Inverted 
LLD                .ohm.m                                  : Lateral Log Resistivity 
PS                 .mV                                     : Spontaneous Potential 
PZ                 .ohm.m                                  : Potential Resistivity 
RS                 .ohm.m                                  : Mud Resistivity 
~Ascii
# ...
2571.4     2.2661     6.8605     9.865      8.5189     5.7042     12.3746    4.9762     89.6975    6.5419     0.4429    
2571.6     2.307      6.8605     9.9346     8.6593     5.7042     12.2343    5.0982     89.1469    6.6719     0.4437    
2571.8     2.3597     7.2059     10.0247    8.8119     5.7572     12.0943    6.1651     89.9956    6.7414     0.4539    
2572       2.382      7.3938     10.2109    8.9539     5.745      11.8759    5.8563     90.6231    6.8314     0.4463    
2572.2     2.4659     7.7345     10.4796    9.1153     5.7044     11.4501    6.3054     89.8566    6.7822     0.454     
2572.4     2.5213     8.1063     10.7315    9.164      5.704      11.0177    5.8184     90.0431    6.6943     0.461     
2572.6     2.4984     8.0911     10.851     9.0389     5.4442     10.6996    5.2099     90.363     6.6008     0.4557    
2572.8     2.5078     8.2358     10.9748    8.8782     5.1339     10.4885    5.1639     90.3596    6.4415     0.461     
2573       2.4581     8.0202     11.0794    8.6146     4.7705     10.3278    4.7026     90.5309    6.2953     0.461     
2573.2     2.3787     7.6314     10.9134    8.2235     4.5919     10.4334    4.1928     89.8137    6.224      0.4555    
2573.4     2.2759     7.3294     10.7052    8.05       4.5919     10.6315    4.2001     88.9266    6.2182     0.4552    
2573.6     2.211      7.199      10.6952    7.9388     4.5919     10.821     4.7099     88.3143    6.2182     0.4571    
2573.8     2.2648     7.27       10.8268    7.9323     4.5919     10.9341    4.9775     88.569     6.2182     0.4591    
2574       2.3299     7.0452     10.9441    8.0594     4.6449     11.2496    4.5876     89.9198    6.2182     0.4594    
2574.2     2.3829     7.2577     11.0796    8.2375     4.6449     11.314     5.3304     90.2868    6.2182     0.4665    
2574.4     2.3902     7.5232     11.1734    8.3752     4.6449     11.3397    4.976      90.4816    6.2501     0.5116    
2574.6     2.3187     7.4573     10.9677    8.515      4.6449     11.3397    4.6401     90.6345    6.2633     0.47      
2574.8     1.8273     7.3885     10.7749    8.6694     4.5919     11.4049    4.9529     89.352     6.2324     0.4565    
2575       2.1268     7.3082     10.581     8.7192     4.4669     11.5092    4.6014     89.0424    6.2182     0.4493    
2575.2     2.3187     7.2728     10.3401    8.6934     4.3325     11.6179    4.8112     89.9309    6.2182     0.4493    
2575.4     2.2918     7.2139     10.1383    8.6471     4.2211     11.6814    4.7591     90.018     6.2501     0.4493    
2575.6     2.2648     7.1535     10.0045    8.5556     4.1348     11.8328    4.7196     90.5084    6.2714     0.4493    
2575.8     2.2648     7.07       9.9244     8.4708     4.002      12.0216    5.0168     90.8843    6.2714     0.4539    
2576       2.2648     7.1183     9.872      8.4161     3.9068     12.1105    5.2083     90.188     6.2714     0.4552    
2576.2     2.2865     7.1975     9.9629     8.3715     3.8054     12.1849    5.1709     89.8913    6.2714     0.4552    
2576.4     2.3187     7.1001     9.9814     8.1692     3.698      12.333     4.7112     89.8114    6.2714     0.4551    
2576.6     2.2694     6.9682     9.7258     7.794      3.6142     12.7104    4.4147     90.2381    6.2714     0.4504    
2576.8     2.1636     6.8201     9.4297     7.4618     3.5536     13.2618    4.3705     90.4186    6.3034     0.4499    
2577       2.0756     6.5542     9.2694     7.3063     3.5817     14.1695    4.5278     89.1501    6.4252     0.4552    
2577.2     2.0762     6.5859     9.348      7.3925     3.713      14.8337    5.0939     88.3065    6.5869     0.4546    
2577.4     2.135      6.6095     9.6054     7.702      3.9145     15.5464    5.445      88.5591    6.7498     0.4581    
2577.6     2.2085     6.9248     10.0013    8.1944     4.1974     16.4767    6.1236     89.9427    6.9698     0.4596    
2577.8     2.2589     7.0308     10.2833    8.5195     4.445      17.0959    5.9861     91.4423    7.0938     0.4556    
2578       2.2648     7.1041     10.428     8.9151     4.7342     17.697     5.8819     91.9427    7.2701     0.4517    
2578.2     2.2648     7.198      10.5139    9.2483     5.0907     18.2498    5.9139     92.1535    7.4478     0.4493    
2578.4     2.2648     7.3469     10.6254    9.6131     5.4471     18.6947    6.5851     91.1961    7.6526     0.4545    
2578.6     2.2127     7.4575     11.0942    10.2438    5.8799     19.155     6.8693     90.3917    7.7801     0.4493    
2578.8     2.4603     7.7787     11.6746    10.9293    6.1869     19.6155    7.4691     90.6566    7.8742     0.4493    
2579       2.5265     8.1458     12.2318    11.3973    6.3171     19.8594    7.1425     89.7601    7.985      0.4441    
2579.2     2.4784     8.4275     12.0998    11.0477    6.444      19.2268    6.9254     89.2367    8.1005     0.4432    
2579.4     2.4092     8.1281     11.8891    10.5978    6.2328     18.8008    6.5092     89.8481    8.2951     0.4329    
2579.6     2.3359     7.9961     11.7311    10.203     6.128      18.5511    6.7771     89.4256    8.4651     0.4368    
2579.8     2.3187     8.0965     11.9038    10.1273    6.0292     18.4882    6.9819     89.6595    8.6165     0.4346    
2580       2.3597     8.2535     12.4363    10.3325    6.0517     18.5491    8.0603     90.7311    8.7402     0.4324    
2580.2     2.433      8.746      13.0049    10.6026    6.0741     18.3368    8.9722     90.6636    8.8598     0.436     
2580.4     2.4935     8.9038     13.5321    10.8131    6.128      17.9827    8.3089     91.0716    8.9571     0.4381    
2580.6     2.5343     9.0304     13.9311    10.9051    6.128      17.625     8.1992     91.4941    9.041      0.4434    
2580.8     2.606      9.1846     14.3678    11.0538    6.1023     17.3097    8.4458     90.1759    9.041      0.4434    
2581       2.642      9.3611     14.8532    11.2689    6.0248     17.1916    8.2373     89.56      9.041      0.4434    
2581.2     2.642      9.5308     15.3318    11.5416    5.9723     16.9991    8.3375     89.6502    9.041      0.4434    
2581.4     2.642      9.5325     15.7015    11.7915    5.9161     16.8867    8.0312     89.0251    9.0559     0.4434    
2581.6     2.642      9.6254     15.9283    12.0977    5.8991     16.8156    8.1306     89.6915    9.041      0.4434    
2581.8     2.6579     9.7319     16.1358    12.501     5.8818     16.7445    8.1749     90.5553    9.0078     0.4434    
2582       2.6705     9.8302     16.4373    12.9904    5.8644     16.7764    8.3304     89.8732    8.9457     0.4441    
2582.2     2.7155     9.9291     16.7363    13.482     5.9567     16.9029    8.1761     89.8968    8.8676     0.4513    
2582.4     2.7451     9.9224     16.9895    13.9441    6.0101     17.2263    7.4606     90.3855    8.7397     0.4493    
2582.6     2.7332     9.844      16.9954    14.3228    6.1393     17.7871    6.9737     90.3659    8.6503     0.4493    
2582.8     2.642      9.5897     16.8171    14.6622    6.2735     17.8504    6.5364     91.0138    8.6149     0.4493    
2583       2.618      9.3247     16.7204    15.1652    6.4303     19.2555    6.5112     90.8762    8.6149     0.446     
2583.2     2.5778     9.152      16.6604    15.7057    6.5338     20.0636    6.8845     90.1893    8.6149     0.4434    
2583.4     2.5544     9.2521     16.6321    16.2088    6.5408     20.4475    7.9824     91.2269    8.6834     0.4434    
2583.6     2.5215     9.2061     16.4195    16.3151    6.5211     20.4574    7.3071     91.887     8.8181     0.4463    
2583.8     2.4804     9.0107     15.9734    16.0322    6.5014     20.3775    7.5205     91.2791    8.9599     0.4525    
2584       2.5055     8.8511     15.7122    16.0465    6.3398     20.3972    7.9871     90.9828    9.1207     0.4612    
2584.2     2.5414     9.0196     15.6446    16.0844    6.2869     20.4057    8.5453     90.9782    9.2273     0.461     
2584.4     2.5773     9.0832     15.5799    16.1144    6.2869     20.6195    8.4419     91.8909    9.3327     0.461     
2584.6     2.5882     9.2353     15.5429    16.1404    6.2869     20.8982    8.4298     92.4095    9.4374     0.461     
