~Version
 VERS              .         2.0                           : CWLS LOG ASCII STANDARD - VERSION 2.0
 WRAP              .         NO                            : ONE LINE PER DEPTH STEP
 DLM               .         SPACE                         : DELIMITING CHARACTER(SPACE TAB OR COMMA)
~Well Information
#_______________________________________________________________________________
#
#PARAMETER_NAME    .UNIT     VALUE                         : DESCRIPTION
#_______________________________________________________________________________
STRT               .m        2491                          : First reference value
STOP               .m        2703                          : Last reference value
STEP               .m        0.2                           : Step increment
NULL               .         -9999                         : Missing value
COMP               .                                       : Company
WELL               .         603                           : Well name
FLD                .                                       : Field
LOC                .                                       : Location
CNTY               .                                       : County
STAT               .                                       : State
CTRY               .                                       : Country
SRVC               .                                       : Service Company
DATE               .                                       : Date
API                .                                       : API number
EREF               .m        134                           : 
X                  .m        225746                        : 
Y                  .m        235643                        : 
group              .         Pad6                          : 
Интер-р            .         Старостина                    : 
Куст               .         6                             : 
Статус             .         Не проверено                  : 
Тип                .         Нагнетательные                : 
~Parameter Information Block
#_______________________________________________________________________________
#
#PARAMETER_NAME    .UNIT     VALUE                         : DESCRIPTION
#_______________________________________________________________________________
SET                .         LAS1                          : 
REAL_CREATION_DATE .         Ср апр 11 2012-13_17_22       : 
TLFamily_DEPTH     .         Measured Depth                : 
TLFamily_GZ1       .         Extra Shallow Resistivity     : 
TLFamily_GZ2       .         Shallow Resistivity           : 
TLFamily_GZ3       .         Medium Resistivity            : 
TLFamily_GZ4       .         Deep Resistivity              : 
TLFamily_GZ5       .         Extra Deep Resistivity        : 
TLFamily_GZr       .         Medium Resistivity Inverted   : 
TLFamily_LLD       .         Lateral Log Resistivity       : 
TLFamily_PS        .         Spontaneous Potential         : 
TLFamily_PZ        .         Potential Resistivity         : 
TLFamily_RS        .         Mud Resistivity               : 
group              .         INI                           : 
~Curve Information
#_______________________________________________________________________________
#
#LOGNAME           .UNIT     LOG_ID                        : DESCRIPTION
#_______________________________________________________________________________
DEPTH              .m                                      : Measured Depth 
GZ1                .ohm.m                                  : Extra Shallow Resistivity 
GZ2                .ohm.m                                  : Shallow Resistivity 
GZ3                .ohm.m                                  : Medium Resistivity 
GZ4                .ohm.m                                  : Deep Resistivity 
GZ5                .ohm.m                                  : Extra Deep Resistivity 
GZr                .ohm.m                                  : Medium Resistivity Inverted 
LLD                .ohm.m                                  : Lateral Log Resistivity 
PS                 .mV                                     : Spontaneous Potential 
PZ                 .ohm.m                                  : Potential Resistivity 
RS                 .ohm.m                                  : Mud Resistivity 
~Ascii
# ...
2638.4     2.2246     7.3547     11.9417    12.0766    8.218      13.2258    21.477     44.4976    7.1005     0.4296    
2638.6     2.1874     8.6697     12.7231    12.7763    8.6243     13.5137    6.7754     46.68      7.0718     0.4344    
2638.8     2.0129     8.5677     12.4773    13.4761    9.0307     13.8017    4.7232     48.1401    7.043      0.4321    
2639       1.8383     7.9207     11.3779    13.5385    9.437      14.0896    4.7644     49.9311    7.0194     0.4262    
2639.2     1.7387     7.6538     10.5991    12.3477    9.429      14.3775    4.242      51.8964    7.0171     0.4248    
2639.4     1.9637     7.3851     10.1       11.4689    9.2845     14.6655    4.6437     52.2063    7.0684     0.424     
2639.6     2.024      7.1164     9.9237     11.1518    9.6276     15.4669    5.8157     53.2521    7.1354     0.4231    
2639.8     2.0639     6.9828     10.5614    11.6998    10.0175    16.2593    11.429     52.9717    7.2024     0.4222    
2640       2.1037     7.9922     11.807     12.434     10.5332    16.9079    6.4744     51.6888    7.2694     0.4213    
2640.2     2.1436     8.2278     12.7983    12.5288    11.002     16.7143    5.1591     52.1633    7.3364     0.4205    
2640.4     2.1835     8.1619     13.1061    11.9958    11.4247    16.8051    7.7289     52.4557    7.4034     0.4196    
2640.6     2.2234     8.096      13.3217    11.898     11.2674    17.0197    10.0025    51.7802    7.4704     0.4187    
2640.8     2.2632     8.0301     13.5373    11.7756    10.749     16.576     5.3132     51.6416    7.5375     0.4179    
2641       2.3031     7.9642     13.5516    11.143     10.2804    16.2114    4.6833     50.1503    7.6045     0.417     
2641.2     2.343      7.8983     12.454     10.0908    9.7595     16.6805    4.9458     50.4829    7.6715     0.4161    
2641.4     2.3862     7.8269     12.1671    9.5461     9.1299     18.383     8.0665     49.9738    7.7423     0.4151    
2641.6     2.4227     7.7665     12.1924    9.7239     8.7403     19.3758    14.8462    49.422     7.8055     0.4144    
2641.8     2.4626     7.7006     12.22      10.4245    8.3675     18.8615    7.32       49.1114    7.8725     0.4316    
2642       2.5025     7.6347     12.2476    10.9219    7.9253     17.5577    5.5651     48.9316    7.9579     0.4316    
2642.2     2.4985     7.5687     12.2752    10.7518    7.4832     16.4916    5.7765     47.3791    8.0379     0.4312    
2642.4     2.3616     7.5028     12.3028    10.3111    7.0411     16.2078    6.4541     46.0293    8.1058     0.432     
2642.6     2.2242     7.4369     12.3303    9.8993     6.5989     16.1901    6.5939     46.1283    8.1675     0.4375    
2642.8     2.1571     7.3955     12.3579    9.4874     6.1568     16.1347    6.956      45.0661    8.274      0.437     
2643       2.105      7.1864     12.3855    9.0651     5.7146     15.9981    8.4241     44.0573    8.4359     0.4414    
2643.2     2.0656     6.8972     12.4131    8.8476     5.279      15.8206    8.9437     43.1925    8.5885     0.4375    
2643.4     2.0833     7.0012     12.4407    9.3817     5.2743     15.7817    7.9587     41.0015    8.6226     0.4358    
2643.6     2.2107     7.4522     12.4683    10.1487    5.4044     16.0876    6.9374     39.5039    8.6644     0.4229    
2643.8     2.2763     7.6195     12.4959    10.9157    5.6418     16.8548    6.2289     37.1419    8.6682     0.4159    
2644       2.2496     7.7511     12.6511    11.6827    6.0993     18.3776    6.1742     34.0526    8.6682     0.4113    
2644.2     2.1285     7.5231     13.1419    12.4497    6.7981     20.8226    6.5862     32.3893    8.7172     0.421     
2644.4     2.0472     7.2868     13.6169    13.2166    7.8072     24.3562    7.9992     30.1508    8.8778     0.4252    
2644.6     2.0184     7.5967     14.3353    13.9836    9.1656     27.6243    9.0483     28.7108    9.0863     0.4212    
2644.8     2.0151     7.7853     15.7369    14.7506    10.5124    30.4431    14.7403    26.8947    9.3359     0.4124    
2645       2.2695     8.8071     17.6007    15.5176    11.8278    31.3836    36.2881    25.9827    9.499      0.4325    
2645.2     2.6117     9.8143     19.6939    16.2846    12.4122    30.3282    34.7118    25.4184    9.5106     0.4379    
2645.4     3.0672     10.9684    20.7676    17.0516    12.2756    27.2501    8.9104     28.8439    9.5233     0.443     
2645.6     2.7543     9.7148     18.6348    17.8186    11.485     24.019     6.0823     29.8569    9.6117     0.4375    
2645.8     2.2965     8.3211     15.7356    18.5856    10.4181    21.9847    5.9127     33.548     9.7175     0.436     
2646       2.0267     7.685      13.8091    18.7629    9.2227     22.004     5.8314     36.3297    9.8386     0.4304    
2646.2     1.9059     7.2302     12.8698    17.7448    8.5664     23.583     5.423      37.1511    9.965      0.4211    
2646.4     1.8574     7.2073     12.4324    16.918     8.6709     25.6757    5.6932     37.8229    10.2658    0.4137    
2646.6     1.7008     6.8612     12.6967    16.6125    9.4451     25.4503    14.1351    37.9028    10.7037    0.4139    
2646.8     1.8209     7.4428     13.9391    17.0585    10.4603    23.1433    29.4028    36.5399    11.5216    0.4142    
2647       2.0219     7.9933     15.9536    18.2969    11.4754    19.5406    82.3904    35.5818    12.3939    0.4151    
2647.2     2.3714     8.9226     18.3458    19.6949    12.4906    16.5405    112.1544   33.9544    13.0277    0.4311    
2647.4     2.7326     10.0054    21.1951    21.2944    13.3874    14.465     110.4708   30.0392    13.2894    0.4268    
2647.6     3.2066     11.9391    23.7374    24.0876    13.5613    12.96      49.3542    29.0689    13.2197    0.4373    
2647.8     3.4207     13.2221    26.0641    26.0714    12.9185    11.7084    60.4813    27.8974    12.8281    0.4339    
2648       3.7196     15.1913    27.4559    27.4847    12.2757    10.5772    35.8376    27.1254    12.2023    0.4594    
2648.2     3.8581     16.2283    29.4096    29.6193    11.6329    9.5739     46.6406    27.3015    11.2147    0.4537    
2648.4     4.2512     18.349     32.0963    32.362     10.9901    8.6974     29.7545    29.5727    9.8659     0.4588    
2648.6     4.6861     20.424     34.6924    34.6188    10.3473    8.0952     9.045      31.3927    8.3874     0.4571    
2648.8     4.458      19.3732    34.9912    34.4313    9.7045     7.5576     4.2773     32.8278    7.2129     0.4511    
2649       3.6148     15.9721    32.3799    31.2486    9.0617     7.1546     3.8308     36.1667    6.1939     0.4353    
2649.2     3.1173     13.6404    28.0245    26.8473    8.4189     7.1983     2.4895     39.4308    5.603      0.4305    
2649.4     2.316      9.7002     22.4714    21.8687    7.7761     7.5963     2.1718     40.9918    5.3147     0.4257    
2649.6     1.8244     7.0811     17.6023    17.1949    7.1333     9.0269     2.5016     42.531     5.1742     0.4198    
2649.8     1.6324     6.0115     14.6783    14.4814    6.4904     10.6177    3.2502     42.6613    5.1678     0.4227    
2650       1.5643     5.3089     13.1172    13.0161    5.8476     11.8587    4.0667     43.6095    5.3896     0.4257    
2650.2     1.616      4.9364     12.218     12.3548    5.2048     12.6086    4.9123     44.7469    5.6025     0.4262    
2650.4     1.8584     5.1055     11.5913    12.1101    4.9025     13.6596    3.9781     44.3704    5.8215     0.4397    
2650.6     1.8338     4.8884     10.6103    11.685     4.6325     14.2732    5.1953     44.7585    6.0998     0.4414    
2650.8     1.7119     4.6699     9.3699     11.2135    4.3527     13.9524    7.2708     45.3734    6.4356     0.4375    
2651       1.8614     5.1494     8.5251     11.1598    4.0419     13.1951    7.0069     44.7429    6.7637     0.443     
2651.2     1.9965     5.4572     8.0118     11.2274    3.7494     12.0046    6.52       45.1041    6.9461     0.436     
2651.4     2.0762     5.7173     7.556      11.0625    3.4924     8.9232     6.2258     44.8228    7.049      0.4343    
2651.6     2.1032     6.0566     7.2598     10.8775    3.2945     5.7483     6.3405     45.2503    7.1033     0.436     
