~Version
 VERS              .         2.0                           : CWLS LOG ASCII STANDARD - VERSION 2.0
 WRAP              .         NO                            : ONE LINE PER DEPTH STEP
 DLM               .         SPACE                         : DELIMITING CHARACTER(SPACE TAB OR COMMA)
~Well Information
#_______________________________________________________________________________
#
#PARAMETER_NAME    .UNIT     VALUE                         : DESCRIPTION
#_______________________________________________________________________________
STRT               .m        2491                          : First reference value
STOP               .m        2703                          : Last reference value
STEP               .m        0.2                           : Step increment
NULL               .         -9999                         : Missing value
COMP               .                                       : Company
WELL               .         603                           : Well name
FLD                .                                       : Field
LOC                .                                       : Location
CNTY               .                                       : County
STAT               .                                       : State
CTRY               .                                       : Country
SRVC               .                                       : Service Company
DATE               .                                       : Date
API                .                                       : API number
EREF               .m        134                           : 
X                  .m        225746                        : 
Y                  .m        235643                        : 
group              .         Pad6                          : 
Интер-р            .         Старостина                    : 
Куст               .         6                             : 
Статус             .         Не проверено                  : 
Тип                .         Нагнетательные                : 
~Parameter Information Block
#_______________________________________________________________________________
#
#PARAMETER_NAME    .UNIT     VALUE                         : DESCRIPTION
#_______________________________________________________________________________
SET                .         LAS1                          : 
REAL_CREATION_DATE .         Ср апр 11 2012-13_17_22       : 
TLFamily_DEPTH     .         Measured Depth                : 
TLFamily_GZ1       .         Extra Shallow Resistivity     : 
TLFamily_GZ2       .         Shallow Resistivity           : 
TLFamily_GZ3       .         Medium Resistivity            : 
TLFamily_GZ4       .         Deep Resistivity              : 
TLFamily_GZ5       .         Extra Deep Resistivity        : 
TLFamily_GZr       .         Medium Resistivity Inverted   : 
TLFamily_LLD       .         Lateral Log Resistivity       : 
TLFamily_PS        .         Spontaneous Potential         : 
TLFamily_PZ        .         Potential Resistivity         : 
TLFamily_RS        .         Mud Resistivity               : 
group              .         INI                           : 
~Curve Information
#_______________________________________________________________________________
#
#LOGNAME           .UNIT     LOG_ID                        : DESCRIPTION
#_______________________________________________________________________________
DEPTH              .m                                      : Measured Depth 
GZ1                .ohm.m                                  : Extra Shallow Resistivity 
GZ2                .ohm.m                                  : Shallow Resistivity 
GZ3                .ohm.m                                  : Medium Resistivity 
GZ4                .ohm.m                                  : Deep Resistivity 
GZ5                .ohm.m                                  : Extra Deep Resistivity 
GZr                .ohm.m                                  : Medium Resistivity Inverted 
LLD                .ohm.m                                  : Lateral Log Resistivity 
PS                 .mV                                     : Spontaneous Potential 
PZ                 .ohm.m                                  : Potential Resistivity 
RS                 .ohm.m                                  : Mud Resistivity 
~Ascii
# ...
2531.2     -0.1061    -0.1076    -0.05      -0.27      -0.44      -0.0667    -4.6047    -9999      0.04       0.3197    
2531.4     -0.1061    -0.1076    -0.05      -0.27      -0.44      -0.0667    -4.9643    -9999      0.04       0.2751    
2531.6     -0.1061    -0.1076    -0.05      -0.27      -0.44      -0.0667    -7.561     -9999      0.04       0.3197    
2531.8     -0.1061    -0.1076    -0.05      -0.27      -0.44      -0.0667    -8.467     -9999      0.04       0.3106    
2532       -0.1061    -0.1076    -0.05      -0.27      -0.44      -0.0667    -1.9557    -9999      0.04       0.3197    
2532.2     -0.1051    -0.1076    -0.05      -0.27      -0.44      -0.0667    -3.3379    -9999      0.04       0.31      
2532.4     -0.1061    -0.1076    -0.05      -0.27      -0.44      -0.0667    -5.009     -9999      0.04       0.3197    
2532.6     -0.1061    -0.1076    -0.05      -0.27      -0.44      -0.0667    -4.4716    -9999      0.04       0.3197    
2532.8     -0.1061    -0.1076    -0.05      -0.27      -0.44      -0.0667    -4.6516    -9999      0.04       0.1653    
2533       -0.1061    -0.1076    -0.05      -0.27      -0.44      -0.0667    -3.7987    -9999      0.04       0.3197    
2533.2     -0.1061    -0.1076    -0.05      -0.27      -0.44      -0.0667    -5.075     -9999      0.04       0.3197    
2533.4     -0.1061    -0.1076    -0.05      -0.27      -0.44      -0.0667    -5.5164    -9999      0.04       0.3197    
2533.6     -0.1061    -0.1076    -0.05      -0.27      -0.44      -0.0667    -4.7064    -9999      0.04       0.2934    
2533.8     -0.1061    -0.1076    -0.05      -0.27      -0.44      -0.0667    -4.6296    -9999      0.04       0.2601    
2534       -0.1061    -0.1076    -0.05      -0.27      -0.44      -0.0667    -3.2602    -9999      0.04       0.3197    
2534.2     -0.1061    -0.1076    -0.05      -0.27      -0.44      -0.0667    -1.4282    -9999      0.04       0.0837    
2534.4     -0.1061    -0.1076    -0.05      -0.27      -0.44      -0.0667    -1.6468    -9999      0.04       0.304     
2534.6     -0.1061    -0.1076    -0.05      -0.27      -0.44      -0.0667    -2.793     -9999      0.04       0.3032    
2534.8     -0.1061    -0.1076    -0.05      -0.27      -0.44      -0.0667    -2.5731    -9999      0.04       0.2564    
2535       -0.1061    -0.1076    -0.05      -0.27      -0.44      -0.056     -0.7804    -9999      0.04       0.2746    
2535.2     -0.1061    -0.1109    -0.05      -0.27      -0.387     1.5423     -1.9844    -9999      0.04       0.2872    
2535.4     -0.1061    -0.146     -0.05      -0.27      -0.387     9.6814     -3.3104    -9999      0.04       0.2847    
2535.6     -0.1061    -0.1076    -0.05      -0.2649    -0.3341    19.8294    -121.0735  -9999      0.04       0.347     
2535.8     -0.1001    -0.1076    -0.05      -0.2275    -0.3341    24.4245    -119.1144  -9999      0.3513     0.3752    
2536       0.0304     -0.1076    -0.05      -0.2183    -0.2811    23.7783    2453.29    -9999      2.0004     0.3988    
2536.2     0.6835     -0.1076    -0.05      -0.2477    -0.3341    21.214     966.209    -9999      3.4154     0.4736    
2536.4     1.233      -0.1076    -0.05      -0.27      -0.3341    19.0571    687.8381   -9999      4.3175     0.3978    
2536.6     1.5175     0.2123     -0.05      -0.27      -0.3805    17.4013    1227.092   -9999      5.045      0.4022    
2536.8     1.6123     1.9082     -0.05      -0.27      -0.387     16.6405    960.6235   -9999      5.6246     0.4021    
2537       1.6685     3.4153     -0.05      -0.27      -0.387     16.0114    1109.537   -9999      6.1709     0.398     
2537.2     1.9195     4.6599     -0.05      -0.27      -0.387     15.1371    558.4764   -9999      6.5606     0.4022    
2537.4     2.275      6.0291     -0.05      -0.27      -0.387     14.038     553.9508   -9999      6.7684     0.4084    
2537.6     2.6341     7.2397     -0.05      -0.27      -0.387     13.0913    659.0331   -9999      6.7316     0.4167    
2537.8     2.7921     7.8752     0.4919     -0.27      -0.387     12.6535    646.5374   -9999      6.6399     0.4198    
2538       2.5345     7.5239     3.4137     -0.27      -0.387     12.5439    -58.9843   -9999      6.5312     0.416     
2538.2     2.3377     7.5965     5.909      -0.27      -0.4175    12.5299    -17.0165   -9999      6.3998     0.4245    
2538.4     2.41       8.0749     7.5861     -0.27      -0.44      12.7089    -13.8341   -9999      6.341      0.4432    
2538.6     2.391      7.83       8.7978     -0.27      -0.44      12.6241    -9.3287    -9999      6.2573     0.4367    
2538.8     2.4029     7.8013     9.4914     -0.27      -0.44      12.5209    0.3708     34.5179    6.1441     0.4288    
2539       2.438      7.5819     9.9061     -0.27      -0.44      12.6502    3.3278     32.4987    6.0824     0.4434    
2539.2     2.2467     6.902      9.7638     -0.27      -0.44      13.5181    3.2056     30.4462    6.0147     0.4432    
2539.4     2.0493     6.4389     9.7043     -0.27      -0.44      14.3344    3.5326     28.8795    6.0715     0.4436    
2539.6     2.0655     6.3702     9.591      -0.27      -0.44      14.797     4.8912     28.2396    6.21       0.4489    
2539.8     1.9876     6.2105     9.5624     0.1171     -0.44      14.4237    4.6503     27.8495    6.5045     0.4494    
2540       1.9781     5.9897     9.4824     2.1481     -0.44      13.9919    6.0585     27.4411    6.6855     0.4293    
2540.2     2.2227     6.5235     9.6663     4.0875     -0.44      13.6732    5.9831     26.1722    6.8254     0.4322    
2540.4     2.2539     6.6262     9.7305     5.4176     -0.44      13.8913    4.6288     24.0489    6.9863     0.4357    
2540.6     2.0237     6.3871     9.6396     6.4142     -0.44      14.3749    4.6086     22.5379    7.2122     0.432     
2540.8     2.0706     6.5707     9.8552     7.3206     -0.44      14.3334    6.715      22.6386    7.478      0.4401    
2541       2.1943     7.0701     10.3832    8.4235     -0.44      13.6678    9.9017     22.685     7.7929     0.4347    
2541.2     2.3981     7.6429     10.963     9.5282     -0.44      12.9576    9.981      21.6801    7.9387     0.4361    
2541.4     2.6215     8.186      11.6594    10.6427    -0.44      12.2908    9.803      20.8169    7.9712     0.4376    
2541.6     2.8228     8.9341     12.4687    11.4897    -0.44      11.6381    9.6178     20.6236    7.8343     0.4412    
2541.8     2.097      9.4692     13.056     11.7783    -0.44      10.8876    7.7437     20.0762    7.6284     0.4362    
2542       1.2529     9.5974     13.4519    11.8837    -0.44      10.2006    6.6207     18.9792    7.3466     0.4286    
2542.2     2.8744     9.9888     13.7146    11.7601    -0.44      9.8257     6.4762     17.6776    6.968      0.4316    
2542.4     2.7948     9.706      13.5468    11.3622    -0.44      9.6399     5.0591     16.4275    6.6868     0.4319    
2542.6     2.5344     8.7408     12.8172    10.7434    -0.44      9.7553     4.2477     15.7693    6.5056     0.4366    
2542.8     2.3187     7.9911     12.3486    10.3691    -0.44      10.3442    4.0938     15.9779    6.3302     0.4407    
2543       2.2787     7.7547     12.429     10.2087    -0.44      10.9223    4.3413     17.0675    6.1652     0.4404    
2543.2     2.2425     7.5117     12.3496    10.0105    -0.44      11.3077    4.6929     18.3063    6.1405     0.4381    
2543.4     2.1937     6.9809     12.0233    9.7565     -0.44      11.741     3.9789     19.5534    6.2465     0.436     
2543.6     2.078      6.5207     11.6763    9.7701     -0.44      12.0163    4.7932     21.1779    6.3167     0.4303    
2543.8     2.0986     6.5583     11.7669    10.153     -0.44      11.8963    6.57       23.5998    6.4152     0.4413    
2544       2.2885     7.0343     11.931     10.6382    -0.4263    11.7442    6.1823     25.0794    6.3993     0.4437    
2544.2     2.4715     7.3015     11.6803    10.7681    0.6625     11.7335    5.0264     24.6576    6.378      0.4487    
2544.4     2.3325     6.8141     10.9432    10.4666    1.929      11.9197    4.2119     23.444     6.378      0.4434    
