~Version
 VERS              .         2.0                           : CWLS LOG ASCII STANDARD - VERSION 2.0
 WRAP              .         NO                            : ONE LINE PER DEPTH STEP
 DLM               .         SPACE                         : DELIMITING CHARACTER(SPACE TAB OR COMMA)
~Well Information
#_______________________________________________________________________________
#
#PARAMETER_NAME    .UNIT     VALUE                         : DESCRIPTION
#_______________________________________________________________________________
STRT               .m        2491                          : First reference value
STOP               .m        2703                          : Last reference value
STEP               .m        0.2                           : Step increment
NULL               .         -9999                         : Missing value
COMP               .                                       : Company
WELL               .         603                           : Well name
FLD                .                                       : Field
LOC                .                                       : Location
CNTY               .                                       : County
STAT               .                                       : State
CTRY               .                                       : Country
SRVC               .                                       : Service Company
DATE               .                                       : Date
API                .                                       : API number
EREF               .m        134                           : 
X                  .m        225746                        : 
Y                  .m        235643                        : 
group              .         Pad6                          : 
Интер-р            .         Старостина                    : 
Куст               .         6                             : 
Статус             .         Не проверено                  : 
Тип                .         Нагнетательные                : 
~Parameter Information Block
#_______________________________________________________________________________
#
#PARAMETER_NAME    .UNIT     VALUE                         : DESCRIPTION
#_______________________________________________________________________________
SET                .         LAS1                          : 
REAL_CREATION_DATE .         Ср апр 11 2012-13_17_22       : 
TLFamily_DEPTH     .         Measured Depth                : 
TLFamily_GZ1       .         Extra Shallow Resistivity     : 
TLFamily_GZ2       .         Shallow Resistivity           : 
TLFamily_GZ3       .         Medium Resistivity            : 
TLFamily_GZ4       .         Deep Resistivity              : 
TLFamily_GZ5       .         Extra Deep Resistivity        : 
TLFamily_GZr       .         Medium Resistivity Inverted   : 
TLFamily_LLD       .         Lateral Log Resistivity       : 
TLFamily_PS        .         Spontaneous Potential         : 
TLFamily_PZ        .         Potential Resistivity         : 
TLFamily_RS        .         Mud Resistivity               : 
group              .         INI                           : 
~Curve Information
#_______________________________________________________________________________
#
#LOGNAME           .UNIT     LOG_ID                        : DESCRIPTION
#_______________________________________________________________________________
DEPTH              .m                                      : Measured Depth 
GZ1                .ohm.m                                  : Extra Shallow Resistivity 
GZ2                .ohm.m                                  : Shallow Resistivity 
GZ3                .ohm.m                                  : Medium Resistivity 
GZ4                .ohm.m                                  : Deep Resistivity 
GZ5                .ohm.m                                  : Extra Deep Resistivity 
GZr                .ohm.m                                  : Medium Resistivity Inverted 
LLD                .ohm.m                                  : Lateral Log Resistivity 
PS                 .mV                                     : Spontaneous Potential 
PZ                 .ohm.m                                  : Potential Resistivity 
RS                 .ohm.m                                  : Mud Resistivity 
~Ascii
# ...
2651.8     2.0429     6.391      7.0735     10.4265    3.1803     2.7295     6.2603     45.514     7.1651     0.4254    
2652       1.9252     6.2079     7.2802     10.1336    3.1618     2.9113     6.0834     44.9059    7.2228     0.4219    
2652.2     2.0924     6.6877     7.6997     9.8878     3.2345     4.0037     6.3017     45.9098    7.2568     0.4313    
2652.4     2.0778     6.674      8.2805     9.8311     3.3778     5.0961     6.6422     47.089     7.316      0.4262    
2652.6     2.0535     6.618      8.6761     9.6427     3.635      6.1884     7.5536     47.0716    7.4331     0.4367    
2652.8     2.1032     6.7313     9.3324     9.6516     4.0128     7.2808     7.6342     47.5905    7.5441     0.4434    
2653       2.151      6.8297     10.0474    9.7565     4.5037     8.3732     7.7901     47.48      7.6471     0.4423    
2653.2     2.2052     6.9627     10.5772    9.9532     5.2826     9.4655     7.4159     46.7252    7.7035     0.4395    
2653.4     2.2573     7.1624     10.9736    10.2763    6.2753     10.5579    6.7869     46.7513    7.7095     0.4374    
2653.6     2.2648     7.3376     11.4099    10.8532    7.6101     11.6503    7.513      45.958     7.7095     0.4358    
2653.8     2.2648     7.5219     11.8823    11.7917    9.3394     12.7427    7.5343     44.4514    7.6979     0.434     
2654       2.2976     7.6267     12.3939    13.1523    11.4453    13.6946    7.7383     43.916     7.682      0.4323    
2654.2     2.3458     7.8665     13.0442    14.8585    14.1166    14.4715    7.5292     43.8162    7.6662     0.4323    
2654.4     2.3939     8.1093     13.7906    16.9787    17.59      15.3838    7.0783     43.5249    7.6373     0.4334    
2654.6     2.4215     8.3721     14.8738    19.815     21.7626    16.7562    6.1306     42.8927    7.5865     0.4345    
2654.8     2.4061     8.6686     16.1969    23.8455    26.0196    18.5802    6.5784     42.9585    7.5357     0.4357    
2655       2.3907     8.9651     17.5766    27.6744    29.4806    20.3035    14.0945    44.0913    7.485      0.4368    
2655.2     2.3753     9.1044     18.2695    29.3883    31.8167    20.4539    9.2159     44.9323    7.4342     0.4379    
2655.4     2.3599     8.9146     17.5403    27.6834    31.9891    18.6078    6.2774     45.0514    7.3834     0.439     
2655.6     2.3445     8.7248     16.5613    24.4476    29.6548    16.5433    6.1565     45.4576    7.3326     0.4402    
2655.8     2.3291     8.535      15.3292    21.0915    25.9393    15.1561    4.9492     45.6787    7.2819     0.4413    
2656       2.3137     8.3453     14.1397    17.9567    22.6755    14.4377    4.7705     44.6649    7.2311     0.4424    
2656.2     2.2982     8.1555     12.9501    15.8419    19.888     14.3388    5.8156     43.7181    7.1803     0.4434    
2656.4     2.2828     7.9657     12.1303    14.1842    17.5384    14.5118    6.7526     43.5866    7.1245     0.4434    
2656.6     2.2681     7.7759     12.0846    13.435     15.8291    14.705     5.9395     43.0792    7.0703     0.4371    
2656.8     2.2648     7.5862     12.0389    12.7204    14.364     14.8951    5.8984     43.0463    7.0703     0.4316    
2657       2.2678     7.3964     11.9932    11.9087    12.986     15.1118    5.5256     44.1398    7.1044     0.4316    
2657.2     2.2053     7.2082     11.9476    11.0055    11.5249    15.0236    6.5153     45.3872    7.2183     0.4316    
2657.4     2.1391     7.0745     11.9019    10.1934    10.2049    14.7871    6.0883     45.581     7.3322     0.4386    
2657.6     2.116      6.8742     11.8562    9.4396     9.0104     14.6105    6.6106     45.8254    7.4659     0.4486    
2657.8     2.1043     6.8161     11.8105    8.7836     8.0865     14.823     7.3754     46.8367    7.5401     0.4431    
2658       2.1571     7.0005     11.7648    8.0941     7.4063     15.1168    7.3776     47.2912    7.6784     0.4375    
2658.2     2.1986     7.1798     11.7191    7.4047     7.0327     15.4107    7.7644     47.2271    7.7522     0.4316    
2658.4     2.2369     7.3753     11.6943    7.3011     6.7659     15.7045    8.2128     47.7806    7.816      0.4257    
2658.6     2.3269     7.7013     12.0517    8.4246     6.5579     15.9983    7.9183     47.9423    7.8692     0.4305    
2658.8     2.3508     7.911      12.4743    9.548      6.4987     16.2921    7.8101     47.5222    7.8936     0.4382    
2659       2.3529     8.0397     12.6989    10.6714    6.4458     16.586     7.7855     47.4848    7.9225     0.4493    
2659.2     2.3726     8.0503     12.9978    11.7948    6.4731     16.8798    7.7924     47.9066    7.9599     0.4457    
2659.4     2.3726     8.0967     13.3395    12.9182    6.5934     17.1736    8.0879     47.5898    7.9758     0.4454    
2659.6     2.3726     8.191      13.7648    14.0416    6.8016     17.4674    8.4989     47.1363    8.0093     0.4392    
2659.8     2.4032     8.4339     14.3327    15.1651    7.1303     17.7613    8.4027     47.894     7.9649     0.4318    
2660       2.4452     8.765      15.0732    16.2885    7.3494     18.0551    8.091      48.7326    7.9328     0.4269    
2660.2     2.5102     9.0752     15.8052    17.4119    7.4522     18.5215    8.1908     48.7633    7.8856     0.4288    
2660.4     2.5843     9.281      15.8946    18.4514    7.2989     18.3415    7.6454     48.7633    7.9338     0.4307    
2660.6     2.571      8.8655     15.3509    17.6406    7.0144     17.6547    7.0672     49.5442    7.982      0.4327    
2660.8     2.5577     8.5495     14.6322    16.3174    6.5463     16.8945    7.475      51.023     8.0302     0.4346    
2661       2.5444     8.3973     14.2735    15.6004    6.1155     16.475     7.8357     56.1585    8.0784     0.4365    
2661.2     2.5311     8.4576     14.0292    15.0395    5.7667     16.1612    7.2614     58.7218    8.1266     0.4385    
2661.4     2.5178     8.518      13.6994    14.4993    5.4838     16.1374    6.8183     64.2566    8.1748     0.4404    
2661.6     2.5045     8.5783     13.2998    13.924     5.3762     16.3545    6.5406     66.0376    8.223      0.4424    
2661.8     2.4912     8.6387     13.0135    13.3005    5.2983     16.8079    7.1296     67.0944    8.2712     0.4443    
2662       2.4779     8.699      12.885     12.9217    5.4028     17.7155    7.7642     69.2336    8.3194     0.4462    
2662.2     2.4646     8.7594     12.9489    12.9483    5.6868     18.6231    8.633      70.1573    8.3676     0.4482    
2662.4     2.4513     8.8197     13.1505    13.2523    5.9707     19.1283    9.2387     70.7652    8.4158     0.443     
2662.6     2.438      8.8801     13.352     13.685     6.2657     18.5695    9.6397     71.8275    8.4899     0.4379    
2662.8     2.4316     8.9404     13.5536    14.1484    6.6999     18.0108    9.7178     69.6556    8.5936     0.4351    
2663       2.4804     9.0008     13.7551    14.5493    7.1341     17.4521    9.3691     68.6819    8.6703     0.4262    
2663.2     2.5067     9.0611     13.9567    14.8819    7.5683     16.9391    9.283      66.3021    8.7214     0.433     
2663.4     2.5427     9.1402     14.1582    15.0898    8.0026     16.7216    8.9256     63.3107    8.6895     0.4493    
2663.6     2.5882     9.2568     14.3598    15.2443    8.4368     16.5593    8.4293     60.2567    8.6821     0.4487    
2663.8     2.5882     9.2765     14.5613    15.2671    8.871      16.4488    8.0263     59.255     8.6682     0.4377    
2664       2.5023     9.1769     14.7629    15.1402    9.3052     16.0514    8.1136     58.682     8.7108     0.4263    
2664.2     2.44       8.6334     14.9644    15.0217    9.7394     15.8988    8.1679     56.262     8.7254     0.4341    
2664.4     2.424      8.8514     15.166     14.9568    10.1736    15.8681    8.5237     54.3774    8.9983     0.442     
2664.6     2.2327     9.0475     15.3245    14.8918    10.6078    16.1241    8.2408     50.9591    9.3362     0.4491    
2664.8     1.9808     8.7084     15.2604    14.8269    10.753     16.2054    7.6799     49.5938    9.6667     0.4463    
2665       1.7343     8.4964     15.0611    14.762     10.6499    16.3888    7.7316     48.6274    9.6004     0.4436    
