~Version
 VERS              .         2.0                           : CWLS LOG ASCII STANDARD - VERSION 2.0
 WRAP              .         NO                            : ONE LINE PER DEPTH STEP
 DLM               .         SPACE                         : DELIMITING CHARACTER(SPACE TAB OR COMMA)
~Well Information
#_______________________________________________________________________________
#
#PARAMETER_NAME    .UNIT     VALUE                         : DESCRIPTION
#_______________________________________________________________________________
STRT               .m        2491                          : First reference value
STOP               .m        2703                          : Last reference value
STEP               .m        0.2                           : Step increment
NULL               .         -9999                         : Missing value
COMP               .                                       : Company
WELL               .         603                           : Well name
FLD                .                                       : Field
LOC                .                                       : Location
CNTY               .                                       : County
STAT               .                                       : State
CTRY               .                                       : Country
SRVC               .                                       : Service Company
DATE               .                                       : Date
API                .                                       : API number
EREF               .m        134                           : 
X                  .m        225746                        : 
Y                  .m        235643                        : 
group              .         Pad6                          : 
Интер-р            .         Старостина                    : 
Куст               .         6                             : 
Статус             .         Не проверено                  : 
Тип                .         Нагнетательные                : 
~Parameter Information Block
#_______________________________________________________________________________
#
#PARAMETER_NAME    .UNIT     VALUE                         : DESCRIPTION
#_______________________________________________________________________________
SET                .         LAS1                          : 
REAL_CREATION_DATE .         Ср апр 11 2012-13_17_22       : 
TLFamily_DEPTH     .         Measured Depth                : 
TLFamily_GZ1       .         Extra Shallow Resistivity     : 
TLFamily_GZ2       .         Shallow Resistivity           : 
TLFamily_GZ3       .         Medium Resistivity            : 
TLFamily_GZ4       .         Deep Resistivity              : 
TLFamily_GZ5       .         Extra Deep Resistivity        : 
TLFamily_GZr       .         Medium Resistivity Inverted   : 
TLFamily_LLD       .         Lateral Log Resistivity       : 
TLFamily_PS        .         Spontaneous Potential         : 
TLFamily_PZ        .         Potential Resistivity         : 
TLFamily_RS        .         Mud Resistivity               : 
group              .         INI                           : 
~Curve Information
#_______________________________________________________________________________
#
#LOGNAME           .UNIT     LOG_ID                        : DESCRIPTION
#_______________________________________________________________________________
DEPTH              .m                                      : Measured Depth 
GZ1                .ohm.m                                  : Extra Shallow Resistivity 
GZ2                .ohm.m                                  : Shallow Resistivity 
GZ3                .ohm.m                                  : Medium Resistivity 
GZ4                .ohm.m                                  : Deep Resistivity 
GZ5                .ohm.m                                  : Extra Deep Resistivity 
GZr                .ohm.m                                  : Medium Resistivity Inverted 
LLD                .ohm.m                                  : Lateral Log Resistivity 
PS                 .mV                                     : Spontaneous Potential 
PZ                 .ohm.m                                  : Potential Resistivity 
RS                 .ohm.m                                  : Mud Resistivity 
~Ascii
# ...
2598.2     2.8429     11.2417    22.2604    27.095     16.091     15.471     6.5626     84.5532    9.3204     0.4408    
2598.4     2.5882     10.5169    21.0908    25.4353    15.6747    16.3076    5.765      85.3923    9.2251     0.4375    
2598.6     2.4657     9.8451     20.019     24.5221    15.6278    17.2804    6.2387     86.1249    9.2008     0.4384    
2598.8     2.428      9.6375     19.616     24.3175    15.6507    17.9844    7.1061     85.0368    9.1978     0.4397    
2599       2.5188     9.6114     19.6037    24.3804    15.8225    18.1437    8.6893     85.0018    9.1864     0.4411    
2599.2     2.6054     9.6549     19.6782    24.4931    16.1825    17.988     9.8475     85.7187    9.174      0.4425    
2599.4     2.6809     9.7891     19.6881    24.5109    16.423     17.8243    9.9304     84.3947    9.1615     0.4434    
2599.6     2.7565     9.878      19.4114    24.4666    16.5604    17.6603    9.1229     83.2582    9.1417     0.4434    
2599.8     2.8202     9.7638     19.0039    23.8317    16.4538    17.6658    8.0275     84.2025    9.0754     0.4467    
2600       2.6919     9.5045     18.5093    22.8057    16.2586    17.8862    6.244      84.1271    9.0281     0.4416    
2600.2     2.5599     9.2354     17.4766    21.5976    16.0567    18.6006    6.0403     82.8044    8.9877     0.4434    
2600.4     2.4373     8.9663     16.4936    20.7554    15.8455    19.611     6.6599     83.5317    8.9964     0.4434    
2600.6     2.3431     8.7986     15.8275    20.3045    15.7634    20.5805    7.5651     84.9289    9.0529     0.4434    
2600.8     2.0389     8.6295     15.4026    19.976     15.8652    21.4189    7.5116     84.3128    9.1647     0.4418    
2601       1.8238     8.2127     15.3079    19.7905    16.0798    22.3298    10.3417    83.9382    9.3329     0.436     
2601.2     2.2404     8.5643     15.4265    19.9064    16.3067    22.8505    10.5224    84.6355    9.4756     0.4362    
2601.4     2.4412     8.7705     15.6827    20.2514    16.4596    22.9021    9.8469     83.7307    9.5694     0.4416    
2601.6     2.5325     8.9339     15.9437    20.2354    16.6536    22.8784    8.5903     82.1475    9.7236     0.4381    
2601.8     2.5588     8.8747     16.2803    20.0094    16.7864    23.1363    8.4443     82.4283    9.8612     0.4404    
2602       2.534      9.0221     16.3193    19.8428    16.8804    23.5521    8.1199     82.7301    9.9623     0.4414    
2602.2     2.5735     9.0575     16.2304    19.6207    16.9863    24.1402    9.2086     81.9141    10.0887    0.4433    
2602.4     2.5575     9.0886     16.157     19.3729    17.091     24.0748    10.1992    82.5303    10.2151    0.4508    
2602.6     2.5415     9.2742     16.2625    19.2807    17.2314    23.6403    8.9611     83.6497    10.4073    0.4552    
2602.8     2.5124     9.3514     16.3961    19.1848    17.3717    23.2059    10.8695    83.7233    10.654     0.4534    
2603       2.4896     9.3825     16.5785    19.0716    17.5196    22.4676    11.8185    84.4944    10.8804    0.451     
2603.2     2.5343     9.4136     16.8252    19.2088    17.6765    21.6448    11.2989    84.4576    11.1232    0.4552    
2603.4     2.5458     9.6824     17.3496    19.8646    17.9314    20.8926    12.0703    82.975     11.3105    0.4552    
2603.6     2.33       10.1223    18.1137    20.5621    18.1968    20.1277    12.1407    82.9899    11.4743    0.4552    
2603.8     1.6543     10.3206    19.106     21.2597    18.5644    18.7073    15.0323    83.1601    11.5626    0.4557    
2604       2.8896     10.9201    20.1326    22.0348    18.9954    17.1189    13.8397    82.5551    11.5975    0.461     
2604.2     2.9808     11.3553    21.1752    22.9354    19.4468    15.5304    14.9257    83.1899    11.4927    0.4575    
2604.4     3.1018     12.0903    22.2178    23.7409    19.7805    13.9437    15.6902    83.3453    11.2826    0.4552    
2604.6     3.307      12.9253    23.4229    24.6318    19.7502    12.5027    16.3458    82.8899    10.9158    0.4603    
2604.8     3.3689     13.4274    24.6047    25.093     19.3468    11.2908    9.5392     83.7136    10.5692    0.4559    
2605       3.2599     12.9186    24.6286    24.9157    18.706     10.5767    7.4777     83.8377    10.1664    0.4515    
2605.2     3.1823     12.3962    24.1923    24.4118    17.9537    10.1281    8.1739     83.265     9.7717     0.4552    
2605.4     3.1224     12.4267    24.0528    24.1724    17.1516    9.739      9.0696     83.1113    9.3915     0.453     
2605.6     3.0753     12.4652    24.2082    24.4795    16.3805    9.2913     8.1213     81.2537    9.0225     0.4471    
2605.8     3.065      12.4494    24.3344    24.7864    15.9985    8.843      7.4912     79.1891    8.6407     0.4414    
2606       3.0192     12.4299    24.6824    25.1898    15.7232    8.3946     7.7067     79.0667    8.1404     0.4368    
2606.2     3.2131     12.6915    25.4292    25.6425    14.9432    7.8993     11.6909    78.2029    7.5645     0.4352    
2606.4     3.2738     12.6529    25.1862    26.0951    14.1157    7.2447     5.4556     76.8404    7.1009     0.4336    
2606.6     2.9554     11.3529    22.5918    24.7649    13.1099    6.8796     3.2796     76.6921    6.6433     0.432     
2606.8     2.6226     9.6143     19.5541    21.8946    11.5449    7.0195     3.0402     76.0645    6.1858     0.4316    
2607       2.2899     8.7259     17.4933    19.2739    9.9055     7.4923     3.1743     75.6994    5.8313     0.4312    
2607.2     2.1182     8.1607     15.6979    17.819     8.6749     7.9212     3.8293     76.6308    5.7069     0.4316    
2607.4     2.0624     7.6121     14.0885    16.715     7.9789     8.1336     3.9373     76.511     5.6856     0.4316    
2607.6     2.0762     7.0635     13.2944    18.1229    7.5619     8.3459     4.3776     75.8877    5.6426     0.4316    
2607.8     2.144      6.7158     12.7937    19.9682    7.1606     8.5582     4.653      75.9943    5.59       0.4316    
2608       2.251      6.7149     12.107     14.582     6.7593     8.7468     3.8368     75.1908    5.5478     0.4316    
2608.2     2.2254     6.3595     11.193     13.4436    6.366      8.9724     3.4161     74.3443    5.5083     0.4316    
2608.4     2.1721     6.0738     10.4612    12.2075    6.0009     9.3458     3.3544     73.9618    5.4688     0.4316    
2608.6     2.1187     5.8275     9.7463     11.5017    5.748      9.8032     3.8084     73.0708    5.4292     0.4317    
2608.8     2.0654     5.7507     9.0315     11.0405    5.5453     10.1905    4.2403     73.7468    5.4435     0.4369    
2609       1.9954     5.7377     8.4235     10.5276    5.5176     10.5683    3.8601     74.974     5.4942     0.4312    
2609.2     1.9954     5.7247     8.0432     10.0013    5.5062     10.946     4.1284     73.7323    5.5258     0.4334    
2609.4     2.0088     5.7118     7.8297     8.4169     5.5485     11.3237    4.2161     72.0664    5.6005     0.4383    
2609.6     1.9954     5.5689     7.7113     9.0664     5.7112     11.7015    3.8641     71.4799    5.6919     0.4412    
2609.8     2.0042     5.617      7.6185     9.0548     6.1372     12.4785    3.836      71.9838    5.8746     0.4441    
2610       2.0733     5.441      7.9695     9.2981     6.7709     14.037     3.8543     73.4125    6.0602     0.4471    
2610.2     2.1538     5.5739     8.4438     9.8067     7.6598     15.5268    4.8212     73.0983    6.2459     0.4492    
2610.4     2.2343     5.7363     8.9181     10.1243    8.4455     16.2283    6.9097     71.8455    6.4284     0.4506    
2610.6     2.2904     5.9604     9.3924     10.4209    9.2311     15.4836    8.239      71.9597    6.59       0.4552    
2610.8     2.2262     6.2213     9.6163     10.7176    9.8527     14.5265    5.3757     71.7198    6.777      0.4466    
2611       2.3063     6.4822     9.4        10.5043    10.0878    13.5694    5.4186     71.8606    6.8703     0.4443    
2611.2     2.2379     6.7326     9.2735     9.9081     9.9144     12.6123    5.1136     73.5092    6.9761     0.4454    
2611.4     2.1999     6.9042     9.2161     9.6065     9.9637     11.7125    5.1958     73.9749    7.0854     0.4465    
