~Version
 VERS              .         2.0                           : CWLS LOG ASCII STANDARD - VERSION 2.0
 WRAP              .         NO                            : ONE LINE PER DEPTH STEP
 DLM               .         SPACE                         : DELIMITING CHARACTER(SPACE TAB OR COMMA)
~Well Information
#_______________________________________________________________________________
#
#PARAMETER_NAME    .UNIT     VALUE                         : DESCRIPTION
#_______________________________________________________________________________
STRT               .m        2657                          : First reference value
STOP               .m        2990                          : Last reference value
STEP               .m        0.2                           : Step increment
NULL               .         -9999                         : Missing value
COMP               .                                       : Company
WELL               .         604                           : Well name
FLD                .                                       : Field
LOC                .                                       : Location
CNTY               .                                       : County
STAT               .                                       : State
CTRY               .                                       : Country
SRVC               .                                       : Service Company
DATE               .                                       : Date
API                .                                       : API number
EREF               .m        134                           : 
X                  .m        225746                        : 
Y                  .m        235643                        : 
group              .         Pad6                          : 
Интер-р            .         Пузин                         : 
Куст               .         6                             : 
Статус             .         Не проверено                  : 
Тип                .         Нагнетательные                : 
~Parameter Information Block
#_______________________________________________________________________________
#
#PARAMETER_NAME    .UNIT     VALUE                         : DESCRIPTION
#_______________________________________________________________________________
SET                .         LAS1                          : 
REAL_CREATION_DATE .         Ср апр 11 2012-13_17_23       : 
TLFamily_DEPTH     .         Measured Depth                : 
TLFamily_GZ1       .         Extra Shallow Resistivity     : 
TLFamily_GZ2       .         Shallow Resistivity           : 
TLFamily_GZ3       .         Medium Resistivity            : 
TLFamily_GZ4       .         Deep Resistivity              : 
TLFamily_GZ5       .         Extra Deep Resistivity        : 
TLFamily_GZr       .         Medium Resistivity Inverted   : 
TLFamily_LLD       .         Lateral Log Resistivity       : 
TLFamily_PS        .         Spontaneous Potential         : 
TLFamily_PZ        .         Potential Resistivity         : 
TLFamily_RS        .         Mud Resistivity               : 
group              .         INI                           : 
~Curve Information
#_______________________________________________________________________________
#
#LOGNAME           .UNIT     LOG_ID                        : DESCRIPTION
#_______________________________________________________________________________
DEPTH              .m                                      : Measured Depth 
GZ1                .ohm.m                                  : Extra Shallow Resistivity 
GZ2                .ohm.m                                  : Shallow Resistivity 
GZ3                .ohm.m                                  : Medium Resistivity 
GZ4                .ohm.m                                  : Deep Resistivity 
GZ5                .ohm.m                                  : Extra Deep Resistivity 
GZr                .ohm.m                                  : Medium Resistivity Inverted 
LLD                .ohm.m                                  : Lateral Log Resistivity 
PS                 .mV                                     : Spontaneous Potential 
PZ                 .ohm.m                                  : Potential Resistivity 
RS                 .ohm.m                                  : Mud Resistivity 
~Ascii
# ...
2831.2     2.2957     6.5867     8.9461     9.6194     6.9397     12.8251    10.054     33.6221    6.4926     0.2845    
2831.4     2.4885     7.1723     9.5877     10.408     7.0481     12.7581    6.1215     36.6697    6.5373     0.2906    
2831.6     2.9112     8.1397     10.1777    10.8246    7.0481     12.0774    4.5084     39.2235    6.552      0.2927    
2831.8     3.064      8.3591     10.0253    10.3868    6.9053     11.4452    4.1743     40.7045    6.4883     0.2927    
2832       2.887      7.9627     9.3859     9.5081     6.6356     11.3371    4.6785     42.0515    6.3987     0.2832    
2832.2     2.6193     7.5919     8.8469     8.7744     6.367      11.691     4.6565     44.4034    6.3242     0.2857    
2832.4     2.4941     7.5732     8.6447     8.435      6.2744     12.3226    4.4759     48.3379    6.2946     0.2875    
2832.6     2.4756     7.6012     8.532      8.2726     6.4267     13.2425    4.7838     53.7187    6.3697     0.2875    
2832.8     2.3613     7.1653     8.5108     8.2429     6.7092     14.5843    6.3671     59.652     6.5419     0.287     
2833       2.3061     6.9215     8.7926     8.5129     7.0057     15.4816    6.3264     65.0401    6.717      0.2823    
2833.2     2.4313     7.2702     9.4216     9.0244     7.3177     15.5638    6.4846     69.1575    6.9052     0.2899    
2833.4     2.5996     7.6525     10.0363    9.4686     7.5688     14.9811    6.1058     71.1842    7.1175     0.2927    
2833.6     2.7104     7.8383     10.4569    9.5859     7.79       14.4444    6.0821     70.3706    7.2931     0.296     
2833.8     2.7328     7.9197     10.6125    9.557      7.9457     13.9897    6.6163     67.4698    7.4953     0.2885    
2834       2.7001     8.0014     10.5943    9.6166     8.1003     13.8636    6.6188     64.2584    7.6365     0.2856    
2834.2     2.8067     8.4546     10.6403    9.7959     8.241      13.7921    5.8761     61.2356    7.7306     0.2964    
2834.4     2.9017     8.8348     10.7972    9.9774     8.5044     13.855     5.7656     58.0315    7.8153     0.2927    
2834.6     2.8704     8.876      10.7782    10.0064    8.8156     14.0332    6.886      55.4816    7.9861     0.2888    
2834.8     2.7165     8.485      10.7519    10.1885    9.1477     14.4601    12.9129    54.3549    8.2087     0.2859    
2835       2.6688     8.7315     11.1469    10.7387    9.5573     14.248     19.1532    53.6313    8.4104     0.2838    
2835.2     2.9334     9.5842     12.3606    11.709     9.8548     13.2565    12.4623    52.62      8.4627     0.2958    
2835.4     3.5341     10.8657    14.088     12.7379    9.8155     12.0637    5.3056     51.9646    8.1302     0.2933    
2835.6     3.9899     12.2878    15.1699    13.1076    9.5963     11.2168    4.4351     51.3633    7.6904     0.2983    
2835.8     3.5429     11.5387    14.9729    12.5505    9.1349     10.9642    4.1887     49.9475    7.2351     0.2927    
2836       3.1116     10.6329    13.7856    11.2252    8.4128     11.1796    3.9926     48.609     6.9608     0.2927    
2836.2     2.8298     9.7536     12.8227    10.1633    7.6988     11.86      4.0852     48.9894    6.7823     0.2955    
2836.4     2.5829     8.8923     12.1092    9.4722     7.2885     13.011     4.7047     51.983     6.7229     0.2879    
2836.6     2.4741     8.2727     11.7679    9.2081     7.0862     14.0761    4.8439     58.2317    6.7408     0.2854    
2836.8     2.5032     8.1254     11.7721    9.3136     7.0217     14.7906    5.2535     67.0076    6.8442     0.2916    
2837       2.5605     7.9717     11.9946    9.5167     7.0357     14.9781    5.5646     75.2655    6.9793     0.293     
2837.2     2.5839     7.783      12.1528    9.6971     7.0235     15.0386    5.5622     80.5441    7.1684     0.2934    
2837.4     2.6042     7.8017     12.1137    9.8619     6.9671     14.9931    5.7327     82.7368    7.3579     0.289     
2837.6     2.6677     7.9581     11.9082    9.9902     6.8939     14.6563    5.6679     81.7316    7.5107     0.2927    
2837.8     2.7259     8.1085     11.529     10.1359    6.8136     14.1487    5.8023     77.4274    7.6678     0.2975    
2838       2.7179     8.2182     11.1564    10.2154    6.7578     13.7333    6.2503     72.9117    7.8163     0.297     
2838.2     2.7244     8.399      10.8924    10.3471    6.7774     13.4845    6.381      72.348     7.937      0.2948    
2838.4     2.7631     8.6528     10.9396    10.6227    6.9142     13.28      7.2898     75.2182    8.033      0.2933    
2838.6     2.823      8.9954     11.3202    11.0946    7.0852     13.1763    8.086      77.5045    8.1039     0.2954    
2838.8     2.9812     9.673      12.064     11.7566    7.2915     12.8196    6.2615     77.791     8.0572     0.3019    
2839       3.1663     10.161     12.7424    12.4783    7.5102     12.5946    5.6053     77.9478    8.0035     0.3013    
2839.2     3.1476     10.1081    13.1091    12.9528    7.7273     12.6847    6.6531     78.7722    7.9511     0.3015    
2839.4     2.9498     9.6973     13.2676    13.1656    7.9675     12.9052    8.9631     78.4748    7.9144     0.3019    
2839.6     2.9231     9.8822     13.8709    13.6396    8.1089     12.7826    7.6127     75.5914    7.8056     0.301     
2839.8     3.2174     10.9235    14.8099    14.0354    8.1487     12.2617    5.0616     71.3549    7.6158     0.304     
2840       3.3748     11.0439    15.1173    13.7998    8.1449     11.7978    4.6183     68.7018    7.418      0.3083    
2840.2     3.2176     10.4228    14.5835    12.8814    8.0004     11.7178    4.684      69.4294    7.173      0.3042    
2840.4     2.9931     9.9406     13.9561    12.0564    7.6749     11.9719    5.1312     72.4521    7.0069     0.3052    
2840.6     2.8398     9.5848     13.5049    11.5821    7.3167     12.0836    5.0229     75.2132    6.8977     0.3034    
2840.8     2.8111     9.4281     13.1766    11.2903    7.059      12.2515    4.8846     76.5511    6.8616     0.3054    
2841       2.7793     9.1063     12.9041    11.1714    6.8662     12.5462    4.9759     76.6417    6.8669     0.3067    
2841.2     2.7386     8.7482     12.5466    11.0671    6.7423     13.0223    5.0673     74.6714    6.8977     0.3038    
2841.4     2.6984     8.52       12.1211    10.929     6.6879     13.4963    6.1538     69.663     7.0041     0.3038    
2841.6     2.6408     8.3114     11.988     10.9581    6.7005     13.75      7.0053     63.1126    7.0971     0.3031    
2841.8     2.7568     8.5509     12.1414    11.1323    6.7021     13.5512    6.629      57.6975    7.159      0.3031    
2842       2.9132     8.9851     12.3918    11.2808    6.6719     13.0961    6.0223     54.2725    7.2031     0.2992    
2842.2     3.0127     9.3102     12.3958    11.1791    6.5435     12.5617    5.0162     52.0931    7.1427     0.3031    
2842.4     3.1362     9.4514     12.044     10.8125    6.3011     12.2414    5.2051     50.1954    7.0376     0.295     
2842.6     2.9873     9.1664     11.6788    10.2919    5.9764     11.8695    4.5193     47.4835    6.856      0.297     
2842.8     2.9716     9.3189     11.148     9.6988     5.6488     11.7138    4.1266     43.6739    6.6956     0.2944    
2843       2.688      8.7486     10.5746    9.105      5.3459     12.0124    4.5375     40.5236    6.6911     0.2969    
2843.2     2.4877     8.1854     9.9803     8.6187     5.1691     12.6474    5.3911     39.8518    6.7418     0.2899    
2843.4     2.455      7.785      9.8721     8.4936     5.0813     13.0796    6.3388     40.5494    6.8609     0.2926    
2843.6     2.507      7.7954     10.0782    8.5964     5.1362     13.1543    6.5171     40.164     7.0287     0.2898    
2843.8     2.6065     7.9363     10.3959    8.7713     5.2441     13.0191    5.6875     38.6308    7.2063     0.2884    
2844       2.7327     8.0348     10.6759    8.8999     5.3411     13.1065    5.8841     37.4912    7.3513     0.2875    
2844.2     2.6972     7.9861     10.8755    9.0314     5.429      13.4045    6.4274     37.0951    7.4325     0.2825    
2844.4     2.7143     8.2653     11.0232    9.2032     5.5509     13.6258    8.6371     37.1443    7.4981     0.2875    
