~Version
 VERS              .         2.0                           : CWLS LOG ASCII STANDARD - VERSION 2.0
 WRAP              .         NO                            : ONE LINE PER DEPTH STEP
 DLM               .         SPACE                         : DELIMITING CHARACTER(SPACE TAB OR COMMA)
~Well Information
#_______________________________________________________________________________
#
#PARAMETER_NAME    .UNIT     VALUE                         : DESCRIPTION
#_______________________________________________________________________________
STRT               .m        2657                          : First reference value
STOP               .m        2990                          : Last reference value
STEP               .m        0.2                           : Step increment
NULL               .         -9999                         : Missing value
COMP               .                                       : Company
WELL               .         604                           : Well name
FLD                .                                       : Field
LOC                .                                       : Location
CNTY               .                                       : County
STAT               .                                       : State
CTRY               .                                       : Country
SRVC               .                                       : Service Company
DATE               .                                       : Date
API                .                                       : API number
EREF               .m        134                           : 
X                  .m        225746                        : 
Y                  .m        235643                        : 
group              .         Pad6                          : 
Интер-р            .         Пузин                         : 
Куст               .         6                             : 
Статус             .         Не проверено                  : 
Тип                .         Нагнетательные                : 
~Parameter Information Block
#_______________________________________________________________________________
#
#PARAMETER_NAME    .UNIT     VALUE                         : DESCRIPTION
#_______________________________________________________________________________
SET                .         LAS3                          : 
REAL_CREATION_DATE .         Ср апр 11 2012-13_17_23       : 
TLFamily_DEPTH     .         Measured Depth                : 
TLFamily_GR        .         Gamma Ray                     : 
TLFamily_TNPH      .         Neutron Porosity              : 
group              .         INI                           : 
~Curve Information
#_______________________________________________________________________________
#
#LOGNAME           .UNIT     LOG_ID                        : DESCRIPTION
#_______________________________________________________________________________
DEPTH              .m                                      : Measured Depth 
GR                 .gAPI                                   :  
TNPH               .v/v                                    : Neutron Porosity 
~Ascii
# ...
2851.4     129.049    0.2329    
2851.6     128.426    0.2466    
2851.8     128.95     0.2467    
2852       131.089    0.2382    
2852.2     134.58     0.2236    
2852.4     137.512    0.226     
2852.6     139.687    0.2437    
2852.8     144.463    0.2612    
2853       145.274    0.2711    
2853.2     144.137    0.2779    
2853.4     141.592    0.278     
2853.6     137.176    0.2685    
2853.8     132.997    0.2605    
2854       131.548    0.262     
2854.2     130.681    0.2529    
2854.4     128.459    0.2474    
2854.6     123.695    0.2412    
2854.8     118.885    0.2385    
2855       119.408    0.242     
2855.2     120.041    0.2375    
2855.4     121.184    0.2433    
2855.6     120.447    0.2538    
2855.8     121.619    0.2597    
2856       125        0.2522    
2856.2     127.041    0.2468    
2856.4     128.128    0.2482    
2856.6     124.357    0.2538    
2856.8     121.669    0.2517    
2857       118.777    0.2488    
2857.2     115.239    0.2472    
2857.4     114.67     0.2463    
2857.6     115.927    0.2442    
2857.8     115.914    0.2369    
2858       115.838    0.2358    
2858.2     112.834    0.2348    
2858.4     112.988    0.2294    
2858.6     116.964    0.2296    
2858.8     119.87     0.2307    
2859       124.126    0.2338    
2859.2     131.064    0.2302    
2859.4     137.99     0.2306    
2859.6     146.257    0.2467    
2859.8     153.578    0.2541    
2860       159.591    0.2561    
2860.2     164.798    0.2579    
2860.4     165.938    0.2643    
2860.6     166.33     0.2715    
2860.8     171.127    0.2717    
2861       175.377    0.2559    
2861.2     173.606    0.2455    
2861.4     165.653    0.2483    
2861.6     162.687    0.2595    
2861.8     161.211    0.2609    
2862       158.181    0.2422    
2862.2     150.989    0.2298    
2862.4     141.907    0.232     
2862.6     137.693    0.2333    
2862.8     133.82     0.229     
2863       133.546    0.2324    
2863.2     134.954    0.2288    
2863.4     136.456    0.2227    
2863.6     138.725    0.2298    
2863.8     145.47     0.2339    
2864       157.956    0.24      
2864.2     174.035    0.256     
2864.4     192.011    0.275     
2864.6     209.419    0.2711    
2864.8     214.034    0.2632    
2865       207.025    0.267     
2865.2     197.924    0.2748    
2865.4     199.631    0.279     
2865.6     211.912    0.2814    
2865.8     222.193    0.2786    
2866       227.829    0.2754    
2866.2     230.375    0.2758    
2866.4     228.536    0.2777    
2866.6     219.382    0.2818    
2866.8     213.444    0.2877    
2867       214.504    0.2777    
2867.2     214.184    0.2719    
2867.4     214.77     0.2753    
2867.6     220.196    0.2837    
2867.8     233.396    0.2841    
2868       241.404    0.2793    
2868.2     245.639    0.2758    
2868.4     250.403    0.2737    
2868.6     261.896    0.2807    
2868.8     271.361    0.2875    
2869       273.802    0.3045    
2869.2     271.659    0.3174    
2869.4     267.529    0.2947    
2869.6     259.738    0.2706    
2869.8     250.641    0.2542    
2870       247.089    0.2531    
2870.2     240.585    0.262     
2870.4     227.601    0.2742    
2870.6     215.567    0.2732    
2870.8     206.762    0.2661    
2871       206.238    0.2755    
2871.2     211.312    0.2935    
2871.4     212.857    0.2912    
2871.6     217.94     0.2823    
2871.8     236.178    0.2825    
2872       257.108    0.287     
2872.2     273.922    0.2977    
2872.4     286.473    0.325     
2872.6     303.548    0.3444    
2872.8     324.956    0.3255    
2873       357.832    0.3185    
2873.2     399.238    0.3264    
2873.4     437.823    0.3255    
2873.6     464.989    0.3253    
2873.8     461.749    0.317     
2874       432.903    0.301     
2874.2     397.49     0.3029    
2874.4     372.453    0.2981    
2874.6     368.731    0.2973    
2874.8     364.665    0.3131    
2875       362.45     0.3113    
2875.2     362.502    0.3057    
2875.4     360.82     0.321     
2875.6     360.097    0.3319    
2875.8     362.886    0.3213    
2876       362.118    0.3242    
2876.2     358.337    0.322     
2876.4     354.05     0.3262    
2876.6     346.684    0.3311    
2876.8     329.09     0.3226    
2877       310.877    0.3225    
2877.2     305.642    0.3331    
2877.4     309.509    0.3457    
2877.6     310.235    0.3432    
2877.8     308.235    0.3225    
2878       310.626    0.309     
2878.2     330.407    0.3129    
2878.4     352.708    0.3103    
2878.6     356.075    0.3078    
2878.8     344.388    0.3098    
2879       328.773    0.3069    
2879.2     320.51     0.3063    
2879.4     309.683    0.3045    
2879.6     303.602    0.3099    
2879.8     305.807    0.3119    
2880       304.742    0.3221    
2880.2     296.002    0.3286    
2880.4     291.003    0.3271    
2880.6     288.039    0.3214    
2880.8     278.995    0.3219    
2881       269.177    0.3317    
2881.2     258.576    0.3362    
2881.4     237.593    0.321     
2881.6     213.71     0.3014    
2881.8     202.015    0.3083    
2882       192.86     0.3136    
2882.2     194.329    0.3343    
2882.4     195.63     0.3415    
2882.6     191.194    0.3456    
2882.8     189.066    0.3679    
2883       188.051    0.369     
2883.2     180.876    0.3471    
2883.4     175.246    0.3264    
2883.6     173.519    0.3134    
2883.8     168.376    0.3102    
2884       164.068    0.3093    
2884.2     159.153    0.2922    
2884.4     151.132    0.2727    
2884.6     147.549    0.2575    
2884.8     151.436    0.2472    
2885       157.583    0.2584    
2885.2     162.065    0.2574    
2885.4     161.842    0.2524    
2885.6     162.237    0.2479    
2885.8     170.39     0.242     
2886       179.813    0.251     
2886.2     182.333    0.2627    
2886.4     173.739    0.275     
2886.6     157.885    0.2668    
2886.8     141.635    0.2558    
2887       135.485    0.2564    
2887.2     133.388    0.2588    
2887.4     128.672    0.256     
2887.6     125.747    0.2495    
2887.8     122.726    0.2589    
2888       120.161    0.2716    
2888.2     122.841    0.2621    
2888.4     122.622    0.2609    
2888.6     119.723    0.2592    
2888.8     119.418    0.2622    
2889       124.133    0.2712    
2889.2     132.023    0.2712    
2889.4     136.761    0.2689    
2889.6     134.453    0.258     
2889.8     129.829    0.2432    
2890       126.966    0.2439    
2890.2     125.272    0.2471    
2890.4     126.271    0.2493    
2890.6     129.381    0.2425    
2890.8     135.202    0.2463    
2891       142.294    0.2656    
2891.2     146.705    0.2744    
2891.4     144.255    0.2731    
2891.6     137.539    0.2876    
2891.8     131.401    0.2932    
2892       127.858    0.2885    
2892.2     128.598    0.2879    
2892.4     134.59     0.2864    
2892.6     138.172    0.2693    
2892.8     135.238    0.2484    
2893       126.705    0.2497    
2893.2     119.045    0.254     
2893.4     118.579    0.2508    
2893.6     122.139    0.2449    
2893.8     129.28     0.2474    
2894       138.579    0.2651    
2894.2     145.358    0.2591    
2894.4     150.333    0.258     
2894.6     145.812    0.2545    
2894.8     135.847    0.2558    
2895       128.292    0.2769    
2895.2     128.811    0.2893    
2895.4     134.236    0.2821    
2895.6     141.462    0.2697    
2895.8     148.412    0.2678    
2896       155.961    0.2902    
2896.2     163.199    0.3014    
2896.4     164.626    0.2911    
2896.6     160.597    0.2776    
2896.8     160.691    0.2702    
2897       166.487    0.2816    
2897.2     174.369    0.2851    
2897.4     180.668    0.2941    
2897.6     176.151    0.305     
2897.8     161.949    0.2955    
2898       150.693    0.277     
2898.2     146.847    0.2855    
2898.4     152.727    0.2859    
2898.6     158.073    0.2734    
2898.8     164.379    0.2829    
2899       169.861    0.2966    
2899.2     175.636    0.3004    
2899.4     172.269    0.2838    
2899.6     162.392    0.2672    
2899.8     147.86     0.2657    
