~Version
 VERS              .         2.0                           : CWLS LOG ASCII STANDARD - VERSION 2.0
 WRAP              .         NO                            : ONE LINE PER DEPTH STEP
 DLM               .         SPACE                         : DELIMITING CHARACTER(SPACE TAB OR COMMA)
~Well Information
#_______________________________________________________________________________
#
#PARAMETER_NAME    .UNIT     VALUE                         : DESCRIPTION
#_______________________________________________________________________________
STRT               .m        2657                          : First reference value
STOP               .m        2990                          : Last reference value
STEP               .m        0.2                           : Step increment
NULL               .         -9999                         : Missing value
COMP               .                                       : Company
WELL               .         604                           : Well name
FLD                .                                       : Field
LOC                .                                       : Location
CNTY               .                                       : County
STAT               .                                       : State
CTRY               .                                       : Country
SRVC               .                                       : Service Company
DATE               .                                       : Date
API                .                                       : API number
EREF               .m        134                           : 
X                  .m        225746                        : 
Y                  .m        235643                        : 
group              .         Pad6                          : 
Интер-р            .         Пузин                         : 
Куст               .         6                             : 
Статус             .         Не проверено                  : 
Тип                .         Нагнетательные                : 
~Parameter Information Block
#_______________________________________________________________________________
#
#PARAMETER_NAME    .UNIT     VALUE                         : DESCRIPTION
#_______________________________________________________________________________
SET                .         LAS1                          : 
REAL_CREATION_DATE .         Ср апр 11 2012-13_17_23       : 
TLFamily_DEPTH     .         Measured Depth                : 
TLFamily_GZ1       .         Extra Shallow Resistivity     : 
TLFamily_GZ2       .         Shallow Resistivity           : 
TLFamily_GZ3       .         Medium Resistivity            : 
TLFamily_GZ4       .         Deep Resistivity              : 
TLFamily_GZ5       .         Extra Deep Resistivity        : 
TLFamily_GZr       .         Medium Resistivity Inverted   : 
TLFamily_LLD       .         Lateral Log Resistivity       : 
TLFamily_PS        .         Spontaneous Potential         : 
TLFamily_PZ        .         Potential Resistivity         : 
TLFamily_RS        .         Mud Resistivity               : 
group              .         INI                           : 
~Curve Information
#_______________________________________________________________________________
#
#LOGNAME           .UNIT     LOG_ID                        : DESCRIPTION
#_______________________________________________________________________________
DEPTH              .m                                      : Measured Depth 
GZ1                .ohm.m                                  : Extra Shallow Resistivity 
GZ2                .ohm.m                                  : Shallow Resistivity 
GZ3                .ohm.m                                  : Medium Resistivity 
GZ4                .ohm.m                                  : Deep Resistivity 
GZ5                .ohm.m                                  : Extra Deep Resistivity 
GZr                .ohm.m                                  : Medium Resistivity Inverted 
LLD                .ohm.m                                  : Lateral Log Resistivity 
PS                 .mV                                     : Spontaneous Potential 
PZ                 .ohm.m                                  : Potential Resistivity 
RS                 .ohm.m                                  : Mud Resistivity 
~Ascii
# ...
2911.6     2.3743     6.3332     7.2053     6.6805     2.4499     8.6889     4.2724     89.3473    5.3618     0.2835    
2911.8     2.4408     6.4954     7.3381     6.9139     2.4616     8.7354     4.5316     90.2107    5.4355     0.2866    
2912       2.5522     6.7518     7.4538     7.0279     2.4923     8.705      4.4364     92.0696    5.4963     0.2923    
2912.2     2.585      6.9377     7.5161     7.0435     2.5169     8.611      4.4747     93.3504    5.522      0.2937    
2912.4     2.6183     7.0362     7.5361     6.9585     2.545      8.4973     4.3394     93.0815    5.5232     0.2974    
2912.6     2.645      7.2043     7.5587     6.8005     2.5622     8.4794     4.2252     90.9619    5.4659     0.2984    
2912.8     2.6739     7.3792     7.6246     6.6636     2.5824     8.4832     3.9054     87.7525    5.4125     0.301     
2913       2.5707     7.235      7.6314     6.5421     2.6311     8.5727     3.9457     86.0425    5.3865     0.3021    
2913.2     2.5397     7.2186     7.6608     6.4505     2.6804     8.638      4.2007     87.8404    5.3712     0.2979    
2913.4     2.5617     7.2512     7.7828     6.36       2.7714     8.6107     4.1391     91.3705    5.3799     0.2893    
2913.6     2.5665     7.1688     7.8154     6.2673     2.9013     8.5413     4.1212     93.2273    5.3896     0.2875    
2913.8     2.5655     7.0875     7.8031     6.1887     3.0693     8.5437     3.8008     92.6297    5.4237     0.2875    
2914       2.5086     6.9121     7.7707     6.094      3.2545     8.6195     4.1113     90.8511    5.4692     0.2875    
2914.2     2.4786     6.8806     7.8154     6.1102     3.4077     8.6739     4.4158     88.6477    5.5165     0.29      
2914.4     2.5413     7.0962     7.9956     6.181      3.538      8.4843     4.8262     86.5445    5.5633     0.2969    
2914.6     2.6513     7.3053     8.1226     6.2108     3.6562     8.166      4.4978     85.5367    5.604      0.2997    
2914.8     2.6839     7.301      8.139      6.1685     3.7149     7.8189     4.4511     86.0184    5.5823     0.3019    
2915       2.7321     7.4241     8.0878     6.098      3.7723     7.5813     3.959      87.4523    5.5219     0.3031    
2915.2     2.6529     7.3521     8.0334     6.0257     3.8304     7.4529     3.9865     89.2235    5.4553     0.2984    
2915.4     2.6403     7.496      8.0101     5.9793     3.8919     7.4176     3.99       90.4207    5.3668     0.2982    
2915.6     2.6074     7.4749     8.0332     5.9633     4.0423     7.4176     3.8181     89.7451    5.325      0.2903    
2915.8     2.561      7.3285     8.0528     5.9633     4.2354     7.412      4.1364     87.2007    5.2518     0.2875    
2916       2.6156     7.4378     8.0633     5.9622     4.3726     7.3805     3.8844     84.5908    5.1954     0.2864    
2916.2     2.6077     7.2312     8.0432     5.9236     4.4346     7.4579     3.6968     83.3188    5.1522     0.2908    
2916.4     2.5788     7.1194     7.9723     5.8236     4.4411     7.703      3.7057     83.2847    5.0597     0.296     
2916.6     2.5463     6.9989     7.982      5.7825     4.3968     8.164      3.649      84.1686    4.9838     0.2979    
2916.8     2.5115     6.9371     7.9684     5.7562     4.3455     8.7223     3.5367     85.6358    4.8884     0.303     
2917       2.5198     6.9554     7.8965     5.746      4.2554     9.1033     3.1495     86.6365    4.8089     0.3004    
2917.2     2.4883     6.8323     7.6508     5.6394     4.1586     9.211      3.1103     86.7319    4.7873     0.3021    
2917.4     2.3216     6.3067     7.3385     5.504      4.0422     9.3087     3.4173     87.3206    4.804      0.2961    
2917.6     2.2763     6.1983     7.0523     5.3935     3.9361     9.5212     3.5045     89.5892    4.8315     0.2885    
2917.8     2.2824     6.1571     6.9085     5.3389     3.8608     9.6519     3.5918     92.1596    4.9351     0.2856    
2918       2.2778     6.0307     6.7673     5.292      3.8174     9.8557     3.5498     92.8375    5.074      0.2823    
2918.2     2.2827     6.0088     6.6298     5.2405     3.7898     10.0424    3.5243     91.5435    5.2439     0.2845    
2918.4     2.2575     5.8658     6.4111     5.2188     3.7998     10.3138    3.5311     89.5645    5.5197     0.2905    
2918.6     2.1337     5.6315     6.1558     5.1709     3.8384     10.6428    3.7073     88.0248    5.9617     0.2927    
2918.8     1.9996     5.4504     6.0781     5.2549     3.9227     10.595     5.9573     88.0795    6.4661     0.2951    
2919       2.2511     6.0848     6.5255     5.6152     4.0107     9.6404     37.5831    89.9211    6.8656     0.298     
2919.2     2.963      7.7763     7.6659     6.2197     4.103      8.3825     30.4746    92.032     6.9595     0.305     
2919.4     3.7506     9.4596     8.6271     6.6043     4.1928     7.5786     5.411      93.3689    6.7086     0.3047    
2919.6     3.6349     9.4425     8.8456     6.5682     4.2794     7.553      3.7002     94.4458    6.2937     0.2937    
2919.8     3.2401     9.3129     8.6914     6.427      4.3321     7.9721     3.6043     95.1755    5.9196     0.288     
2920       2.8713     9.2184     8.6552     6.4051     4.364      8.3359     4.2068     94.44      5.7302     0.2868    
2920.2     2.7314     9.1169     8.8284     6.451      4.3942     8.2749     4.6668     92.5972    5.5961     0.2889    
2920.4     2.8102     8.922      9.1148     6.4487     4.3989     8.0659     4.3214     91.3944    5.5053     0.2925    
2920.6     2.8219     8.3728     9.2678     6.326      4.3637     7.8872     3.9288     91.2188    5.416      0.2979    
2920.8     2.7546     7.8427     9.2985     6.1587     4.2676     7.8        3.8253     91.2155    5.3065     0.3027    
2921       2.6818     7.6196     9.3376     5.9807     4.1717     7.771      3.6606     91.3045    5.2245     0.2988    
2921.2     2.5908     7.4082     9.3471     5.8325     4.0962     7.8027     3.6185     91.6565    5.165      0.2932    
2921.4     2.5218     7.193      9.0645     5.7227     4.0446     7.8774     3.6386     91.5722    5.1471     0.2885    
2921.6     2.5007     7.068      8.6156     5.6677     4.0099     7.8661     3.7531     90.6432    5.1252     0.285     
2921.8     2.5164     7.0513     8.241      5.6927     3.9907     7.7975     3.7973     89.3924    5.1232     0.2873    
2922       2.5103     6.9976     7.9962     5.7357     3.9875     7.745      3.8437     88.0828    5.1292     0.2871    
2922.2     2.537      6.9364     7.8604     5.7414     3.9894     7.7021     3.7959     86.7581    5.1494     0.2942    
2922.4     2.5113     6.8033     7.7925     5.7489     3.9656     7.6264     3.9398     85.988     5.1431     0.2979    
2922.6     2.5516     6.8661     7.7989     5.8101     3.9065     7.5076     4.1488     85.8586    5.1008     0.2979    
2922.8     2.6141     7.0545     7.8323     5.8747     3.854      7.3869     4.0617     85.7776    5.0577     0.2981    
2923       2.5626     7.0828     7.7172     5.9155     3.7785     7.471      3.5881     86.2274    5.0224     0.2887    
2923.2     2.5028     6.8595     7.4887     5.8643     3.7038     7.8399     3.5238     87.9761    4.9772     0.2875    
2923.4     2.442      6.7752     7.3235     5.7454     3.6138     8.4786     3.6972     89.6421    4.9442     0.2827    
2923.6     2.4556     6.8661     7.323      5.6535     3.5059     9.0687     4.0892     89.4526    4.8892     0.2823    
2923.8     2.5941     7.1412     7.4174     5.5559     3.403      9.5805     3.8405     88.3161    4.8329     0.2914    
2924       2.567      6.7893     7.4275     5.3942     3.2986     10.1947    3.2628     87.8953    4.826      0.293     
2924.2     2.4529     6.514      7.2188     5.1634     3.1522     11.0006    3.4965     87.555     4.7852     0.2958    
2924.4     2.4351     6.4862     6.9758     4.9948     2.9665     11.7911    3.6647     85.8812    4.7373     0.2927    
2924.6     2.453      6.5839     6.8781     4.8632     2.7791     12.3047    3.6449     83.0198    4.7152     0.287     
2924.8     2.4088     6.3754     6.5885     4.6552     2.5514     12.6746    3.4261     79.9724    4.7283     0.2823    
