~Version
 VERS              .         2.0                           : CWLS LOG ASCII STANDARD - VERSION 2.0
 WRAP              .         NO                            : ONE LINE PER DEPTH STEP
 DLM               .         SPACE                         : DELIMITING CHARACTER(SPACE TAB OR COMMA)
~Well Information
#_______________________________________________________________________________
#
#PARAMETER_NAME    .UNIT     VALUE                         : DESCRIPTION
#_______________________________________________________________________________
STRT               .m        2657                          : First reference value
STOP               .m        2990                          : Last reference value
STEP               .m        0.2                           : Step increment
NULL               .         -9999                         : Missing value
COMP               .                                       : Company
WELL               .         604                           : Well name
FLD                .                                       : Field
LOC                .                                       : Location
CNTY               .                                       : County
STAT               .                                       : State
CTRY               .                                       : Country
SRVC               .                                       : Service Company
DATE               .                                       : Date
API                .                                       : API number
EREF               .m        134                           : 
X                  .m        225746                        : 
Y                  .m        235643                        : 
group              .         Pad6                          : 
Интер-р            .         Пузин                         : 
Куст               .         6                             : 
Статус             .         Не проверено                  : 
Тип                .         Нагнетательные                : 
~Parameter Information Block
#_______________________________________________________________________________
#
#PARAMETER_NAME    .UNIT     VALUE                         : DESCRIPTION
#_______________________________________________________________________________
SET                .         LAS1                          : 
REAL_CREATION_DATE .         Ср апр 11 2012-13_17_23       : 
TLFamily_DEPTH     .         Measured Depth                : 
TLFamily_GZ1       .         Extra Shallow Resistivity     : 
TLFamily_GZ2       .         Shallow Resistivity           : 
TLFamily_GZ3       .         Medium Resistivity            : 
TLFamily_GZ4       .         Deep Resistivity              : 
TLFamily_GZ5       .         Extra Deep Resistivity        : 
TLFamily_GZr       .         Medium Resistivity Inverted   : 
TLFamily_LLD       .         Lateral Log Resistivity       : 
TLFamily_PS        .         Spontaneous Potential         : 
TLFamily_PZ        .         Potential Resistivity         : 
TLFamily_RS        .         Mud Resistivity               : 
group              .         INI                           : 
~Curve Information
#_______________________________________________________________________________
#
#LOGNAME           .UNIT     LOG_ID                        : DESCRIPTION
#_______________________________________________________________________________
DEPTH              .m                                      : Measured Depth 
GZ1                .ohm.m                                  : Extra Shallow Resistivity 
GZ2                .ohm.m                                  : Shallow Resistivity 
GZ3                .ohm.m                                  : Medium Resistivity 
GZ4                .ohm.m                                  : Deep Resistivity 
GZ5                .ohm.m                                  : Extra Deep Resistivity 
GZr                .ohm.m                                  : Medium Resistivity Inverted 
LLD                .ohm.m                                  : Lateral Log Resistivity 
PS                 .mV                                     : Spontaneous Potential 
PZ                 .ohm.m                                  : Potential Resistivity 
RS                 .ohm.m                                  : Mud Resistivity 
~Ascii
# ...
2817.8     2.7628     8.73       10.6925    9.5391     6.118      17.9925    12.8463    81.3712    10.2232    0.2875    
2818       3.0733     9.709      11.747     10.2583    6.5018     16.7412    17.2811    80.6738    10.5693    0.2885    
2818.2     3.258      10.4666    13.0188    11.0752    6.8165     15.6953    20.7835    77.5357    10.6693    0.2875    
2818.4     3.5695     11.9192    14.6706    12.0195    7.0633     14.5977    14.1789    72.6526    10.4589    0.2928    
2818.6     3.9914     13.7619    16.7206    13.0352    7.1436     13.2662    6.4216     67.4224    10.0024    0.2979    
2818.8     4.3573     15.198     17.9961    13.3381    7.0785     12.3225    4.8303     63.8628    9.4566     0.302     
2819       4.0237     14.031     18.0296    12.9814    6.8695     12.2001    5.2154     63.8688    8.926      0.2979    
2819.2     3.6047     13.1552    17.4204    12.3069    6.5821     12.536     5.2583     67.0682    8.4226     0.2946    
2819.4     3.304      12.3868    17.2994    12.0192    6.1929     12.9013    4.8866     71.432     8.0998     0.2918    
2819.6     3.1779     11.7858    17.1773    11.8034    5.9168     13.2794    5.2592     75.0091    7.9305     0.2921    
2819.8     3.0055     10.7453    17.0283    11.6969    5.7545     13.4471    5.5004     75.7852    7.8388     0.2922    
2820       2.9311     10.0772    16.8287    11.7333    5.6715     13.5208    5.6758     72.6907    7.8301     0.2934    
2820.2     2.911      9.7358     16.7041    12.0075    5.6264     13.5589    5.5754     67.7397    7.7994     0.2927    
2820.4     2.9923     9.8        16.4253    12.3084    5.6388     13.527     5.9775     64.3233    7.8187     0.297     
2820.6     2.9397     9.4562     16.137     12.6473    5.6723     13.3665    5.6258     63.559     7.8402     0.2932    
2820.8     3.0015     9.6204     15.5795    12.888     5.7012     13.21      5.7941     64.6772    7.8773     0.2927    
2821       2.9862     9.4741     14.928     13.0862    5.6987     12.9897    6.2063     67.045     7.9332     0.2927    
2821.2     2.976      9.5301     14.1442    13.2031    5.6926     12.6997    6.4669     69.4903    7.9454     0.2917    
2821.4     2.9515     9.4331     13.6742    13.4374    5.7216     12.2917    7.0354     70.2421    7.9995     0.295     
2821.6     3.0106     9.6491     13.5962    13.901     5.7436     11.8891    6.9645     69.1963    7.9563     0.2968    
2821.8     3.1701     10.1884    13.9461    14.5986    5.7428     11.4817    4.9123     67.8934    7.7654     0.2893    
2822       3.3454     10.6146    14.1157    14.8497    5.7741     11.1739    4.8628     67.1214    7.5859     0.2879    
2822.2     3.1984     10.2573    13.7223    14.4415    5.7851     11.0171    4.7296     66.8656    7.3885     0.2865    
2822.4     3.0355     9.9185     13.4222    14.0171    5.731      11.1911    4.9165     67.6748    7.2192     0.2916    
2822.6     2.9529     9.6904     13.2311    13.6909    5.7058     11.4508    4.8865     69.4677    7.1381     0.2922    
2822.8     2.9082     9.4932     13.0775    13.2786    5.74       11.6375    5.0255     70.3964    7.091      0.2873    
2823       2.8352     9.128      12.9066    12.8218    5.7697     11.7844    5.7477     69.4781    7.1069     0.2913    
2823.2     2.8324     8.878      12.8388    12.5049    5.7778     11.9616    6.0731     68.0919    7.0646     0.2859    
2823.4     2.9601     9.1513     12.8121    12.1658    5.8143     11.9089    5.8438     66.6764    7.0589     0.2899    
2823.6     2.8714     8.8401     12.7086    11.8282    5.872      11.8777    6.3897     63.4469    7.0528     0.2875    
2823.8     2.8872     8.8246     12.4938    11.6396    5.8775     11.7407    5.92       57.9222    6.9729     0.2816    
2824       3.0099     9.3004     12.5459    11.621     5.8309     11.6475    5.005      51.9234    6.774      0.2786    
2824.2     3.1063     9.416      12.5029    11.4988    5.7294     11.3689    4.2776     46.8113    6.5289     0.289     
2824.4     3.0248     9.2237     11.8163    10.8456    5.5996     11.0386    4.2211     42.8469    6.3903     0.2878    
2824.6     2.6998     8.3339     10.8573    10.0353    5.4516     10.973     4.4544     40.2958    6.3223     0.2859    
2824.8     2.5075     7.7691     10.0883    9.4989     5.3261     11.242     4.6005     38.9861    6.2719     0.2823    
2825       2.4534     7.5403     9.7969     9.2655     5.3629     11.5706    4.8786     38.4188    6.2639     0.2865    
2825.2     2.4252     7.3197     9.7619     9.258      5.5197     11.8625    4.9987     39.2473    6.2837     0.288     
2825.4     2.4516     7.2708     9.7773     9.3263     5.7514     11.7507    4.8187     42.0198    6.3479     0.2843    
2825.6     2.426      7.1231     9.7961     9.3923     6.047      11.4765    5.0457     44.6151    6.4553     0.2847    
2825.8     2.3797     6.903      9.7771     9.4352     6.3538     11.4384    6.308      44.2906    6.59       0.2833    
2826       2.4081     7.0589     9.9913     9.6969     6.7046     11.4797    6.596      41.436     6.673      0.2837    
2826.2     2.5436     7.4411     10.3879    10.0815    7.0417     11.3378    5.6952     38.5764    6.762      0.2843    
2826.4     2.6946     7.7998     10.6       10.3297    7.3966     10.9731    4.5114     36.9898    6.8325     0.2864    
2826.6     2.6944     7.6931     10.4857    10.4009    7.8383     10.863     4.8445     36.311     6.9342     0.2828    
2826.8     2.5197     7.373      10.3729    10.6791    8.2696     11.2623    8.8894     36.2264    7.0468     0.2841    
2827       2.4461     7.6967     10.8711    11.5476    8.7129     11.717     14.5015    36.486     7.1264     0.2875    
2827.2     2.6634     8.529      11.8067    12.6473    9.1474     11.4111    12.5818    36.3866    7.2415     0.2875    
2827.4     3.0343     9.4763     12.7925    13.4484    9.2628     10.3153    5.1766     35.9462    7.227      0.2831    
2827.6     3.5646     10.5388    13.1731    13.5386    8.9975     9.3123     4.1298     35.866     6.9433     0.2935    
2827.8     3.4685     9.8137     12.7502    12.8824    8.4913     8.8439     4.194      35.8903    6.5897     0.288     
2828       3.1035     9.2516     11.6887    11.6413    7.8367     8.7205     4.3728     35.432     6.271      0.2894    
2828.2     2.7401     8.9017     11.0934    10.8395    7.233      8.8534     4.1243     34.8544    6.0755     0.2833    
2828.4     2.6133     8.6155     10.6996    10.3415    6.9535     9.0384     4.484      34.406     5.971      0.2847    
2828.6     2.5234     8.0454     10.5888    10.2008    6.791      9.553      5.0869     34.0629    5.8972     0.2866    
2828.8     2.538      7.8275     10.6032    10.1448    6.6785     9.9344     4.4113     34.6933    5.7807     0.2919    
2829       2.6328     7.818      10.5649    9.9583     6.603      10.1208    4.6343     36.4517    5.7618     0.2878    
2829.2     2.521      7.35       10.3652    9.5205     6.5019     10.0076    4.3145     37.2956    5.7782     0.2854    
2829.4     2.5145     7.1728     10.2277    9.1512     6.3251     9.713      4.1364     35.7313    5.7522     0.2851    
2829.6     2.4994     7.002      10.0293    8.9219     6.1869     9.5751     4.2439     32.9012    5.7077     0.2916    
2829.8     2.4633     6.9201     9.658      8.7912     6.0486     9.6719     4.4158     30.4602    5.6585     0.2927    
2830       2.3735     6.8028     9.1836     8.6128     5.9671     9.8032     4.076      28.9026    5.6551     0.2877    
2830.2     2.3431     6.6966     8.7057     8.4439     5.9701     9.9638     4.1756     28.661     5.7338     0.2831    
2830.4     2.2583     6.3962     8.419      8.4247     6.0255     10.3566    4.6136     30.0156    5.8073     0.2809    
2830.6     2.2986     6.4498     8.3837     8.6515     6.1047     11.1791    5.0594     31.5765    5.8904     0.2885    
2830.8     2.2625     6.4839     8.4784     8.8819     6.3292     11.8581    4.9136     31.8457    6.0132     0.2861    
2831       2.3038     6.5546     8.6076     9.1095     6.6708     12.4125    9.2648     31.8879    6.2691     0.2832    
