~Version
 VERS              .         2.0                           : CWLS LOG ASCII STANDARD - VERSION 2.0
 WRAP              .         NO                            : ONE LINE PER DEPTH STEP
 DLM               .         SPACE                         : DELIMITING CHARACTER(SPACE TAB OR COMMA)
~Well Information
#_______________________________________________________________________________
#
#PARAMETER_NAME    .UNIT     VALUE                         : DESCRIPTION
#_______________________________________________________________________________
STRT               .m        2657                          : First reference value
STOP               .m        2990                          : Last reference value
STEP               .m        0.2                           : Step increment
NULL               .         -9999                         : Missing value
COMP               .                                       : Company
WELL               .         604                           : Well name
FLD                .                                       : Field
LOC                .                                       : Location
CNTY               .                                       : County
STAT               .                                       : State
CTRY               .                                       : Country
SRVC               .                                       : Service Company
DATE               .                                       : Date
API                .                                       : API number
EREF               .m        134                           : 
X                  .m        225746                        : 
Y                  .m        235643                        : 
group              .         Pad6                          : 
Интер-р            .         Пузин                         : 
Куст               .         6                             : 
Статус             .         Не проверено                  : 
Тип                .         Нагнетательные                : 
~Parameter Information Block
#_______________________________________________________________________________
#
#PARAMETER_NAME    .UNIT     VALUE                         : DESCRIPTION
#_______________________________________________________________________________
SET                .         LAS1                          : 
REAL_CREATION_DATE .         Ср апр 11 2012-13_17_23       : 
TLFamily_DEPTH     .         Measured Depth                : 
TLFamily_GZ1       .         Extra Shallow Resistivity     : 
TLFamily_GZ2       .         Shallow Resistivity           : 
TLFamily_GZ3       .         Medium Resistivity            : 
TLFamily_GZ4       .         Deep Resistivity              : 
TLFamily_GZ5       .         Extra Deep Resistivity        : 
TLFamily_GZr       .         Medium Resistivity Inverted   : 
TLFamily_LLD       .         Lateral Log Resistivity       : 
TLFamily_PS        .         Spontaneous Potential         : 
TLFamily_PZ        .         Potential Resistivity         : 
TLFamily_RS        .         Mud Resistivity               : 
group              .         INI                           : 
~Curve Information
#_______________________________________________________________________________
#
#LOGNAME           .UNIT     LOG_ID                        : DESCRIPTION
#_______________________________________________________________________________
DEPTH              .m                                      : Measured Depth 
GZ1                .ohm.m                                  : Extra Shallow Resistivity 
GZ2                .ohm.m                                  : Shallow Resistivity 
GZ3                .ohm.m                                  : Medium Resistivity 
GZ4                .ohm.m                                  : Deep Resistivity 
GZ5                .ohm.m                                  : Extra Deep Resistivity 
GZr                .ohm.m                                  : Medium Resistivity Inverted 
LLD                .ohm.m                                  : Lateral Log Resistivity 
PS                 .mV                                     : Spontaneous Potential 
PZ                 .ohm.m                                  : Potential Resistivity 
RS                 .ohm.m                                  : Mud Resistivity 
~Ascii
# ...
2978.6     2.7643     7.9166     12.0735    13.2588    8.1162     0          6.2687     71.2885    7.3983     0.2832    
2978.8     2.7694     7.9145     12.0727    12.8065    7.7855     0          6.2318     72.1674    7.3986     0.2823    
2979       2.7715     7.9171     12.0731    12.732     7.3542     0          6.413      71.7358    7.4021     0.0575    
2979.2     2.7693     7.9251     12.0825    12.7339    6.9725     0          6.2983     70.501     5.1732     0         
2979.4     2.2172     7.9165     12.0761    12.7336    6.8193     0          6.2192     69.8427    0          0         
2979.6     0          7.9158     12.0735    12.7424    6.6387     0          6.3114     70.6321    0          0         
2979.8     0          7.9218     12.0735    12.7397    6.3813     0          5.9854     72.2421    0          0         
2980       0          6.3422     12.0785    12.7421    6.1843     0          5.843      73.0367    0          0         
2980.2     0          0          12.0735    12.7337    5.9724     0          5.8415     72.0962    0          0         
2980.4     0          0          12.0711    12.732     5.7044     0          5.9751     70.1219    0          0         
2980.6     0          0          12.0723    12.7424    5.422      0          5.6998     68.4171    0          0         
2980.8     0          0          12.073     12.732     5.3143     0          5.3533     67.6364    0          0         
2981       0          0          12.0759    12.732     5.3056     0          6.2397     67.7028    0          0         
2981.2     0          0          9.6588     12.7336    5.3453     0          5.6523     68.1959    0          0         
2981.4     0          0          0          12.7337    5.4162     0          5.9985     68.6997    0          0         
2981.6     0          0          0          12.7315    5.4249     0          6.2205     69.1212    0          0         
2981.8     0          0          0          12.7341    5.4316     0          6.2662     69.5053    0          0         
2982       0          0          0          12.7326    5.377      0          6.3432     69.6141    0          0         
2982.2     0          0          0          12.7435    5.3132     0          6.9972     69.1671    0          0         
2982.4     0          0          0          12.745     5.2751     0          10.4801    68.3954    0          0         
2982.6     0          0          0          12.745     5.2661     0          12.9627    68.0733    0          0         
2982.8     0          0          0          12.754     5.2562     0          11.0184    69.2225    0          0         
2983       0          0          0          12.7475    5.2654     0          4.8298     72.7643    0          0         
2983.2     0          0          0          10.198     5.28       0          4.7532     78.7648    0          0         
2983.4     0          0          0          0          5.2915     0          4.875      85.6755    0          0         
2983.6     0          0          0          0          5.2891     0          3.9867     91.1401    0          0         
2983.8     0          0          0          0          5.2826     0          4.2257     94.1486    0          0         
2984       0          0          0          0          5.2827     0          4.4641     95.7406    0          0         
2984.2     0          0          0          0          5.2806     0          4.6254     101.5244   0          0         
2984.4     0          0          0          0          5.2906     0          4.266      142.708    0          0         
2984.6     0          0          0          0          5.2882     0          3.6739     310.5074   0          0         
2984.8     0          0          0          0          5.2886     0          3.8693     713.48     0          0         
2985       0          0          0          0          5.2872     0          3.7705     1315.701   0          0         
2985.2     0          0          0          0          5.2814     0          3.771      1889.208   0          0         
2985.4     0          0          0          0          5.2819     0          4.0565     2236.892   0          0         
2985.6     0          0          0          0          5.2801     0          3.9373     2367.706   0          0         
2985.8     0          0          0          0          5.2826     0          4.2921     2396.53    0          0         
2986       0          0          0          0          5.2736     0          5.7879     2399.844   0          0         
2986.2     0          0          0          0          5.2882     0          6.5187     2399.999   0          0         
2986.4     0          0          0          0          5.2852     0          7.322      2400       0          0         
2986.6     0          0          0          0          5.2873     0          7.7265     2400       0          0         
2986.8     0          0          0          0          5.2901     0          8.6788     2400       0          0         
2987       0          0          0          0          5.2928     0          10.3071    2400       0          0         
2987.2     0          0          0          0          5.2906     0          9.5186     2400       0          0         
2987.4     0          0          0          0          5.2844     0          9.2201     2400       0          0         
2987.6     0          0          0          0          0          0          8.1829     2400       0          0         
2987.8     0          0          0          0          0          0          6.2868     2400       0          0         
2988       0          0          0          0          0          0          6.2649     2400       0          0         
2988.2     0          0          0          0          0          0          6.7911     2400       0          0         
2988.4     0          0          0          0          0          0          6.8306     2400       0          0         
2988.6     0          0          0          0          0          0          6.6709     2400       0          0         
2988.8     0          0          0          0          0          0          6.2204     2400       0          0         
2989       0          0          0          0          0          0          5.7403     2400       0          0         
2989.2     0          0          0          0          0          0          5.9546     2400       0          0         
2989.4     0          0          0          0          0          0          5.8741     2400       0          0         
2989.6     0          0          0          0          0          0          6.2887     2400       0          0         
2989.8     0          0          0          0          0          0          6.9221     2400       0          0         
2990       0          0          0          0          0          0          6.991      2400       0          0         
