~Version
 VERS              .         2.0                           : CWLS LOG ASCII STANDARD - VERSION 2.0
 WRAP              .         NO                            : ONE LINE PER DEPTH STEP
 DLM               .         SPACE                         : DELIMITING CHARACTER(SPACE TAB OR COMMA)
~Well Information
#_______________________________________________________________________________
#
#PARAMETER_NAME    .UNIT     VALUE                         : DESCRIPTION
#_______________________________________________________________________________
STRT               .m        2657                          : First reference value
STOP               .m        2990                          : Last reference value
STEP               .m        0.2                           : Step increment
NULL               .         -9999                         : Missing value
COMP               .                                       : Company
WELL               .         604                           : Well name
FLD                .                                       : Field
LOC                .                                       : Location
CNTY               .                                       : County
STAT               .                                       : State
CTRY               .                                       : Country
SRVC               .                                       : Service Company
DATE               .                                       : Date
API                .                                       : API number
EREF               .m        134                           : 
X                  .m        225746                        : 
Y                  .m        235643                        : 
group              .         Pad6                          : 
Интер-р            .         Пузин                         : 
Куст               .         6                             : 
Статус             .         Не проверено                  : 
Тип                .         Нагнетательные                : 
~Parameter Information Block
#_______________________________________________________________________________
#
#PARAMETER_NAME    .UNIT     VALUE                         : DESCRIPTION
#_______________________________________________________________________________
SET                .         LAS1                          : 
REAL_CREATION_DATE .         Ср апр 11 2012-13_17_23       : 
TLFamily_DEPTH     .         Measured Depth                : 
TLFamily_GZ1       .         Extra Shallow Resistivity     : 
TLFamily_GZ2       .         Shallow Resistivity           : 
TLFamily_GZ3       .         Medium Resistivity            : 
TLFamily_GZ4       .         Deep Resistivity              : 
TLFamily_GZ5       .         Extra Deep Resistivity        : 
TLFamily_GZr       .         Medium Resistivity Inverted   : 
TLFamily_LLD       .         Lateral Log Resistivity       : 
TLFamily_PS        .         Spontaneous Potential         : 
TLFamily_PZ        .         Potential Resistivity         : 
TLFamily_RS        .         Mud Resistivity               : 
group              .         INI                           : 
~Curve Information
#_______________________________________________________________________________
#
#LOGNAME           .UNIT     LOG_ID                        : DESCRIPTION
#_______________________________________________________________________________
DEPTH              .m                                      : Measured Depth 
GZ1                .ohm.m                                  : Extra Shallow Resistivity 
GZ2                .ohm.m                                  : Shallow Resistivity 
GZ3                .ohm.m                                  : Medium Resistivity 
GZ4                .ohm.m                                  : Deep Resistivity 
GZ5                .ohm.m                                  : Extra Deep Resistivity 
GZr                .ohm.m                                  : Medium Resistivity Inverted 
LLD                .ohm.m                                  : Lateral Log Resistivity 
PS                 .mV                                     : Spontaneous Potential 
PZ                 .ohm.m                                  : Potential Resistivity 
RS                 .ohm.m                                  : Mud Resistivity 
~Ascii
# ...
2724       41.491     41.2583    41.2514    -0.2163    -0.4929    -0.0861    -0.9623    -9999      42.2762    16.2087   
2724.2     41.4892    41.2443    41.243     -0.2165    -0.4876    -0.0942    -1.7991    -9999      42.2991    16.2142   
2724.4     41.4882    41.2401    41.2409    -0.2112    -0.4856    -0.0834    -1.7463    -9999      42.2846    16.2075   
2724.6     41.4904    41.2534    41.2384    -0.2112    -0.4937    -0.0938    -1.2131    -9999      42.2776    16.2137   
2724.8     41.4934    41.2364    41.2361    -0.2087    -0.4964    -0.0934    -0.749     -9999      42.2614    16.2072   
2725       41.4741    41.2299    41.222     -0.1963    -0.4927    -0.0887    -1.1115    -9999      42.2625    11.862    
2725.2     41.4554    41.2327    41.2244    2.2884     -0.4932    -0.0936    -0.8731    -9999      36.8253    -0.0138   
2725.4     37.9833    41.2248    41.2202    38.4067    -0.4871    -0.0871    -2.6139    -9999      -0.0253    -0.0096   
2725.6     -0.1887    41.2231    41.2189    40.1372    -0.4887    -0.0896    -2.3627    -9999      -0.0253    -0.0103   
2725.8     -0.1902    41.2064    41.2077    40.1508    -0.4941    -0.0908    -1.4207    -9999      -0.032     -0.0096   
2726       -0.1902    37.7806    41.2141    40.1493    -0.4914    -0.0934    -1.288     -9999      -0.0253    -0.01     
2726.2     -0.1902    -0.129     41.2227    40.1533    -0.4863    -0.0918    -0.7338    -9999      -0.0253    -0.0148   
2726.4     -0.1902    -0.1164    41.211     40.1489    -0.4863    -0.0478    -0.7673    -9999      -0.0253    -0.0148   
2726.6     -0.1902    -0.1164    41.2218    40.1616    -0.4964    0.0222     -1.0484    -9999      -0.0253    -0.0118   
2726.8     -0.185     -0.1181    41.2084    40.1705    -0.4964    0.0228     -2.613     -9999      -0.0343    -0.0148   
2727       -0.1895    -0.1267    41.19      40.1638    -0.4964    0.0228     -2.8102    -9999      -0.0293    -0.0141   
2727.2     -0.1876    -0.1296    36.4365    40.1715    -0.4872    0.0228     -2.9567    -9999      -0.0253    -0.0124   
2727.4     -0.1926    -0.1261    -0.0968    40.1661    -0.4832    0.0228     -3.4115    -9999      -0.0359    -0.0132   
2727.6     -0.189     -0.1178    -0.1057    40.1351    -0.4892    0.0228     -5.644     -9999      -0.0279    -0.0107   
2727.8     -0.1881    -0.1271    -0.1042    40.1687    -0.4872    0.021      -4.571     -9999      -0.0335    -0.0128   
2728       -0.1844    -0.1225    -0.1099    40.1522    -0.4948    0.0217     -8.9395    -9999      -0.0253    -0.0125   
2728.2     -0.1887    -0.1199    -0.0997    40.1465    -0.4873    0.0203     -7.7034    -9999      -0.0371    -0.0142   
2728.4     -0.1876    -0.1207    -0.0968    40.1429    -0.4885    0.0206     -6.1793    -9999      -0.0318    -0.0128   
2728.6     -0.1877    -0.1222    -0.0968    40.1429    -0.4793    0.0228     -1.5465    -9999      -0.0303    0.0205    
2728.8     -0.1881    -0.1263    -0.0987    40.1229    -0.4805    0.0123     -3.7883    -9999      -0.0272    0.213     
2729       -0.1877    -0.1179    -0.0968    40.1183    -0.4745    0.0192     -4.5358    -9999      -0.0285    0.2257    
2729.2     -0.1365    -0.1224    -0.1039    34.8579    -0.466     0.0208     -3.6586    -9999      -0.028     0.235     
2729.4     -0.1366    -0.1245    -0.1077    -0.2242    -0.4247    0.0228     -4.1706    -9999      -0.0297    0.2176    
2729.6     -0.1366    -0.122     -0.0993    -0.2242    30.6711    0.0205     -5.0619    -9999      -0.0349    0.2338    
2729.8     -0.1366    -0.0768    -0.1042    -0.2242    40.8351    0.0228     -5.6855    -9999      -0.0253    0.231     
2730       -0.1344    -0.0636    -0.1001    -0.2242    40.8337    0.0228     -1.5265    -9999      -0.0253    0.2313    
2730.2     -0.1322    -0.0636    -0.0968    -0.2242    40.8216    0.0201     -2.7153    -9999      -0.0338    0.2347    
2730.4     -0.1353    -0.0636    -0.0969    -0.2242    40.8429    0.0171     -5.004     -9999      -0.0253    0.2294    
2730.6     -0.1295    -0.0712    -0.1079    -0.2242    40.8429    0.0228     -5.6849    -9999      -0.0285    0.2354    
2730.8     -0.1316    -0.0754    -0.0955    -0.2242    40.8429    0.0228     -6.0479    -9999      -0.0287    0.2345    
2731       -0.1338    -0.0643    -0.0738    -0.2242    40.8338    0.0117     -9.4543    -9999      -0.0253    0.2325    
2731.2     -0.1273    -0.0743    -0.0761    -0.2242    40.8429    0.0227     -9.2946    -9999      -0.0253    0.2336    
2731.4     -0.1293    -0.0698    -0.0825    -0.2242    40.8429    0.0161     -5.9664    -9999      -0.0253    0.2344    
2731.6     -0.1327    -0.07      -0.0703    -0.2242    40.8509    0.0228     -4.0264    -9999      -0.0361    0.2342    
2731.8     -0.1243    -0.0641    -0.0703    -0.2242    40.8429    0.0206     -3.4724    -9999      -0.0281    0.2301    
2732       -0.1287    -0.0708    -0.0615    -0.2242    40.8399    0.0228     -3.3326    -9999      -0.0358    0.2323    
2732.2     -0.1293    -0.0653    -0.0703    -0.2242    40.8382    0.0186     -3.2423    -9999      -0.0309    0.2314    
2732.4     -0.1352    -0.0556    -0.0703    -0.2242    40.8398    0.0126     -3.9724    -9999      -0.0262    0.2305    
2732.6     -0.1259    -0.0738    -0.0724    -0.2242    40.8429    0.0225     -5.3556    -9999      -0.0356    0.2301    
2732.8     -0.1339    -0.0657    -0.0703    -0.2194    40.8237    0.017      -9.8504    -9999      -0.0315    0.2301    
2733       -0.1232    -0.0636    -0.0725    -0.182     40.8197    0.0144     -7.734     -9999      -0.039     0.2301    
2733.2     -0.1232    -0.0751    -0.0703    -0.1854    40.8129    0.0126     -3.3608    -9999      -0.039     0.2301    
2733.4     -0.1339    -0.0636    -0.0703    -0.1854    40.6756    0.0227     -6.7085    -9999      -0.0303    0.2301    
2733.6     -0.1366    -0.0617    -0.0703    -0.1854    3.9896     0.0115     -7.7144    -9999      -0.0289    0.2312    
2733.8     -0.125     -0.0636    -0.0703    -0.1854    -0.4832    0.0228     -9.3373    -9999      -0.0253    0.2301    
2734       -0.1356    -0.0636    -0.0703    -0.1768    -0.4832    0.0228     -3.9485    -9999      -0.0322    0.2324    
2734.2     -0.1256    -0.0713    -0.0703    -0.1854    -0.4832    0.0228     -4.1495    -9999      -0.0253    0.2326    
2734.4     -0.1254    -0.0602    -0.0703    -0.1786    -0.4832    0.0228     -3.9338    -9999      -0.029     0.2331    
2734.6     -0.128     -0.0758    -0.073     -0.1806    -0.4877    0.0228     -6.1508    -9999      -0.0344    0.2261    
2734.8     -0.1256    -0.0662    -0.0703    -0.1827    -0.4964    0.0203     -5.6572    -9999      -0.0253    0.2271    
2735       -0.133     -0.0639    -0.0713    -0.1854    -0.4878    0.0207     -2.2563    -9999      -0.0253    0.2306    
2735.2     -0.128     -0.0651    -0.0809    -0.1854    -0.4936    0.0214     -2.7542    -9999      -0.034     0.2303    
2735.4     -0.1342    -0.066     -0.0703    -0.1816    -0.4902    0.0213     -4.9614    -9999      -0.0333    0.2301    
2735.6     -0.1345    -0.0708    -0.0737    -0.1755    -0.488     0.0202     -3.3606    -9999      -0.0312    0.2319    
2735.8     -0.1275    -0.0721    -0.0713    -0.1754    -0.489     0.0228     -4.9687    -9999      -0.028     0.2301    
2736       -0.1366    -0.0648    -0.0809    -0.1854    -0.4912    0.0228     -2.8245    -9999      -0.0253    0.2346    
2736.2     -0.1348    -0.0674    -0.0757    -0.1854    -0.4946    0.0228     -3.6326    -9999      -0.0258    0.2348    
2736.4     -0.1366    -0.0636    -0.0736    -0.1854    -0.4861    0.0163     -2.7316    -9999      -0.039     0.2354    
2736.6     -0.1366    -0.075     -0.0703    -0.1854    -0.4923    0.0187     -3.5634    -9999      -0.0326    0.2342    
2736.8     -0.1366    -0.0646    -0.0657    -0.181     -0.4869    0.0228     -2.6921    -9999      -0.0253    0.231     
2737       -0.1366    -0.0765    -0.0703    -0.1854    -0.4944    0.012      -0.8432    -9999      -0.0253    0.2325    
2737.2     -0.1272    -0.0636    -0.0703    -0.1854    -0.2834    0.0117     -2.2557    -9999      -0.0289    0.2329    
