~Version
 VERS              .         2.0                           : CWLS LOG ASCII STANDARD - VERSION 2.0
 WRAP              .         NO                            : ONE LINE PER DEPTH STEP
 DLM               .         SPACE                         : DELIMITING CHARACTER(SPACE TAB OR COMMA)
~Well Information
#_______________________________________________________________________________
#
#PARAMETER_NAME    .UNIT     VALUE                         : DESCRIPTION
#_______________________________________________________________________________
STRT               .m        2657                          : First reference value
STOP               .m        2990                          : Last reference value
STEP               .m        0.2                           : Step increment
NULL               .         -9999                         : Missing value
COMP               .                                       : Company
WELL               .         604                           : Well name
FLD                .                                       : Field
LOC                .                                       : Location
CNTY               .                                       : County
STAT               .                                       : State
CTRY               .                                       : Country
SRVC               .                                       : Service Company
DATE               .                                       : Date
API                .                                       : API number
EREF               .m        134                           : 
X                  .m        225746                        : 
Y                  .m        235643                        : 
group              .         Pad6                          : 
Интер-р            .         Пузин                         : 
Куст               .         6                             : 
Статус             .         Не проверено                  : 
Тип                .         Нагнетательные                : 
~Parameter Information Block
#_______________________________________________________________________________
#
#PARAMETER_NAME    .UNIT     VALUE                         : DESCRIPTION
#_______________________________________________________________________________
SET                .         LAS1                          : 
REAL_CREATION_DATE .         Ср апр 11 2012-13_17_23       : 
TLFamily_DEPTH     .         Measured Depth                : 
TLFamily_GZ1       .         Extra Shallow Resistivity     : 
TLFamily_GZ2       .         Shallow Resistivity           : 
TLFamily_GZ3       .         Medium Resistivity            : 
TLFamily_GZ4       .         Deep Resistivity              : 
TLFamily_GZ5       .         Extra Deep Resistivity        : 
TLFamily_GZr       .         Medium Resistivity Inverted   : 
TLFamily_LLD       .         Lateral Log Resistivity       : 
TLFamily_PS        .         Spontaneous Potential         : 
TLFamily_PZ        .         Potential Resistivity         : 
TLFamily_RS        .         Mud Resistivity               : 
group              .         INI                           : 
~Curve Information
#_______________________________________________________________________________
#
#LOGNAME           .UNIT     LOG_ID                        : DESCRIPTION
#_______________________________________________________________________________
DEPTH              .m                                      : Measured Depth 
GZ1                .ohm.m                                  : Extra Shallow Resistivity 
GZ2                .ohm.m                                  : Shallow Resistivity 
GZ3                .ohm.m                                  : Medium Resistivity 
GZ4                .ohm.m                                  : Deep Resistivity 
GZ5                .ohm.m                                  : Extra Deep Resistivity 
GZr                .ohm.m                                  : Medium Resistivity Inverted 
LLD                .ohm.m                                  : Lateral Log Resistivity 
PS                 .mV                                     : Spontaneous Potential 
PZ                 .ohm.m                                  : Potential Resistivity 
RS                 .ohm.m                                  : Mud Resistivity 
~Ascii
# ...
2777.6     2.6872     7.9315     9.562      7.1928     4.1881     9.8961     4.4743     107.9696   6.0111     0.3014    
2777.8     2.6308     7.7704     9.4519     7.1358     4.2054     9.9541     4.5529     106.9532   6.0035     0.3031    
2778       2.5526     7.5528     9.3205     7.1279     4.2339     9.9161     5.0132     105.097    6.0763     0.3031    
2778.2     2.5241     7.439      9.2894     7.2067     4.2683     9.7991     5.3849     103.7286   6.1533     0.3021    
2778.4     2.6264     7.6142     9.4183     7.3563     4.2928     9.6409     5.4979     104.3922   6.221      0.3078    
2778.6     2.6953     7.7164     9.5414     7.5089     4.3511     9.3997     5.5418     106.6142   6.2758     0.3075    
2778.8     2.74       7.8029     9.5787     7.6402     4.4047     9.1684     5.4712     109.1624   6.2855     0.3031    
2779       2.8091     8.0488     9.6782     7.7794     4.4408     9.0237     5.0225     111.1957   6.2195     0.3031    
2779.2     2.8653     8.2338     9.7553     7.8937     4.4659     8.9578     4.9359     111.8174   6.1376     0.3077    
2779.4     2.8473     8.291      9.7595     7.9397     4.4827     8.9862     4.8357     110.883    6.0284     0.3043    
2779.6     2.8235     8.3203     9.7357     7.9317     4.499      9.0698     4.6967     109.6753   5.9169     0.306     
2779.8     2.789      8.2514     9.6725     7.8885     4.4866     9.1525     4.5975     109.1721   5.8095     0.3075    
2780       2.766      8.1561     9.6306     7.8325     4.4793     9.2158     4.1976     109.0828   5.6883     0.3055    
2780.2     2.7444     8.0258     9.5601     7.726      4.4391     9.3894     4.05       109.0429   5.5746     0.308     
2780.4     2.6707     7.7771     9.4064     7.5802     4.4239     9.6945     4.0457     108.7132   5.4956     0.3074    
2780.6     2.5634     7.4776     9.2145     7.4079     4.423      10.0489    4.1499     107.3098   5.4516     0.3044    
2780.8     2.5072     7.2586     9.0144     7.2567     4.423      10.3435    4.1589     105.1096   5.4535     0.3108    
2781       2.4783     7.0909     8.8064     7.1296     4.4237     10.5973    4.2238     104.0309   5.5067     0.3083    
2781.2     2.4243     6.8489     8.5494     7.01       4.4191     10.8714    4.2615     104.9622   5.5866     0.3047    
2781.4     2.4131     6.7305     8.2954     6.8782     4.4357     11.1278    4.623      106.4266   5.6935     0.3035    
2781.6     2.3705     6.6027     8.1451     6.8276     4.4729     11.3137    5.0749     107.0398   5.8418     0.3083    
2781.8     2.3987     6.6927     8.1584     6.9063     4.4999     11.3901    5.7692     107.0043   5.9827     0.3083    
2782       2.5257     7.1022     8.291      7.0381     4.5213     11.2621    5.1675     106.7511   6.1081     0.3093    
2782.2     2.6332     7.2676     8.4052     7.0979     4.5206     11.0865    4.9917     106.4011   6.2078     0.3098    
2782.4     2.6517     7.3753     8.367      7.0605     4.5159     10.9741    5.2075     106.3483   6.2723     0.3073    
2782.6     2.6601     7.4998     8.3503     7.0405     4.4815     10.891     5.364      106.6077   6.3012     0.3065    
2782.8     2.6535     7.6551     8.4334     7.048      4.4548     10.7432    5.3652     106.71     6.3515     0.3058    
2783       2.6829     7.8382     8.5815     7.0466     4.4369     10.6035    5.3153     107.1893   6.3903     0.3083    
2783.2     2.7201     7.9935     8.7661     7.0506     4.4495     10.485     5.3565     108.8679   6.3952     0.3074    
2783.4     2.725      7.9872     8.9762     7.0757     4.4402     10.3831    5.2715     110.5974   6.3924     0.3059    
2783.6     2.7765     8.1432     9.191      7.0872     4.4495     10.3108    5.0102     110.6628   6.3577     0.3043    
2783.8     2.7766     8.1988     9.4242     7.1116     4.4495     10.2985    4.9453     109.5475   6.3282     0.3075    
2784       2.7342     8.1103     9.5538     7.0895     4.4379     10.2974    5.2288     108.6507   6.313      0.3074    
2784.2     2.6822     8.0157     9.6815     7.0729     4.4326     10.2713    5.3214     108.075    6.3322     0.3031    
2784.4     2.7037     8.0492     9.7686     7.0714     4.4285     10.1815    5.1042     107.5656   6.3263     0.3031    
2784.6     2.7302     8.0839     9.8417     7.1071     4.4298     10.1438    5.0721     107.5141   6.3185     0.3031    
2784.8     2.7296     8.0169     9.9033     7.1769     4.4299     10.143     5.1297     108.1649   6.2939     0.3031    
2785       2.7608     8.1218     9.9997     7.2788     4.4416     10.1716    4.7779     109.5634   6.2383     0.3031    
2785.2     2.7538     8.1735     10.0425    7.3983     4.4606     10.1745    4.7262     111.9041   6.1944     0.3018    
2785.4     2.7186     8.0737     9.9948     7.4855     4.4686     10.2723    4.7099     114.5555   6.167      0.3066    
2785.6     2.7033     8.0334     9.889      7.557      4.4806     10.4209    4.796      116.0917   6.1408     0.3031    
2785.8     2.6589     7.8475     9.7938     7.6217     4.5005     10.5258    4.9561     116.2813   6.1486     0.3062    
2786       2.6495     7.8167     9.6994     7.6967     4.4945     10.588     4.9696     116.1271   6.1711     0.3025    
2786.2     2.6633     7.8062     9.6791     7.8119     4.5124     10.6257    4.9154     115.6961   6.1871     0.3031    
2786.4     2.6829     7.8024     9.6505     7.8809     4.5288     10.6101    4.9136     114.3803   6.2067     0.3005    
2786.6     2.6772     7.7675     9.6146     7.9273     4.542      10.622     4.9991     112.92     6.2172     0.303     
2786.8     2.6714     7.7828     9.5648     7.9414     4.5751     10.6258    5.0502     112.6032   6.2277     0.2986    
2787       2.6543     7.7969     9.5204     7.9652     4.616      10.5777    5.1342     113.2952   6.2639     0.3019    
2787.2     2.6777     7.8158     9.5173     7.9732     4.6346     10.5282    5.1318     114.2463   6.2796     0.2979    
2787.4     2.7003     7.9198     9.5053     7.9691     4.6346     10.4342    4.9825     115.3628   6.2841     0.2979    
2787.6     2.6978     7.8809     9.4685     7.9459     4.6542     10.3767    4.9598     116.248    6.2948     0.2979    
2787.8     2.6823     7.9059     9.4643     7.9166     4.6594     10.2024    4.847      116.0739   6.2812     0.2979    
2788       2.6998     7.9696     9.5201     7.9126     4.6798     10.0458    4.952      115.0594   6.2775     0.295     
2788.2     2.655      7.9122     9.5597     7.926      4.7129     9.8887     5.0758     113.6893   6.2863     0.2979    
2788.4     2.6442     7.9962     9.6728     7.9991     4.7521     9.7935     5.0294     111.3786   6.2744     0.2917    
2788.6     2.754      8.1384     9.8323     8.0795     4.7624     9.5947     4.9833     108.3473   6.2512     0.3017    
2788.8     2.7308     8.0529     9.8497     8.0468     4.7813     9.338      4.9567     106.4963   6.2664     0.2981    
2789       2.7179     8.0231     9.8185     7.9725     4.7933     9.0702     5.0352     106.6551   6.2816     0.2979    
2789.2     2.7092     7.9518     9.8364     7.9404     4.7952     8.8383     5.0026     107.7104   6.2819     0.2979    
2789.4     2.7361     8.0481     9.8565     7.9526     4.8243     8.6538     5.1597     108.8823   6.2775     0.2991    
2789.6     2.7427     8.0635     9.9216     8.0085     4.87       8.5711     5.7151     110.1706   6.2682     0.2995    
2789.8     2.7447     8.1781     10.1312    8.1599     4.9023     8.4618     5.0614     111.1197   6.1627     0.2975    
2790       2.9579     8.7065     10.3504    8.2916     4.9249     8.2961     4.3425     111.3217   6.0349     0.2956    
2790.2     2.9221     8.5636     10.3384    8.2292     4.9416     8.1407     4.2945     111.0146   5.9219     0.2979    
2790.4     2.8586     8.342      10.167     8.1294     4.9287     8.125      4.1711     110.1487   5.748      0.3028    
2790.6     2.8167     8.3205     10.029     8.0571     4.878      8.2116     3.9824     108.6559   5.5908     0.3031    
2790.8     2.7719     8.2174     9.9321     7.9658     4.8418     8.3665     3.8119     107.7194   5.4517     0.3078    
