~Version
 VERS              .         2.0                           : CWLS LOG ASCII STANDARD - VERSION 2.0
 WRAP              .         NO                            : ONE LINE PER DEPTH STEP
 DLM               .         SPACE                         : DELIMITING CHARACTER(SPACE TAB OR COMMA)
~Well Information
#_______________________________________________________________________________
#
#PARAMETER_NAME    .UNIT     VALUE                         : DESCRIPTION
#_______________________________________________________________________________
STRT               .m        2657                          : First reference value
STOP               .m        2990                          : Last reference value
STEP               .m        0.2                           : Step increment
NULL               .         -9999                         : Missing value
COMP               .                                       : Company
WELL               .         604                           : Well name
FLD                .                                       : Field
LOC                .                                       : Location
CNTY               .                                       : County
STAT               .                                       : State
CTRY               .                                       : Country
SRVC               .                                       : Service Company
DATE               .                                       : Date
API                .                                       : API number
EREF               .m        134                           : 
X                  .m        225746                        : 
Y                  .m        235643                        : 
group              .         Pad6                          : 
Интер-р            .         Пузин                         : 
Куст               .         6                             : 
Статус             .         Не проверено                  : 
Тип                .         Нагнетательные                : 
~Parameter Information Block
#_______________________________________________________________________________
#
#PARAMETER_NAME    .UNIT     VALUE                         : DESCRIPTION
#_______________________________________________________________________________
SET                .         LAS3                          : 
REAL_CREATION_DATE .         Ср апр 11 2012-13_17_23       : 
TLFamily_DEPTH     .         Measured Depth                : 
TLFamily_GR        .         Gamma Ray                     : 
TLFamily_TNPH      .         Neutron Porosity              : 
group              .         INI                           : 
~Curve Information
#_______________________________________________________________________________
#
#LOGNAME           .UNIT     LOG_ID                        : DESCRIPTION
#_______________________________________________________________________________
DEPTH              .m                                      : Measured Depth 
GR                 .gAPI                                   :  
TNPH               .v/v                                    : Neutron Porosity 
~Ascii
# ...
2948.6     75.365     0.1546    
2948.8     86.958     0.1633    
2949       95.27      0.1746    
2949.2     104.771    0.2049    
2949.4     116.495    0.263     
2949.6     122.807    0.3091    
2949.8     125.592    0.306     
2950       125.952    0.2811    
2950.2     124.971    0.2529    
2950.4     119.838    0.2239    
2950.6     108.273    0.2048    
2950.8     96.075     0.2089    
2951       89.463     0.2064    
2951.2     86.884     0.1953    
2951.4     84.672     0.1967    
2951.6     80.531     0.2032    
2951.8     72.077     0.2       
2952       63.251     0.1886    
2952.2     61.034     0.1738    
2952.4     62.033     0.1767    
2952.6     62.072     0.188     
2952.8     61.919     0.1869    
2953       61.409     0.1772    
2953.2     61.563     0.1771    
2953.4     61.606     0.1815    
2953.6     60.708     0.1702    
2953.8     61.132     0.1541    
2954       63.381     0.1507    
2954.2     63.14999   0.156     
2954.4     61.009     0.1648    
2954.6     60.439     0.1753    
2954.8     59.829     0.1798    
2955       59.394     0.1772    
2955.2     59.002     0.172     
2955.4     58.169     0.1596    
2955.6     58.065     0.1524    
2955.8     59.144     0.1561    
2956       58.665     0.1654    
2956.2     57.763     0.1645    
2956.4     57.476     0.1587    
2956.6     56.714     0.1588    
2956.8     59.367     0.1621    
2957       61.14899   0.1622    
2957.2     62.44099   0.1586    
2957.4     62.378     0.1521    
2957.6     61.854     0.1477    
2957.8     59.933     0.149     
2958       56.448     0.1492    
2958.2     55.266     0.15      
2958.4     57.743     0.1576    
2958.6     61.862     0.1646    
2958.8     63.452     0.1613    
2959       61.959     0.157     
2959.2     61.24699   0.1577    
2959.4     61.257     0.1584    
2959.6     60.812     0.1565    
2959.8     58.267     0.1569    
2960       56.797     0.1577    
2960.2     57.578     0.1596    
2960.4     58.152     0.1669    
2960.6     59.2       0.1601    
2960.8     60.007     0.1578    
2961       58.798     0.1646    
2961.2     61.136     0.1616    
2961.4     64.853     0.1545    
2961.6     68.246     0.1639    
2961.8     75.934     0.1918    
2962       88.64      0.2212    
2962.2     104.112    0.2384    
2962.4     114.546    0.2496    
2962.6     119.05     0.25      
2962.8     112.096    0.2335    
2963       99.657     0.2083    
2963.2     91.907     0.1984    
2963.4     86.83099   0.1878    
2963.6     85.517     0.1788    
2963.8     83.796     0.1796    
2964       83.139     0.188     
2964.2     84.88499   0.1845    
2964.4     85.402     0.1798    
2964.6     86.11      0.1832    
2964.8     87.331     0.1819    
2965       86.194     0.1727    
2965.2     85.17999   0.17      
2965.4     87.991     0.1789    
2965.6     91.528     0.1923    
2965.8     95.545     0.2084    
2966       98.447     0.2143    
2966.2     94.673     0.2003    
2966.4     90.85201   0.193     
2966.6     87.422     0.1997    
2966.8     83.534     0.2193    
2967       76.80299   0.2723    
2967.2     61.716     0.346     
2967.4     39.062     0.4169    
2967.6     20.933     0.447     
2967.8     15.1       0.454     
2968       17.606     0.4493    
2968.2     23.227     0.4435    
2968.4     29.531     0.4468    
2968.6     39.453     0.4278    
2968.8     50.82      0.3824    
2969       62.718     0.3341    
2969.2     77.90399   0.3076    
2969.4     92.075     0.2931    
2969.6     101.306    0.2634    
2969.8     105.697    0.2468    
2970       101.537    0.2445    
2970.2     91.92799   0.2412    
2970.4     82.007     0.2326    
2970.6     74.183     0.2234    
2970.8     72.168     0.2191    
2971       72.593     0.2243    
2971.2     84.61099   0.2311    
2971.4     92.705     0.2318    
2971.6     92.644     0.2155    
2971.8     90.774     0.1866    
2972       93.97101   0.1631    
2972.2     101.075    0.1577    
2972.4     106.604    0.1621    
2972.6     111.388    0.171     
2972.8     111.682    0.1965    
2973       110.108    0.2174    
2973.2     106.511    0.2204    
2973.4     101.11     0.2194    
2973.6     94.692     0.2185    
2973.8     91.671     0.2287    
2974       92.695     0.2338    
2974.2     92.157     0.2306    
2974.4     92.88499   0.2318    
2974.6     95.88899   0.2259    
2974.8     98.944     0.2276    
2975       101.211    0.2337    
2975.2     104.871    0.2341    
2975.4     107.638    0.2395    
2975.6     107.414    0.2344    
2975.8     103.202    0.2372    
2976       100.351    0.2423    
2976.2     97.952     0.2236    
2976.4     93.856     0.208     
2976.6     95.992     0.2119    
2976.8     103.918    0.2279    
2977       107.577    0.2452    
2977.2     110.296    0.257     
2977.4     108.42     0.2565    
2977.6     102.429    0.2415    
2977.8     96.021     0.2251    
2978       90.265     0.2061    
2978.2     90.37      0.2026    
2978.4     96.321     0.2048    
2978.6     108.34     0.2078    
2978.8     117.243    0.2239    
2979       123.365    0.2451    
2979.2     125.577    0.2474    
2979.4     124.037    0.2303    
2979.6     120.072    0.2236    
2979.8     115.046    0.2196    
2980       110.148    0.2123    
2980.2     107.643    0.2066    
2980.4     102.827    0.2069    
2980.6     95.162     0.2171    
2980.8     85.661     0.2201    
2981       81.313     0.219     
2981.2     81.319     0.2137    
2981.4     81.414     0.1992    
2981.6     84.97      0.1966    
2981.8     87.52499   0.2002    
2982       84.934     0.1947    
2982.2     79.07899   0.1927    
2982.4     75.989     0.1955    
2982.6     74.81      0.1937    
2982.8     71.865     0.1887    
2983       76.381     0.1952    
2983.2     92.386     0.2057    
2983.4     106.838    0.2204    
2983.6     107        0.2329    
2983.8     97.946     0.2194    
2984       86.26199   0.1955    
2984.2     77.783     0.1831    
2984.4     76.382     0.1753    
2984.6     71.693     0.168     
2984.8     63.664     0.1674    
2985       57.978     0.1644    
2985.2     53.347     0.1664    
2985.4     50.385     0.1728    
2985.6     52.658     0.1733    
2985.8     55.834     0.1633    
2986       58.426     0.1602    
2986.2     63.35      0.1669    
2986.4     71.677     0.1769    
2986.6     79.075     0.1833    
2986.8     82.774     0.1891    
2987       87.619     0.1947    
2987.2     90.056     0.2017    
2987.4     90.431     0.2047    
2987.6     96.43401   0.2167    
2987.8     104.604    0.2138    
2988       109.286    0.2007    
2988.2     112.219    0.1989    
2988.4     114.983    0.2071    
2988.6     118.367    0.2167    
2988.8     122.541    0.2238    
2989       122.665    0.2233    
2989.2     119.53     0.2145    
2989.4     118.791    0.2024    
2989.6     121.502    0.1914    
2989.8     124.885    0.1858    
2990       125.589    0.1787    
