~Version
 VERS              .         2.0                           : CWLS LOG ASCII STANDARD - VERSION 2.0
 WRAP              .         NO                            : ONE LINE PER DEPTH STEP
 DLM               .         SPACE                         : DELIMITING CHARACTER(SPACE TAB OR COMMA)
~Well Information
#_______________________________________________________________________________
#
#PARAMETER_NAME    .UNIT     VALUE                         : DESCRIPTION
#_______________________________________________________________________________
STRT               .m        2657                          : First reference value
STOP               .m        2990                          : Last reference value
STEP               .m        0.2                           : Step increment
NULL               .         -9999                         : Missing value
COMP               .                                       : Company
WELL               .         604                           : Well name
FLD                .                                       : Field
LOC                .                                       : Location
CNTY               .                                       : County
STAT               .                                       : State
CTRY               .                                       : Country
SRVC               .                                       : Service Company
DATE               .                                       : Date
API                .                                       : API number
EREF               .m        134                           : 
X                  .m        225746                        : 
Y                  .m        235643                        : 
group              .         Pad6                          : 
Интер-р            .         Пузин                         : 
Куст               .         6                             : 
Статус             .         Не проверено                  : 
Тип                .         Нагнетательные                : 
~Parameter Information Block
#_______________________________________________________________________________
#
#PARAMETER_NAME    .UNIT     VALUE                         : DESCRIPTION
#_______________________________________________________________________________
SET                .         LAS3                          : 
REAL_CREATION_DATE .         Ср апр 11 2012-13_17_23       : 
TLFamily_DEPTH     .         Measured Depth                : 
TLFamily_GR        .         Gamma Ray                     : 
TLFamily_TNPH      .         Neutron Porosity              : 
group              .         INI                           : 
~Curve Information
#_______________________________________________________________________________
#
#LOGNAME           .UNIT     LOG_ID                        : DESCRIPTION
#_______________________________________________________________________________
DEPTH              .m                                      : Measured Depth 
GR                 .gAPI                                   :  
TNPH               .v/v                                    : Neutron Porosity 
~Ascii
# ...
2802.8     99.481     0.2149    
2803       97.458     0.2129    
2803.2     94.30701   0.2119    
2803.4     93.58499   0.2145    
2803.6     93.946     0.2197    
2803.8     93.406     0.227     
2804       93.64899   0.23      
2804.2     95.519     0.2284    
2804.4     96.548     0.2278    
2804.6     95.794     0.2237    
2804.8     98.019     0.2189    
2805       102.656    0.2228    
2805.2     106.737    0.2234    
2805.4     108.683    0.2235    
2805.6     107.073    0.2287    
2805.8     103.627    0.2313    
2806       100.223    0.2272    
2806.2     98.611     0.2134    
2806.4     95.965     0.2058    
2806.6     92.592     0.204     
2806.8     91.58301   0.1925    
2807       90.25      0.1829    
2807.2     89.14      0.1842    
2807.4     87.513     0.1822    
2807.6     88.35201   0.1847    
2807.8     92.09601   0.1859    
2808       94.343     0.1868    
2808.2     95.72099   0.1931    
2808.4     99.05      0.197     
2808.6     99.645     0.1884    
2808.8     97.446     0.1818    
2809       97.378     0.1957    
2809.2     99.30299   0.2162    
2809.4     99.217     0.2342    
2809.6     98.354     0.2419    
2809.8     97.84      0.2406    
2810       99.949     0.2458    
2810.2     101.674    0.2516    
2810.4     104.397    0.2482    
2810.6     106.566    0.2408    
2810.8     107.396    0.2448    
2811       109.391    0.2609    
2811.2     111.495    0.2668    
2811.4     110.935    0.2591    
2811.6     111.603    0.2491    
2811.8     111.291    0.2431    
2812       107.995    0.2533    
2812.2     103.923    0.2695    
2812.4     103.068    0.259     
2812.6     104.563    0.2443    
2812.8     103.501    0.243     
2813       102.387    0.2361    
2813.2     105.472    0.2264    
2813.4     109.57     0.2178    
2813.6     109.177    0.2156    
2813.8     111.136    0.2167    
2814       115.188    0.2155    
2814.2     112.022    0.2154    
2814.4     109.686    0.2126    
2814.6     110.413    0.2174    
2814.8     111.854    0.2233    
2815       114.866    0.2236    
2815.2     116.547    0.2209    
2815.4     114.861    0.2145    
2815.6     116.7      0.1993    
2815.8     117.121    0.1913    
2816       115.82     0.2018    
2816.2     115.244    0.2083    
2816.4     114.966    0.2026    
2816.6     113.652    0.1897    
2816.8     110.101    0.1872    
2817       101.565    0.177     
2817.2     88.343     0.1611    
2817.4     74.244     0.1517    
2817.6     63.603     0.1442    
2817.8     59.416     0.1434    
2818       60.637     0.1439    
2818.2     61.765     0.1389    
2818.4     65.695     0.1344    
2818.6     72.936     0.1453    
2818.8     76.601     0.169     
2819       79.035     0.1947    
2819.2     83.694     0.2047    
2819.4     91.967     0.2093    
2819.6     102.301    0.2166    
2819.8     108.798    0.2145    
2820       110.702    0.2136    
2820.2     104.375    0.218     
2820.4     96.242     0.2124    
2820.6     95.835     0.2113    
2820.8     98.836     0.209     
2821       101.772    0.2077    
2821.2     99.78      0.2026    
2821.4     93.385     0.1981    
2821.6     88.211     0.1963    
2821.8     89.385     0.1947    
2822       95.962     0.1929    
2822.2     105.311    0.2032    
2822.4     114.579    0.2124    
2822.6     116.904    0.2146    
2822.8     112.171    0.2111    
2823       104.361    0.201     
2823.2     93.416     0.1957    
2823.4     86.81      0.1962    
2823.6     88.39799   0.1986    
2823.8     92.859     0.1967    
2824       93.269     0.189     
2824.2     85.931     0.1819    
2824.4     78.521     0.1847    
2824.6     75.05901   0.1895    
2824.8     71.768     0.1905    
2825       69.564     0.1844    
2825.2     68.26199   0.1776    
2825.4     66.541     0.1755    
2825.6     68.494     0.1768    
2825.8     67.485     0.1777    
2826       65.216     0.173     
2826.2     65.888     0.1756    
2826.4     65.789     0.1827    
2826.6     63.61      0.1848    
2826.8     62.813     0.1782    
2827       59.403     0.1667    
2827.2     55.723     0.1586    
2827.4     58.633     0.1582    
2827.6     66.232     0.168     
2827.8     72.097     0.1773    
2828       78.229     0.1834    
2828.2     81.254     0.1846    
2828.4     82.48      0.1932    
2828.6     83.24899   0.2015    
2828.8     81.009     0.2067    
2829       76.634     0.2038    
2829.2     73.118     0.1965    
2829.4     71.665     0.1866    
2829.6     69.291     0.1907    
2829.8     68.829     0.1926    
2830       70.217     0.1862    
2830.2     74.549     0.1858    
2830.4     76.91499   0.1848    
2830.6     75.759     0.1823    
2830.8     75.415     0.1733    
2831       74.278     0.1554    
2831.2     72.453     0.151     
2831.4     74.427     0.1601    
2831.6     74.617     0.1725    
2831.8     74.89999   0.1803    
2832       74.945     0.1865    
2832.2     75.46799   0.196     
2832.4     80.014     0.2023    
2832.6     84.828     0.2098    
2832.8     89.91299   0.2028    
2833       96.224     0.1948    
2833.2     100.222    0.1992    
2833.4     103.715    0.2083    
2833.6     105.524    0.2109    
2833.8     104.327    0.2038    
2834       99.016     0.2033    
2834.2     87.486     0.1941    
2834.4     75.722     0.1722    
2834.6     66.131     0.1577    
2834.8     62.382     0.1441    
2835       60.302     0.1346    
2835.2     60.478     0.1309    
2835.4     65.203     0.1472    
2835.6     70.913     0.1768    
2835.8     74.567     0.1932    
2836       77.17      0.1949    
2836.2     80.338     0.1962    
2836.4     89.069     0.208     
2836.6     100.391    0.2036    
2836.8     107.832    0.1948    
2837       111.36     0.1914    
2837.2     109.23     0.1829    
2837.4     106.13     0.1728    
2837.6     101.26     0.1677    
2837.8     97.71201   0.1822    
2838       99.87601   0.1923    
2838.2     98.412     0.1889    
2838.4     97.28799   0.1853    
2838.6     98.175     0.182     
2838.8     98.692     0.182     
2839       104.57     0.1919    
2839.2     109.015    0.203     
2839.4     105.578    0.2014    
2839.6     100.404    0.2013    
2839.8     105.009    0.2134    
2840       117.222    0.2236    
2840.2     124.489    0.2225    
2840.4     126.254    0.2171    
2840.6     124.064    0.2153    
2840.8     122.761    0.2192    
2841       121.516    0.229     
2841.2     118.794    0.2275    
2841.4     115.996    0.2167    
2841.6     105.054    0.1995    
2841.8     91.10699   0.1808    
2842       80.346     0.1675    
2842.2     74.422     0.1518    
2842.4     77.305     0.1496    
2842.6     81.755     0.1572    
2842.8     80.456     0.1639    
2843       76.963     0.1674    
2843.2     77.134     0.1732    
2843.4     78.842     0.1824    
2843.6     77.871     0.1891    
2843.8     73.768     0.1889    
2844       66.502     0.1793    
2844.2     60.415     0.1692    
2844.4     61.91399   0.1642    
2844.6     66.284     0.161     
2844.8     70.094     0.1665    
2845       73.74699   0.1726    
2845.2     75.878     0.1669    
2845.4     73.666     0.1614    
2845.6     67.859     0.1605    
2845.8     61.772     0.1605    
2846       58.114     0.1572    
2846.2     57.557     0.1515    
2846.4     58.725     0.152     
2846.6     58.208     0.1545    
2846.8     59.013     0.1562    
2847       61.03      0.1568    
2847.2     63.87299   0.1662    
2847.4     68.071     0.1716    
2847.6     70.761     0.1684    
2847.8     71.881     0.1694    
2848       70.767     0.1746    
2848.2     71.56999   0.1879    
2848.4     76.371     0.1943    
2848.6     84.70399   0.1937    
2848.8     97.91199   0.2038    
2849       110.563    0.2072    
2849.2     121.542    0.203     
2849.4     126.788    0.1974    
2849.6     125.373    0.1934    
2849.8     124.08     0.1879    
2850       123.513    0.1859    
2850.2     125.456    0.1856    
2850.4     123.361    0.1904    
2850.6     118.493    0.1959    
2850.8     119.516    0.2017    
2851       123.528    0.2058    
2851.2     127.558    0.2184    
