~Version
 VERS              .         2.0                           : CWLS LOG ASCII STANDARD - VERSION 2.0
 WRAP              .         NO                            : ONE LINE PER DEPTH STEP
 DLM               .         SPACE                         : DELIMITING CHARACTER(SPACE TAB OR COMMA)
~Well Information
#_______________________________________________________________________________
#
#PARAMETER_NAME    .UNIT     VALUE                         : DESCRIPTION
#_______________________________________________________________________________
STRT               .m        2657                          : First reference value
STOP               .m        2990                          : Last reference value
STEP               .m        0.2                           : Step increment
NULL               .         -9999                         : Missing value
COMP               .                                       : Company
WELL               .         604                           : Well name
FLD                .                                       : Field
LOC                .                                       : Location
CNTY               .                                       : County
STAT               .                                       : State
CTRY               .                                       : Country
SRVC               .                                       : Service Company
DATE               .                                       : Date
API                .                                       : API number
EREF               .m        134                           : 
X                  .m        225746                        : 
Y                  .m        235643                        : 
group              .         Pad6                          : 
Интер-р            .         Пузин                         : 
Куст               .         6                             : 
Статус             .         Не проверено                  : 
Тип                .         Нагнетательные                : 
~Parameter Information Block
#_______________________________________________________________________________
#
#PARAMETER_NAME    .UNIT     VALUE                         : DESCRIPTION
#_______________________________________________________________________________
SET                .         LAS3                          : 
REAL_CREATION_DATE .         Ср апр 11 2012-13_17_23       : 
TLFamily_DEPTH     .         Measured Depth                : 
TLFamily_GR        .         Gamma Ray                     : 
TLFamily_TNPH      .         Neutron Porosity              : 
group              .         INI                           : 
~Curve Information
#_______________________________________________________________________________
#
#LOGNAME           .UNIT     LOG_ID                        : DESCRIPTION
#_______________________________________________________________________________
DEPTH              .m                                      : Measured Depth 
GR                 .gAPI                                   :  
TNPH               .v/v                                    : Neutron Porosity 
~Ascii
# ...
2900       138.729    0.2661    
2900.2     137.788    0.2593    
2900.4     137.705    0.2572    
2900.6     133.876    0.2435    
2900.8     126.547    0.2257    
2901       118.345    0.1993    
2901.2     120.547    0.1879    
2901.4     131.946    0.1988    
2901.6     142.898    0.22      
2901.8     148.241    0.2452    
2902       148.298    0.2687    
2902.2     144.472    0.2783    
2902.4     139.676    0.2824    
2902.6     136.007    0.2805    
2902.8     132.422    0.2849    
2903       133.479    0.2761    
2903.2     136.428    0.269     
2903.4     139.095    0.2838    
2903.6     139.936    0.29      
2903.8     143.202    0.2937    
2904       142.475    0.3012    
2904.2     140.315    0.3024    
2904.4     137.293    0.2955    
2904.6     136.877    0.279     
2904.8     137.923    0.2665    
2905       136.065    0.2586    
2905.2     134.613    0.2465    
2905.4     137.158    0.2473    
2905.6     138.27     0.255     
2905.8     136.907    0.2448    
2906       135.5      0.2321    
2906.2     133.518    0.2309    
2906.4     135.097    0.2374    
2906.6     136.883    0.2495    
2906.8     135.008    0.2656    
2907       128.173    0.2695    
2907.2     119.753    0.2658    
2907.4     116.232    0.2578    
2907.6     122.846    0.2592    
2907.8     135.519    0.2643    
2908       148.028    0.2647    
2908.2     153.159    0.2578    
2908.4     150.04     0.2521    
2908.6     145.032    0.2486    
2908.8     142.538    0.2584    
2909       139.559    0.273     
2909.2     136.139    0.2839    
2909.4     136.806    0.2677    
2909.6     139.834    0.2595    
2909.8     139.368    0.2598    
2910       136.225    0.2551    
2910.2     136.76     0.2586    
2910.4     139.283    0.2715    
2910.6     140.81     0.2728    
2910.8     139.673    0.274     
2911       139.212    0.2755    
2911.2     139.219    0.2712    
2911.4     138.982    0.2594    
2911.6     141.158    0.2542    
2911.8     145.784    0.2694    
2912       151.03     0.2882    
2912.2     154.061    0.2953    
2912.4     155.403    0.2916    
2912.6     156.279    0.2937    
2912.8     158.474    0.3019    
2913       161.477    0.2989    
2913.2     161.124    0.2915    
2913.4     158.556    0.2866    
2913.6     154.531    0.2837    
2913.8     151.577    0.2839    
2914       151.729    0.2753    
2914.2     147.397    0.2584    
2914.4     147.786    0.259     
2914.6     147.441    0.2511    
2914.8     144.188    0.2547    
2915       142.619    0.2626    
2915.2     138.598    0.2505    
2915.4     135.593    0.2412    
2915.6     134.398    0.259     
2915.8     131.842    0.2666    
2916       132.06     0.2643    
2916.2     135.398    0.2447    
2916.4     136.446    0.2381    
2916.6     134.736    0.2428    
2916.8     136.46     0.2461    
2917       138.675    0.2378    
2917.2     140.798    0.2424    
2917.4     141.651    0.2486    
2917.6     142.095    0.2513    
2917.8     142.245    0.2451    
2918       141.371    0.2293    
2918.2     137.052    0.2325    
2918.4     132.084    0.2392    
2918.6     122.625    0.2242    
2918.8     105.217    0.1984    
2919       87.08701   0.1834    
2919.2     84.22401   0.184     
2919.4     100.997    0.2033    
2919.6     124.295    0.2406    
2919.8     143.219    0.2713    
2920       153.259    0.2843    
2920.2     154.694    0.2887    
2920.4     151.666    0.2857    
2920.6     148.375    0.2882    
2920.8     144.651    0.2867    
2921       142.966    0.2761    
2921.2     144.164    0.2674    
2921.4     149.126    0.2663    
2921.6     153.033    0.2843    
2921.8     150.882    0.2887    
2922       147.564    0.2748    
2922.2     147.695    0.2704    
2922.4     150.197    0.2647    
2922.6     150.263    0.2738    
2922.8     148.569    0.2891    
2923       146.814    0.2928    
2923.2     145.121    0.2985    
2923.4     146.587    0.298     
2923.6     147.492    0.3001    
2923.8     146.86     0.3018    
2924       143.246    0.3022    
2924.2     140.293    0.2861    
2924.4     140.009    0.2607    
2924.6     141.035    0.2492    
2924.8     140.813    0.2553    
2925       146.516    0.2646    
2925.2     150.271    0.2321    
2925.4     153.025    0.1973    
2925.6     150.816    0.1735    
2925.8     139.671    0.1537    
2926       121.486    0.1415    
2926.2     98.531     0.1325    
2926.4     80.652     0.1275    
2926.6     75.526     0.1252    
2926.8     77.437     0.1206    
2927       78.819     0.1186    
2927.2     79.045     0.1207    
2927.4     80.53001   0.1263    
2927.6     83.272     0.1381    
2927.8     83.62601   0.1537    
2928       81.731     0.1589    
2928.2     80.174     0.1595    
2928.4     79.065     0.1608    
2928.6     81.198     0.1558    
2928.8     84.045     0.1504    
2929       83.776     0.1478    
2929.2     84.043     0.1477    
2929.4     84.035     0.1448    
2929.6     83.508     0.143     
2929.8     82.134     0.1424    
2930       76.526     0.1411    
2930.2     70.947     0.141     
2930.4     68.929     0.1411    
2930.6     70.895     0.1463    
2930.8     78.559     0.161     
2931       87.022     0.1717    
2931.2     86.949     0.1657    
2931.4     79.92699   0.1659    
2931.6     73.134     0.172     
2931.8     67.28699   0.1661    
2932       64.81499   0.1593    
2932.2     62.617     0.16      
2932.4     62.48      0.1654    
2932.6     64.598     0.1671    
2932.8     66.673     0.1652    
2933       68.667     0.162     
2933.2     70.396     0.1632    
2933.4     70.187     0.162     
2933.6     68.074     0.1553    
2933.8     68.15601   0.1598    
2934       71.304     0.1697    
2934.2     74.245     0.166     
2934.4     71.758     0.1597    
2934.6     70.542     0.1548    
2934.8     71.282     0.1495    
2935       71.06      0.1431    
2935.2     69.361     0.1358    
2935.4     65.005     0.1261    
2935.6     62.403     0.1242    
2935.8     63.4       0.1273    
2936       64.579     0.1244    
2936.2     63.652     0.1207    
2936.4     62.62901   0.1206    
2936.6     58.069     0.1209    
2936.8     53.586     0.1234    
2937       52.925     0.1344    
2937.2     51.638     0.1489    
2937.4     49.597     0.1526    
2937.6     47.995     0.1466    
2937.8     49.241     0.1349    
2938       51.365     0.1199    
2938.2     49.146     0.1033    
2938.4     46.02      0.0812    
2938.6     43.416     0.0661    
2938.8     40.521     0.0573    
2939       36.485     0.0543    
2939.2     31.255     0.0583    
2939.4     26.693     0.0687    
2939.6     27.581     0.0774    
2939.8     32.335     0.0841    
2940       38.473     0.0992    
2940.2     43.88      0.1198    
2940.4     47.252     0.1212    
2940.6     49.782     0.1025    
2940.8     50.072     0.0893    
2941       46.189     0.0902    
2941.2     39.92      0.1079    
2941.4     36.659     0.1354    
2941.6     36.287     0.1557    
2941.8     37.649     0.1635    
2942       39.923     0.1623    
2942.2     43.097     0.1617    
2942.4     48.837     0.159     
2942.6     55.053     0.1553    
2942.8     57.978     0.1572    
2943       60.616     0.1564    
2943.2     61.598     0.1555    
2943.4     58.54      0.1623    
2943.6     52.655     0.1815    
2943.8     51.456     0.2096    
2944       56.797     0.2302    
2944.2     72.352     0.2443    
2944.4     92.934     0.2545    
2944.6     100.201    0.2634    
2944.8     90.794     0.259     
2945       83.764     0.2369    
2945.2     81.727     0.2287    
2945.4     85.298     0.2349    
2945.6     93.186     0.2286    
2945.8     102.418    0.2204    
2946       110.711    0.2267    
2946.2     114.208    0.2288    
2946.4     109.837    0.2218    
2946.6     100.034    0.2075    
2946.8     88.807     0.1903    
2947       78.808     0.184     
2947.2     72.12      0.1806    
2947.4     68.729     0.167     
2947.6     67.035     0.1608    
2947.8     65.864     0.1559    
2948       65.604     0.1545    
2948.2     67.661     0.1632    
2948.4     71.894     0.1565    
