~Version
 VERS              .         2.0                           : CWLS LOG ASCII STANDARD - VERSION 2.0
 WRAP              .         NO                            : ONE LINE PER DEPTH STEP
 DLM               .         SPACE                         : DELIMITING CHARACTER(SPACE TAB OR COMMA)
~Well Information
#_______________________________________________________________________________
#
#PARAMETER_NAME    .UNIT     VALUE                         : DESCRIPTION
#_______________________________________________________________________________
STRT               .m        2657                          : First reference value
STOP               .m        2990                          : Last reference value
STEP               .m        0.2                           : Step increment
NULL               .         -9999                         : Missing value
COMP               .                                       : Company
WELL               .         604                           : Well name
FLD                .                                       : Field
LOC                .                                       : Location
CNTY               .                                       : County
STAT               .                                       : State
CTRY               .                                       : Country
SRVC               .                                       : Service Company
DATE               .                                       : Date
API                .                                       : API number
EREF               .m        134                           : 
X                  .m        225746                        : 
Y                  .m        235643                        : 
group              .         Pad6                          : 
Интер-р            .         Пузин                         : 
Куст               .         6                             : 
Статус             .         Не проверено                  : 
Тип                .         Нагнетательные                : 
~Parameter Information Block
#_______________________________________________________________________________
#
#PARAMETER_NAME    .UNIT     VALUE                         : DESCRIPTION
#_______________________________________________________________________________
SET                .         LAS1                          : 
REAL_CREATION_DATE .         Ср апр 11 2012-13_17_23       : 
TLFamily_DEPTH     .         Measured Depth                : 
TLFamily_GZ1       .         Extra Shallow Resistivity     : 
TLFamily_GZ2       .         Shallow Resistivity           : 
TLFamily_GZ3       .         Medium Resistivity            : 
TLFamily_GZ4       .         Deep Resistivity              : 
TLFamily_GZ5       .         Extra Deep Resistivity        : 
TLFamily_GZr       .         Medium Resistivity Inverted   : 
TLFamily_LLD       .         Lateral Log Resistivity       : 
TLFamily_PS        .         Spontaneous Potential         : 
TLFamily_PZ        .         Potential Resistivity         : 
TLFamily_RS        .         Mud Resistivity               : 
group              .         INI                           : 
~Curve Information
#_______________________________________________________________________________
#
#LOGNAME           .UNIT     LOG_ID                        : DESCRIPTION
#_______________________________________________________________________________
DEPTH              .m                                      : Measured Depth 
GZ1                .ohm.m                                  : Extra Shallow Resistivity 
GZ2                .ohm.m                                  : Shallow Resistivity 
GZ3                .ohm.m                                  : Medium Resistivity 
GZ4                .ohm.m                                  : Deep Resistivity 
GZ5                .ohm.m                                  : Extra Deep Resistivity 
GZr                .ohm.m                                  : Medium Resistivity Inverted 
LLD                .ohm.m                                  : Lateral Log Resistivity 
PS                 .mV                                     : Spontaneous Potential 
PZ                 .ohm.m                                  : Potential Resistivity 
RS                 .ohm.m                                  : Mud Resistivity 
~Ascii
# ...
2938.4     2.7748     11.2497    18.1637    12.8024    13.7324    24.3689    25.4144    61.8491    14.226     0.2766    
2938.6     2.8995     11.744     20.2321    14.4459    15.1302    22.6071    36.5851    62.83      14.7607    0.278     
2938.8     3.1706     12.7139    22.7315    16.4655    16.4324    20.7965    70.3579    64.5476    15.244     0.2896    
2939       3.5032     13.9103    25.6704    18.9994    17.6214    18.7789    56.4424    66.2865    15.5255    0.294     
2939.2     3.9811     15.6744    28.695     22.1118    18.605     16.2768    62.3767    66.8447    15.5118    0.289     
2939.4     4.2411     16.6989    30.7969    24.517     19.0059    14.4587    26.9552    66.3794    15.3192    0.2831    
2939.6     4.8192     19.3564    34.3313    30.2195    19.6662    11.1168    18.1477    65.6958    14.3872    0.2889    
2939.8     5.1002     21.0649    36.3857    34.7554    19.8992    9.5741     19.8691    64.6738    13.3997    0.2989    
2940       5.159      21.7222    38.338     38.8753    19.4283    8.5683     8.7822     63.2308    12.069     0.2946    
2940.2     5.4518     23.482     40.6662    42.0956    17.9321    7.6216     4.4353     62.1367    10.4619    0.2885    
2940.4     5.2464     22.4373    39.1832    40.9542    14.6396    7.3253     2.9862     61.7103    8.2421     0.2891    
2940.6     4.3396     18.4757    34.2431    35.6957    12.3831    7.7429     2.7042     61.625     7.5086     0.2927    
2940.8     3.3112     14.1885    28.1266    29.369     10.1984    8.496      4.7559     61.8426    7.0507     0.2835    
2941       2.7606     11.7253    24.9061    26.1624    8.7439     8.5695     14.4605    62.1646    6.7463     0.2751    
2941.2     3.1615     12.0127    26.1478    27.8718    7.3707     7.2779     16.8634    62.0937    6.3528     0.2899    
2941.4     3.9021     12.8847    26.8581    27.9537    6.5979     6.1655     6.2121     62.1029    5.7201     0.2979    
2941.6     4.1113     11.9333    23.9533    24.5017    5.7272     5.2425     2.4556     63.4803    5.1554     0.2803    
2941.8     3.145      9.064      18.0195    18.5098    4.6916     4.7012     2.3216     65.9808    4.6927     0.2818    
2942       2.4112     7.5838     13.1188    14.1012    3.5464     4.7443     2.6678     67.3086    4.4364     0.2867    
2942.2     2.0642     6.8082     10.5482    11.9006    2.741      4.9096     3.0531     66.2659    4.3538     0.28      
2942.4     2.0505     6.4334     8.9685     10.7167    2.3267     5.1341     3.3469     64.1988    4.4361     0.2765    
2942.6     2.0418     5.7068     7.9204     9.8844     2.1137     5.454      3.5415     62.2426    4.5629     0.2867    
2942.8     2.1342     5.2904     7.2792     9.368      1.9841     5.8152     4.2271     60.3464    4.6187     0.2884    
2943       2.3198     5.3987     7.1873     9.107      1.9435     6.1546     4.0711     59.371     4.6521     0.2823    
2943.2     2.3855     5.7429     7.4997     9.0322     2.0064     6.5906     3.8002     60.3257    4.5872     0.2773    
2943.4     2.5383     6.2281     7.7459     8.9755     2.128      7.3026     3.7334     61.9616    4.401      0.2867    
2943.6     2.5816     6.509      7.9572     9.0792     2.2498     8.455      2.9266     62.3563    4.1809     0.2933    
2943.8     2.5056     6.4978     7.7865     8.8287     2.4656     9.8698     2.3712     61.4632    4.0488     0.2819    
2944       1.9896     5.2009     6.9288     7.9744     2.7223     11.645     2.1126     60.3252    4.1825     0.2721    
2944.2     1.6675     4.4145     6.043      7.3763     2.8468     14.3445    2.3773     59.9632    4.4392     0.2815    
2944.4     1.6561     4.4499     5.6995     7.3582     2.8916     15.7983    4.1187     61.3168    4.8498     0.2872    
2944.6     1.6667     4.2259     5.4939     7.271      3.011      15.3614    5.4479     63.9222    5.5956     0.2794    
2944.8     1.7756     4.0828     5.0503     6.5711     3.0722     13.7586    5.6447     65.4813    6.5191     0.2758    
2945       1.9938     4.2572     4.8427     6.0321     3.0019     12.7242    7.8069     64.6005    7.1861     0.2858    
2945.2     2.2488     4.8652     5.038      5.9766     2.9418     11.9992    11.893     62.1408    7.6021     0.2885    
2945.4     2.7904     6.4531     5.4035     6.1224     2.9633     11.3097    10.0362    59.0129    7.8448     0.281     
2945.6     2.9623     7.7292     5.7724     6.3375     3.0467     10.7835    7.6742     55.5102    7.9272     0.2813    
2945.8     3.1087     8.5793     6.1013     6.4152     3.1306     10.583     7.3509     52.9627    7.8056     0.2941    
2946       3.1604     9.373      6.6521     6.3701     3.2153     10.3931    6.828      52.76      7.6035     0.2891    
2946.2     3.1717     9.9172     7.3513     6.2215     3.2879     10.0237    6.8909     54.0426    7.371      0.2823    
2946.4     3.18       10.1786    8.0813     5.8722     3.3433     9.6067     5.9108     55.0372    7.0515     0.2906    
2946.6     3.163      9.8693     8.9688     5.4744     3.3685     9.2315     4.5151     55.3096    6.8143     0.2928    
2946.8     2.9213     9.0746     9.6054     4.9915     3.429      9.1334     4.2016     54.7057    6.5766     0.2793    
2947       2.677      8.4235     9.6549     4.6791     3.5421     9.1498     4.2035     52.5896    6.4534     0.2823    
2947.2     2.4997     7.6386     9.4634     4.577      3.7868     9.3622     4.2583     49.5945    6.4371     0.2906    
2947.4     2.4145     7.1672     9.2456     4.623      4.2357     9.5671     4.5534     47.3686    6.4792     0.2907    
2947.6     2.3588     6.8103     9.1291     4.8205     4.9111     9.751      4.95       46.3318    6.5561     0.2785    
2947.8     2.3841     6.6577     9.0386     5.2065     5.825      10.0101    4.9316     45.9754    6.6578     0.2812    
2948       2.4406     6.7391     9.1284     5.9105     7.0882     10.158     5.5642     46.3337    6.7435     0.2916    
2948.2     2.5434     6.9519     9.4084     6.9262     8.9188     10.373     5.5791     47.4944    6.8007     0.2862    
2948.4     2.6164     7.2547     9.8265     8.3567     11.4859    10.6305    5.6115     49.218     6.8472     0.2823    
2948.6     2.694      7.5894     10.4856    10.5702    15.2204    11.0666    5.5401     51.5862    6.8406     0.2858    
2948.8     2.7767     7.9561     11.3157    13.7207    20.4829    11.8371    5.2378     54.3803    6.8089     0.3004    
2949       2.7861     8.3682     12.5185    17.7035    26.7062    13.0001    4.5433     56.4887    6.8049     0.2886    
2949.2     2.7018     8.7429     14.2682    22.4049    32.378     14.4763    5.478      57.1736    6.8799     0.2733    
2949.4     2.7024     9.2324     15.7374    26.0068    36.2681    14.9189    11.2807    56.5801    6.9366     0.2896    
2949.6     3.0659     10.1184    16.1214    26.529     37.7837    13.7845    9.057      54.5487    7.068      0.2899    
2949.8     3.3015     10.1011    15.5351    24.4663    36.4235    11.6259    5.8804     50.8839    7.08       0.2859    
2950       3.3598     10.0623    14.3695    21.3168    32.5002    9.4487     4.7847     46.8894    6.8283     0.2916    
2950.2     3.2755     9.9466     13.1622    18.3927    27.3917    8.4439     4.1686     44.6786    6.5769     0.295     
2950.4     3.104      9.7803     12.152     15.766     22.4086    7.8461     4.2838     45.2589    6.275      0.2768    
2950.6     3.024      10.0762    11.399     13.5142    17.0885    7.5338     3.9113     48.2756    6.0172     0.2808    
2950.8     2.9527     9.5522     11.0227    11.9082    13.5532    7.3775     3.9711     52.1979    5.8148     0.2964    
2951       2.8878     9.2645     10.8406    10.5406    11.2128    6.9478     4.7782     54.576     5.4945     0.2867    
2951.2     3.0878     9.6823     10.8015    9.3672     9.0392     6.2302     3.9214     54.1633    5.283      0.2881    
2951.4     2.8995     8.5497     10.4178    7.9095     7.383      5.6353     3.3815     52.263     5.1281     0.2875    
2951.6     2.7168     7.7697     9.9204     6.6054     5.8708     5.3008     3.3072     50.6073    4.9541     0.2785    
