~Version
 VERS              .         2.0                           : CWLS LOG ASCII STANDARD - VERSION 2.0
 WRAP              .         NO                            : ONE LINE PER DEPTH STEP
 DLM               .         SPACE                         : DELIMITING CHARACTER(SPACE TAB OR COMMA)
~Well Information
#_______________________________________________________________________________
#
#PARAMETER_NAME    .UNIT     VALUE                         : DESCRIPTION
#_______________________________________________________________________________
STRT               .m        2657                          : First reference value
STOP               .m        2990                          : Last reference value
STEP               .m        0.2                           : Step increment
NULL               .         -9999                         : Missing value
COMP               .                                       : Company
WELL               .         604                           : Well name
FLD                .                                       : Field
LOC                .                                       : Location
CNTY               .                                       : County
STAT               .                                       : State
CTRY               .                                       : Country
SRVC               .                                       : Service Company
DATE               .                                       : Date
API                .                                       : API number
EREF               .m        134                           : 
X                  .m        225746                        : 
Y                  .m        235643                        : 
group              .         Pad6                          : 
Интер-р            .         Пузин                         : 
Куст               .         6                             : 
Статус             .         Не проверено                  : 
Тип                .         Нагнетательные                : 
~Parameter Information Block
#_______________________________________________________________________________
#
#PARAMETER_NAME    .UNIT     VALUE                         : DESCRIPTION
#_______________________________________________________________________________
SET                .         LAS1                          : 
REAL_CREATION_DATE .         Ср апр 11 2012-13_17_23       : 
TLFamily_DEPTH     .         Measured Depth                : 
TLFamily_GZ1       .         Extra Shallow Resistivity     : 
TLFamily_GZ2       .         Shallow Resistivity           : 
TLFamily_GZ3       .         Medium Resistivity            : 
TLFamily_GZ4       .         Deep Resistivity              : 
TLFamily_GZ5       .         Extra Deep Resistivity        : 
TLFamily_GZr       .         Medium Resistivity Inverted   : 
TLFamily_LLD       .         Lateral Log Resistivity       : 
TLFamily_PS        .         Spontaneous Potential         : 
TLFamily_PZ        .         Potential Resistivity         : 
TLFamily_RS        .         Mud Resistivity               : 
group              .         INI                           : 
~Curve Information
#_______________________________________________________________________________
#
#LOGNAME           .UNIT     LOG_ID                        : DESCRIPTION
#_______________________________________________________________________________
DEPTH              .m                                      : Measured Depth 
GZ1                .ohm.m                                  : Extra Shallow Resistivity 
GZ2                .ohm.m                                  : Shallow Resistivity 
GZ3                .ohm.m                                  : Medium Resistivity 
GZ4                .ohm.m                                  : Deep Resistivity 
GZ5                .ohm.m                                  : Extra Deep Resistivity 
GZr                .ohm.m                                  : Medium Resistivity Inverted 
LLD                .ohm.m                                  : Lateral Log Resistivity 
PS                 .mV                                     : Spontaneous Potential 
PZ                 .ohm.m                                  : Potential Resistivity 
RS                 .ohm.m                                  : Mud Resistivity 
~Ascii
# ...
2804.4     2.6941     7.979      9.7328     7.8245     4.5483     11.503     5.0562     93.8955    6.4905     0.2925    
2804.6     2.7109     8.0295     9.7549     7.8259     4.529      11.5742    5.0185     94.1496    6.5003     0.2927    
2804.8     2.6959     8.0015     9.7542     7.7958     4.5142     11.6903    4.9959     94.6454    6.5178     0.2915    
2805       2.6996     8.0022     9.7321     7.7765     4.4716     11.9199    5.0257     93.979     6.5337     0.2914    
2805.2     2.6984     7.9943     9.7322     7.7437     4.4387     12.1809    4.9887     92.4041    6.5422     0.2892    
2805.4     2.6805     8.0043     9.7574     7.7066     4.4124     12.4533    5.0049     91.729     6.551      0.2926    
2805.6     2.6821     7.964      9.741      7.6914     4.4098     12.6511    4.9852     93.1025    6.5724     0.2927    
2805.8     2.6492     7.8734     9.6863     7.6582     4.41       12.7961    4.9814     95.7445    6.6216     0.2878    
2806       2.6361     7.83       9.6469     7.6772     4.447      12.924     5.2426     98.0013    6.6765     0.2918    
2806.2     2.6266     7.8193     9.6932     7.758      4.5065     13.1079    5.1721     98.8469    6.7379     0.2913    
2806.4     2.6441     7.9124     9.7485     7.8688     4.6093     13.3211    5.3668     97.6825    6.7998     0.2959    
2806.6     2.6243     7.8597     9.8299     7.9842     4.7301     13.5724    5.044      94.1494    6.8914     0.2945    
2806.8     2.6841     7.9877     9.8511     8.0646     4.9317     13.7429    5.1011     89.4381    7.0135     0.2922    
2807       2.6044     7.756      9.8298     8.2018     5.1904     13.6439    7.019      85.8334    7.1959     0.2898    
2807.2     2.5547     7.7185     9.962      8.5582     5.4777     13.7016    6.7337     84.1776    7.3662     0.2927    
2807.4     2.6283     8.1834     10.3424    9.0309     5.8359     13.51      8.1402     84.0775    7.5504     0.2962    
2807.6     2.687      8.2885     10.8647    9.5476     6.1699     13.0451    9.089      85.8152    7.7754     0.2947    
2807.8     2.8641     8.836      11.3577    9.9845     6.389      12.2684    7.1091     89.2088    7.8884     0.2927    
2808       3.0856     9.5082     11.943     10.3984    6.5368     11.3931    6.0783     92.0741    7.9123     0.2908    
2808.2     3.2113     9.7954     12.2436    10.5465    6.69       10.7382    5.417      92.3981    7.8445     0.2938    
2808.4     3.1902     9.9961     12.3056    10.5619    6.9464     10.4647    5.287      90.7913    7.693      0.296     
2808.6     3.085      9.963      12.3636    10.685     7.4036     10.5069    5.7987     89.5087    7.5749     0.2927    
2808.8     2.9874     9.9123     12.7085    11.2653    7.7747     10.9612    8.4707     90.4146    7.4205     0.2884    
2809       3.0316     10.5101    13.8286    12.32      7.9847     11.2465    4.9745     93.7412    7.1524     0.2938    
2809.2     3.4165     11.7564    14.7085    12.8038    7.9735     10.726     4.7284     97.4447    6.9292     0.2979    
2809.4     3.2566     10.6568    14.6382    12.1606    7.6795     9.7611     4.5627     99.0591    6.8162     0.2979    
2809.6     3.1248     9.9572     13.823     11.0094    6.9903     8.9696     4.3982     98.7054    6.5909     0.2968    
2809.8     3.0154     9.5684     13.3645    10.2874    6.2892     8.6317     4.1643     98.3448    6.374      0.2951    
2810       2.9208     9.2884     12.9317    9.6939     5.7938     8.535      3.9944     98.583     6.1723     0.2937    
2810.2     2.8402     9.0464     12.3259    9.1452     5.4222     8.6905     4.0876     98.4012    6.0021     0.2955    
2810.4     2.7175     8.6129     11.6672    8.6956     5.113      8.9065     4.2011     97.268     5.8734     0.2927    
2810.6     2.6646     8.265      11.1186    8.3911     4.8773     9.1135     4.3136     95.4773    5.781      0.2927    
2810.8     2.6354     8.0071     10.7184    8.1797     4.6869     9.2575     4.2139     93.4469    5.7303     0.2927    
2811       2.6221     7.8871     10.4604    8.0504     4.5411     9.4067     3.9386     92.269     5.6454     0.2927    
2811.2     2.661      7.7842     10.3393    7.9414     4.4206     9.6022     3.9032     93.1669    5.5731     0.2927    
2811.4     2.6252     7.5874     10.2389    7.8252     4.3132     9.9052     3.6473     95.4555    5.4974     0.2927    
2811.6     2.6198     7.5323     9.9341     7.7432     4.1901     10.3114    3.6902     97.2612    5.4251     0.2927    
2811.8     2.5429     7.3154     9.4912     7.6541     4.0953     10.7254    3.8166     98.2579    5.3941     0.2879    
2812       2.4506     7.0648     8.9878     7.4687     3.9883     11.0877    4.3201     99.124     5.4245     0.2908    
2812.2     2.3799     6.7937     8.5605     7.2579     3.9209     11.3027    4.5626     99.3156    5.5356     0.2921    
2812.4     2.3432     6.6168     8.2419     7.0759     3.8546     11.4448    4.8172     98.0598    5.6855     0.2886    
2812.6     2.3627     6.6124     8.0903     6.9981     3.8078     11.4589    4.8997     95.9552    5.869      0.2899    
2812.8     2.4336     6.6755     8.0527     6.9614     3.7782     11.4202    4.9745     94.0445    6.0536     0.2884    
2813       2.5113     6.8718     8.0744     6.952      3.7658     11.3095    5.0531     93.0888    6.1681     0.292     
2813.2     2.5329     6.996      8.1313     7.0607     3.7389     11.2942    5.0114     93.6419    6.2415     0.2878    
2813.4     2.5987     7.2758     8.1949     7.2216     3.7221     11.3298    5.0751     95.2307    6.2997     0.2927    
2813.6     2.6261     7.6071     8.3271     7.3501     3.7126     11.3715    5.0473     96.4944    6.3113     0.2927    
2813.8     2.6604     7.7776     8.4757     7.345      3.6873     11.4075    4.9827     96.9205    6.3414     0.2927    
2814       2.6593     7.8153     8.623      7.2908     3.6596     11.5059    4.9936     96.7729    6.3642     0.2927    
2814.2     2.6737     7.873      8.7692     7.1818     3.6381     11.7199    5.1046     95.3972    6.3894     0.2926    
2814.4     2.6445     7.8242     8.9491     7.0888     3.6148     11.9161    4.9875     92.1444    6.409      0.2894    
2814.6     2.6481     7.8454     9.1133     7.0018     3.5809     12.1606    5.0793     88.4294    6.4553     0.2889    
2814.8     2.6436     7.8865     9.3725     6.9806     3.5665     12.6013    5.0354     86.1133    6.4484     0.2904    
2815       2.7021     8.0092     9.549      6.9704     3.5604     13.1656    4.7889     85.3391    6.4528     0.2964    
2815.2     2.6736     7.9204     9.6132     7.0067     3.5799     14.0211    4.9219     86.0438    6.4849     0.2927    
2815.4     2.6773     7.9457     9.6291     6.9838     3.6225     15.1273    4.9379     88.7194    6.5012     0.2955    
2815.6     2.6839     7.9474     9.651      7.0085     3.6783     16.2534    4.905      92.3057    6.533      0.2928    
2815.8     2.6546     7.8085     9.6057     7.0522     3.7652     17.3274    5.036      94.3338    6.6294     0.2903    
2816       2.6278     7.7341     9.525      7.0755     3.8853     18.3872    5.1398     93.7706    6.7455     0.2925    
2816.2     2.6069     7.6131     9.4215     7.1639     4.0411     19.3819    5.6301     91.7846    6.9329     0.2883    
2816.4     2.5437     7.417      9.3364     7.2906     4.2071     20.0123    5.9373     89.9012    7.1534     0.2875    
2816.6     2.5641     7.5177     9.3521     7.4706     4.3686     20.0121    5.7016     88.8092    7.4063     0.2875    
2816.8     2.6044     7.6257     9.3688     7.6977     4.5311     19.7515    5.5253     88.4914    7.7219     0.2875    
2817       2.5461     7.5019     9.2537     7.8158     4.7113     19.8845    6.0736     88.0141    8.1181     0.2875    
2817.2     2.452      7.3595     9.1128     7.944      4.9605     20.1903    7.9956     85.9988    8.6203     0.2854    
2817.4     2.3477     7.2571     9.233      8.2643     5.2665     20.0687    12.5131    82.9454    9.1538     0.2823    
2817.6     2.5028     7.8988     9.7165     8.8006     5.695      19.2297    13.1821    81.27      9.7162     0.2884    
