~Version
 VERS              .         2.0                           : CWLS LOG ASCII STANDARD - VERSION 2.0
 WRAP              .         NO                            : ONE LINE PER DEPTH STEP
 DLM               .         SPACE                         : DELIMITING CHARACTER(SPACE TAB OR COMMA)
~Well Information
#_______________________________________________________________________________
#
#PARAMETER_NAME    .UNIT     VALUE                         : DESCRIPTION
#_______________________________________________________________________________
STRT               .m        2657                          : First reference value
STOP               .m        2990                          : Last reference value
STEP               .m        0.2                           : Step increment
NULL               .         -9999                         : Missing value
COMP               .                                       : Company
WELL               .         604                           : Well name
FLD                .                                       : Field
LOC                .                                       : Location
CNTY               .                                       : County
STAT               .                                       : State
CTRY               .                                       : Country
SRVC               .                                       : Service Company
DATE               .                                       : Date
API                .                                       : API number
EREF               .m        134                           : 
X                  .m        225746                        : 
Y                  .m        235643                        : 
group              .         Pad6                          : 
Интер-р            .         Пузин                         : 
Куст               .         6                             : 
Статус             .         Не проверено                  : 
Тип                .         Нагнетательные                : 
~Parameter Information Block
#_______________________________________________________________________________
#
#PARAMETER_NAME    .UNIT     VALUE                         : DESCRIPTION
#_______________________________________________________________________________
SET                .         LAS1                          : 
REAL_CREATION_DATE .         Ср апр 11 2012-13_17_23       : 
TLFamily_DEPTH     .         Measured Depth                : 
TLFamily_GZ1       .         Extra Shallow Resistivity     : 
TLFamily_GZ2       .         Shallow Resistivity           : 
TLFamily_GZ3       .         Medium Resistivity            : 
TLFamily_GZ4       .         Deep Resistivity              : 
TLFamily_GZ5       .         Extra Deep Resistivity        : 
TLFamily_GZr       .         Medium Resistivity Inverted   : 
TLFamily_LLD       .         Lateral Log Resistivity       : 
TLFamily_PS        .         Spontaneous Potential         : 
TLFamily_PZ        .         Potential Resistivity         : 
TLFamily_RS        .         Mud Resistivity               : 
group              .         INI                           : 
~Curve Information
#_______________________________________________________________________________
#
#LOGNAME           .UNIT     LOG_ID                        : DESCRIPTION
#_______________________________________________________________________________
DEPTH              .m                                      : Measured Depth 
GZ1                .ohm.m                                  : Extra Shallow Resistivity 
GZ2                .ohm.m                                  : Shallow Resistivity 
GZ3                .ohm.m                                  : Medium Resistivity 
GZ4                .ohm.m                                  : Deep Resistivity 
GZ5                .ohm.m                                  : Extra Deep Resistivity 
GZr                .ohm.m                                  : Medium Resistivity Inverted 
LLD                .ohm.m                                  : Lateral Log Resistivity 
PS                 .mV                                     : Spontaneous Potential 
PZ                 .ohm.m                                  : Potential Resistivity 
RS                 .ohm.m                                  : Mud Resistivity 
~Ascii
# ...
2965.2     2.7417     8.981      11.6433    5.1201     7.0273     27.9123    7.7618     64.0606    9.6038     0.2888    
2965.4     2.793      9.1121     11.9688    5.59       7.6328     30.2825    7.9193     64.2279    9.8813     0.2925    
2965.6     2.814      9.2312     12.3991    6.3253     8.4369     33.0578    8.5248     64.6244    10.1381    0.2879    
2965.8     2.9195     9.7114     12.9807    7.361      9.5091     34.872     8.5202     64.9532    10.3788    0.2922    
2966       2.97       9.8345     13.2938    8.8875     10.8404    36.8456    6.3564     66.1413    10.7538    0.2911    
2966.2     2.7362     9.2632     13.1735    10.4249    12.546     39.8958    7.5529     67.8789    11.2738    0.2989    
2966.4     2.5973     8.9388     13.2061    12.1512    14.4165    44.7176    9.4684     68.2649    11.8648    0.2843    
2966.6     2.5617     9.0925     13.9743    14.229     16.2043    47.4733    10.7305    66.3122    12.6814    0.2906    
2966.8     2.5155     9.2473     14.7374    16.4407    17.5618    47.6674    16.8739    62.5486    13.6962    0.3011    
2967       2.6409     9.7093     15.7178    18.1091    17.9514    46.7448    38.2161    58.0959    14.7389    0.2875    
2967.2     2.9025     10.6021    16.9466    19.429     17.694     44.1335    50.6036    54.6028    15.6889    0.3024    
2967.4     3.2281     11.8336    17.4397    18.774     17.8454    39.0814    56.7549    53.4945    16.6845    0.2902    
2967.6     3.0438     10.4995    17.935     19.5821    17.662     31.7408    44.8446    54.9332    17.5663    0.272     
2967.8     3.5008     13.8253    19.6387    21.1296    17.2032    28.1249    62.5589    58.4984    17.8041    0.2851    
2968       4.1715     16.4248    24.1706    24.9789    16.3626    27.782     74.8581    63.4019    17.2099    0.3024    
2968.2     4.3869     18.4104    26.4992    25.8465    16.1541    25.4107    63.3201    67.4849    16.8284    0.2896    
2968.4     4.374      19.1173    25.6852    24.2789    15.1423    19.606     23.9817    68.5655    16.8593    0.3044    
2968.6     3.0266     14.6807    27.3747    24.9035    13.9486    16.5414    18.5966    67.0083    16.2749    0.2692    
2968.8     4.5592     20.6917    32.338     27.6725    12.6329    15.6248    10.91      64.6835    15.1696    0.2939    
2969       4.6518     20.8877    36.4134    30.024     12.4069    15.2864    9.3908     62.4785    14.0443    0.2926    
2969.2     4.1215     19.2147    36.5492    29.2203    11.3986    14.1551    9.5582     60.963     13.3898    0.2836    
2969.4     3.8033     17.5655    36.0383    28.3631    10.2888    13.2792    10.6108    61.2012    12.8627    0.287     
2969.6     3.7795     16.7595    36.1058    28.234     9.3852     12.5713    11.2731    63.1548    12.3166    0.2912    
2969.8     3.7673     15.6203    36.081     28.8801    8.8345     11.956     11.2224    65.5038    11.817     0.2973    
2970       3.7801     14.8041    33.9218    28.903     8.5136     11.6452    8.1094     66.9629    11.3115    0.2843    
2970.2     3.6833     14.1927    32.8535    29.4784    8.7617     12.0856    7.0803     66.2551    10.7176    0.2939    
2970.4     3.6918     14.14      32.4338    31.0488    9.3885     14.2237    5.521      63.1092    10.1154    0.2781    
2970.6     3.4682     14.0541    33.9517    35.3338    10.0881    17.6055    7.2914     59.8106    9.5371     0.2932    
2970.8     3.4514     14.9983    36.0775    41.2773    10.7403    19.3134    14.1409    58.4526    8.9947     0.2804    
2971       3.7772     15.7779    36.523     45.9985    11.1744    18.1806    9.0835     57.8478    8.7062     0.2948    
2971.2     3.7232     14.8457    35.0877    47.7571    10.9654    16.22      8.7259     56.0874    8.4021     0.2855    
2971.4     3.7564     13.8617    31.6549    46.6758    10.1586    14.7254    6.1892     53.7051    8.0358     0.2816    
2971.6     3.6098     12.7722    27.637     43.0833    9.1118     13.7638    5.0322     52.8079    7.7359     0.2918    
2971.8     3.2825     11.3889    23.3713    37.9453    7.9946     13.3295    3.913      54.8568    7.5284     0.2855    
2972       2.9966     9.8878     18.9674    30.9331    6.8771     13.2927    3.9653     58.7016    7.3778     0.2797    
2972.2     2.6916     8.7325     15.8372    26.1432    5.9895     13.1577    5.0226     60.9468    7.2613     0.2721    
2972.4     2.4746     8.8351     14.109     23.3499    5.2918     12.6367    6.2505     59.9844    7.2505     0.2858    
2972.6     2.566      8.7059     13.3115    21.886     4.8438     12.5953    6.361      57.5211    7.4043     0.2883    
2972.8     2.6552     8.322      12.4946    19.6476    4.5997     12.5953    6.3561     55.1966    7.5405     0.2787    
2973       2.7723     8.0771     12.3831    17.3095    4.3651     12.5994    6.5748     53.0733    7.4954     0.2828    
2973.2     2.873      8.362      12.3648    15.7973    4.1112     12.5953    5.9045     51.2553    7.4301     0.2857    
2973.4     2.7651     8.2818     11.8587    14.0826    3.8934     12.598     4.9657     50.2824    7.4354     0.2927    
2973.6     2.6194     7.8893     11.3391    12.4833    3.7572     12.5957    6.0142     50.7416    7.3854     0.2804    
2973.8     2.6273     8.207      11.072     11.6029    3.6333     12.6036    6.8747     53.1174    7.3743     0.2823    
2974       2.6801     8.319      11.0728    11.0798    3.6074     12.6086    6.504      56.4375    7.4021     0.293     
2974.2     2.7998     8.3469     10.8415    10.502     3.6537     12.6099    5.5646     58.0569    7.3986     0.2979    
2974.4     2.7961     8.0791     10.6511    9.9824     3.7288     12.6187    5.2159     56.5163    7.3986     0.2943    
2974.6     2.7956     7.9547     10.7124    9.7524     3.8181     12.6097    5.4836     53.0312    7.3929     0.2871    
2974.8     2.7983     7.9792     10.8597    9.8411     4.028      12.6149    6.1643     49.7922    7.3864     0.2835    
2975       2.7824     8.0275     10.9222    10.5318    4.3802     12.6121    7.1249     48.4438    7.3948     0.2852    
2975.2     2.771      8.0228     11.1584    11.4838    4.7972     12.6216    7.0722     49.371     7.3986     0.2823    
2975.4     2.7715     8.0089     11.4777    12.3523    5.2991     12.6219    7.3994     51.8492    7.3986     0.2831    
2975.6     2.7597     7.9451     11.5774    12.9347    5.9127     12.6219    7.5801     55.2563    7.3986     0.2825    
2975.8     2.7715     7.9081     11.6675    13.3267    6.569      12.6165    7.4411     58.8439    7.3986     0.283     
2976       2.7701     7.9145     11.8766    13.6842    7.3084     12.6219    7.9724     61.0019    7.3988     0.2824    
2976.2     2.7714     7.9145     12.0519    14.2082    8.0858     12.6222    7.5433     60.7947    7.3971     0.2864    
2976.4     2.7615     7.9039     12.0744    15.6417    9.3354     12.6219    6.2313     59.2337    7.3956     0.2832    
2976.6     2.7666     7.9118     12.0689    17.7259    11.3878    12.6307    5.438      57.9869    7.3986     0.2828    
2976.8     2.7694     7.9067     12.0973    21.4327    13.5406    0          6.1615     57.5671    7.3938     0.2823    
2977       2.7723     7.9111     12.0609    25.5546    15.268     0          7.9059     57.0948    7.3856     0.2843    
2977.2     2.7707     7.9125     12.0716    26.4341    16.0381    0          7.8336     56.1987    7.3932     0.2823    
2977.4     2.7661     7.9139     12.0719    23.5324    15.9702    0          6.9754     56.4906    7.3986     0.2839    
2977.6     2.7696     7.9092     12.0629    20.154     14.5273    0          5.2258     59.348     7.3962     0.2823    
2977.8     2.7608     7.9047     12.0695    17.1441    12.4159    0          3.5119     63.4863    7.3978     0.2823    
2978       2.7694     7.9135     12.0629    14.7883    10.7332    0          3.3487     66.6898    7.3937     0.2823    
2978.2     2.7663     7.9145     12.0718    13.5442    9.4789     0          3.2281     68.4712    7.3914     0.2823    
2978.4     2.7699     7.9119     12.0728    13.2746    8.6509     0          4.3383     69.8244    7.405      0.2831    
