~Version
 VERS              .         2.0                           : CWLS LOG ASCII STANDARD - VERSION 2.0
 WRAP              .         NO                            : ONE LINE PER DEPTH STEP
 DLM               .         SPACE                         : DELIMITING CHARACTER(SPACE TAB OR COMMA)
~Well Information
#_______________________________________________________________________________
#
#PARAMETER_NAME    .UNIT     VALUE                         : DESCRIPTION
#_______________________________________________________________________________
STRT               .m        2657                          : First reference value
STOP               .m        2990                          : Last reference value
STEP               .m        0.2                           : Step increment
NULL               .         -9999                         : Missing value
COMP               .                                       : Company
WELL               .         604                           : Well name
FLD                .                                       : Field
LOC                .                                       : Location
CNTY               .                                       : County
STAT               .                                       : State
CTRY               .                                       : Country
SRVC               .                                       : Service Company
DATE               .                                       : Date
API                .                                       : API number
EREF               .m        134                           : 
X                  .m        225746                        : 
Y                  .m        235643                        : 
group              .         Pad6                          : 
Интер-р            .         Пузин                         : 
Куст               .         6                             : 
Статус             .         Не проверено                  : 
Тип                .         Нагнетательные                : 
~Parameter Information Block
#_______________________________________________________________________________
#
#PARAMETER_NAME    .UNIT     VALUE                         : DESCRIPTION
#_______________________________________________________________________________
SET                .         LAS1                          : 
REAL_CREATION_DATE .         Ср апр 11 2012-13_17_23       : 
TLFamily_DEPTH     .         Measured Depth                : 
TLFamily_GZ1       .         Extra Shallow Resistivity     : 
TLFamily_GZ2       .         Shallow Resistivity           : 
TLFamily_GZ3       .         Medium Resistivity            : 
TLFamily_GZ4       .         Deep Resistivity              : 
TLFamily_GZ5       .         Extra Deep Resistivity        : 
TLFamily_GZr       .         Medium Resistivity Inverted   : 
TLFamily_LLD       .         Lateral Log Resistivity       : 
TLFamily_PS        .         Spontaneous Potential         : 
TLFamily_PZ        .         Potential Resistivity         : 
TLFamily_RS        .         Mud Resistivity               : 
group              .         INI                           : 
~Curve Information
#_______________________________________________________________________________
#
#LOGNAME           .UNIT     LOG_ID                        : DESCRIPTION
#_______________________________________________________________________________
DEPTH              .m                                      : Measured Depth 
GZ1                .ohm.m                                  : Extra Shallow Resistivity 
GZ2                .ohm.m                                  : Shallow Resistivity 
GZ3                .ohm.m                                  : Medium Resistivity 
GZ4                .ohm.m                                  : Deep Resistivity 
GZ5                .ohm.m                                  : Extra Deep Resistivity 
GZr                .ohm.m                                  : Medium Resistivity Inverted 
LLD                .ohm.m                                  : Lateral Log Resistivity 
PS                 .mV                                     : Spontaneous Potential 
PZ                 .ohm.m                                  : Potential Resistivity 
RS                 .ohm.m                                  : Mud Resistivity 
~Ascii
# ...
2710.6     -0.1265    -0.0691    -0.0703    -9999      -9999      -0.0853    -5.6631    -9999      -0.0253    0.2277    
2710.8     -0.1252    -0.065     -0.0703    -9999      -9999      -0.0909    -2.9785    -9999      -0.0253    0.2338    
2711       -0.1366    -0.0645    -0.0703    -9999      -9999      -0.0834    -4.2101    -9999      -0.0253    0.2301    
2711.2     -0.1366    -0.0662    -0.0703    -9999      -9999      -0.0953    -1.8773    -9999      -0.0253    0.2301    
2711.4     -0.1366    -0.0748    -0.0703    -9999      -9999      -0.0855    -0.9128    -9999      -0.0253    0.2301    
2711.6     -0.1318    -0.0636    -0.0703    -9999      -9999      -0.0834    -1.2982    -9999      -0.0356    0.2309    
2711.8     -0.1249    -0.0636    -0.0725    -0.1839    -9999      -0.0948    -2.3373    -9999      -0.0281    0.032     
2712       -0.1335    -0.0636    -0.0717    -0.1752    -9999      -0.0834    -2.0049    -9999      -0.029     -0.0115   
2712.2     -0.1473    -0.0768    -0.0713    -0.1832    -9999      -0.0839    -2.0153    -9999      -0.0286    -0.0109   
2712.4     -0.1814    -0.0768    -0.0678    -0.1854    -9999      -0.0945    -2.4987    -9999      -0.0253    -0.0121   
2712.6     -0.1902    -0.0667    -0.0753    -0.1854    -9999      -0.0923    -0.7413    -9999      -0.0253    -0.0119   
2712.8     -0.1861    -0.0823    -0.0703    -0.1835    -9999      -0.0929    -1.2577    -9999      -0.0253    -0.0141   
2713       -0.1902    -0.1251    -0.0703    -0.1792    -9999      -0.0901    -2.2685    -9999      -0.0253    -0.0112   
2713.2     -0.1902    -0.1226    -0.0757    -0.1837    -9999      -0.0907    -2.8661    -9999      -0.0253    -0.0115   
2713.4     -0.1858    -0.1205    -0.0703    -0.1834    -9999      -0.0861    -1.0852    -9999      -0.0272    -0.0141   
2713.6     -0.189     -0.1276    -0.0703    -0.1752    -9999      -0.0834    -0.7329    -9999      -0.0276    -0.0143   
2713.8     -0.179     -0.1227    -0.0703    -0.1833    -9999      -0.0834    -0.7566    -9999      -0.0298    -0.0148   
2714       -0.1792    -0.1208    -0.0809    -0.1854    -9999      -0.0834    -1.2261    -9999      -0.0326    -0.0121   
2714.2     -0.1784    -0.1261    -0.0987    -0.176     -9999      -0.0844    -0.8145    -9999      -0.0294    -0.0148   
2714.4     -0.1893    -0.1257    -0.0968    -0.1854    -9999      -0.0891    -1.0641    -9999      -0.0279    -0.0148   
2714.6     -0.1795    -0.1273    -0.1042    -0.1835    -9999      -0.0883    -1.2026    -9999      -0.0253    -0.0096   
2714.8     -0.1902    -0.12      -0.0968    -0.1854    -9999      -0.086     -3.2258    -9999      -0.0253    -0.0137   
2715       -0.1902    -0.1173    -0.0968    -0.1854    -9999      -0.0834    -1.3142    -9999      -0.0253    -0.0148   
2715.2     -0.1902    -0.1294    -0.0968    -0.1833    -9999      -0.0834    -1.4865    -9999      -0.0253    -0.0148   
2715.4     -0.1902    -0.1164    -0.0871    -0.1854    -9999      -0.0916    -3.6093    -9999      -0.0253    -0.0109   
2715.6     -0.1886    -0.1164    -0.1056    -0.1854    -9999      -0.0834    -2.5381    -9999      -0.0345    -0.014    
2715.8     -0.1795    -0.1164    -0.0968    -0.1828    -9999      -0.0834    -2.6436    -9999      -0.0258    -0.0136   
2716       -0.1923    -0.1188    -0.0984    -0.1948    -0.1716    -0.0857    -1.4799    -9999      -0.0304    -0.0128   
2716.2     -0.1845    -0.1296    -0.1074    -0.2236    -0.2451    -0.0868    -1.0902    -9999      -0.0331    -0.0124   
2716.4     -0.1815    -0.1176    -0.097     -0.2197    -0.2428    -0.0834    -1.8192    -9999      -0.0253    -0.0137   
2716.6     -0.1791    -0.1217    -0.1078    -0.2169    -0.2452    -0.0834    -4.4351    -9999      -0.0251    -0.0132   
2716.8     -0.1844    -0.1242    -0.0968    -0.2224    -0.2324    -0.0834    -4.4531    -9999      -0.0193    -0.0132   
2717       -0.1854    -0.1179    -0.1082    -0.2242    -0.2349    -0.0834    -3.8717    -9999      -0.0344    -0.0141   
2717.2     -0.1789    -0.1178    -0.11      -0.2242    -0.2404    -0.0834    -4.9052    -9999      -0.0253    -0.0108   
2717.4     -0.1795    -0.1222    -0.0968    -0.2242    -0.2387    -0.0834    -3.6226    -9999      -0.0202    -0.0148   
2717.6     -0.1848    -0.1164    -0.0976    -0.2242    -0.2262    -0.0822    -2.7288    -9999      -0.0332    -0.0107   
2717.8     -0.1782    -0.1185    -0.1074    -0.2242    -0.2343    -0.0812    -2.0404    -9999      -0.0253    -0.0148   
2718       -0.1875    -0.1243    -0.0989    -0.2242    -0.2408    -0.0702    -8.2498    -9999      -0.0214    -0.0096   
2718.2     -0.1858    -0.1218    -0.0984    -0.2242    -0.2429    -0.0702    -4.0651    -9999      -0.0253    -0.0096   
2718.4     -0.1902    -0.1209    -0.0853    -0.2242    -0.2404    -0.0667    -4.9803    -9999      -0.0253    -0.0096   
2718.6     -0.1889    -0.1183    -0.0935    -0.2242    -0.2388    -0.0389    -5.3088    -9999      -0.0253    -0.0096   
2718.8     -0.1795    -0.1296    -0.0968    -0.2242    -0.2358    14.1474    -4.6479    -9999      -0.0253    -0.0096   
2719       -0.184     -0.1164    -0.0968    -0.2242    -0.2452    41.4179    -4.2242    -9999      -0.0253    -0.0147   
2719.2     -0.1902    -0.1164    -0.0886    -0.2242    -0.2452    41.3819    -5.2405    -9999      -0.0124    -0.0099   
2719.4     -0.1875    -0.1164    -0.091     -0.2242    -0.2452    41.4043    -2.631     -9999      -0.0219    -0.0111   
2719.6     -0.1768    -0.1164    -0.0968    -0.2242    -0.2359    41.3901    -0.6493    -9999      -0.0253    -0.0122   
2719.8     -0.1836    -0.1164    -0.0961    -0.2164    -0.232     41.4092    -0.719     -9999      -0.0223    -0.0134   
2720       -0.1768    -0.1191    -0.0924    -0.2242    -0.2385    41.4017    -1.6781    -9999      -0.0216    -0.0096   
2720.2     -0.1847    -0.1202    -0.0968    -0.2211    -0.2788    41.3877    -0.9899    -9999      -0.0202    -0.0096   
2720.4     -0.1768    -0.121     -0.0968    -0.2242    -0.4888    41.387     -0.7279    -9999      -0.0116    -0.0096   
2720.6     -0.1734    -0.1065    -0.0968    -0.2241    -0.4912    41.3781    -0.7112    -9999      -0.0116    -0.0047   
2720.8     -0.1657    -0.1162    -0.0968    -0.2159    -0.4935    41.3945    -1.0189    -9999      -0.0014    0.0002    
2721       -0.1701    -0.1086    -0.0968    -0.2242    -0.486     41.3781    -1.9327    -9999      0.0102     1.6549    
2721.2     -0.15      -0.1149    -0.0941    -0.2239    -0.4964    41.3781    -1.5428    -9999      2.6355     15.8919   
2721.4     1.1593     -0.116     -0.093     -0.2165    -0.4894    41.3788    -2.2362    -9999      39.9004    16.2236   
2721.6     38.3783    -0.1067    -0.0902    -0.2242    -0.4876    41.3797    -4.0031    -9999      42.3035    16.2269   
2721.8     41.5104    -0.0931    -0.0957    -0.2151    -0.4876    41.3737    -0.7684    -9999      42.2968    16.2181   
2722       41.5203    1.5419     -0.0913    -0.2242    -0.4865    41.3805    -0.6647    -9999      42.2872    16.2178   
2722.2     41.5248    38.4798    -0.0889    -0.2242    -0.4938    41.3695    -0.8291    -9999      42.3138    16.2189   
2722.4     41.4977    41.2337    -0.0835    -0.2229    -0.4949    41.3759    -0.737     -9999      42.3059    16.2146   
2722.6     41.5122    41.246     -0.0827    -0.2227    -0.4897    41.3205    -0.7552    -9999      42.3035    16.2203   
2722.8     41.5031    41.2291    -0.0796    -0.2182    -0.4929    15.4023    -0.7345    -9999      42.2901    16.2143   
2723       41.5198    41.2354    -0.0683    -0.2147    -0.4964    -0.0834    -0.9453    -9999      42.3208    16.2228   
2723.2     41.4807    41.2295    1.7898     -0.2234    -0.4964    -0.0936    -1.383     -9999      42.2995    16.2149   
2723.4     41.5014    41.2345    38.6984    -0.2216    -0.4964    -0.0834    -0.9729    -9999      42.3185    16.2115   
2723.6     41.483     41.2552    41.2382    -0.2223    -0.4872    -0.0834    -0.9961    -9999      42.3048    16.2127   
2723.8     41.492     41.2436    41.248     -0.2145    -0.4922    -0.0834    -1.2728    -9999      42.3033    16.217    
