~Version
 VERS              .         2.0                           : CWLS LOG ASCII STANDARD - VERSION 2.0
 WRAP              .         NO                            : ONE LINE PER DEPTH STEP
 DLM               .         SPACE                         : DELIMITING CHARACTER(SPACE TAB OR COMMA)
~Well Information
#_______________________________________________________________________________
#
#PARAMETER_NAME    .UNIT     VALUE                         : DESCRIPTION
#_______________________________________________________________________________
STRT               .m        2657                          : First reference value
STOP               .m        2990                          : Last reference value
STEP               .m        0.2                           : Step increment
NULL               .         -9999                         : Missing value
COMP               .                                       : Company
WELL               .         604                           : Well name
FLD                .                                       : Field
LOC                .                                       : Location
CNTY               .                                       : County
STAT               .                                       : State
CTRY               .                                       : Country
SRVC               .                                       : Service Company
DATE               .                                       : Date
API                .                                       : API number
EREF               .m        134                           : 
X                  .m        225746                        : 
Y                  .m        235643                        : 
group              .         Pad6                          : 
Интер-р            .         Пузин                         : 
Куст               .         6                             : 
Статус             .         Не проверено                  : 
Тип                .         Нагнетательные                : 
~Parameter Information Block
#_______________________________________________________________________________
#
#PARAMETER_NAME    .UNIT     VALUE                         : DESCRIPTION
#_______________________________________________________________________________
SET                .         LAS1                          : 
REAL_CREATION_DATE .         Ср апр 11 2012-13_17_23       : 
TLFamily_DEPTH     .         Measured Depth                : 
TLFamily_GZ1       .         Extra Shallow Resistivity     : 
TLFamily_GZ2       .         Shallow Resistivity           : 
TLFamily_GZ3       .         Medium Resistivity            : 
TLFamily_GZ4       .         Deep Resistivity              : 
TLFamily_GZ5       .         Extra Deep Resistivity        : 
TLFamily_GZr       .         Medium Resistivity Inverted   : 
TLFamily_LLD       .         Lateral Log Resistivity       : 
TLFamily_PS        .         Spontaneous Potential         : 
TLFamily_PZ        .         Potential Resistivity         : 
TLFamily_RS        .         Mud Resistivity               : 
group              .         INI                           : 
~Curve Information
#_______________________________________________________________________________
#
#LOGNAME           .UNIT     LOG_ID                        : DESCRIPTION
#_______________________________________________________________________________
DEPTH              .m                                      : Measured Depth 
GZ1                .ohm.m                                  : Extra Shallow Resistivity 
GZ2                .ohm.m                                  : Shallow Resistivity 
GZ3                .ohm.m                                  : Medium Resistivity 
GZ4                .ohm.m                                  : Deep Resistivity 
GZ5                .ohm.m                                  : Extra Deep Resistivity 
GZr                .ohm.m                                  : Medium Resistivity Inverted 
LLD                .ohm.m                                  : Lateral Log Resistivity 
PS                 .mV                                     : Spontaneous Potential 
PZ                 .ohm.m                                  : Potential Resistivity 
RS                 .ohm.m                                  : Mud Resistivity 
~Ascii
# ...
2884.8     3.1711     11.2447    16.8142    16.6468    7.8276     22.1843    7.8227     84.3222    10.2785    0.2969    
2885       3.1063     10.9961    16.6109    16.4283    7.845      22.7146    7.8503     84.194     10.4475    0.2969    
2885.2     3.0137     10.6283    16.6218    16.2778    8.0104     23.4542    8.0321     85.3542    10.6232    0.2979    
2885.4     3.0817     10.9895    17.0911    16.592     8.3053     24.4936    9.1375     86.6013    10.77      0.297     
2885.6     3.1971     11.3644    18.0169    17.4939    8.8067     25.5286    9.8237     87.6721    10.8972    0.2998    
2885.8     3.2567     11.734     18.8749    18.6945    9.4712     26.2697    10.6082    88.3154    11.0377    0.3031    
2886       3.3472     12.1733    20.0245    19.9211    9.9911     26.7201    11.4096    88.256     11.1279    0.2989    
2886.2     3.4857     12.8645    20.833     20.7938    10.3347    26.4672    11.9287    88.4118    11.1802    0.2979    
2886.4     3.5266     12.9111    20.859     20.6861    10.5024    25.7093    10.1748    89.3515    11.2596    0.2973    
2886.6     3.4563     12.677     20.3194    20.1537    10.444     25.1144    9.1008     89.8103    11.3084    0.2927    
2886.8     3.4352     12.7376    19.9007    19.6766    10.1206    24.6901    9.4071     89.0814    11.3285    0.2886    
2887       3.3738     12.6114    19.5329    19.2979    9.7135     24.325     9.4378     88.3321    11.3944    0.2866    
2887.2     3.3126     12.3903    19.0995    18.9505    9.2923     24.1954    9.0411     88.1792    11.4871    0.2875    
2887.4     3.2845     12.1738    18.7186    18.5781    8.9276     24.3352    8.8302     87.9477    11.5979    0.2875    
2887.6     3.2212     11.95      18.534     18.3771    8.6501     24.3505    9.4429     87.7403    11.7269    0.2875    
2887.8     3.2267     11.9321    18.7132    18.3908    8.441      24.1144    10.7802    88.4493    11.9057    0.287     
2888       3.2831     12.0667    18.999     18.5636    8.3524     23.786     11.0238    89.7526    12.0741    0.2846    
2888.2     3.3283     12.2       19.513     18.8861    8.3595     23.5017    11.1112    90.2343    12.1612    0.2883    
2888.4     3.4367     12.6068    20.2236    19.352     8.4294     23.3803    11.7609    88.8499    12.1957    0.2913    
2888.6     3.5413     12.9841    20.9266    19.8329    8.4819     23.2839    11.9404    85.4458    12.1845    0.3052    
2888.8     3.5809     13.273     21.2192    20.0373    8.5772     23.1622    11.3805    81.4971    12.1597    0.3066    
2889       3.5523     13.2559    21.3019    20.1446    8.6736     23.1713    9.6557     79.5822    12.1429    0.3031    
2889.2     3.4438     12.9385    21.2997    20.3188    8.7528     23.3655    9.6556     80.4121    12.1256    0.2966    
2889.4     3.4873     13.1638    21.4695    20.7635    8.8388     23.4458    10.5313    82.4972    12.1118    0.3005    
2889.6     3.489      13.2734    21.763     21.357     8.9706     23.2225    10.8417    85.1156    12.137     0.2989    
2889.8     3.4455     13.1277    21.9571    21.972     9.1705     22.878     10.6254    88.3653    12.1696    0.2913    
2890       3.5088     13.2457    22.1395    22.6398    9.3747     22.5205    11.1936    90.9917    12.1681    0.2884    
2890.2     3.5266     13.3258    22.4452    23.4786    9.5941     22.1808    10.643     91.5548    12.1565    0.2875    
2890.4     3.5382     13.3673    22.6256    24.3161    9.8492     21.6363    10.4727    90.5652    12.1387    0.2888    
2890.6     3.5388     13.3396    22.5088    24.8242    10.249     21.1025    10.1187    89.2119    12.1632    0.2875    
2890.8     3.4385     13.0682    22.2926    25.1       10.6705    20.7128    9.4052     87.8842    12.235     0.2828    
2891       3.3873     12.9268    22.4017    25.7398    11.1148    20.3648    11.4866    87.0635    12.2853    0.2874    
2891.2     3.5314     13.3895    23.0899    26.8428    11.6376    19.883     13.2968    87.4866    12.2888    0.292     
2891.4     3.7183     14.0044    23.9674    27.9748    12.1832    19.1011    14.3156    88.7454    12.2215    0.2918    
2891.6     3.8582     14.4245    24.4762    28.581     12.6865    18.2395    13.2717    89.3562    12.1032    0.2927    
2891.8     3.8955     14.4348    24.5087    28.6017    13.1348    17.7017    10.6158    88.5448    11.9265    0.296     
2892       3.8057     14.2369    24.3966    28.5049    13.5365    17.4634    9.123      86.7496    11.6906    0.2947    
2892.2     3.7566     14.3766    24.5075    28.7048    13.9141    17.15      10.0795    84.6848    11.4063    0.3026    
2892.4     3.8268     14.7933    25.0513    29.1846    14.1714    16.3641    12.2994    83.1224    11.0546    0.3082    
2892.6     3.9987     15.2467    25.5142    29.26      14.226     15.4609    11.7822    82.6951    10.6797    0.3083    
2892.8     3.9974     15.0596    25.0789    28.3597    13.9796    15.0883    8.4771     83.0781    10.317     0.2993    
2893       3.753      13.9505    23.6601    26.4934    13.5666    15.5799    5.9721     83.6107    9.9879     0.2998    
2893.2     3.4928     12.9589    22.0117    24.4516    13.1705    16.4093    5.4692     84.4306    9.7414     0.2982    
2893.4     3.1693     12.016     20.7224    23.0169    12.9724    17.3861    5.9035     85.5445    9.6538     0.2913    
2893.6     3.0204     11.4558    19.9639    22.3879    13.0117    18.1293    6.7766     86.3399    9.6905     0.2846    
2893.8     3.0614     11.3301    19.7806    22.4386    13.2883    18.5451    8.3596     87.2502    9.7665     0.2878    
2894       3.2309     11.4726    19.9706    22.7445    13.6821    18.5261    9.3275     89.3587    9.799      0.2905    
2894.2     3.4175     11.6843    20.0595    22.9698    13.9673    18.1786    9.2156     91.588     9.7409     0.2915    
2894.4     3.4996     11.7784    19.852     22.7333    14.1158    17.9292    8.128      91.2564    9.6247     0.2906    
2894.6     3.4824     11.7439    19.0394    21.7445    14.1955    18.859     6.7731     88.1975    9.5448     0.2875    
2894.8     3.262      11.1812    17.8378    20.4185    14.2565    20.9179    5.9061     85.5599    9.4924     0.2875    
2895       3.0754     10.6597    16.704     19.5184    14.2322    21.6184    5.9074     85.7517    9.4945     0.2922    
2895.2     3.0085     10.548     15.9193    19.0995    14.3856    21.8512    6.7879     88.1094    9.6009     0.2948    
2895.4     2.9523     10.3245    15.5702    19.0573    14.7236    22.7659    7.2333     90.7191    9.8397     0.2908    
2895.6     2.9924     10.2892    15.6047    19.1501    15.1015    23.231     8.7922     92.2473    10.0005    0.2969    
2895.8     3.131      10.6617    16.1652    19.4786    15.368     23.5514    9.8663     92.6482    10.1401    0.2979    
2896       3.2919     11.0432    16.7368    19.5957    15.6077    23.7495    8.5902     93.155     10.2596    0.2979    
2896.2     3.3154     11.116     16.9434    19.4498    15.7287    24.031     8.1318     94.0767    10.3415    0.3031    
2896.4     3.2972     11.1348    16.6962    18.9615    15.8179    24.5896    7.9797     93.6753    10.4456    0.3031    
2896.6     3.2155     10.9767    16.4162    18.5854    15.9264    24.9836    7.6228     91.4137    10.6217    0.2987    
2896.8     3.135      11.0475    16.3934    18.4742    16.0473    25.3321    8.5943     89.7404    10.892     0.294     
2897       3.2388     11.3293    16.5194    18.4832    16.2343    25.1783    9.0097     90.6331    11.2331    0.2837    
2897.2     3.1522     11.6121    16.6224    18.3227    16.4133    24.8326    8.2224     93.1447    11.6047    0.2875    
2897.4     3.2392     11.3166    16.8065    18.1117    16.558     24.1201    10.3271    95.5023    11.8973    0.2833    
2897.6     3.345      11.6692    17.1783    18.139     16.6688    23.3678    10.3663    96.9558    11.9186    0.2875    
2897.8     3.3614     12.1666    17.6772    18.415     16.8983    22.4837    10.1942    97.1036    12.0103    0.2907    
2898       3.3725     12.7219    18.1732    18.9764    17.127     21.5927    10.7732    96.1445    12.1532    0.2876    
