~Version
 VERS              .         2.0                           : CWLS LOG ASCII STANDARD - VERSION 2.0
 WRAP              .         NO                            : ONE LINE PER DEPTH STEP
 DLM               .         SPACE                         : DELIMITING CHARACTER(SPACE TAB OR COMMA)
~Well Information
#_______________________________________________________________________________
#
#PARAMETER_NAME    .UNIT     VALUE                         : DESCRIPTION
#_______________________________________________________________________________
STRT               .m        2657                          : First reference value
STOP               .m        2990                          : Last reference value
STEP               .m        0.2                           : Step increment
NULL               .         -9999                         : Missing value
COMP               .                                       : Company
WELL               .         604                           : Well name
FLD                .                                       : Field
LOC                .                                       : Location
CNTY               .                                       : County
STAT               .                                       : State
CTRY               .                                       : Country
SRVC               .                                       : Service Company
DATE               .                                       : Date
API                .                                       : API number
EREF               .m        134                           : 
X                  .m        225746                        : 
Y                  .m        235643                        : 
group              .         Pad6                          : 
Интер-р            .         Пузин                         : 
Куст               .         6                             : 
Статус             .         Не проверено                  : 
Тип                .         Нагнетательные                : 
~Parameter Information Block
#_______________________________________________________________________________
#
#PARAMETER_NAME    .UNIT     VALUE                         : DESCRIPTION
#_______________________________________________________________________________
SET                .         LAS1                          : 
REAL_CREATION_DATE .         Ср апр 11 2012-13_17_23       : 
TLFamily_DEPTH     .         Measured Depth                : 
TLFamily_GZ1       .         Extra Shallow Resistivity     : 
TLFamily_GZ2       .         Shallow Resistivity           : 
TLFamily_GZ3       .         Medium Resistivity            : 
TLFamily_GZ4       .         Deep Resistivity              : 
TLFamily_GZ5       .         Extra Deep Resistivity        : 
TLFamily_GZr       .         Medium Resistivity Inverted   : 
TLFamily_LLD       .         Lateral Log Resistivity       : 
TLFamily_PS        .         Spontaneous Potential         : 
TLFamily_PZ        .         Potential Resistivity         : 
TLFamily_RS        .         Mud Resistivity               : 
group              .         INI                           : 
~Curve Information
#_______________________________________________________________________________
#
#LOGNAME           .UNIT     LOG_ID                        : DESCRIPTION
#_______________________________________________________________________________
DEPTH              .m                                      : Measured Depth 
GZ1                .ohm.m                                  : Extra Shallow Resistivity 
GZ2                .ohm.m                                  : Shallow Resistivity 
GZ3                .ohm.m                                  : Medium Resistivity 
GZ4                .ohm.m                                  : Deep Resistivity 
GZ5                .ohm.m                                  : Extra Deep Resistivity 
GZr                .ohm.m                                  : Medium Resistivity Inverted 
LLD                .ohm.m                                  : Lateral Log Resistivity 
PS                 .mV                                     : Spontaneous Potential 
PZ                 .ohm.m                                  : Potential Resistivity 
RS                 .ohm.m                                  : Mud Resistivity 
~Ascii
# ...
2925       2.3166     5.9768     6.0078     4.263      2.3027     13.0022    3.106      77.8057    4.8246     0.2812    
2925.2     2.1057     5.3713     5.3492     3.7488     2.0987     13.0186    3.2187     77.7888    5.0114     0.2771    
2925.4     1.9305     4.9112     4.8639     3.3287     1.9695     13.495     3.3324     79.7928    5.3358     0.2821    
2925.6     1.8347     4.6871     4.7311     3.2011     1.9175     14.2829    3.9134     81.2007    5.6134     0.2867    
2925.8     1.9611     4.9901     4.8857     3.2946     2.0113     15.002     5.2523     79.9416    6.0066     0.2884    
2926       1.9908     5.0701     5.1659     3.5186     2.2423     15.4366    5.3605     77.1009    6.4932     0.2909    
2926.2     2.0959     5.4442     5.594      3.8843     2.5408     16.109     5.6998     74.6337    6.9266     0.2923    
2926.4     2.1661     5.9109     6.3659     4.8813     2.9023     16.6118    8.0495     73.1435    7.3536     0.2822    
2926.6     2.4305     6.8582     7.3114     5.6744     3.3441     16.7384    10.7979    72.9977    7.7281     0.2771    
2926.8     2.68       7.7449     8.3651     6.5046     3.8695     16.567     9.4407     74.3509    8.0873     0.2775    
2927       2.8859     8.4839     9.5097     7.4912     4.3368     16.7385    8.5411     76.1156    8.2827     0.2868    
2927.2     3.0666     9.4903     10.9189    8.5726     4.6686     16.7017    12.9016    77.4439    8.221      0.2927    
2927.4     3.4571     10.9722    12.1004    9.1379     4.8466     15.9538    12.9748    78.6579    8.0795     0.2951    
2927.6     3.5193     11.2483    12.3313    9.0298     4.8922     14.9716    6.6383     79.5464    7.947      0.2931    
2927.8     3.306      10.7384    12.0644    8.6022     4.7548     14.7568    5.2267     79.1775    7.723      0.2865    
2928       3.0521     10.2757    12.176     8.4886     4.4646     15.095     5.38       77.7982    7.4834     0.2823    
2928.2     3.0105     10.5551    12.2991    8.3898     4.1443     14.9552    6.0312     76.5892    7.3354     0.2781    
2928.4     2.8697     10.0927    12.2825    8.1165     3.9037     14.4761    5.366      75.6746    7.3729     0.2815    
2928.6     2.7016     9.2813     11.9068    7.6541     3.7243     14.0692    5.1292     74.609     7.4467     0.2864    
2928.8     2.6836     8.7044     12.0992    7.5853     3.5031     13.7981    6.3066     73.7864    7.4655     0.283     
2929       2.8533     9.1044     12.4058    7.6887     3.3376     13.1495    5.8487     73.2806    7.5292     0.297     
2929.2     2.8167     8.7304     12.3672    7.7003     3.288      12.7113    4.7437     72.5081    7.6889     0.2963    
2929.4     2.6578     8.2727     11.9304    7.5738     3.3198     12.8026    4.7776     71.9941    7.826      0.2879    
2929.6     2.5187     8.0456     11.7853    7.7173     3.4327     13.1054    5.2624     72.5404    8.0626     0.2866    
2929.8     2.4917     8.3016     12.1107    8.3132     3.6122     13.0903    7.581      73.4113    8.3236     0.2776    
2930       2.7507     9.2517     13.1581    9.416      3.8173     12.5599    14.481     73.7768    8.5227     0.2822    
2930.2     3.1643     10.3146    14.5812    10.5981    4.0191     11.5435    15.5493    74.0162    8.5465     0.289     
2930.4     3.6484     11.4001    15.5747    11.5065    4.1137     10.3737    10.2061    74.3167    8.2823     0.2967    
2930.6     3.7409     11.8244    15.6614    11.9645    4.0774     9.4066     6.2161     74.4781    7.932      0.3007    
2930.8     3.4725     11.3751    15.1509    12.0087    3.9194     8.78       5.3888     75.3723    7.5714     0.2966    
2931       3.2898     11.3158    14.7771    11.9808    3.6996     8.3314     6.1497     77.7633    7.1523     0.2916    
2931.2     3.2335     11.3026    14.5445    11.8631    3.5224     8.0436     5.3388     80.1012    6.7737     0.2847    
2931.4     3.1237     10.8084    14.0668    11.6548    3.3267     7.9888     4.5071     80.2416    6.4051     0.2871    
2931.6     2.9831     10.067     13.4341    11.3062    3.1403     8.1563     4.0928     78.2258    6.0725     0.2867    
2931.8     2.7709     9.22       12.7844    10.6681    3.0024     8.4142     3.9594     75.1593    5.8671     0.2875    
2932       2.6079     8.4474     12.1999    9.9551     2.8831     8.7653     3.9226     71.5202    5.76       0.2884    
2932.2     2.5119     7.7965     11.6829    9.3839     2.8123     9.1453     4.0704     68.2488    5.7362     0.2909    
2932.4     2.4569     7.2643     11.1565    9.0401     2.7806     9.459      4.2715     66.7892    5.751      0.2876    
2932.6     2.4391     6.9416     10.5904    8.8111     2.7832     9.8443     4.3684     67.2248    5.8093     0.2842    
2932.8     2.4399     6.7991     10.0734    8.6263     2.8122     10.201     4.4552     68.5742    5.8509     0.2768    
2933       2.4667     6.7641     9.5302     8.4503     2.8796     10.7396    4.5097     70.1439    5.892      0.2763    
2933.2     2.4954     6.8277     9.0957     8.3362     2.997      11.1616    4.5748     71.0061    5.9405     0.2811    
2933.4     2.4929     6.7487     8.65       8.1849     3.1573     11.6449    4.4357     70.0136    6.0263     0.2838    
2933.6     2.4555     6.6484     8.1943     8.0732     3.3485     12.5302    4.5114     67.4472    6.1079     0.2875    
2933.8     2.449      6.6943     7.9438     8.1383     3.6081     13.6275    4.8356     64.8928    6.2103     0.2916    
2934       2.4433     6.6681     7.8559     8.4195     3.9775     14.8683    4.9745     63.2435    6.3583     0.2845    
2934.2     2.4462     6.6835     7.8202     8.8187     4.4995     16.4926    4.9109     62.5435    6.508      0.2791    
2934.4     2.4296     6.6487     7.8615     9.2089     4.9175     18.3952    4.9586     63.2129    6.6633     0.2823    
2934.6     2.4104     6.6302     7.9422     9.5301     5.6926     19.743     5.3501     65.2307    6.803      0.2774    
2934.8     2.389      6.651      8.2627     10.364     6.9368     22.2597    5.3928     67.1352    7.0378     0.2783    
2935       2.4453     7.007      8.8393     11.5592    8.4509     25.4201    5.6077     68.0591    7.3637     0.2917    
2935.2     2.3776     7.0342     9.7039     13.2822    9.9519     29.404     7.5418     69.0647    7.7311     0.2914    
2935.4     2.3929     7.5364     10.7468    14.8065    11.0109    31.818     11.7717    70.6391    8.1115     0.2823    
2935.6     2.792      8.6898     11.2207    14.8082    11.6571    32.1721    5.9838     71.2927    8.6408     0.2823    
2935.8     2.6469     8.0575     10.6319    13.1701    11.7564    32.1425    5.7845     70.1471    9.301      0.2771    
2936       2.4571     7.5511     9.8185     11.5142    11.2855    33.2081    8.8981     68.449     9.7781     0.2819    
2936.2     2.5848     8.1942     9.6533     10.7417    10.6369    34.0206    9.7138     67.2982    10.3401    0.2947    
2936.4     2.592      8.452      9.8262     10.2431    10.2118    33.6669    11.9496    66.2414    10.9472    0.2927    
2936.6     2.7816     9.0556     10.1886    9.9678     9.8438     32.7136    12.165     65.0487    11.4746    0.2824    
2936.8     2.8587     9.3065     10.5552    9.7367     9.6525     31.4546    12.4054    64.4238    11.8833    0.28      
2937       2.9378     9.52       10.8083    9.5697     9.5988     30.5647    11.0735    64.687     12.1395    0.2818    
2937.2     2.9418     9.8772     11.27      9.3466     9.5749     29.1381    10.6209    65.7713    12.4762    0.2779    
2937.4     2.9172     10.2401    11.9489    9.3647     9.6752     28.1265    10.4236    67.2533    12.7033    0.2849    
2937.6     2.9534     10.8594    13.0857    9.6482     10.0004    27.6281    9.3176     67.428     12.8477    0.2956    
2937.8     2.9715     11.2178    14.5744    10.1108    10.6157    27.5751    9.3693     65.2307    13.0161    0.2883    
2938       2.901      11.2913    15.6684    10.7125    11.493     27.1982    11.5284    62.5519    13.2955    0.2836    
2938.2     2.7889     11.1216    16.7019    11.5637    12.5109    26.0773    14.6441    61.5219    13.6999    0.2755    
