~Version
 VERS              .         2.0                           : CWLS LOG ASCII STANDARD - VERSION 2.0
 WRAP              .         NO                            : ONE LINE PER DEPTH STEP
 DLM               .         SPACE                         : DELIMITING CHARACTER(SPACE TAB OR COMMA)
~Well Information
#_______________________________________________________________________________
#
#PARAMETER_NAME    .UNIT     VALUE                         : DESCRIPTION
#_______________________________________________________________________________
STRT               .m        2657                          : First reference value
STOP               .m        2990                          : Last reference value
STEP               .m        0.2                           : Step increment
NULL               .         -9999                         : Missing value
COMP               .                                       : Company
WELL               .         604                           : Well name
FLD                .                                       : Field
LOC                .                                       : Location
CNTY               .                                       : County
STAT               .                                       : State
CTRY               .                                       : Country
SRVC               .                                       : Service Company
DATE               .                                       : Date
API                .                                       : API number
EREF               .m        134                           : 
X                  .m        225746                        : 
Y                  .m        235643                        : 
group              .         Pad6                          : 
Интер-р            .         Пузин                         : 
Куст               .         6                             : 
Статус             .         Не проверено                  : 
Тип                .         Нагнетательные                : 
~Parameter Information Block
#_______________________________________________________________________________
#
#PARAMETER_NAME    .UNIT     VALUE                         : DESCRIPTION
#_______________________________________________________________________________
SET                .         LAS1                          : 
REAL_CREATION_DATE .         Ср апр 11 2012-13_17_23       : 
TLFamily_DEPTH     .         Measured Depth                : 
TLFamily_GZ1       .         Extra Shallow Resistivity     : 
TLFamily_GZ2       .         Shallow Resistivity           : 
TLFamily_GZ3       .         Medium Resistivity            : 
TLFamily_GZ4       .         Deep Resistivity              : 
TLFamily_GZ5       .         Extra Deep Resistivity        : 
TLFamily_GZr       .         Medium Resistivity Inverted   : 
TLFamily_LLD       .         Lateral Log Resistivity       : 
TLFamily_PS        .         Spontaneous Potential         : 
TLFamily_PZ        .         Potential Resistivity         : 
TLFamily_RS        .         Mud Resistivity               : 
group              .         INI                           : 
~Curve Information
#_______________________________________________________________________________
#
#LOGNAME           .UNIT     LOG_ID                        : DESCRIPTION
#_______________________________________________________________________________
DEPTH              .m                                      : Measured Depth 
GZ1                .ohm.m                                  : Extra Shallow Resistivity 
GZ2                .ohm.m                                  : Shallow Resistivity 
GZ3                .ohm.m                                  : Medium Resistivity 
GZ4                .ohm.m                                  : Deep Resistivity 
GZ5                .ohm.m                                  : Extra Deep Resistivity 
GZr                .ohm.m                                  : Medium Resistivity Inverted 
LLD                .ohm.m                                  : Lateral Log Resistivity 
PS                 .mV                                     : Spontaneous Potential 
PZ                 .ohm.m                                  : Potential Resistivity 
RS                 .ohm.m                                  : Mud Resistivity 
~Ascii
# ...
2764.2     2.8071     7.9997     9.2535     7.5087     3.5437     8.2707     4.2871     103.0177   5.803      0.3107    
2764.4     2.7152     7.7726     9.142      7.4691     3.6288     8.3492     4.5109     102.8457   5.7359     0.3129    
2764.6     2.6953     7.7798     9.1003     7.4618     3.7121     8.3868     4.5149     103.4241   5.6986     0.3063    
2764.8     2.7078     7.7426     9.2226     7.5126     3.8019     8.3928     4.4575     105.0082   5.6658     0.3083    
2765       2.7313     7.7183     9.2133     7.5718     3.901      8.427      4.3821     106.8251   5.6317     0.3108    
2765.2     2.7283     7.5949     9.1277     7.5844     3.9855     8.5112     4.4147     107.5542   5.5901     0.3125    
2765.4     2.7061     7.5465     9.0794     7.5496     4.0538     8.5874     4.3926     107.0866   5.538      0.3108    
2765.6     2.7356     7.6572     9.0428     7.5293     4.0978     8.6361     4.1589     105.9073   5.4876     0.3044    
2765.8     2.7123     7.5377     8.9132     7.461      4.1145     8.76       4.0315     104.5594   5.4424     0.3094    
2766       2.6917     7.4552     8.6678     7.2893     4.1292     9.0058     4.088      104.1017   5.3885     0.3135    
2766.2     2.6618     7.3782     8.456      7.086      4.1025     9.2412     4.119      104.8776   5.3576     0.3109    
2766.4     2.6247     7.2334     8.2399     6.923      4.1131     9.4104     4.142      105.8141   5.3573     0.3099    
2766.6     2.5862     7.0896     8.033      6.7875     4.117      9.5372     4.1367     105.9604   5.3992     0.3083    
2766.8     2.6203     7.0391     7.9035     6.6005     4.1432     9.7658     4.093      105.2011   5.4212     0.3131    
2767       2.6061     6.9576     7.8067     6.4728     4.1831     10.0347    4.306      103.9476   5.4525     0.3122    
2767.2     2.5817     6.8806     7.676      6.3277     4.1982     10.1986    4.3801     103.1158   5.5137     0.3098    
2767.4     2.5571     6.8628     7.5625     6.2064     4.1982     10.2536    4.4221     103.11     5.5905     0.3093    
2767.6     2.5742     6.8783     7.4974     6.1029     4.1982     10.3257    4.4635     103.1107   5.6999     0.3083    
2767.8     2.5944     6.8931     7.47       6.0182     4.185      10.4417    4.7333     102.7002   5.7885     0.3093    
2768       2.5839     6.9099     7.4592     5.9489     4.1879     10.511     5.1045     102.6407   5.8882     0.3101    
2768.2     2.6152     7.0651     7.5212     5.9095     4.185      10.5011    5.0681     103.3356   5.9744     0.3125    
2768.4     2.6864     7.2784     7.6495     5.9028     4.1768     10.4685    5.0355     104.6602   6.0404     0.3108    
2768.6     2.723      7.4015     7.7989     5.8884     4.1836     10.4335    5.065      106.7868   6.0888     0.3134    
2768.8     2.7492     7.5214     7.938      5.9067     4.1956     10.3896    5.0356     109.3846   6.1127     0.3135    
2769       2.7343     7.6279     8.0694     5.9389     4.194      10.3944    4.931      111.5689   6.1271     0.3135    
2769.2     2.763      7.7516     8.2291     5.9711     4.185      10.4706    4.9053     113.1035   6.1107     0.3135    
2769.4     2.7551     7.8088     8.3851     6.003      4.1837     10.5582    4.8919     114.0046   6.0998     0.3185    
2769.6     2.7328     7.8124     8.5265     6.0345     4.1753     10.6577    4.8276     114.0079   6.0998     0.3142    
2769.8     2.7477     7.839      8.6313     6.0661     4.1453     10.8089    4.7146     113.2239   6.1086     0.3183    
2770       2.7087     7.7472     8.6888     6.0807     4.1235     10.9091    4.8724     111.761    6.1293     0.3157    
2770.2     2.6861     7.6628     8.7503     6.1048     4.1111     10.8537    4.9737     109.3391   6.1596     0.3135    
2770.4     2.6643     7.6292     8.8117     6.1495     4.0924     10.6982    5.1821     106.6958   6.2198     0.3159    
2770.6     2.675      7.6276     8.9117     6.2702     4.0941     10.5031    5.2925     105.7103   6.2793     0.3145    
2770.8     2.7261     7.734      9.0242     6.4239     4.1244     10.2496    5.36       107.0725   6.3267     0.3135    
2771       2.789      7.8606     9.1544     6.5787     4.1934     9.9636     5.1417     109.5758   6.3518     0.3135    
2771.2     2.7767     7.899      9.2132     6.7094     4.2597     9.7889     5.121      111.792    6.3849     0.3126    
2771.4     2.739      7.8186     9.1882     6.8162     4.3077     9.7599     5.0778     112.8143   6.4132     0.3102    
2771.6     2.7303     7.8778     9.2062     6.9481     4.4042     9.7981     5.095      112.2924   6.4513     0.3083    
2771.8     2.7046     7.9025     9.3275     7.1777     4.5561     9.8904     5.4331     111.1411   6.4788     0.3083    
2772       2.6977     7.9942     9.6624     7.5908     4.7011     9.9354     7.1124     110.699    6.5037     0.3083    
2772.2     2.8539     8.4894     10.1702    8.0306     4.8165     9.7017     6.1249     110.7353   6.4584     0.3021    
2772.4     3.0282     8.9432     10.5927    8.3745     4.8909     9.3031     5.0399     110.2898   6.3902     0.3031    
2772.6     3.02       8.8155     10.7335    8.4626     4.8696     9.1138     4.8342     109.7763   6.232      0.3031    
2772.8     3.005      8.8452     10.6521    8.3599     4.7602     9.1321     4.5204     109.9161   5.9868     0.3023    
2773       2.8657     8.6766     10.5284    8.2263     4.6415     9.2178     4.3643     110.0011   5.8441     0.2982    
2773.2     2.7632     8.5058     10.2704    8.0094     4.5281     9.3587     4.2871     109.3831   5.7354     0.2979    
2773.4     2.673      8.1687     9.9676     7.7773     4.4139     9.5647     4.1885     108.9696   5.6581     0.2965    
2773.6     2.6189     7.7945     9.6815     7.5659     4.3123     9.8459     4.2256     109.6772   5.5986     0.2969    
2773.8     2.584      7.6096     9.4711     7.4252     4.2285     10.1413    4.2789     111.0169   5.5814     0.3012    
2774       2.5501     7.3797     9.2467     7.2824     4.1561     10.3037    4.3496     111.9292   5.6098     0.3009    
2774.2     2.4893     7.0828     8.992      7.0738     4.1211     10.4046    4.4264     111.6154   5.6647     0.2948    
2774.4     2.4731     7.1417     8.9131     6.9955     4.088      10.6158    4.6025     109.7028   5.6987     0.295     
2774.6     2.5933     7.1883     8.8424     6.9775     4.029      10.7555    4.6391     106.9615   5.7356     0.3037    
2774.8     2.5548     7.108      8.6055     6.9448     3.9961     10.7184    4.6792     104.9705   5.8042     0.3031    
2775       2.5365     7.0652     8.3505     6.7876     3.9492     10.5958    4.7928     104.175    5.9237     0.2985    
2775.2     2.5156     7.0022     8.1386     6.6305     3.8914     10.499     5.0545     103.8229   6.051      0.2979    
2775.4     2.5351     6.9959     8.0806     6.5492     3.8684     10.3969    5.3854     103.7082   6.1396     0.3025    
2775.6     2.6149     7.2509     8.2127     6.5705     3.87       10.293     5.4214     103.9345   6.2056     0.3078    
2775.8     2.6741     7.4804     8.356      6.6609     3.9114     10.2607    5.2638     103.9844   6.2551     0.3031    
2776       2.702      7.6623     8.4992     6.7632     3.962      10.2706    5.3767     103.8306   6.28       0.3028    
2776.2     2.7045     7.7877     8.6507     6.8654     4.0121     10.2302    5.369      104.2259   6.303      0.3001    
2776.4     2.7188     7.8927     8.8203     6.9901     4.0444     10.1465    5.3489     105.0891   6.2891     0.3022    
2776.6     2.7386     8.0089     8.9966     7.0903     4.0899     10.1111    5.3254     105.8519   6.251      0.3031    
2776.8     2.774      8.1631     9.2545     7.1814     4.1194     10.0622    5.0784     106.9505   6.1929     0.3031    
2777       2.7958     8.2585     9.4858     7.2326     4.1321     10.0019    4.8068     108.5054   6.1354     0.3031    
2777.2     2.7453     8.1086     9.5702     7.2269     4.1619     9.9144     4.8988     109.2198   6.0792     0.2994    
2777.4     2.7167     8.0598     9.589      7.2056     4.1798     9.8624     4.5769     108.6977   6.0307     0.3017    
