~Version
 VERS              .         2.0                           : CWLS LOG ASCII STANDARD - VERSION 2.0
 WRAP              .         NO                            : ONE LINE PER DEPTH STEP
 DLM               .         SPACE                         : DELIMITING CHARACTER(SPACE TAB OR COMMA)
~Well Information
#_______________________________________________________________________________
#
#PARAMETER_NAME    .UNIT     VALUE                         : DESCRIPTION
#_______________________________________________________________________________
STRT               .m        2657                          : First reference value
STOP               .m        2990                          : Last reference value
STEP               .m        0.2                           : Step increment
NULL               .         -9999                         : Missing value
COMP               .                                       : Company
WELL               .         604                           : Well name
FLD                .                                       : Field
LOC                .                                       : Location
CNTY               .                                       : County
STAT               .                                       : State
CTRY               .                                       : Country
SRVC               .                                       : Service Company
DATE               .                                       : Date
API                .                                       : API number
EREF               .m        134                           : 
X                  .m        225746                        : 
Y                  .m        235643                        : 
group              .         Pad6                          : 
Интер-р            .         Пузин                         : 
Куст               .         6                             : 
Статус             .         Не проверено                  : 
Тип                .         Нагнетательные                : 
~Parameter Information Block
#_______________________________________________________________________________
#
#PARAMETER_NAME    .UNIT     VALUE                         : DESCRIPTION
#_______________________________________________________________________________
SET                .         LAS1                          : 
REAL_CREATION_DATE .         Ср апр 11 2012-13_17_23       : 
TLFamily_DEPTH     .         Measured Depth                : 
TLFamily_GZ1       .         Extra Shallow Resistivity     : 
TLFamily_GZ2       .         Shallow Resistivity           : 
TLFamily_GZ3       .         Medium Resistivity            : 
TLFamily_GZ4       .         Deep Resistivity              : 
TLFamily_GZ5       .         Extra Deep Resistivity        : 
TLFamily_GZr       .         Medium Resistivity Inverted   : 
TLFamily_LLD       .         Lateral Log Resistivity       : 
TLFamily_PS        .         Spontaneous Potential         : 
TLFamily_PZ        .         Potential Resistivity         : 
TLFamily_RS        .         Mud Resistivity               : 
group              .         INI                           : 
~Curve Information
#_______________________________________________________________________________
#
#LOGNAME           .UNIT     LOG_ID                        : DESCRIPTION
#_______________________________________________________________________________
DEPTH              .m                                      : Measured Depth 
GZ1                .ohm.m                                  : Extra Shallow Resistivity 
GZ2                .ohm.m                                  : Shallow Resistivity 
GZ3                .ohm.m                                  : Medium Resistivity 
GZ4                .ohm.m                                  : Deep Resistivity 
GZ5                .ohm.m                                  : Extra Deep Resistivity 
GZr                .ohm.m                                  : Medium Resistivity Inverted 
LLD                .ohm.m                                  : Lateral Log Resistivity 
PS                 .mV                                     : Spontaneous Potential 
PZ                 .ohm.m                                  : Potential Resistivity 
RS                 .ohm.m                                  : Mud Resistivity 
~Ascii
# ...
2871.4     2.5423     7.6442     9.2249     6.8639     3.5596     15.3472    5.29       82.2489    6.9628     0.2987    
2871.6     2.5683     7.7076     9.4797     7.1544     3.7442     16.0397    5.6379     83.2038    7.1722     0.2979    
2871.8     2.6955     8.0116     9.8673     7.5997     3.9464     16.6448    6.1082     85.2001    7.3421     0.2979    
2872       2.7698     8.2721     10.264     7.9966     4.2066     17.2468    6.0855     87.6469    7.5033     0.3027    
2872.2     2.8229     8.4759     10.4719    8.3552     4.4911     17.8986    5.9617     89.7247    7.6703     0.3019    
2872.4     2.7983     8.5562     10.6207    8.7467     4.8242     18.5866    6.0158     90.3119    7.8559     0.2932    
2872.6     2.8234     8.7334     10.8094    9.2219     5.2603     19.3082    6.5131     89.7333    8.0461     0.2892    
2872.8     2.8591     9.0438     11.1772    9.8566     5.6784     20.0744    6.9175     89.3043    8.2357     0.2881    
2873       2.9582     9.4533     11.7219    10.4621    6.0201     20.6447    7.7432     89.4759    8.3677     0.2875    
2873.2     3.1015     9.9325     12.1585    10.832     6.2188     20.5773    6.807      89.9886    8.5131     0.2875    
2873.4     3.0705     9.8318     12.1865    10.7424    6.2964     19.9563    6.5675     90.5625    8.7319     0.2864    
2873.6     3.0066     9.6911     12.1452    10.4223    6.1973     19.5018    6.4765     90.5876    8.9333     0.281     
2873.8     3.0203     9.8399     12.288     10.272     6.0802     19.3351    6.901      89.6589    9.0587     0.2857    
2874       3.0975     10.1286    12.5885    10.1934    6.0067     19.3389    6.498      88.863     9.1596     0.2876    
2874.2     3.0376     10.0826    12.744     10.1014    5.9427     19.3376    6.7756     89.6221    9.2992     0.2875    
2874.4     3.0733     10.3433    13.0719    10.1184    5.8751     19.0213    7.7987     91.2342    9.4264     0.2883    
2874.6     3.1595     10.6765    13.5746    10.2039    5.833      18.5568    7.7251     92.0057    9.5539     0.2867    
2874.8     3.1987     10.6985    14.0004    10.2261    5.7867     18.1678    7.5015     91.8725    9.646      0.291     
2875       3.2364     10.8365    14.438     10.2796    5.7106     17.916     7.7088     91.453     9.6717     0.2969    
2875.2     3.2819     11.1203    14.9501    10.4164    5.6617     17.5834    7.7454     90.4917    9.691      0.2979    
2875.4     3.2656     11.188     15.4653    10.6302    5.5885     17.3194    7.513      89.0595    9.7238     0.2986    
2875.6     3.3004     11.3504    15.861     10.9134    5.5159     17.0851    7.7277     88.398     9.6957     0.2985    
2875.8     3.3348     11.4816    16.2573    11.2729    5.4601     16.9046    7.6505     89.6823    9.6716     0.3021    
2876       3.3308     11.5346    16.4374    11.5952    5.4332     16.6703    7.5603     92.8404    9.6504     0.3031    
2876.2     3.2803     11.4174    16.5376    11.8976    5.4281     16.5105    7.3813     96.4122    9.6117     0.3043    
2876.4     3.3537     11.6551    16.7829    12.276     5.4281     16.5211    7.5488     98.2092    9.5307     0.2979    
2876.6     3.3795     11.7828    17.1452    12.8036    5.4718     16.4552    7.8177     97.1093    9.4429     0.3042    
2876.8     3.3293     11.6328    17.31      13.275     5.5298     16.4537    7.7003     94.6033    9.3784     0.3066    
2877       3.3822     11.8214    17.3922    13.7646    5.6051     16.7753    6.9354     93.1829    9.2351     0.3031    
2877.2     3.4077     11.8682    17.4919    14.3253    5.7059     17.3169    6.746      93.2312    9.075      0.3004    
2877.4     3.3149     11.5873    17.3725    14.8366    5.8187     17.959     6.2177     93.4206    8.9793     0.3038    
2877.6     3.232      11.3407    17.0068    15.1554    6.0164     18.7709    6.1431     93.449     8.9364     0.2989    
2877.8     3.1323     11.0004    16.7504    15.4942    6.28       19.6909    6.0171     94.0586    8.95       0.2927    
2878       3.0824     10.7459    16.8233    16.0544    6.4711     20.5739    6.6318     95.2169    8.994      0.2927    
2878.2     3.0987     10.9012    16.9121    16.6387    6.5822     20.947     7.3665     96.2549    9.0688     0.2896    
2878.4     3.1577     10.7718    16.6924    16.7081    6.6137     20.8292    7.0068     96.9214    9.2236     0.2897    
2878.6     3.0939     10.4617    16.1083    16.2346    6.5029     20.4578    7.0112     96.9492    9.4122     0.288     
2878.8     3.1024     10.4475    15.825     15.9667    6.2805     20.2065    7.5453     96.0877    9.5654     0.2905    
2879       3.1635     10.5615    15.6267    15.7641    6.1476     19.9618    7.8117     95.4532    9.7118     0.2884    
2879.2     3.2078     10.6669    15.4375    15.5662    6.0797     19.8472    7.694      96.3114    9.8186     0.2927    
2879.4     3.243      10.9029    15.4004    15.4743    6.0628     19.868     7.7164     97.5497    9.9036     0.2914    
2879.6     3.2607     11.0566    15.5028    15.5097    6.0628     19.9414    7.9309     97.4886    9.969      0.2917    
2879.8     3.3105     11.3787    15.7089    15.5387    6.1366     19.9383    8.3344     96.7228    10.0034    0.2927    
2880       3.3519     11.5797    16.0157    15.5114    6.2337     19.8714    8.0337     96.5328    10.0488    0.2978    
2880.2     3.3691     11.6753    16.3063    15.4942    6.3339     19.907     7.9086     96.8252    10.0818    0.2979    
2880.4     3.3495     11.6665    16.6546    15.4405    6.4298     20.0264    8.0043     97.0512    10.118     0.3029    
2880.6     3.3793     11.791     17.0296    15.3377    6.5613     20.1033    8.2887     97.0982    10.1235    0.3023    
2880.8     3.383      11.8507    17.3751    15.3431    6.6875     20.0233    8.1218     96.7908    10.1375    0.3031    
2881       3.388      11.9078    17.602     15.3083    6.7785     19.9956    8.1361     95.8017    10.1331    0.3043    
2881.2     3.3687     11.8631    17.6145    15.0893    6.8629     19.85      7.87       94.385     10.1395    0.3067    
2881.4     3.3501     11.782     17.4961    14.8276    6.9753     19.5602    8.0767     93.6039    10.1348    0.3042    
2881.6     3.3075     11.7286    17.4863    14.7487    7.1197     19.2334    8.2782     94.4659    10.1452    0.3031    
2881.8     3.3389     11.8306    17.5988    14.8526    7.2502     19.1263    8.329      96.7502    10.1092    0.2981    
2882       3.368      11.8892    17.6999    15.0318    7.4024     19.2141    7.7774     98.812     10.0498    0.3031    
2882.2     3.3501     11.8893    17.7788    15.2703    7.5102     19.515     7.5366     99.2219    10.0044    0.307     
2882.4     3.3036     11.7935    17.6048    15.5233    7.6255     20.0777    7.1784     98.2401    10.0131    0.3031    
2882.6     3.1498     11.4454    17.341     15.7241    7.8195     20.8518    6.856      96.6792    10.0733    0.2944    
2882.8     3.1182     11.2428    17.2332    15.978     8.0581     21.6479    7.6894     94.4113    10.1384    0.2914    
2883       3.1947     11.3959    17.591     16.7126    8.3702     22.1812    9.781      91.2648    10.2266    0.2875    
2883.2     3.3177     11.8612    18.1043    17.5439    8.761      22.3796    9.7639     88.2821    10.2829    0.2884    
2883.4     3.3883     12.0297    18.6258    18.2772    9.1524     22.6992    8.9889     86.8117    10.288     0.2891    
2883.6     3.4327     12.2774    19.168     18.9718    9.3399     22.9769    8.6126     86.7477    10.2175    0.2875    
2883.8     3.4708     12.4691    19.3784    19.287     9.337      22.6994    8.9247     86.8354    10.171     0.2875    
2884       3.3891     12.2193    18.978     18.9335    9.1041     21.8713    8.0505     86.8059    10.1689    0.2875    
2884.2     3.3341     11.932     18.2205    18.0656    8.7197     21.2413    7.7918     87.2556    10.1857    0.2875    
2884.4     3.2233     11.5447    17.3343    17.3979    8.3137     21.2369    7.465      87.387     10.1961    0.2912    
2884.6     3.1898     11.3109    17.0465    16.9256    8.0176     21.6492    7.6236     86.0189    10.2188    0.2875    
