~Version
 VERS              .         2.0                           : CWLS LOG ASCII STANDARD - VERSION 2.0
 WRAP              .         NO                            : ONE LINE PER DEPTH STEP
 DLM               .         SPACE                         : DELIMITING CHARACTER(SPACE TAB OR COMMA)
~Well Information
#_______________________________________________________________________________
#
#PARAMETER_NAME    .UNIT     VALUE                         : DESCRIPTION
#_______________________________________________________________________________
STRT               .m        2657                          : First reference value
STOP               .m        2990                          : Last reference value
STEP               .m        0.2                           : Step increment
NULL               .         -9999                         : Missing value
COMP               .                                       : Company
WELL               .         604                           : Well name
FLD                .                                       : Field
LOC                .                                       : Location
CNTY               .                                       : County
STAT               .                                       : State
CTRY               .                                       : Country
SRVC               .                                       : Service Company
DATE               .                                       : Date
API                .                                       : API number
EREF               .m        134                           : 
X                  .m        225746                        : 
Y                  .m        235643                        : 
group              .         Pad6                          : 
Интер-р            .         Пузин                         : 
Куст               .         6                             : 
Статус             .         Не проверено                  : 
Тип                .         Нагнетательные                : 
~Parameter Information Block
#_______________________________________________________________________________
#
#PARAMETER_NAME    .UNIT     VALUE                         : DESCRIPTION
#_______________________________________________________________________________
SET                .         LAS1                          : 
REAL_CREATION_DATE .         Ср апр 11 2012-13_17_23       : 
TLFamily_DEPTH     .         Measured Depth                : 
TLFamily_GZ1       .         Extra Shallow Resistivity     : 
TLFamily_GZ2       .         Shallow Resistivity           : 
TLFamily_GZ3       .         Medium Resistivity            : 
TLFamily_GZ4       .         Deep Resistivity              : 
TLFamily_GZ5       .         Extra Deep Resistivity        : 
TLFamily_GZr       .         Medium Resistivity Inverted   : 
TLFamily_LLD       .         Lateral Log Resistivity       : 
TLFamily_PS        .         Spontaneous Potential         : 
TLFamily_PZ        .         Potential Resistivity         : 
TLFamily_RS        .         Mud Resistivity               : 
group              .         INI                           : 
~Curve Information
#_______________________________________________________________________________
#
#LOGNAME           .UNIT     LOG_ID                        : DESCRIPTION
#_______________________________________________________________________________
DEPTH              .m                                      : Measured Depth 
GZ1                .ohm.m                                  : Extra Shallow Resistivity 
GZ2                .ohm.m                                  : Shallow Resistivity 
GZ3                .ohm.m                                  : Medium Resistivity 
GZ4                .ohm.m                                  : Deep Resistivity 
GZ5                .ohm.m                                  : Extra Deep Resistivity 
GZr                .ohm.m                                  : Medium Resistivity Inverted 
LLD                .ohm.m                                  : Lateral Log Resistivity 
PS                 .mV                                     : Spontaneous Potential 
PZ                 .ohm.m                                  : Potential Resistivity 
RS                 .ohm.m                                  : Mud Resistivity 
~Ascii
# ...
2858       2.5165     7.3015     8.5746     6.8888     4.4329     9.9594     4.5397     81.5748    5.8824     0.2979    
2858.2     2.5173     7.4389     8.5933     6.9794     4.4188     9.9916     5.3382     87.2755    5.937      0.2979    
2858.4     2.644      7.66       8.7985     7.1447     4.3849     9.8059     4.9315     91.3997    5.9809     0.2918    
2858.6     2.7661     7.8282     8.8812     7.1301     4.3453     9.4646     4.7253     93.489     5.9825     0.2927    
2858.8     2.7792     7.7694     8.871      7.0258     4.2637     9.2465     4.29       93.146     5.9367     0.2919    
2859       2.7231     7.6793     8.7189     6.883      4.2016     9.1896     4.0584     90.3106    5.9029     0.2875    
2859.2     2.6593     7.6173     8.6029     6.7813     4.1661     9.3276     4.0744     86.6608    5.8545     0.2833    
2859.4     2.6221     7.6362     8.5736     6.7742     4.1888     9.5692     4.0913     83.8505    5.8261     0.2867    
2859.6     2.6113     7.6366     8.6621     6.8697     4.2639     9.8683     4.1321     82.2696    5.8127     0.2883    
2859.8     2.6092     7.624      8.7306     6.9603     4.3712     10.1127    4.3196     82.1542    5.8284     0.2875    
2860       2.5889     7.4898     8.7896     7.0547     4.4607     10.2       4.4187     83.895     5.89       0.2862    
2860.2     2.6076     7.434      8.8508     7.1156     4.5255     10.1472    4.4572     87.0286    5.9634     0.2832    
2860.4     2.6553     7.4593     8.9988     7.1867     4.5935     10.1813    4.5367     90.1817    6.01       0.2848    
2860.6     2.6692     7.4804     9.1141     7.2561     4.6268     10.235     4.5393     92.2147    6.0496     0.2875    
2860.8     2.7045     7.5859     9.1321     7.3241     4.6502     10.1968    4.6964     92.6605    6.0873     0.2846    
2861       2.7313     7.7192     9.1269     7.3669     4.6539     10.0994    4.6879     91.6057    6.1055     0.2874    
2861.2     2.7472     7.8288     9.0137     7.2995     4.6401     10.0255    4.5514     90.2751    6.1271     0.2897    
2861.4     2.7173     7.7311     8.9313     7.2359     4.6189     10.1243    4.4226     90.3883    6.1249     0.2868    
2861.6     2.7627     7.9119     8.8808     7.2154     4.5922     10.3162    4.411      91.7304    6.0821     0.291     
2861.8     2.7501     7.944      8.9489     7.2254     4.5949     10.457     4.4242     92.317     6.0608     0.2889    
2862       2.7082     7.9269     8.9739     7.1902     4.5728     10.5471    4.8917     91.5039    6.0688     0.2914    
2862.2     2.7137     7.9164     9.1015     7.157      4.5003     10.502     4.8517     90.5133    6.0337     0.2962    
2862.4     2.7987     8.0473     9.1661     7.0954     4.3865     10.3707    4.161      90.2168    6.0211     0.2953    
2862.6     2.7172     7.7146     9.0371     6.856      4.2642     10.2947    4.271      90.6502    6.0178     0.2927    
2862.8     2.6462     7.5971     8.8301     6.603      4.118      10.2408    4.4876     91.5488    6.0212     0.2979    
2863       2.6392     7.536      8.6802     6.3381     3.9735     10.4026    4.2498     91.8728    6.0451     0.2979    
2863.2     2.6268     7.476      8.6185     6.2296     3.9425     10.6184    4.3008     90.5667    6.0557     0.3022    
2863.4     2.5983     7.4126     8.5554     6.1692     3.9659     10.8966    4.3497     88.6365    6.0731     0.3044    
2863.6     2.5575     7.367      8.4795     6.1693     4.0613     11.2177    4.2497     88.4665    6.1371     0.3018    
2863.8     2.5303     7.3025     8.5145     6.2547     4.2422     11.6128    4.2777     90.7115    6.1988     0.3026    
2864       2.5169     7.3513     8.6388     6.5114     4.4954     12.0094    4.5311     94.0555    6.3013     0.3041    
2864.2     2.527      7.4594     8.9098     6.9479     4.8071     12.4739    4.7142     97.4453    6.4085     0.3005    
2864.4     2.6477     7.8781     9.5995     7.5061     5.0981     12.6905    5.2527     100.1039   6.4923     0.3068    
2864.6     2.7483     8.1015     9.8999     7.987      5.3582     12.6591    5.1873     100.8865   6.6199     0.3031    
2864.8     2.7422     8.0574     9.8864     8.2361     5.5493     12.4925    4.9636     99.7367    6.7707     0.3031    
2865       2.6956     7.9247     9.7982     8.2868     5.6185     12.417     5.178      97.9522    6.8877     0.3031    
2865.2     2.8017     8.2935     9.8298     8.3845     5.6595     12.3643    5.4752     96.171     6.981      0.3031    
2865.4     2.8432     8.5005     9.9596     8.5252     5.6999     12.2328    5.5009     94.1529    7.0787     0.302     
2865.6     2.8446     8.6354     10.0781    8.6454     5.7388     12.0154    5.7364     92.5911    7.1412     0.2979    
2865.8     3.0013     9.1269     10.3804    8.7574     5.7166     11.6986    6.3834     92.9698    7.1135     0.2951    
2866       3.0988     9.4633     10.6898    8.9252     5.627      11.2188    5.9362     95.1693    7.0679     0.2934    
2866.2     3.1588     9.5708     10.8111    8.8728     5.5044     10.8662    5.5649     96.9657    6.962      0.2888    
2866.4     3.0831     9.4921     10.8747    8.5824     5.3145     10.6356    5.0221     96.6757    6.8055     0.2904    
2866.6     3.0976     9.5977     10.9544    8.315      5.0983     10.4569    5.0594     94.7382    6.655      0.2877    
2866.8     2.9784     9.3244     10.8068    7.9631     4.8847     10.3603    4.6259     92.4914    6.5678     0.2912    
2867       2.8359     8.8131     10.5767    7.5841     4.7319     10.5266    4.1831     91.0039    6.5381     0.2875    
2867.2     2.7457     8.5159     10.4899    7.4168     4.6191     10.8982    4.2858     90.5484    6.5032     0.2887    
2867.4     2.7537     8.5016     10.6443    7.4303     4.5304     11.1069    4.8667     90.2461    6.4838     0.2927    
2867.6     2.7983     8.4881     10.753     7.4337     4.5074     11.2484    4.966      89.2461    6.5208     0.2927    
2867.8     2.7816     8.2981     10.7581    7.4704     4.5547     11.3815    4.6369     87.9491    6.5914     0.2902    
2868       2.7714     8.2203     10.9009    7.6594     4.584      11.4888    5.5828     87.1323    6.5818     0.2876    
2868.2     2.9044     8.5604     11.0279    7.8601     4.6092     11.4937    5.3642     87.3645    6.5807     0.2903    
2868.4     2.8877     8.5032     11.0076    7.9852     4.6332     11.5232    4.7072     89.2044    6.5906     0.2927    
2868.6     2.9027     8.5713     10.7917    8.0877     4.6102     11.5208    5.0915     91.7268    6.5504     0.2903    
2868.8     2.8775     8.5359     10.6083    8.158      4.5171     11.5476    4.8802     92.449     6.5743     0.2922    
2869       2.8519     8.4265     10.3524    8.1149     4.4263     11.6272    4.8649     90.7221    6.5783     0.2884    
2869.2     2.8478     8.4323     10.1175    8.0753     4.3128     11.7921    4.9183     88.3905    6.5792     0.2927    
2869.4     2.8152     8.3421     9.9529     8.0023     4.1949     11.966     4.8765     86.7488    6.6005     0.2963    
2869.6     2.8233     8.3197     9.8714     7.9618     4.0803     12.1687    4.8441     86.4078    6.618      0.2949    
2869.8     2.7998     8.3083     9.8781     7.9379     3.974      12.3307    4.9661     88.4639    6.6079     0.3018    
2870       2.8314     8.3862     9.9105     7.9234     3.863      12.4018    5.3379     92.2843    6.6193     0.2988    
2870.2     2.8567     8.4385     9.97       7.8389     3.7634     12.3988    5.2565     95.0026    6.5985     0.3027    
2870.4     2.875      8.4686     9.9135     7.6306     3.662      12.4895    4.9419     95.2081    6.5783     0.3031    
2870.6     2.7759     8.2082     9.7041     7.3541     3.5169     12.8603    4.476      93.7375    6.5624     0.3031    
2870.8     2.7126     8.1159     9.5197     7.0952     3.4306     13.3446    4.6121     90.9729    6.5606     0.2993    
2871       2.633      7.8656     9.3565     6.924      3.4023     13.8666    4.4092     87.0145    6.6563     0.3009    
2871.2     2.5531     7.6854     9.1864     6.8156     3.4438     14.5675    4.6658     83.4872    6.7861     0.3029    
