~Version
 VERS              .         2.0                           : CWLS LOG ASCII STANDARD - VERSION 2.0
 WRAP              .         NO                            : ONE LINE PER DEPTH STEP
 DLM               .         SPACE                         : DELIMITING CHARACTER(SPACE TAB OR COMMA)
~Well Information
#_______________________________________________________________________________
#
#PARAMETER_NAME    .UNIT     VALUE                         : DESCRIPTION
#_______________________________________________________________________________
STRT               .m        2657                          : First reference value
STOP               .m        2990                          : Last reference value
STEP               .m        0.2                           : Step increment
NULL               .         -9999                         : Missing value
COMP               .                                       : Company
WELL               .         604                           : Well name
FLD                .                                       : Field
LOC                .                                       : Location
CNTY               .                                       : County
STAT               .                                       : State
CTRY               .                                       : Country
SRVC               .                                       : Service Company
DATE               .                                       : Date
API                .                                       : API number
EREF               .m        134                           : 
X                  .m        225746                        : 
Y                  .m        235643                        : 
group              .         Pad6                          : 
Интер-р            .         Пузин                         : 
Куст               .         6                             : 
Статус             .         Не проверено                  : 
Тип                .         Нагнетательные                : 
~Parameter Information Block
#_______________________________________________________________________________
#
#PARAMETER_NAME    .UNIT     VALUE                         : DESCRIPTION
#_______________________________________________________________________________
SET                .         LAS1                          : 
REAL_CREATION_DATE .         Ср апр 11 2012-13_17_23       : 
TLFamily_DEPTH     .         Measured Depth                : 
TLFamily_GZ1       .         Extra Shallow Resistivity     : 
TLFamily_GZ2       .         Shallow Resistivity           : 
TLFamily_GZ3       .         Medium Resistivity            : 
TLFamily_GZ4       .         Deep Resistivity              : 
TLFamily_GZ5       .         Extra Deep Resistivity        : 
TLFamily_GZr       .         Medium Resistivity Inverted   : 
TLFamily_LLD       .         Lateral Log Resistivity       : 
TLFamily_PS        .         Spontaneous Potential         : 
TLFamily_PZ        .         Potential Resistivity         : 
TLFamily_RS        .         Mud Resistivity               : 
group              .         INI                           : 
~Curve Information
#_______________________________________________________________________________
#
#LOGNAME           .UNIT     LOG_ID                        : DESCRIPTION
#_______________________________________________________________________________
DEPTH              .m                                      : Measured Depth 
GZ1                .ohm.m                                  : Extra Shallow Resistivity 
GZ2                .ohm.m                                  : Shallow Resistivity 
GZ3                .ohm.m                                  : Medium Resistivity 
GZ4                .ohm.m                                  : Deep Resistivity 
GZ5                .ohm.m                                  : Extra Deep Resistivity 
GZr                .ohm.m                                  : Medium Resistivity Inverted 
LLD                .ohm.m                                  : Lateral Log Resistivity 
PS                 .mV                                     : Spontaneous Potential 
PZ                 .ohm.m                                  : Potential Resistivity 
RS                 .ohm.m                                  : Mud Resistivity 
~Ascii
# ...
2750.8     -0.1286    -0.0636    -0.0708    -0.1854    -0.2334    0.0121     -3.3036    -9999      -0.0265    0.2309    
2751       -0.1246    -0.0745    -0.0753    -0.1854    -0.2448    0.0202     -5.3315    -9999      -0.0349    0.2347    
2751.2     -0.134     -0.0744    -0.0739    -0.197     -0.232     0.017      -5.5339    -9999      -0.0345    0.2329    
2751.4     -0.1321    -0.0689    -0.0703    -0.188     -0.2362    0.0095     -5.3669    -9999      -0.0283    0.2359    
2751.6     -0.1255    -0.0649    -0.0797    -0.1919    -0.2267    0.0182     -2.9237    -9999      -0.0328    0.2394    
2751.8     -0.132     -0.0742    -0.0817    -0.1864    -0.2302    0.0168     -1.0633    396.7414   -0.0307    0.2377    
2752       -0.1287    -0.0705    -0.0703    -0.1908    -0.232     0.0134     -0.9475    393.6808   -0.0367    0.2364    
2752.2     -0.1351    -0.0658    -0.0707    -0.1906    -0.236     0.0208     -0.7902    386.0341   -0.0294    0.2398    
2752.4     -0.136     -0.0722    -0.0811    -0.1942    -0.2392    0.0156     -0.931     372.6423   -0.0349    0.2472    
2752.6     -0.1339    -0.069     -0.0703    -0.1994    -0.2346    0.0228     -1.006     354.2668   -0.0285    0.2415    
2752.8     -0.1253    -0.0753    -0.0803    -0.188     -0.2429    0.0779     -0.4939    333.5138   -0.039     0.2348    
2753       -0.1366    -0.0662    -0.0771    -0.1938    -0.2846    1.2561     -2.6079    311.823    -0.039     0.2134    
2753.2     -0.1366    -0.0691    -0.0835    -0.2084    -0.3555    8.0672     -3.5177    287.2515   -0.0296    0.2276    
2753.4     -0.128     -0.0698    -0.0934    -0.2249    -0.4266    13.0134    -76.4242   258.3338   -0.0278    0.2222    
2753.6     -0.1248    -0.0768    -0.0839    -0.2596    -0.4709    20.1407    -202.2661  228.9425   -0.0123    0.2575    
2753.8     -0.1308    -0.0768    -0.0912    -0.2482    -0.5033    24.8094    -203.0003  205.2584   0.8628     0.2666    
2754       0.2534     -0.0744    -0.0921    -0.236     -0.4851    21.4625    -173.4257  188.9698   2.6107     0.2739    
2754.2     1.142      -0.0652    -0.0827    -0.2238    -0.4441    18.9462    -185.118   176.9061   3.7565     0.2781    
2754.4     1.6405     -0.065     -0.073     -0.2194    -0.4271    17.1462    -202.1556  166.2801   4.5151     0.2823    
2754.6     1.9983     0.9592     -0.0835    -0.2189    -0.3986    15.8591    -202.7515  156.8084   5.0469     0.2868    
2754.8     2.2381     3.3239     -0.0835    -0.2112    -0.3795    14.8133    -204.3005  148.7861   5.4928     0.2944    
2755       2.4271     4.8008     -0.0727    -0.2112    -0.3642    13.9419    -207.3494  142.4958   5.8883     0.292     
2755.2     2.5837     5.7847     -0.0835    -0.2094    -0.3423    13.332     -205.9245  138.1701   6.1223     0.2882    
2755.4     2.6893     6.4605     -0.0703    -0.209     -0.3378    12.8963    -150.7416  134.8229   6.2406     0.3031    
2755.6     2.737      7.0574     -0.0581    -0.2006    -0.3314    12.6735    -22.1148   131.2525   6.2874     0.309     
2755.8     2.7045     7.5436     1.1324     -0.1983    -0.327     12.5448    -15.9705   127.5801   6.3167     0.3183    
2756       2.7154     7.75       3.7662     -0.1998    -0.3202    12.5058    -2.7935    123.951    6.3316     0.3135    
2756.2     2.7239     7.9403     5.4947     -0.1989    -0.3113    12.4687    -2.0278    120.2856   6.3556     0.3204    
2756.4     2.7429     7.8796     6.6821     -0.1983    -0.3062    12.3993    2.1053     117.5466   6.4082     0.3185    
2756.6     2.7189     7.8982     7.4889     -0.1983    -0.3048    12.2725    4.1704     116.3037   6.4646     0.3204    
2756.8     2.734      7.8869     8.1476     -0.1983    -0.3096    12.1309    4.7742     115.6317   6.4979     0.3187    
2757       2.7447     7.9449     8.7911     -0.1983    -0.3013    12.0138    4.9362     115.0139   6.563      0.3155    
2757.2     2.7417     7.9703     9.1737     -0.1983    -0.3013    11.8278    4.8707     114.8177   6.6366     0.3148    
2757.4     2.7655     8.022      9.3371     -0.1947    -0.3121    11.7704    4.9        114.7757   6.7012     0.3168    
2757.6     2.7307     7.9634     9.4962     -0.1894    -0.2981    11.872     5.216      114.0464   6.7883     0.3136    
2757.8     2.7102     7.9785     9.6164     0.6992     -0.3113    11.9953    5.6325     112.2817   6.8667     0.3142    
2758       2.7596     8.1903     9.7907     2.7499     -0.3113    12.0721    6.1797     109.9799   6.9625     0.3187    
2758.2     2.8251     8.4264     10.2024    4.2928     -0.3113    11.9148    6.2352     108.3551   7.0374     0.3164    
2758.4     2.9216     8.7112     10.6316    5.5111     -0.304     11.6263    6.0071     108.044    7.0926     0.3153    
2758.6     3.0305     8.9791     11.0677    6.4883     -0.2981    11.2736    5.7976     107.9154   7.062      0.3165    
2758.8     3.1381     9.3245     11.3466    7.3208     -0.305     10.8406    5.4781     107.0266   6.9717     0.3187    
2759       3.1207     9.3823     11.3434    7.8497     -0.2952    10.3678    5.0243     106.4617   6.9155     0.3145    
2759.2     3.0413     9.2137     11.2032    8.0025     -0.2877    10.0223    4.8389     107.0746   6.8336     0.3182    
2759.4     3.0446     9.2695     11.0626    8.091      -0.292     9.9458     4.8763     107.8901   6.7047     0.3181    
2759.6     2.938      8.9966     10.9611    8.144      -0.2946    9.9372     4.9008     107.9836   6.6027     0.3135    
2759.8     2.9138     8.9761     10.8927    8.1494     -0.2885    10.0042    4.7309     107.3914   6.5119     0.3185    
2760       2.8972     8.9497     10.934     8.2119     -0.2883    10.1467    5.4234     106.4635   6.4573     0.314     
2760.2     2.8835     8.7961     11.0079    8.231      -0.2899    9.9179     4.7962     105.7224   6.3749     0.3187    
2760.4     2.9183     8.7615     11.0922    8.203      -0.2894    9.8044     4.5464     105.2483   6.3391     0.314     
2760.6     2.8998     8.5741     10.9571    8.0943     -0.2849    9.8947     4.5141     104.6756   6.2989     0.3178    
2760.8     2.8819     8.4048     10.805     8.0218     -0.2941    10.0075    4.8063     104.3779   6.1994     0.3149    
2761       2.8247     8.3287     10.6182    7.9215     -0.2849    9.9519     4.8755     104.7679   6.1377     0.3124    
2761.2     2.7758     8.1844     10.429     7.8152     -0.2849    9.7719     4.8082     105.1131   6.1251     0.3092    
2761.4     2.7877     8.1809     10.1419    7.6893     -0.2849    9.6266     4.5898     104.8871   6.108      0.313     
2761.6     2.7791     8.0314     9.892      7.585      -0.2918    9.5374     4.4557     104.3907   6.0635     0.3052    
2761.8     2.7402     7.9003     9.5955     7.4358     -0.2732    9.4501     4.3645     103.4989   6.0471     0.3034    
2762       2.6514     7.6966     9.4119     7.3949     -0.0758    9.5336     4.5993     102.2337   6.0257     0.2932    
2762.2     2.7228     8.0165     9.3873     7.4741     0.757      9.6398     4.5498     101.5228   5.9688     0.299     
2762.4     2.7178     7.8329     9.4416     7.5705     1.3999     9.5836     4.8702     101.7212   5.9556     0.3083    
2762.6     2.6469     7.6091     9.2795     7.4824     1.8694     9.3497     4.8792     102.4066   6.0298     0.3083    
2762.8     2.6501     7.5895     9.0636     7.4274     2.2443     9.1607     4.8981     103.5214   6.101      0.3038    
2763       2.7401     7.5562     9.0935     7.5011     2.5423     9.0851     4.9145     104.8217   6.0897     0.3083    
2763.2     2.7768     7.7573     9.235      7.5969     2.8677     8.9967     4.9045     105.677    6.0565     0.3131    
2763.4     2.7733     7.8102     9.3121     7.6138     3.1579     8.8029     4.8907     106.1178   6.035      0.3127    
2763.6     2.756      7.907      9.2669     7.5555     3.345      8.5503     4.9071     106.2392   6.0238     0.3085    
2763.8     2.7573     7.8767     9.2558     7.5252     3.449      8.3728     4.8431     105.4626   5.9695     0.3055    
2764       2.851      8.0794     9.2611     7.5112     3.4916     8.2353     4.1596     104.0022   5.8667     0.3134    
