~Version
 VERS              .         2.0                           : CWLS LOG ASCII STANDARD - VERSION 2.0
 WRAP              .         NO                            : ONE LINE PER DEPTH STEP
 DLM               .         SPACE                         : DELIMITING CHARACTER(SPACE TAB OR COMMA)
~Well Information
#_______________________________________________________________________________
#
#PARAMETER_NAME    .UNIT     VALUE                         : DESCRIPTION
#_______________________________________________________________________________
STRT               .m        2511                          : First reference value
STOP               .m        2677                          : Last reference value
STEP               .m        0.2                           : Step increment
NULL               .         -9999                         : Missing value
COMP               .                                       : Company
WELL               .         605                           : Well name
FLD                .                                       : Field
LOC                .                                       : Location
CNTY               .                                       : County
STAT               .                                       : State
CTRY               .                                       : Country
SRVC               .                                       : Service Company
DATE               .                                       : Date
API                .                                       : API number
EREF               .m        134                           : 
X                  .m        225746                        : 
Y                  .m        235643                        : 
group              .         Pad6                          : 
Интер-р            .         Пузин                         : 
Куст               .         6                             : 
Статус             .         Не проверено                  : 
Тип                .         Эксплуатация                  : 
~Parameter Information Block
#_______________________________________________________________________________
#
#PARAMETER_NAME    .UNIT     VALUE                         : DESCRIPTION
#_______________________________________________________________________________
SET                .         LAS3                          : 
REAL_CREATION_DATE .         Ср апр 11 2012-13_17_23       : 
TLFamily_DEPTH     .         Measured Depth                : 
TLFamily_KS        .         Potential Resistivity         : 
TLFamily_KS1       .         Extra Shallow Resistivity     : 
TLFamily_KS2       .         Shallow Resistivity           : 
TLFamily_KS3       .         Medium Resistivity            : 
TLFamily_KS4       .         Deep Resistivity              : 
TLFamily_KS5       .         Extra Deep Resistivity        : 
TLFamily_LLD       .         Lateral Log Resistivity       : 
TLFamily_OKS3      .         Medium Resistivity Inverted   : 
TLFamily_RM        .         Mud Resistivity               : 
TLFamily_SP        .         Spontaneous Potential         : 
group              .         INI                           : 
~Curve Information
#_______________________________________________________________________________
#
#LOGNAME           .UNIT     LOG_ID                        : DESCRIPTION
#_______________________________________________________________________________
DEPTH              .m                                      : Measured Depth 
KS                 .ohm.m                                  : Potential Resistivity 
KS1                .ohm.m                                  : Extra Shallow Resistivity 
KS2                .ohm.m                                  : Shallow Resistivity 
KS3                .ohm.m                                  : Medium Resistivity 
KS4                .ohm.m                                  : Deep Resistivity 
KS5                .ohm.m                                  : Extra Deep Resistivity 
LLD                .ohm.m                                  : Lateral Log Resistivity 
OKS3               .ohm.m                                  : Medium Resistivity Inverted 
RM                 .ohm.m                                  : Mud Resistivity 
SP                 .mV                                     : Spontaneous Potential 
~Ascii
# ...
2524.4     6.4312     2.1837     6.9202     13.9571    12.0104    7.7217     5.9188     12.4665    0.283      40.9698   
2524.6     6.4312     2.3285     7.042      13.9435    12.0285    7.5762     4.811      12.4183    0.284      41.8748   
2524.8     6.4234     2.2258     6.6313     13.3416    11.6504    7.431      4.6135     12.6491    0.284      40.9237   
2525       6.4312     2.1248     6.3777     12.4339    11.1573    7.2842     4.5095     13.034     0.29       40.3737   
2525.2     6.4924     2.0808     6.2119     11.6057    10.8673    7.1873     4.4811     13.7088    0.29       39.8933   
2525.4     6.6204     1.9593     6.0464     10.9151    10.7788    7.2154     4.5557     14.4139    0.29       39.4433   
2525.6     6.8224     1.9261     6.0898     10.4837    10.9568    7.3596     6.028      14.8013    0.289      39.4337   
2525.8     7.0387     2.0079     6.223      10.4943    11.3497    7.5427     6.6374     14.6797    0.289      39.716    
2526       7.1166     2.1236     6.4746     10.7693    11.8167    7.7578     7.0468     14.5645    0.296      38.4826   
2526.2     7.1975     2.2096     6.7476     11.1465    12.33      7.9458     6.6569     14.576     0.302      38.9671   
2526.4     7.2301     2.2292     6.909      11.5581    12.6908    8.0454     6.272      14.5248    0.302      39.9018   
2526.6     7.2415     2.2984     7.2782     11.5982    12.6333    8.0878     6.0881     14.4845    0.299      40.1136   
2526.8     7.357      2.1867     6.9812     11.3522    12.2782    8.1407     5.2849     14.5645    0.302      39.3185   
2527       7.5231     2.0889     6.7721     11.1224    11.8789    8.1939     5.9667     14.9642    0.301      40.2385   
2527.2     7.7108     2.0493     6.7182     11.1407    11.8309    8.257      10.5494    15.3157    0.301      39.8588   
2527.4     7.7982     2.164      7.0757     11.7022    12.1188    8.3244     11.6308    15.0563    0.301      39.0327   
2527.6     7.8678     2.4237     7.8403     12.5569    12.2447    8.4056     7.6045     14.1757    0.307      37.5499   
2527.8     7.8758     2.4959     7.765      13.1022    11.9812    8.4474     5.8412     13.3343    0.297      38.8538   
2528       7.8191     2.5243     7.9148     13.1082    11.5702    8.3973     5.5927     13.1289    0.301      37.8269   
2528.2     7.6982     2.4027     7.732      13.1569    11.471     8.3367     6.5702     13.3979    0.296      36.7187   
2528.4     7.6281     2.3187     7.8857     13.2715    11.6816    8.289      6.8194     13.6932    0.296      37.7389   
2528.6     7.6029     2.3436     8.0235     13.4331    11.6591    8.2366     5.8946     13.826     0.297      37.4758   
2528.8     7.6029     2.3705     7.9672     13.3861    11.4524    8.1704     5.5976     13.8819    0.297      38.3067   
2529       7.6029     2.303      7.504      13.0955    11.2528    8.0774     5.937      14.0461    0.296      34.3444   
2529.2     7.6559     2.2357     7.2594     12.9572    11.1118    7.996      6.4019     14.1378    0.293      34.0225   
2529.4     7.7026     2.1575     7.0921     12.9749    11.1395    8.0157     6.4722     14.216     0.296      32.4942   
2529.6     7.7988     2.1799     7.1748     13.1415    11.3772    8.2125     6.4746     14.2752    0.296      31.8174   
2529.8     7.816      2.2067     7.2032     13.4345    11.9036    8.4076     6.6078     14.5099    0.296      31.7511   
2530       7.816      2.3128     7.4898     13.7254    12.4577    8.6121     6.8069     14.8484    0.296      31.1725   
2530.2     7.8563     2.3726     7.6887     13.7911    12.7667    8.8053     6.384      15.2109    0.296      30.9342   
2530.4     7.9273     2.3369     7.6318     13.457     12.6976    8.9991     5.4827     15.6198    0.296      28.6938   
2530.6     8.0845     2.171      7.1717     13.0318    12.5295    9.2046     6.0309     16.1273    0.296      30.4417   
2530.8     8.2354     2.1109     7.027      12.8119    12.7373    9.391      7.1882     16.6586    0.296      29.8118   
2531       8.3486     2.1454     7.1565     13.1688    13.405     9.5778     9.3908     17.1303    0.296      30.3816   
2531.2     8.3486     2.4458     8.0858     13.8037    14.0938    9.726      11.5988    17.3189    0.302      29.4874   
2531.4     8.3408     2.5817     8.3199     14.3817    14.3978    9.8432     8.0196     17.2975    0.302      28.5578   
2531.6     8.1785     2.6259     8.5044     14.4542    14.4167    9.8841     6.2786     17.5738    0.304      28.748    
2531.8     8.0854     2.5357     8.3934     14.124     14.2101    9.8367     5.0896     18.8855    0.303      27.9643   
2532       8.029      2.295      7.8819     13.6194    13.7392    9.8962     5.4991     20.5864    0.305      28.5015   
2532.2     8.0555     2.2559     7.799      13.2395    13.3239    10.0294    5.8188     21.769     0.304      28.3379   
2532.4     8.2278     2.1663     7.4354     13.093     13.1634    10.4233    6.166      22.0451    0.302      28.3553   
2532.6     8.4347     2.1568     7.1876     12.8985    13.1328    11.0108    6.1485     21.9134    0.302      29.485    
2532.8     8.7519     2.0885     6.8414     12.7068    13.1464    11.7492    5.9467     21.8647    0.3        29.9709   
2533       9.1965     1.975      6.4978     12.5149    13.2496    12.666     6.8793     21.7461    0.302      32.0832   
2533.2     9.7961     1.9199     6.4519     12.4178    13.5922    13.5601    8.086      21.2941    0.3        33.1267   
2533.4     10.4659    1.8218     6.2694     12.7981    14.4151    14.3919    10.0389    20.909     0.297      34.5188   
2533.6     10.9842    1.9555     6.764      13.73      15.795     15.3141    28.6138    19.4453    0.301      35.47     
2533.8     11.4827    2.2787     7.8165     15.1772    17.3389    16.3145    48.0485    16.5834    0.296      37.4931   
2534       11.789     2.5976     9.0201     16.7208    18.8143    17.217     45.3567    14.7236    0.296      39.0604   
2534.2     11.7815    2.9193     10.2815    18.4897    20.3765    17.9127    39.4393    13.6738    0.296      38.7438   
2534.4     11.3344    3.3012     11.6038    20.5994    22.1324    18.244     37.5366    13.2141    0.299      41.3083   
2534.6     10.4052    3.716      13.2161    23.0684    23.7875    18.1799    24.41      12.2385    0.299      40.3468   
2534.8     9.4776     3.9389     14.8521    24.9396    24.5314    17.5331    8.8911     11.1785    0.297      42.4026   
2535       8.64       3.7045     14.5822    25.4652    23.898     16.246     6.8271     10.1986    0.296      41.9765   
2535.2     8.0938     3.3892     13.7172    24.3915    22.0065    14.4937    4.7543     9.5658     0.298      40.4431   
2535.4     7.7734     2.9321     11.4358    22.662     19.5445    12.7664    4.0627     9.4209     0.296      40.7667   
2535.6     7.4244     2.636      9.9282     20.9031    17.4486    11.3832    4.6426     9.4644     0.294      40.0617   
2535.8     7.1092     2.4984     9.0002     19.9682    16.1109    10.199     4.6021     9.4742     0.301      41.6554   
2536       6.8908     2.3717     8.3628     19.096     14.9093    9.322      4.551      9.5013     0.302      38.7365   
2536.2     6.8053     2.2396     7.855      17.7032    13.9663    8.6327     4.0241     9.7493     0.3        38.6294   
2536.4     6.8492     2.018      7.075      16.2643    13.4033    8.0916     4.6121     10.0272    0.297      36.6282   
2536.6     6.9063     2.1061     6.7014     15.5003    13.4943    7.7858     5.5166     10.2147    0.299      33.237    
2536.8     6.9106     2.2341     6.7204     15.2795    14.062     7.717      6.2087     10.194     0.298      31.111    
2537       6.9106     2.2704     7.1736     15.1072    14.7554    7.717      6.68       9.9669     0.296      29.9133   
2537.2     6.8604     2.338      7.3647     14.8214    15.3405    7.6811     5.8535     9.6507     0.293      29.5249   
2537.4     6.7471     2.3726     7.4892     14.5206    15.8204    7.5482     5.4148     9.4782     0.29       26.4442   
2537.6     6.6211     2.387      7.5358     14.0935    16.0799    7.4147     5.027      9.4482     0.288      24.9652   
