~Version
 VERS              .         2.0                           : CWLS LOG ASCII STANDARD - VERSION 2.0
 WRAP              .         NO                            : ONE LINE PER DEPTH STEP
 DLM               .         SPACE                         : DELIMITING CHARACTER(SPACE TAB OR COMMA)
~Well Information
#_______________________________________________________________________________
#
#PARAMETER_NAME    .UNIT     VALUE                         : DESCRIPTION
#_______________________________________________________________________________
STRT               .m        2511                          : First reference value
STOP               .m        2677                          : Last reference value
STEP               .m        0.2                           : Step increment
NULL               .         -9999                         : Missing value
COMP               .                                       : Company
WELL               .         605                           : Well name
FLD                .                                       : Field
LOC                .                                       : Location
CNTY               .                                       : County
STAT               .                                       : State
CTRY               .                                       : Country
SRVC               .                                       : Service Company
DATE               .                                       : Date
API                .                                       : API number
EREF               .m        134                           : 
X                  .m        225746                        : 
Y                  .m        235643                        : 
group              .         Pad6                          : 
Интер-р            .         Пузин                         : 
Куст               .         6                             : 
Статус             .         Не проверено                  : 
Тип                .         Эксплуатация                  : 
~Parameter Information Block
#_______________________________________________________________________________
#
#PARAMETER_NAME    .UNIT     VALUE                         : DESCRIPTION
#_______________________________________________________________________________
SET                .         LAS3                          : 
REAL_CREATION_DATE .         Ср апр 11 2012-13_17_23       : 
TLFamily_DEPTH     .         Measured Depth                : 
TLFamily_KS        .         Potential Resistivity         : 
TLFamily_KS1       .         Extra Shallow Resistivity     : 
TLFamily_KS2       .         Shallow Resistivity           : 
TLFamily_KS3       .         Medium Resistivity            : 
TLFamily_KS4       .         Deep Resistivity              : 
TLFamily_KS5       .         Extra Deep Resistivity        : 
TLFamily_LLD       .         Lateral Log Resistivity       : 
TLFamily_OKS3      .         Medium Resistivity Inverted   : 
TLFamily_RM        .         Mud Resistivity               : 
TLFamily_SP        .         Spontaneous Potential         : 
group              .         INI                           : 
~Curve Information
#_______________________________________________________________________________
#
#LOGNAME           .UNIT     LOG_ID                        : DESCRIPTION
#_______________________________________________________________________________
DEPTH              .m                                      : Measured Depth 
KS                 .ohm.m                                  : Potential Resistivity 
KS1                .ohm.m                                  : Extra Shallow Resistivity 
KS2                .ohm.m                                  : Shallow Resistivity 
KS3                .ohm.m                                  : Medium Resistivity 
KS4                .ohm.m                                  : Deep Resistivity 
KS5                .ohm.m                                  : Extra Deep Resistivity 
LLD                .ohm.m                                  : Lateral Log Resistivity 
OKS3               .ohm.m                                  : Medium Resistivity Inverted 
RM                 .ohm.m                                  : Mud Resistivity 
SP                 .mV                                     : Spontaneous Potential 
~Ascii
# ...
2537.8     6.4958     2.3474     7.4704     13.5249    16.1454    7.2419     4.8097     9.4209     0.285      24.4711   
2538       6.3865     2.281      7.4033     12.8785    16.1064    7.065      4.7272     9.4767     0.29       23.5205   
2538.2     6.3292     2.2648     7.2823     12.1774    15.9107    6.9416     4.8457     9.5275     0.29       24.1032   
2538.4     6.2716     2.2354     7.1337     11.8881    15.5474    6.8166     4.8663     9.5275     0.29       23.9742   
2538.6     6.225      2.211      7.0192     11.7494    15.0231    6.7472     4.7724     9.4902     0.296      24.7599   
2538.8     6.1682     2.211      6.9255     11.6818    14.4426    6.7031     4.7171     9.4742     0.302      23.1017   
2539       6.1213     2.2279     6.8671     11.6467    13.8925    6.6576     4.6885     9.5074     0.305      22.9182   
2539.2     6.0836     2.211      6.8019     11.5154    13.3924    6.6375     4.6152     9.5364     0.302      22.6944   
2539.4     6.0584     2.211      6.7557     11.2869    12.997     6.6047     4.625      9.6247     0.307      23.0772   
2539.6     6.0408     2.1716     6.6318     10.9728    12.459     6.6153     4.4902     9.5111     0.299      23.1991   
2539.8     6.0051     2.1447     6.5625     10.7441    11.9189    6.6576     4.3882     9.4742     0.303      22.4936   
2540       5.9482     2.2042     6.7033     10.6928    11.4347    6.6263     4.3557     9.5802     0.308      24.0846   
2540.2     5.9446     2.1732     6.6149     10.5492    10.7521    6.6576     4.3792     9.666      0.308      23.5074   
2540.4     5.9128     2.1377     6.5159     10.3817    10.3145    6.6642     4.5166     9.6341     0.306      24.9902   
2540.6     5.9519     2.1378     6.5146     10.2914    10.1312    6.7212     4.5713     9.6044     0.308      26.6189   
2540.8     5.9519     2.1571     6.4803     10.2497    10.0058    6.7868     4.4632     9.5435     0.299      25.977    
2541       5.9013     2.1571     6.471      10.1643    9.9519     6.8849     4.2037     9.5683     0.302      25.0331   
2541.2     5.9424     2.1226     6.4122     10.0522    9.7212     7.0477     4.2278     9.7761     0.297      24.5573   
2541.4     5.9818     2.0919     6.34       9.8282     9.4775     7.2202     4.6522     9.8762     0.296      24.7165   
2541.6     5.9625     2.03       6.2391     9.9802     9.4388     7.3581     6.258      9.7455     0.297      23.2438   
2541.8     5.9519     2.2955     6.8883     10.1986    9.3707     7.5308     4.7704     9.5186     0.299      22.8351   
2542       5.9519     2.2617     6.7618     10.1615    8.9994     7.7118     4.2454     9.3019     0.294      22.9708   
2542.2     5.8909     2.1814     6.5104     9.9112     8.718      7.8235     4.1007     9.4409     0.296      22.4707   
2542.4     5.8202     2.2107     6.6074     9.8552     8.5566     7.8759     4.27       9.5815     0.3        23.7379   
2542.6     5.741      2.1886     6.5835     9.8019     8.4018     7.8759     4.2578     9.6799     0.299      22.5458   
2542.8     5.7075     2.1571     6.5748     9.7138     8.1699     7.8759     4.1322     9.739      0.298      24.807    
2543       5.7388     2.1458     6.4912     9.4756     7.8931     7.9056     3.9383     9.7661     0.296      24.047    
2543.2     5.7481     1.9894     5.9097     9.2725     7.7357     7.9818     4.0721     10.2399    0.293      26.5796   
2543.4     5.7388     2.0797     6.2113     9.2684     7.8058     8.0348     4.1851     10.7544    0.302      27.864    
2543.6     5.7765     2.0761     6.2183     9.5144     7.9903     8.0708     4.3925     10.9344    0.302      26.4101   
2543.8     5.8554     2.0493     6.2318     9.5509     8.0363     8.1867     4.513      10.9303    0.302      26.7079   
2544       5.9457     2.0878     6.245      9.6181     8.039      8.1368     4.5807     10.9133    0.302      24.428    
2544.2     6.0038     2.1032     6.2318     9.5823     8.0093     8.007      4.6922     10.8673    0.302      24.65     
2544.4     6.0757     2.1037     6.2556     9.5356     8.0429     7.7089     4.7166     10.86      0.302      24.8608   
2544.6     6.1478     2.1571     6.3366     9.4857     8.0322     7.4554     4.5438     10.8347    0.301      24.1008   
2544.8     6.2164     2.1098     6.3366     9.4712     7.9686     7.2574     4.4846     10.9183    0.3        25.3196   
2545       6.3179     2.1032     6.3732     9.3612     7.9041     7.1885     4.4483     11.1552    0.297      24.5574   
2545.2     6.4631     2.0831     6.319      9.2861     7.8466     7.1873     4.6974     11.4461    0.296      25.5403   
2545.4     6.5377     2.034      6.248      9.3366     7.9547     7.1371     8.7566     11.4616    0.301      26.6059   
2545.6     6.4637     2.3453     7.2679     10.0877    8.4012     6.9911     6.5627     11.0348    0.302      28.1639   
2545.8     6.4312     2.5557     7.6274     10.7681    8.6877     6.7638     4.421      10.4696    0.299      26.5393   
2546       6.3181     2.4972     7.3623     10.6129    8.4206     6.4686     4.0009     10.1731    0.296      26.1698   
2546.2     6.1899     2.3185     7.0741     10.2304    7.9589     6.0586     4.1667     10.2201    0.296      26.1688   
2546.4     6.1223     2.218      6.9302     10.0122    7.5546     5.7233     4.2555     10.3704    0.296      24.723    
2546.6     6.1117     2.1732     6.9262     9.915      7.3296     5.5354     4.2337     10.6181    0.296      25.6345   
2546.8     6.1117     2.1571     6.7028     9.8174     7.2036     5.4664     4.2627     10.9212    0.299      24.958    
2547       6.1117     2.1231     6.5247     9.7588     7.1255     5.4483     4.3465     11.2444    0.296      26.2305   
2547.2     6.1589     2.1032     6.3986     9.7487     7.132      5.5278     4.2647     11.5659    0.302      27.0711   
2547.4     6.2564     2.0802     6.3165     9.8123     7.2013     5.7788     4.2674     12.0006    0.303      26.917    
2547.6     6.3686     2.0493     6.2842     10.0584    7.6221     6.0791     4.5522     12.5439    0.308      27.6937   
2547.8     6.4254     2.1536     6.4115     10.5583    8.213      6.3897     5.2315     13.0002    0.306      27.9036   
2548       6.5259     2.211      6.7512     10.9072    8.6622     6.6379     5.3774     13.0189    0.302      29.635    
2548.2     6.654      2.2249     6.7732     10.8984    8.9157     6.824      5.1244     12.8026    0.302      29.6033   
2548.4     6.7322     2.2648     6.8081     10.7703    8.9776     6.8695     5.2186     12.5601    0.3        28.7605   
2548.6     6.8467     2.2648     6.8751     10.6641    9.0673     6.8695     5.1338     12.4647    0.292      27.8997   
2548.8     6.9255     2.2715     6.9869     10.654     9.1851     6.8695     5.3084     12.4501    0.29       26.9947   
2549       6.9638     2.2754     7.0856     10.6728    9.3051     6.8695     5.3947     12.3638    0.285      27.2132   
2549.2     7.0171     2.3465     7.2883     10.8728    9.4722     6.8272     6.274      12.087     0.29       26.5553   
2549.4     7.0171     2.4209     7.5295     11.215     9.6555     6.7453     6.1817     11.7327    0.29       26.455    
2549.6     6.9665     2.5028     7.7597     11.4493    9.7265     6.6185     5.8314     11.3074    0.29       25.7142   
2549.8     6.8991     2.4998     7.819      11.6187    9.677      6.443      5.1444     10.9899    0.295      25.8889   
2550       6.7544     2.4513     7.788      11.7541    9.463      6.2368     5.3101     10.791     0.302      24.6746   
2550.2     6.6007     2.4804     7.939      11.8979    9.2099     5.9873     4.8697     10.6271    0.303      24.4205   
2550.4     6.5184     2.4405     7.7442     11.8774    8.8613     5.7443     4.4729     10.5073    0.308      25.6586   
2550.6     6.4453     2.3136     7.4643     11.6314    8.5287     5.5649     4.1791     10.6164    0.308      26.5382   
2550.8     6.4312     2.2302     7.1442     11.4204    8.2814     5.3936     4.3128     10.9394    0.308      27.3142   
2551       6.3837     2.211      7.0241     11.432     8.2534     5.2773     4.9149     11.2251    0.308      24.6285   
