~Version
 VERS              .         2.0                           : CWLS LOG ASCII STANDARD - VERSION 2.0
 WRAP              .         NO                            : ONE LINE PER DEPTH STEP
 DLM               .         SPACE                         : DELIMITING CHARACTER(SPACE TAB OR COMMA)
~Well Information
#_______________________________________________________________________________
#
#PARAMETER_NAME    .UNIT     VALUE                         : DESCRIPTION
#_______________________________________________________________________________
STRT               .m        2511                          : First reference value
STOP               .m        2677                          : Last reference value
STEP               .m        0.2                           : Step increment
NULL               .         -9999                         : Missing value
COMP               .                                       : Company
WELL               .         605                           : Well name
FLD                .                                       : Field
LOC                .                                       : Location
CNTY               .                                       : County
STAT               .                                       : State
CTRY               .                                       : Country
SRVC               .                                       : Service Company
DATE               .                                       : Date
API                .                                       : API number
EREF               .m        134                           : 
X                  .m        225746                        : 
Y                  .m        235643                        : 
group              .         Pad6                          : 
Интер-р            .         Пузин                         : 
Куст               .         6                             : 
Статус             .         Не проверено                  : 
Тип                .         Эксплуатация                  : 
~Parameter Information Block
#_______________________________________________________________________________
#
#PARAMETER_NAME    .UNIT     VALUE                         : DESCRIPTION
#_______________________________________________________________________________
SET                .         LAS3                          : 
REAL_CREATION_DATE .         Ср апр 11 2012-13_17_23       : 
TLFamily_DEPTH     .         Measured Depth                : 
TLFamily_KS        .         Potential Resistivity         : 
TLFamily_KS1       .         Extra Shallow Resistivity     : 
TLFamily_KS2       .         Shallow Resistivity           : 
TLFamily_KS3       .         Medium Resistivity            : 
TLFamily_KS4       .         Deep Resistivity              : 
TLFamily_KS5       .         Extra Deep Resistivity        : 
TLFamily_LLD       .         Lateral Log Resistivity       : 
TLFamily_OKS3      .         Medium Resistivity Inverted   : 
TLFamily_RM        .         Mud Resistivity               : 
TLFamily_SP        .         Spontaneous Potential         : 
group              .         INI                           : 
~Curve Information
#_______________________________________________________________________________
#
#LOGNAME           .UNIT     LOG_ID                        : DESCRIPTION
#_______________________________________________________________________________
DEPTH              .m                                      : Measured Depth 
KS                 .ohm.m                                  : Potential Resistivity 
KS1                .ohm.m                                  : Extra Shallow Resistivity 
KS2                .ohm.m                                  : Shallow Resistivity 
KS3                .ohm.m                                  : Medium Resistivity 
KS4                .ohm.m                                  : Deep Resistivity 
KS5                .ohm.m                                  : Extra Deep Resistivity 
LLD                .ohm.m                                  : Lateral Log Resistivity 
OKS3               .ohm.m                                  : Medium Resistivity Inverted 
RM                 .ohm.m                                  : Mud Resistivity 
SP                 .mV                                     : Spontaneous Potential 
~Ascii
# ...
2645       10.4411    2.7385     9.9884     20.1864    22.449     8.495      11.1614    13.2069    0.29       20.5674   
2645.2     10.2683    2.7498     9.9609     20.5062    22.6168    9.0227     9.8836     12.763     0.297      21.7149   
2645.4     9.999      2.7636     10.0882    20.6723    22.6006    9.5869     10.2919    12.3971    0.307      23.2911   
2645.6     9.7222     2.8634     10.2716    20.9098    22.5323    10.0282    8.6419     12.3074    0.302      22.555    
2645.8     9.4178     2.8132     10.2208    20.5618    22.1294    10.3463    7.5586     12.5416    0.3        22.5017   
2646       9.2144     2.7132     9.61       19.6519    21.1388    10.5166    5.9708     13.1525    0.306      23.1039   
2646.2     9.0056     2.5335     8.9715     18.5383    20.0577    10.4713    6.1674     13.8699    0.304      24.6512   
2646.4     8.8843     2.4994     8.759      17.6403    19.1662    10.4812    7.0746     14.6511    0.29       24.4573   
2646.6     8.8119     2.4012     8.236      16.7729    18.4258    10.6362    6.1538     15.5787    0.29       28.3096   
2646.8     8.7747     2.3326     7.7893     15.738     17.6723    11.0819    5.9543     16.9494    0.3        27.1723   
2647       8.7747     2.1919     7.2193     14.9252    17.3514    11.8624    5.4896     19.105     0.306      28.2316   
2647.2     8.8046     2.1571     6.9501     14.3017    17.3666    13.1502    5.9103     22.2939    0.297      26.6202   
2647.4     8.8911     2.1571     6.9518     14.0927    17.8615    14.9268    6.1889     27.3208    0.302      26.2807   
2647.6     9.1324     2.1523     6.8265     13.9996    19.3511    17.1763    6.244      32.9692    0.304      26.8507   
2647.8     9.4377     2.0391     6.5858     13.9557    20.6493    20.0634    6.6727     37.0797    0.307      28.8907   
2648       9.8388     2.087      6.7203     14.0933    22.1946    23.9121    8.9766     39.8266    0.295      28.3165   
2648.2     10.363     2.1215     6.8494     14.4577    24.0685    29.1654    8.7025     41.8008    0.294      26.1251   
2648.4     10.9419    2.1208     6.9129     14.9607    26.6196    34.978     8.0295     43.8412    0.298      27.4419   
2648.6     11.6771    1.9658     6.866      15.5689    29.4458    40.2529    9.2709     44.8616    0.306      28.0103   
2648.8     12.4503    1.9124     6.9456     16.1017    31.365     44.9678    19.0345    43.8859    0.304      27.8778   
2649       13.2372    2.0936     7.6586     16.6251    32.01      45.878     60.4212    40.5713    0.3        29.7802   
2649.2     14.0611    2.3748     8.4227     15.6162    27.0469    42.0308    79.3327    34.8783    0.298      27.1777   
2649.4     15.4172    1.912      5.4621     11.7096    18.2807    38.2686    91.5794    23.3499    0.277      23.9493   
2649.6     16.7066    0.7471     2.8401     8.4196     13.243     37.342     75.9197    12.8089    0.273      22.9462   
2649.8     16.2745    1.2712     5.7517     12.3581    20.4657    37.3725    109.2939   11.3138    0.274      21.3921   
2650       14.9627    2.8763     11.9369    21.3345    30.8553    42.0672    109.171    15.7522    0.287      21.4947   
2650.2     14.0442    3.3426     15.0946    28.4007    36.1516    50.7135    65.7504    17.314     0.306      23.6246   
2650.4     13.4153    3.3926     16.2561    32.0962    37.1302    56.2774    31.7039    16.179     0.307      20.3711   
2650.6     12.739     3.5216     16.5578    34.849     36.7511    56.0807    18.1993    14.7236    0.299      21.1623   
2650.8     12.0371    3.4576     15.1287    36.6278    35.3982    53.2942    12.5026    13.6881    0.297      19.5051   
2651       11.3859    3.2989     13.9806    38.0601    34.1912    49.0937    11.7402    12.778     0.302      21.5252   
2651.2     10.7601    3.325      13.9       38.5719    32.7415    44.1898    9.6671     12.3159    0.302      21.5239   
2651.4     10.2745    3.1113     12.5738    37.2075    30.6361    40.2549    5.761      12.7665    0.291      21.2101   
2651.6     9.7786     2.7538     11.064     34.9479    29.3539    37.4929    4.8789     14.4215    0.294      21.5946   
2651.8     9.2887     2.5882     10.9621    33.565     31.1717    34.0858    6.0157     16.796     0.299      20.7703   
2652       8.8765     2.667      11.6636    33.4369    34.9788    32.3399    12.8417    17.9916    0.299      20.1593   
2652.2     8.6466     2.935      12.436     32.9897    37.0279    30.5879    13.211     17.2233    0.306      18.7521   
2652.4     8.517      2.9169     11.5444    31.0524    36.1513    28.1135    6.5131     15.5912    0.292      17.1554   
2652.6     8.269      2.6779     10.1273    27.8022    34.7096    24.7896    5.6356     14.2697    0.291      15.9408   
2652.8     8.0988     2.5461     9.4668     25.0608    34.1955    21.3907    6.2734     13.3366    0.302      15.6556   
2653       7.9688     2.485      9.232      22.8648    33.6204    18.6956    6.2069     12.6802    0.297      18.2874   
2653.2     7.8738     2.4402     8.8613     20.8128    32.566     16.5338    5.904      12.179     0.297      17.2104   
2653.4     7.7661     2.3796     8.4191     19.0971    31.35      14.6274    6.5168     11.8629    0.305      18.7835   
2653.6     7.607      2.4327     8.3274     17.7581    30.1259    12.9781    7.4846     11.468     0.295      19.51     
2653.8     7.4494     2.5049     8.3661     16.6338    27.0917    11.59      6.4331     10.9451    0.289      20.7078   
2654       7.2406     2.4495     8.1342     15.8338    23.4003    10.2455    5.7855     10.5314    0.293      21.8244   
2654.2     7.0402     2.4804     8.1733     15.1131    20.5028    8.9755     4.8159     10.5106    0.299      20.3705   
2654.4     6.9358     2.2643     7.4914     14.3867    18.3657    7.8349     4.3892     10.7066    0.296      19.7708   
2654.6     6.771      2.1571     7.2272     13.4897    16.6506    6.7636     5.6395     10.7666    0.297      20.2417   
2654.8     6.7508     2.1571     7.1129     12.89      15.1388    5.9756     5.2925     10.6584    0.296      21.2667   
2655       6.7989     2.1067     6.6689     12.1424    13.5297    5.417      4.5352     10.7767    0.287      19.6895   
2655.2     6.8467     1.9483     6.1292     11.4504    12.2754    5.0218     4.8345     11.209     0.294      19.378    
2655.4     6.9256     1.8876     5.985      11.0975    11.5501    4.7404     5.7646     11.668     0.295      20.0152   
2655.6     7.0547     1.9272     6.1202     11.1239    11.2284    4.6606     6.706      11.8194    0.296      20.2601   
2655.8     7.1679     2.0312     6.2765     11.3719    11.2548    4.7895     6.9503     11.7607    0.299      18.2476   
2656       7.2081     2.1028     6.4777     11.6424    11.664     5.0256     7.2706     11.5927    0.284      18.2508   
2656.2     7.2269     2.2037     6.7417     11.8454    12.4303    5.3639     7.4869     11.3325    0.289      18.4702   
2656.4     7.1317     2.2515     7.0784     12.0012    13.1271    5.7865     7.3866     10.7918    0.294      19.9371   
2656.6     7.0745     2.3444     7.384      12.0386    13.5689    6.2897     6.0399     10.2726    0.296      19.711    
2656.8     7.0061     2.2403     7.1679     11.9888    13.8856    6.9793     5.5407     10.1863    0.295      18.3836   
2657       6.916      2.2013     7.1012     11.9321    14.4113    7.8495     5.1892     10.4953    0.295      19.5124   
2657.2     6.9532     2.0841     6.9055     11.9365    15.1452    9.0999     5.3576     11.1902    0.284      17.5371   
2657.4     7.0131     2.0116     6.7455     12.1906    16.1703    10.6251    6.4753     12.2082    0.286      18.3257   
2657.6     7.0652     2.0831     7.0957     12.8506    17.5413    12.388     8.2492     12.9495    0.3        19.0696   
2657.8     7.0703     2.2032     7.4401     13.8461    19.1849    14.2732    8.618      13.1917    0.296      16.8799   
2658       6.9784     2.3959     7.852      14.9542    20.9486    15.3291    7.3587     13.2965    0.295      18.8587   
2658.2     6.7697     2.5181     8.3094     15.8461    21.7631    15.1357    7.0984     13.3119    0.301      20.6036   
