~Version
 VERS              .         2.0                           : CWLS LOG ASCII STANDARD - VERSION 2.0
 WRAP              .         NO                            : ONE LINE PER DEPTH STEP
 DLM               .         SPACE                         : DELIMITING CHARACTER(SPACE TAB OR COMMA)
~Well Information
#_______________________________________________________________________________
#
#PARAMETER_NAME    .UNIT     VALUE                         : DESCRIPTION
#_______________________________________________________________________________
STRT               .m        2511                          : First reference value
STOP               .m        2677                          : Last reference value
STEP               .m        0.2                           : Step increment
NULL               .         -9999                         : Missing value
COMP               .                                       : Company
WELL               .         605                           : Well name
FLD                .                                       : Field
LOC                .                                       : Location
CNTY               .                                       : County
STAT               .                                       : State
CTRY               .                                       : Country
SRVC               .                                       : Service Company
DATE               .                                       : Date
API                .                                       : API number
EREF               .m        134                           : 
X                  .m        225746                        : 
Y                  .m        235643                        : 
group              .         Pad6                          : 
Интер-р            .         Пузин                         : 
Куст               .         6                             : 
Статус             .         Не проверено                  : 
Тип                .         Эксплуатация                  : 
~Parameter Information Block
#_______________________________________________________________________________
#
#PARAMETER_NAME    .UNIT     VALUE                         : DESCRIPTION
#_______________________________________________________________________________
SET                .         LAS5                          : 
REAL_CREATION_DATE .         Ср апр 11 2012-13_17_24       : 
TLFamily_DEPTH     .         Measured Depth                : 
TLFamily_GR        .         Gamma Ray                     : 
TLFamily_TNPH      .         Neutron Porosity              : 
group              .         INI                           : 
~Curve Information
#_______________________________________________________________________________
#
#LOGNAME           .UNIT     LOG_ID                        : DESCRIPTION
#_______________________________________________________________________________
DEPTH              .m                                      : Measured Depth 
GR                 .gAPI                                   :  
TNPH               .v/v                                    : Neutron Porosity 
~Ascii
2511.0     93.17001   0.235     
2511.2     80.76      0.215     
2511.4     71.6       0.196     
2511.6     71.86      0.182     
2511.8     75.39      0.175     
2512       76.23      0.175     
2512.2     75.63      0.172     
2512.4     75.02      0.178     
2512.6     72.3       0.183     
2512.8     68.66      0.182     
2513       67.14      0.186     
2513.2     67.46001   0.184     
2513.4     66.93      0.181     
2513.6     63.34      0.176     
2513.8     59.15      0.166     
2514       56.2       0.153     
2514.2     52.06      0.142     
2514.4     50.99      0.143     
2514.6     52.44      0.15      
2514.8     56.55      0.163     
2515       60.97      0.172     
2515.2     64.09      0.183     
2515.4     67.86      0.196     
2515.6     70.84      0.211     
2515.8     72.61      0.219     
2516       75.33      0.221     
2516.2     78.76      0.215     
2516.4     81.18      0.214     
2516.6     83.83      0.209     
2516.8     88.06      0.199     
2517       91.88      0.182     
2517.2     97.1       0.182     
2517.4     102.62     0.186     
2517.6     104.7      0.187     
2517.8     105.48     0.197     
2518       103.24     0.206     
2518.2     101.06     0.216     
2518.4     98.61      0.225     
2518.6     98.49      0.231     
2518.8     101.71     0.231     
2519       105.7      0.237     
2519.2     104.51     0.235     
2519.4     97.67999   0.239     
2519.6     89.35001   0.24      
2519.8     84.84      0.227     
2520       83.21999   0.214     
2520.2     80.86      0.199     
2520.4     80.01      0.193     
2520.6     84.18      0.2       
2520.8     91.18      0.209     
2521       97.03      0.206     
2521.2     97.67      0.201     
2521.4     92.34      0.202     
2521.6     78.11      0.193     
2521.8     63.77      0.174     
2522       57.03      0.158     
2522.2     53.27      0.158     
2522.4     50.07      0.162     
2522.6     49.93      0.169     
2522.8     54.55      0.169     
2523       61.32      0.17      
2523.2     69.28001   0.18      
2523.4     74.61      0.19      
2523.6     77.64      0.191     
2523.8     81.78001   0.194     
2524       89.11      0.193     
2524.2     96.89999   0.2       
2524.4     97.01      0.207     
2524.6     89.13      0.2       
2524.8     82.66      0.187     
2525       83.09      0.19      
2525.2     89.2       0.191     
2525.4     96.08      0.196     
2525.6     100.59     0.207     
2525.8     104.12     0.217     
2526       107.55     0.213     
2526.2     106.35     0.207     
2526.4     95.71      0.2       
2526.6     83.85001   0.19      
2526.8     75.64999   0.191     
2527       71.31      0.19      
2527.2     70.57999   0.185     
2527.4     70.06      0.191     
2527.6     72.93999   0.193     
2527.8     78.38      0.186     
2528       84.04      0.189     
2528.2     88.43001   0.194     
2528.4     87.98      0.198     
2528.6     81.55      0.208     
2528.8     77.95999   0.212     
2529       82.85      0.21      
2529.2     89.31      0.21      
2529.4     94.72      0.218     
2529.6     102.13     0.221     
2529.8     107.68     0.216     
2530       109.4      0.217     
2530.2     112.03     0.223     
2530.4     111.93     0.23      
2530.6     104.67     0.225     
2530.8     92.37      0.206     
2531       87.47      0.199     
2531.2     92.57      0.2       
2531.4     105.12     0.206     
2531.6     116.3      0.221     
2531.8     122.28     0.232     
2532       122.8      0.237     
2532.2     120.55     0.226     
2532.4     116.17     0.214     
2532.6     109.27     0.211     
2532.8     99.22      0.205     
2533       85.35      0.194     
2533.2     69.67      0.182     
2533.4     58.4       0.16      
2533.6     50.84      0.142     
2533.8     48.13      0.134     
2534       48.47      0.132     
2534.2     49.88      0.14      
2534.4     52.53      0.153     
2534.6     57.62      0.16      
2534.8     65.69      0.17      
2535       72.06001   0.184     
2535.2     71.73      0.189     
2535.4     70.55      0.192     
2535.6     70.64999   0.199     
2535.8     71.56999   0.207     
2536       72.56      0.21      
2536.2     76.96999   0.212     
2536.4     83.34      0.208     
2536.6     92.1       0.203     
2536.8     102.38     0.205     
2537       111.32     0.211     
2537.2     119.15     0.223     
2537.4     124.32     0.231     
2537.6     127.61     0.232     
2537.8     131.71     0.224     
2538       130.65     0.221     
2538.2     130.12     0.222     
2538.4     135.09     0.22      
2538.6     135.5      0.223     
2538.8     127.57     0.233     
2539       124.04     0.239     
2539.2     126.9      0.256     
2539.4     130.31     0.261     
2539.6     133.2      0.242     
2539.8     135.4      0.24      
2540       132.47     0.262     
2540.2     126.23     0.275     
2540.4     122.59     0.261     
2540.6     125.05     0.245     
2540.8     129.7      0.25      
2541       133.66     0.242     
2541.2     131.31     0.23      
2541.4     122.25     0.238     
2541.6     114.28     0.245     
2541.8     112.08     0.246     
2542       118.05     0.261     
2542.2     123.37     0.278     
2542.4     126.43     0.275     
2542.6     129.03     0.26      
2542.8     132.53     0.251     
2543       138.48     0.261     
2543.2     144.22     0.275     
2543.4     150.36     0.278     
2543.6     158.34     0.291     
2543.8     160.1      0.312     
2544       158.35     0.327     
2544.2     158.22     0.32      
2544.4     157.3      0.31      
2544.6     151.65     0.311     
2544.8     145.77     0.304     
2545       140.11     0.293     
2545.2     133.33     0.278     
2545.4     124.34     0.274     
2545.6     118.24     0.262     
2545.8     125.23     0.259     
2546       132.81     0.267     
2546.2     131.68     0.268     
2546.4     132.01     0.265     
2546.6     134.43     0.256     
2546.8     139.37     0.249     
2547       149.2      0.254     
2547.2     164.12     0.258     
2547.4     181.48     0.27      
2547.6     200.59     0.281     
2547.8     224.32     0.286     
2548       229.05     0.284     
2548.2     212.5      0.281     
2548.4     206.85     0.286     
2548.6     212.14     0.288     
2548.8     215.85     0.294     
2549       217.89     0.306     
2549.2     221.97     0.312     
2549.4     229.24     0.314     
2549.6     233.88     0.305     
2549.8     228.3      0.309     
2550       220.43     0.315     
2550.2     219.24     0.321     
2550.4     221.9      0.327     
2550.6     222.7      0.323     
2550.8     223.81     0.301     
2551       229.58     0.286     
2551.2     234.99     0.317     
2551.4     238.75     0.335     
2551.6     247.03     0.322     
2551.8     259.29     0.311     
2552       266.34     0.315     
2552.2     271.67     0.317     
2552.4     277.89     0.341     
2552.6     279.36     0.358     
2552.8     276.22     0.339     
2553       270.48     0.33      
2553.2     261.49     0.328     
2553.4     251.67     0.314     
2553.6     242.9      0.306     
2553.8     231.95     0.308     
2554       220.99     0.301     
2554.2     207.09     0.292     
2554.4     196.19     0.286     
2554.6     196.36     0.287     
2554.8     198.93     0.293     
2555       205.52     0.288     
2555.2     222.96     0.282     
2555.4     245.61     0.301     
2555.6     263.79     0.322     
2555.8     282.92     0.352     
2556       303.32     0.357     
2556.2     304.95     0.343     
2556.4     309.95     0.318     
2556.6     328.57     0.306     
2556.8     355.85     0.313     
2557       391.53     0.314     
2557.2     425.77     0.318     
2557.4     440.11     0.329     
2557.6     446.56     0.324     
2557.8     463.31     0.308     
2558       492.19     0.313     
2558.2     511.97     0.326     
2558.4     495.42     0.335     
2558.6     464.14     0.328     
2558.8     437.97     0.321     
2559       421.31     0.34      
2559.2     415.77     0.366     
2559.4     401.73     0.362     
