~Version
 VERS              .         2.0                           : CWLS LOG ASCII STANDARD - VERSION 2.0
 WRAP              .         NO                            : ONE LINE PER DEPTH STEP
 DLM               .         SPACE                         : DELIMITING CHARACTER(SPACE TAB OR COMMA)
~Well Information
#_______________________________________________________________________________
#
#PARAMETER_NAME    .UNIT     VALUE                         : DESCRIPTION
#_______________________________________________________________________________
STRT               .m        2511                          : First reference value
STOP               .m        2677                          : Last reference value
STEP               .m        0.2                           : Step increment
NULL               .         -9999                         : Missing value
COMP               .                                       : Company
WELL               .         605                           : Well name
FLD                .                                       : Field
LOC                .                                       : Location
CNTY               .                                       : County
STAT               .                                       : State
CTRY               .                                       : Country
SRVC               .                                       : Service Company
DATE               .                                       : Date
API                .                                       : API number
EREF               .m        134                           : 
X                  .m        225746                        : 
Y                  .m        235643                        : 
group              .         Pad6                          : 
Интер-р            .         Пузин                         : 
Куст               .         6                             : 
Статус             .         Не проверено                  : 
Тип                .         Эксплуатация                  : 
~Parameter Information Block
#_______________________________________________________________________________
#
#PARAMETER_NAME    .UNIT     VALUE                         : DESCRIPTION
#_______________________________________________________________________________
SET                .         LAS3                          : 
REAL_CREATION_DATE .         Ср апр 11 2012-13_17_23       : 
TLFamily_DEPTH     .         Measured Depth                : 
TLFamily_KS        .         Potential Resistivity         : 
TLFamily_KS1       .         Extra Shallow Resistivity     : 
TLFamily_KS2       .         Shallow Resistivity           : 
TLFamily_KS3       .         Medium Resistivity            : 
TLFamily_KS4       .         Deep Resistivity              : 
TLFamily_KS5       .         Extra Deep Resistivity        : 
TLFamily_LLD       .         Lateral Log Resistivity       : 
TLFamily_OKS3      .         Medium Resistivity Inverted   : 
TLFamily_RM        .         Mud Resistivity               : 
TLFamily_SP        .         Spontaneous Potential         : 
group              .         INI                           : 
~Curve Information
#_______________________________________________________________________________
#
#LOGNAME           .UNIT     LOG_ID                        : DESCRIPTION
#_______________________________________________________________________________
DEPTH              .m                                      : Measured Depth 
KS                 .ohm.m                                  : Potential Resistivity 
KS1                .ohm.m                                  : Extra Shallow Resistivity 
KS2                .ohm.m                                  : Shallow Resistivity 
KS3                .ohm.m                                  : Medium Resistivity 
KS4                .ohm.m                                  : Deep Resistivity 
KS5                .ohm.m                                  : Extra Deep Resistivity 
LLD                .ohm.m                                  : Lateral Log Resistivity 
OKS3               .ohm.m                                  : Medium Resistivity Inverted 
RM                 .ohm.m                                  : Mud Resistivity 
SP                 .mV                                     : Spontaneous Potential 
~Ascii
# ...
2564.6     9.8968     2.7073     9.624      18.6924    18.1109    7.9        8.5028     19.4269    0.308      21.0576   
2564.8     9.8931     2.6582     9.5272     18.6184    17.8435    8.0291     8.598      19.0666    0.306      20.6333   
2565       9.8883     2.6554     9.5403     18.5242    17.7027    8.1734     8.9378     18.6691    0.302      20.7024   
2565.2     9.8353     2.6493     9.3682     18.487     17.7953    8.356      8.903      18.6025    0.299      19.9644   
2565.4     9.7218     2.7279     9.628      18.6332    17.996     8.5951     8.5883     18.8195    0.299      20.7339   
2565.6     9.6467     2.6959     9.6242     18.8583    18.3254    8.848      8.1497     19.2963    0.3        19.7107   
2565.8     9.6268     2.6663     9.4851     18.6229    18.2898    9.1496     7.8832     19.7185    0.296      20.2603   
2566       9.6521     2.5507     9.1718     18.2849    18.1289    9.5035     7.3011     20.5602    0.296      18.6585   
2566.2     9.7211     2.4902     8.9015     18.1095    18.125     9.8401     6.9177     21.5632    0.296      20.4048   
2566.4     9.7896     2.4804     8.9325     18.1377    18.3977    10.2883    8.5561     22.0855    0.296      19.4042   
2566.6     9.8873     2.4913     8.9457     18.6031    19.07      10.8309    9.9535     22.4994    0.291      18.9179   
2566.8     9.8931     2.6694     9.4514     19.1878    19.9096    11.2       9.4408     23.0764    0.296      20.4852   
2567       9.909      2.7332     9.6485     19.6782    20.6455    11.4822    9.6832     23.2988    0.296      19.1273   
2567.2     9.9464     2.6959     9.6965     19.5618    20.6935    11.602     9.8229     22.7097    0.301      20.003    
2567.4     10.0412    2.6682     9.6496     19.0244    20.2068    11.4343    9.0797     21.8564    0.301      17.7765   
2567.6     10.0529    2.6043     9.3679     18.3667    19.2504    11.0029    8.6212     21.5308    0.3        18.9047   
2567.8     10.0877    2.5882     9.2174     17.8176    18.7253    10.6368    8.3066     21.5691    0.296      17.8252   
2568       10.1197    2.5405     9.1201     17.5425    18.4047    10.3744    8.556      21.9197    0.298      17.8727   
2568.2     10.1895    2.5603     9.157      17.3351    18.2003    10.3124    8.605      22.3871    0.304      18.9464   
2568.4     10.3091    2.5076     8.937      17.2181    18.0318    10.3532    8.4681     23.0182    0.308      18.9408   
2568.6     10.4331    2.4804     8.805      17.3396    18.1466    10.5307    8.8552     23.8191    0.308      19.7488   
2568.8     10.5589    2.5214     9.0785     17.7645    18.5787    10.8196    9.9919     24.5427    0.308      18.4975   
2569       10.7019    2.5621     9.1916     18.5405    19.3111    11.3183    10.6201    25.099     0.308      19.0975   
2569.2     10.8447    2.5932     9.4323     19.5724    20.2465    11.8769    11.1761    25.6726    0.308      19.8984   
2569.4     10.9017    2.7045     9.7726     20.5137    21.1589    12.2529    11.8568    26.0238    0.308      21.5042   
2569.6     10.9566    2.7498     10.0946    20.9075    21.4998    12.5234    12.7179    25.6683    0.308      24.1497   
2569.8     11.0583    2.7655     10.0818    20.7768    21.2232    12.572     11.157     24.9041    0.302      22.6436   
2570       11.1157    2.7059     9.981      20.4644    20.844     12.3003    10.1605    24.4905    0.302      24.2646   
2570.2     11.1714    2.6959     9.9416     20.1753    20.5536    11.8976    10.1965    24.3201    0.302      24.1928   
2570.4     11.2489    2.6555     9.8547     19.9154    20.3324    11.5334    10.2464    24.1555    0.302      24.1015   
2570.6     11.3723    2.642      9.7521     19.611     20.1383    11.1888    10.1023    24.2291    0.301      22.2178   
2570.8     11.497     2.5531     9.4491     19.3744    20.0056    10.9269    9.5069     24.3774    0.296      19.7958   
2571       11.6241    2.5611     9.4407     19.3393    20.133     10.7598    10.6747    24.3336    0.296      20.0633   
2571.2     11.8035    2.616      9.5502     19.69      20.6392    10.6439    12.1864    24.1067    0.296      18.4833   
2571.4     11.9294    2.6464     9.685      20.0851    21.0807    10.6434    12.4119    23.8342    0.291      18.922    
2571.6     12.0049    2.7135     9.8463     20.5346    21.4581    10.7194    12.7158    23.5786    0.29       17.738    
2571.8     12.0588    2.7498     10.1142    21.1065    21.877     10.9056    13.3686    23.209     0.29       18.5397   
2572       12.0458    2.81       10.3502    21.6618    22.3421    11.0318    13.1885    22.9174    0.29       20.5304   
2572.2     12.0235    2.8576     10.5692    21.9836    22.6277    11.1586    12.3815    22.8206    0.29       18.9615   
2572.4     12.0235    2.8215     10.5207    22.0045    22.7217    11.2998    10.7682    22.9698    0.295      18.4133   
2572.6     12.0235    2.7498     10.3409    21.9836    22.8958    11.4556    10.6429    23.1582    0.302      17.5354   
2572.8     12.0235    2.7498     10.3917    22.1562    23.3739    11.5791    11.6124    23.1035    0.308      18.2799   
2573       12.0515    2.8008     10.4719    22.4561    24.034     11.786     12.0075    22.9279    0.308      17.1339   
2573.2     12.0724    2.7906     10.4349    22.7546    24.7107    12.0378    11.6518    22.7335    0.308      18.2815   
2573.4     12.0666    2.8037     10.5198    23.021     25.3744    12.3408    12.5152    22.4112    0.308      18.4428   
2573.6     12.0768    2.8192     10.4916    23.2233    26.0944    12.6099    11.9436    22.0662    0.308      18.1725   
2573.8     12.0271    2.822      10.6089    23.3653    26.757     12.8839    11.8675    21.6368    0.308      17.7962   
2574       12.0235    2.8576     10.6279    23.3603    27.1858    13.2638    11.6759    21.1796    0.308      18.2      
2574.2     12.072     2.7904     10.4352    23.1935    27.4832    13.7303    10.388     20.8372    0.308      19.6097   
2574.4     12.0768    2.7498     10.4479    23.3886    28.141     14.2354    10.8802    20.4147    0.308      20.4717   
2574.6     12.0316    2.84       10.7394    24.0106    29.189     14.8043    14.1125    19.6872    0.308      20.2569   
2574.8     11.9922    2.9408     11.0903    24.6701    30.1784    15.45      15.2434    18.9439    0.308      20.4835   
2575       11.8711    3.0122     11.3719    25.1422    30.7901    16.0955    13.8241    18.3249    0.308      20.2357   
2575.2     11.6989    3.1057     11.5513    25.263     30.9245    16.7071    11.9333    17.9368    0.306      21.3347   
2575.4     11.531     3.0129     11.3604    25.1083    30.8013    17.3044    9.7064     17.7864    0.302      21.7204   
2575.6     11.3276    2.9654     11.2614    25.0154    30.809     17.8022    9.988      17.7831    0.302      20.6136   
2575.8     11.0858    2.9781     11.4513    25.4552    31.3853    18.1444    12.172     17.3355    0.302      19.7082   
2576       10.8297    3.1369     11.9215    26.0561    31.9212    18.2575    14.992     15.9393    0.301      19.9117   
2576.2     10.4779    3.1809     12.0306    26.3477    31.6228    18.1721    12.3798    15.1141    0.301      21.0075   
2576.4     10.1424    3.2096     11.8519    25.763     30.1414    17.8117    8.3096     15.0617    0.306      19.1517   
2576.6     9.8107     3.0303     11.1083    24.462     28.0165    17.3923    6.5707     15.4702    0.302      19.5397   
2576.8     9.5665     2.7481     10.2779    22.8765    26.3066    17.0227    5.7911     16.2267    0.302      17.3988   
2577       9.5203     2.5335     9.6555     21.4891    25.2627    16.7483    6.1321     17.4034    0.302      18.6658   
2577.2     9.5671     2.4338     9.2444     20.5679    24.5978    16.9       7.1345     18.2632    0.302      18.7009   
2577.4     9.6461     2.4302     8.9051     20.2508    24.6096    17.2597    8.4205     18.5795    0.295      18.5426   
2577.6     9.7294     2.5647     9.0634     20.2736    24.9182    17.6711    9.8063     18.5175    0.303      19.2192   
2577.8     9.7246     2.6361     9.2129     20.5709    25.1967    18.0873    10.0665    18.3854    0.302      17.1049   
