~Version
 VERS              .         2.0                           : CWLS LOG ASCII STANDARD - VERSION 2.0
 WRAP              .         NO                            : ONE LINE PER DEPTH STEP
 DLM               .         SPACE                         : DELIMITING CHARACTER(SPACE TAB OR COMMA)
~Well Information
#_______________________________________________________________________________
#
#PARAMETER_NAME    .UNIT     VALUE                         : DESCRIPTION
#_______________________________________________________________________________
STRT               .m        2511                          : First reference value
STOP               .m        2677                          : Last reference value
STEP               .m        0.2                           : Step increment
NULL               .         -9999                         : Missing value
COMP               .                                       : Company
WELL               .         605                           : Well name
FLD                .                                       : Field
LOC                .                                       : Location
CNTY               .                                       : County
STAT               .                                       : State
CTRY               .                                       : Country
SRVC               .                                       : Service Company
DATE               .                                       : Date
API                .                                       : API number
EREF               .m        134                           : 
X                  .m        225746                        : 
Y                  .m        235643                        : 
group              .         Pad6                          : 
Интер-р            .         Пузин                         : 
Куст               .         6                             : 
Статус             .         Не проверено                  : 
Тип                .         Эксплуатация                  : 
~Parameter Information Block
#_______________________________________________________________________________
#
#PARAMETER_NAME    .UNIT     VALUE                         : DESCRIPTION
#_______________________________________________________________________________
SET                .         LAS3                          : 
REAL_CREATION_DATE .         Ср апр 11 2012-13_17_23       : 
TLFamily_DEPTH     .         Measured Depth                : 
TLFamily_KS        .         Potential Resistivity         : 
TLFamily_KS1       .         Extra Shallow Resistivity     : 
TLFamily_KS2       .         Shallow Resistivity           : 
TLFamily_KS3       .         Medium Resistivity            : 
TLFamily_KS4       .         Deep Resistivity              : 
TLFamily_KS5       .         Extra Deep Resistivity        : 
TLFamily_LLD       .         Lateral Log Resistivity       : 
TLFamily_OKS3      .         Medium Resistivity Inverted   : 
TLFamily_RM        .         Mud Resistivity               : 
TLFamily_SP        .         Spontaneous Potential         : 
group              .         INI                           : 
~Curve Information
#_______________________________________________________________________________
#
#LOGNAME           .UNIT     LOG_ID                        : DESCRIPTION
#_______________________________________________________________________________
DEPTH              .m                                      : Measured Depth 
KS                 .ohm.m                                  : Potential Resistivity 
KS1                .ohm.m                                  : Extra Shallow Resistivity 
KS2                .ohm.m                                  : Shallow Resistivity 
KS3                .ohm.m                                  : Medium Resistivity 
KS4                .ohm.m                                  : Deep Resistivity 
KS5                .ohm.m                                  : Extra Deep Resistivity 
LLD                .ohm.m                                  : Lateral Log Resistivity 
OKS3               .ohm.m                                  : Medium Resistivity Inverted 
RM                 .ohm.m                                  : Mud Resistivity 
SP                 .mV                                     : Spontaneous Potential 
~Ascii
# ...
2618.2     7.3899     2.4328     8.0747     13.9465    13.7037    9.0519     4.8928     12.0279    0.284      21.7066   
2618.4     7.4244     2.1923     7.4706     13.0452    12.4293    8.7742     5.1412     11.6816    0.285      22.5623   
2618.6     7.4329     2.2425     7.4012     12.6672    11.8935    8.4456     6.216      11.4098    0.285      22.5521   
2618.8     7.3424     2.3568     7.485      12.8661    11.7969    8.1941     6.4185     11.2879    0.296      20.8198   
2619       7.2845     2.392      7.5512     12.8657    11.4359    8.0326     5.4738     11.1813    0.295      21.1371   
2619.2     7.2618     2.3312     7.3371     12.7901    11.0895    7.9099     5.1969     11.1638    0.288      20.2371   
2619.4     7.2301     2.2648     7.2079     12.7554    10.7926    7.7        5.1672     11.2331    0.276      21.6885   
2619.6     7.1769     2.2304     7.1163     12.7841    10.7549    7.509      5.4593     11.3153    0.277      23.1118   
2619.8     7.1274     2.211      7.0579     12.6582    10.8245    7.3897     5.3949     11.3651    0.275      21.6155   
2620       7.1236     2.211      6.9652     12.3958    10.9727    7.2772     5.3462     11.6078    0.274      25.1915   
2620.2     7.0748     2.1433     6.7794     12.0985    10.9941    7.2403     5.5613     11.9093    0.279      25.7914   
2620.4     7.0277     2.1745     6.8101     11.9853    11.0419    7.1873     5.3136     12.2166    0.289      25.003    
2620.6     7.0171     2.1639     6.6694     11.8829    10.9578    7.2329     5.2743     12.3491    0.292      26.725    
2620.8     7.0205     2.1872     6.6752     11.5084    10.8047    7.4289     4.7657     12.5291    0.293      26.4411   
2621       7.0915     2.0678     6.2819     11.1183    10.7016    7.8077     4.7048     13.1143    0.29       29.2982   
2621.2     7.1623     2.0306     6.0843     10.7218    10.8662    8.255      5.4768     14.258     0.29       26.957    
2621.4     7.2878     1.9463     5.9794     10.6054    11.4075    8.7308     6.8584     15.7265    0.287      27.2087   
2621.6     7.4022     2.0198     6.1524     10.7454    12.076     9.4117     5.5008     16.853     0.286      24.531    
2621.8     7.5591     2.1032     6.3232     10.9433    12.856     10.8009    5.6681     18.0263    0.287      26.7166   
2622       7.7332     2.0493     6.184      11.1333    13.7043    12.1263    6.0559     19.7232    0.29       29.9063   
2622.2     7.8661     2.0946     6.3591     11.4964    14.9451    13.6177    7.5676     21.8244    0.286      28.5431   
2622.4     8.0639     2.0508     6.543      12.1571    16.4363    15.0111    9.9878     24.2771    0.279      29.8393   
2622.6     8.2754     2.0681     6.806      13.0775    18.1055    15.7728    7.9335     25.1967    0.281      30.1539   
2622.8     8.4249     2.3418     7.6589     13.8065    18.6456    16.0188    5.4933     24.62      0.282      28.722    
2623       8.6398     2.4793     7.7961     13.7493    17.9236    15.7593    5.0107     23.907     0.288      25.2574   
2623.2     8.8835     2.2185     7.0294     12.5411    16.0975    15.4378    4.9674     23.8655    0.296      24.2848   
2623.4     9.2813     1.9672     6.3897     11.4773    14.8468    15.2064    5.1096     24.2681    0.295      23.4959   
2623.6     9.8363     1.8216     6.0857     11.0028    14.6175    15.5222    5.5143     25.7282    0.298      23.1246   
2623.8     10.5874    1.6779     5.9818     11.211     15.1639    16.3402    6.5424     26.8325    0.295      23.3116   
2624       11.4393    1.7626     6.2907     11.9978    16.0661    17.4484    19.6669    26.0234    0.298      25.4142   
2624.2     12.2631    2.0905     7.1342     13.2106    17.0074    18.7452    56.1902    23.7817    0.294      23.9138   
2624.4     12.7945    2.3746     8.06       14.8937    18.1058    19.6961    66.1151    21.5726    0.292      23.1108   
2624.6     13.0159    2.7607     9.4086     16.9937    19.3432    20.5524    97.0374    19.5875    0.29       26.4604   
2624.8     12.8509    3.1541     11.0245    19.4905    20.585     21.1787    80.1875    17.6669    0.29       23.9442   
2625       12.3241    3.4369     12.5265    21.9231    21.716     21.706     37.1958    15.7883    0.29       25.0972   
2625.2     11.4577    3.7425     14.0458    24.3143    23.0239    21.3861    32.0019    13.8153    0.29       23.8719   
2625.4     10.4489    4.0184     15.4248    26.3671    23.7027    20.5545    17.114     12.2162    0.287      22.5939   
2625.6     9.6874     3.7707     15.6063    26.4374    22.6819    19.2225    5.9759     11.4819    0.296      24.4683   
2625.8     9.1079     3.1434     13.0159    24.4049    20.0633    17.5751    4.3117     11.0688    0.29       23.8132   
2626       8.7577     2.7315     11.39      22.6332    17.8618    15.3358    4.4164     10.904     0.285      26.7292   
2626.2     8.5846     2.4632     9.8128     21.6329    16.3299    13.6086    4.2769     11.528     0.284      25.6548   
2626.4     8.6136     2.2774     8.7727     20.5517    15.533     12.5403    4.445      11.9721    0.283      23.861    
2626.6     8.7708     2.0896     7.9196     20.1255    15.8062    11.995     4.6722     11.9713    0.284      24.9074   
2626.8     9.0287     2.1724     8.0712     20.358     17.0072    11.9182    8.9094     11.3883    0.29       25.4046   
2627       9.384      2.2732     8.282      21.2798    18.6491    12.1354    15.4384    10.2942    0.29       26.9919   
2627.2     9.4783     2.6152     8.9267     22.5772    20.6278    12.4405    33.8315    9.0631     0.297      25.2328   
2627.4     9.1735     3.1357     10.3202    24.2489    23.0997    12.6529    39.5044    7.8283     0.3        28.4123   
2627.6     8.4582     3.4928     11.6029    25.4948    25.6429    12.7253    22.3685    7.023      0.293      29.4002   
2627.8     7.357      3.8578     13.2222    26.3049    28.0223    12.0334    8.4582     6.4666     0.297      29.0844   
2628       6.4825     4.0637     14.717     24.2631    26.6102    11.1816    3.9678     7.1101     0.29       27.9898   
2628.2     5.9866     2.8074     10.7119    20.7877    24.0553    10.2315    1.4799     8.4406     0.288      26.7353   
2628.4     5.4896     2.2943     9.0734     17.3707    21.797     8.9355     5.1808     9.3474     0.3        25.8502   
2628.6     5.3301     2.5435     9.8878     17.7506    22.2484    7.3774     8.0441     8.7065     0.29       26.2886   
2628.8     5.1314     2.7396     9.3215     17.0779    20.1036    6.5198     3.3522     7.7033     0.284      28.5672   
2629       4.9634     2.32       7.25       14.8222    15.8668    5.5005     2.4607     6.9701     0.281      29.8691   
2629.2     4.8971     1.9549     5.8708     12.5431    12.5721    4.3704     2.66       6.8056     0.284      26.7198   
2629.4     4.8398     1.8338     5.6696     11.1585    10.6575    3.5162     3.4105     7.0565     0.291      26.4472   
2629.6     4.878      1.8994     5.7704     10.0892    9.3198     3.059      3.0015     7.473      0.296      27.5008   
2629.8     4.9856     1.7974     5.151      9.1485     8.3306     2.7801     4.3721     7.8114     0.297      27.5369   
2630       4.8083     1.9102     5.5134     8.9214     8.1034     2.5        7.7874     7.5728     0.289      30.7157   
2630.2     4.6565     2.5146     6.6192     8.6612     7.6721     2.2692     2.5792     7.0307     0.303      29.4453   
2630.4     4.5363     2.2165     5.4785     7.6152     6.4136     2.0937     2.3406     6.874      0.293      29.0701   
2630.6     4.4606     1.8216     4.8234     6.638      5.2501     1.8816     2.7433     7.0161     0.298      30.3434   
2630.8     4.4606     1.634      4.5662     6.1425     4.7612     1.6284     2.7938     7.3995     0.301      29.0693   
2631       4.5032     1.6372     4.5258     5.7845     4.5421     1.594      2.5957     8.0054     0.295      30.5625   
2631.2     4.5882     1.6129     4.1913     5.3894     4.3831     1.731      2.4762     8.8843     0.284      30.1396   
2631.4     4.81       1.4958     3.7449     5.1784     4.3825     1.9258     2.7322     10.2425    0.286      29.2759   
