~Version
 VERS              .         2.0                           : CWLS LOG ASCII STANDARD - VERSION 2.0
 WRAP              .         NO                            : ONE LINE PER DEPTH STEP
 DLM               .         SPACE                         : DELIMITING CHARACTER(SPACE TAB OR COMMA)
~Well Information
#_______________________________________________________________________________
#
#PARAMETER_NAME    .UNIT     VALUE                         : DESCRIPTION
#_______________________________________________________________________________
STRT               .m        2511                          : First reference value
STOP               .m        2677                          : Last reference value
STEP               .m        0.2                           : Step increment
NULL               .         -9999                         : Missing value
COMP               .                                       : Company
WELL               .         605                           : Well name
FLD                .                                       : Field
LOC                .                                       : Location
CNTY               .                                       : County
STAT               .                                       : State
CTRY               .                                       : Country
SRVC               .                                       : Service Company
DATE               .                                       : Date
API                .                                       : API number
EREF               .m        134                           : 
X                  .m        225746                        : 
Y                  .m        235643                        : 
group              .         Pad6                          : 
Интер-р            .         Пузин                         : 
Куст               .         6                             : 
Статус             .         Не проверено                  : 
Тип                .         Эксплуатация                  : 
~Parameter Information Block
#_______________________________________________________________________________
#
#PARAMETER_NAME    .UNIT     VALUE                         : DESCRIPTION
#_______________________________________________________________________________
SET                .         LAS3                          : 
REAL_CREATION_DATE .         Ср апр 11 2012-13_17_23       : 
TLFamily_DEPTH     .         Measured Depth                : 
TLFamily_KS        .         Potential Resistivity         : 
TLFamily_KS1       .         Extra Shallow Resistivity     : 
TLFamily_KS2       .         Shallow Resistivity           : 
TLFamily_KS3       .         Medium Resistivity            : 
TLFamily_KS4       .         Deep Resistivity              : 
TLFamily_KS5       .         Extra Deep Resistivity        : 
TLFamily_LLD       .         Lateral Log Resistivity       : 
TLFamily_OKS3      .         Medium Resistivity Inverted   : 
TLFamily_RM        .         Mud Resistivity               : 
TLFamily_SP        .         Spontaneous Potential         : 
group              .         INI                           : 
~Curve Information
#_______________________________________________________________________________
#
#LOGNAME           .UNIT     LOG_ID                        : DESCRIPTION
#_______________________________________________________________________________
DEPTH              .m                                      : Measured Depth 
KS                 .ohm.m                                  : Potential Resistivity 
KS1                .ohm.m                                  : Extra Shallow Resistivity 
KS2                .ohm.m                                  : Shallow Resistivity 
KS3                .ohm.m                                  : Medium Resistivity 
KS4                .ohm.m                                  : Deep Resistivity 
KS5                .ohm.m                                  : Extra Deep Resistivity 
LLD                .ohm.m                                  : Lateral Log Resistivity 
OKS3               .ohm.m                                  : Medium Resistivity Inverted 
RM                 .ohm.m                                  : Mud Resistivity 
SP                 .mV                                     : Spontaneous Potential 
~Ascii
# ...
2658.4     6.5524     2.5357     8.425      16.1487    21.1468    14.5024    6.8056     13.317     0.294      22.1505   
2658.6     6.3588     2.5882     8.6639     15.6374    19.3871    13.5419    5.9545     13.6072    0.284      23.9791   
2658.8     6.1861     2.5712     8.4291     14.2259    16.7992    12.3338    3.9352     13.6317    0.289      24.3096   
2659       6.0691     2.2927     7.3277     12.3871    14.0676    10.9412    3.4008     13.6317    0.291      23.9045   
2659.2     6.091      1.9573     6.4359     11.0737    12.1041    9.7219     3.5338     13.6317    0.29       23.8097   
2659.4     6.1543     1.7799     6.0346     10.3508    11.0925    8.8623     5.4135     13.6317    0.293      25.2157   
2659.6     6.3005     1.8176     6.047      10.2652    10.634     8.377      7.1164     13.6317    0.293      21.3454   
2659.8     6.6069     1.8681     6.0668     10.3652    10.2142    8.0299     7.3958     13.6317    0.288      24.5163   
2660       6.8402     2.01       6.1642     10.5697    9.9228     7.6803     7.1659     13.6317    0.3        21.8999   
2660.2     6.9106     2.1832     6.3265     10.6092    9.5765     7.5051     6.4501     13.6317    0.29       23.5383   
2660.4     6.9106     2.211      6.4413     10.6055    9.2732     7.5486     6.1613     13.6317    0.29       22.2563   
2660.6     6.9106     2.211      6.6866     10.7403    9.0473     7.7212     6.3643     13.6317    0.292      22.8645   
2660.8     6.9106     2.211      7.0961     10.7605    8.8284     7.8281     5.8888     13.6317    0.289      23.4696   
2661       6.9106     2.211      6.9915     10.7069    8.611      7.835      5.8074     13.6317    0.284      22.6443   
2661.2     6.9106     2.211      7.0448     10.4942    8.5171     7.7488     5.4488     13.6317    0.288      22.1507   
2661.4     6.9106     2.211      7.0046     10.5397    8.5553     7.664      6.4633     13.6317    0.286      20.5445   
2661.6     6.9106     2.211      7.0077     10.7072    8.7855     7.6124     7.0444     0          0.284      22.0514   
2661.8     6.9106     2.211      6.8974     11.2494    9.1781     7.5829     6.5676     0          0.288      20.9501   
2662       6.9106     2.211      6.8605     11.9487    9.6974     7.5114     7.9088     0          0.284      22.583    
2662.2     6.9106     2.211      6.8605     12.5314    10.2854    7.5581     7.1676     0          0.284      21.581    
2662.4     6.9106     2.211      6.8605     12.7149    10.7779    7.5473     7.2898     0          0.29       21.8405   
2662.6     6.9106     2.211      6.8605     12.7309    11.5405    7.4036     8.6745     0          0.289      31.9793   
2662.8     6.9106     2.211      6.8605     12.7309    12.1699    7.1461     6.3546     0          0.289      31.5623   
2663       6.9106     2.211      6.8605     12.7922    12.141     6.8175     5.0916     0          0.29       34.3583   
2663.2     6.9106     2.211      6.8605     12.8906    11.4263    6.439      4.1307     0          0.288      30.2792   
2663.4     6.9106     2.211      6.8605     12.8906    10.7194    6.1134     4.002      0          0.287      29.443    
2663.6     6.9106     2.211      6.8605     12.8906    10.3914    5.8864     5.5276     0          0.288      29.6498   
2663.8     6.9106     2.211      6.8605     12.8906    10.6921    5.7685     5.8074     0          0          31.4999   
2664       1.3821     2.211      6.8605     12.8906    11.3847    5.831      5.5533     0          0          30.6602   
2664.2     0          0.6633     6.8605     12.8906    11.5151    5.8823     6.2786     0          0          25.4844   
2664.4     0          0          6.8605     12.8725    11.6986    5.8517     7.3522     0          0          25.8877   
2664.6     0          0          6.8605     12.8906    11.7258    5.7063     6.8638     0          0          24.4171   
2664.8     0          0          2.0581     12.8906    11.7258    5.4915     5.6595     0          0          26.9721   
2665       0          0          0          12.8906    11.7258    5.1863     4.1967     0          0          29.4322   
2665.2     0          0          0          12.8906    11.7258    4.8844     3.9314     0          0          30.1377   
2665.4     0          0          0          12.8906    11.7258    4.6861     4.9765     0          0          28.3444   
2665.6     0          0          0          12.8906    11.7258    4.5652     4.5271     0          0          28.1605   
2665.8     0          0          0          12.8906    11.7258    4.5919     4.1261     0          0          29.7089   
2666       0          0          0          3.8672     11.7258    4.6555     4.6242     0          0          31.1174   
2666.2     0          0          0          0          11.7258    4.7087     4.4668     0          0          30.9012   
2666.4     0          0          0          0          11.7258    4.8144     4.4441     0          0          29.9565   
2666.6     0          0          0          0          11.7258    4.9029     4.3463     0          0          30.1829   
2666.8     0          0          0          0          11.7258    5.0721     4.3708     0          0          28.1264   
2667       0          0          0          0          11.7258    5.2562     4.104      0          0          30.5131   
2667.2     0          0          0          0          11.7258    5.6242     3.903      0          0          28.4793   
2667.4     0          0          0          0          11.7258    5.9525     4.4987     0          0          27.5906   
2667.6     0          0          0          0          11.7258    6.3261     6.0883     0          0          28.2632   
2667.8     0          0          0          0          11.7258    6.6764     7.4601     0          0          27.1441   
2668       0          0          0          0          3.5178     7.3142     7.2794     0          0          27.9828   
2668.2     0          0          0          0          0          8.1152     6.3702     0          0          24.2019   
2668.4     0          0          0          0          0          8.7199     9.1116     0          0          23.8954   
2668.6     0          0          0          0          0          8.9044     9.5052     0          0          21.7438   
2668.8     0          0          0          0          0          8.9352     7.9735     0          0          25.1807   
2669       0          0          0          0          0          8.9352     6.8944     0          0          25.9553   
2669.2     0          0          0          0          0          8.9882     7.5896     0          0          30.5931   
2669.4     0          0          0          0          0          9.0412     7.3113     0          0          23.6112   
2669.6     0          0          0          0          0          9.0326     6.5525     0          0          28.7521   
2669.8     0          0          0          0          0          9.0412     6.1419     0          0          27.4558   
2670       0          0          0          0          0          9.0412     6.0838     0          0          26.1285   
2670.2     0          0          0          0          0          9.0412     6.417      0          0          27.6829   
2670.4     0          0          0          0          0          9.0412     6.9332     0          0          37.3109   
2670.6     0          0          0          0          0          9.0412     7.2572     0          0          25.4689   
2670.8     0          0          0          0          0          9.0412     7.333      0          0          31.8324   
2671       0          0          0          0          0          9.0412     9.1462     0          0          37.2858   
2671.2     0          0          0          0          0          9.0412     8.4946     0          0          42.1599   
2671.4     0          0          0          0          0          9.0412     5.8329     0          0          31.1002   
2671.6     0          0          0          0          0          9.0231     5.7872     0          0          31.5679   
