~Version
 VERS              .         2.0                           : CWLS LOG ASCII STANDARD - VERSION 2.0
 WRAP              .         NO                            : ONE LINE PER DEPTH STEP
 DLM               .         SPACE                         : DELIMITING CHARACTER(SPACE TAB OR COMMA)
~Well Information
#_______________________________________________________________________________
#
#PARAMETER_NAME    .UNIT     VALUE                         : DESCRIPTION
#_______________________________________________________________________________
STRT               .m        2511                          : First reference value
STOP               .m        2677                          : Last reference value
STEP               .m        0.2                           : Step increment
NULL               .         -9999                         : Missing value
COMP               .                                       : Company
WELL               .         605                           : Well name
FLD                .                                       : Field
LOC                .                                       : Location
CNTY               .                                       : County
STAT               .                                       : State
CTRY               .                                       : Country
SRVC               .                                       : Service Company
DATE               .                                       : Date
API                .                                       : API number
EREF               .m        134                           : 
X                  .m        225746                        : 
Y                  .m        235643                        : 
group              .         Pad6                          : 
Интер-р            .         Пузин                         : 
Куст               .         6                             : 
Статус             .         Не проверено                  : 
Тип                .         Эксплуатация                  : 
~Parameter Information Block
#_______________________________________________________________________________
#
#PARAMETER_NAME    .UNIT     VALUE                         : DESCRIPTION
#_______________________________________________________________________________
SET                .         LAS5                          : 
REAL_CREATION_DATE .         Ср апр 11 2012-13_17_24       : 
TLFamily_DEPTH     .         Measured Depth                : 
TLFamily_GR        .         Gamma Ray                     : 
TLFamily_TNPH      .         Neutron Porosity              : 
group              .         INI                           : 
~Curve Information
#_______________________________________________________________________________
#
#LOGNAME           .UNIT     LOG_ID                        : DESCRIPTION
#_______________________________________________________________________________
DEPTH              .m                                      : Measured Depth 
GR                 .gAPI                                   :  
TNPH               .v/v                                    : Neutron Porosity 
~Ascii
# ...
2559.6     377.89     0.345     
2559.8     355.24     0.325     
2560       328.74     0.299     
2560.2     307.87     0.283     
2560.4     303.82     0.284     
2560.6     307.52     0.301     
2560.8     310.9      0.321     
2561       321.58     0.345     
2561.2     332.23     0.337     
2561.4     328.5      0.328     
2561.6     325.24     0.342     
2561.8     328.69     0.345     
2562       333.76     0.333     
2562.2     332.89     0.319     
2562.4     318.68     0.313     
2562.6     307.1      0.312     
2562.8     305.6      0.308     
2563       309.97     0.327     
2563.2     311.66     0.343     
2563.4     311.5      0.35      
2563.6     308.87     0.339     
2563.8     302.43     0.339     
2564       292.04     0.363     
2564.2     282.39     0.368     
2564.4     270.86     0.363     
2564.6     245.52     0.346     
2564.8     216.88     0.323     
2565       200.69     0.305     
2565.2     202.31     0.292     
2565.4     209.53     0.305     
2565.6     208.44     0.333     
2565.8     204.99     0.324     
2566       202.22     0.317     
2566.2     201.06     0.325     
2566.4     199.5      0.326     
2566.6     195.35     0.326     
2566.8     183.24     0.335     
2567       169.63     0.323     
2567.2     159.62     0.3       
2567.4     152.17     0.293     
2567.6     146.01     0.29      
2567.8     142.06     0.279     
2568       145.99     0.287     
2568.2     155.73     0.316     
2568.4     163.4      0.325     
2568.6     166.16     0.314     
2568.8     170.46     0.299     
2569       178.73     0.293     
2569.2     185.5      0.288     
2569.4     195.74     0.286     
2569.6     194.61     0.291     
2569.8     170.08     0.297     
2570       149.77     0.296     
2570.2     145.33     0.29      
2570.4     139.05     0.273     
2570.6     128.73     0.257     
2570.8     124.24     0.254     
2571       120.91     0.257     
2571.2     120.35     0.254     
2571.4     120.51     0.258     
2571.6     119.34     0.252     
2571.8     117.13     0.244     
2572       118.09     0.252     
2572.2     122.48     0.256     
2572.4     124.61     0.253     
2572.6     123.34     0.259     
2572.8     123.77     0.272     
2573       129.32     0.283     
2573.2     133.44     0.277     
2573.4     133.24     0.269     
2573.6     134.23     0.274     
2573.8     136.89     0.275     
2574       138.55     0.276     
2574.2     138.55     0.286     
2574.4     139.83     0.292     
2574.6     142.37     0.296     
2574.8     142.91     0.296     
2575       139.79     0.298     
2575.2     132.47     0.307     
2575.4     122.13     0.31      
2575.6     119.63     0.315     
2575.8     123.62     0.307     
2576       122.6      0.308     
2576.2     117.98     0.299     
2576.4     111.12     0.283     
2576.6     106.57     0.268     
2576.8     111.07     0.263     
2577       120.8      0.285     
2577.2     130.14     0.318     
2577.4     137.98     0.321     
2577.6     142.79     0.323     
2577.8     143        0.324     
2578       137.48     0.313     
2578.2     130.32     0.297     
2578.4     122.81     0.287     
2578.6     115.17     0.285     
2578.8     113.08     0.289     
2579       120.35     0.309     
2579.2     129.86     0.334     
2579.4     139.31     0.336     
2579.6     150.09     0.314     
2579.8     158.49     0.3       
2580       161.53     0.297     
2580.2     159.93     0.313     
2580.4     158.85     0.317     
2580.6     162.7      0.307     
2580.8     170.94     0.313     
2581       180.83     0.332     
2581.2     189.93     0.329     
2581.4     189.67     0.335     
2581.6     184.71     0.348     
2581.8     174.44     0.322     
2582       162.82     0.321     
2582.2     160.98     0.317     
2582.4     168.75     0.315     
2582.6     175.17     0.312     
2582.8     179.87     0.317     
2583       189.72     0.334     
2583.2     190.14     0.339     
2583.4     168.59     0.32      
2583.6     149.17     0.313     
2583.8     142.76     0.312     
2584       140.26     0.31      
2584.2     136.3      0.314     
2584.4     130.38     0.297     
2584.6     130.19     0.276     
2584.8     138.5      0.278     
2585       147.46     0.283     
2585.2     153.11     0.275     
2585.4     154.1      0.273     
2585.6     149.18     0.288     
2585.8     143.78     0.29      
2586       141.34     0.296     
2586.2     136.67     0.293     
2586.4     133.14     0.291     
2586.6     133.06     0.292     
2586.8     134.54     0.276     
2587       135.42     0.256     
2587.2     137.87     0.249     
2587.4     138.66     0.254     
2587.6     139.87     0.265     
2587.8     142.6      0.268     
2588       141.86     0.277     
2588.2     139.61     0.277     
2588.4     139.73     0.277     
2588.6     142.19     0.272     
2588.8     139.83     0.27      
2589       134.44     0.267     
2589.2     134.35     0.272     
2589.4     136.08     0.274     
2589.6     134.94     0.276     
2589.8     132.71     0.286     
2590       133.92     0.298     
2590.2     132.36     0.3       
2590.4     127.42     0.279     
2590.6     121.13     0.243     
2590.8     110.45     0.216     
2591       92.21      0.195     
2591.2     76.56      0.186     
2591.4     81.2       0.192     
2591.6     109.16     0.216     
2591.8     135.61     0.256     
2592       145.88     0.271     
2592.2     146.59     0.277     
2592.4     145.94     0.285     
2592.6     143.11     0.286     
2592.8     140.35     0.29      
2593       137.57     0.288     
2593.2     135.12     0.286     
2593.4     133.13     0.278     
2593.6     131.4      0.269     
2593.8     133.27     0.274     
2594       135.41     0.276     
2594.2     136.6      0.278     
2594.4     137.72     0.299     
2594.6     137.99     0.3       
2594.8     136.5      0.28      
2595       137.96     0.262     
2595.2     143.36     0.263     
2595.4     147.86     0.29      
2595.6     148.53     0.325     
2595.8     144.41     0.324     
2596       139.05     0.296     
2596.2     139.68     0.282     
2596.4     145.65     0.273     
2596.6     150.2      0.267     
2596.8     151.85     0.261     
2597       153.56     0.263     
2597.2     154.58     0.275     
2597.4     154.26     0.282     
2597.6     155.19     0.28      
2597.8     155.47     0.287     
2598       153.82     0.293     
2598.2     151.48     0.294     
2598.4     151.08     0.299     
2598.6     150.62     0.288     
2598.8     146.26     0.281     
2599       140.76     0.278     
2599.2     136.29     0.271     
2599.4     134.92     0.275     
2599.6     132.05     0.287     
2599.8     127.88     0.282     
2600       125.77     0.277     
2600.2     126.74     0.279     
2600.4     128.45     0.275     
2600.6     131.76     0.264     
2600.8     133.49     0.269     
2601       129.66     0.278     
2601.2     124.56     0.282     
2601.4     119.54     0.278     
2601.6     113.7      0.273     
2601.8     104.55     0.263     
2602       103.02     0.267     
2602.2     117.68     0.276     
2602.4     132.96     0.27      
2602.6     141.25     0.284     
2602.8     145.33     0.289     
2603       144.57     0.289     
2603.2     142.49     0.294     
2603.4     141.18     0.305     
2603.6     142.17     0.3       
2603.8     141.78     0.294     
2604       142.98     0.298     
2604.2     142.64     0.302     
2604.4     140.63     0.298     
2604.6     142.68     0.294     
2604.8     148.26     0.292     
2605       150        0.287     
2605.2     148.53     0.29      
2605.4     151.23     0.292     
2605.6     152.5      0.29      
2605.8     151.3      0.289     
2606       149.68     0.301     
2606.2     146.14     0.316     
2606.4     140.12     0.309     
2606.6     138.06     0.308     
2606.8     138.21     0.292     
2607       144.28     0.265     
2607.2     151.43     0.27      
2607.4     154.77     0.276     
2607.6     151.63     0.267     
2607.8     146.13     0.26      
2608       146.94     0.253     
