~Version
 VERS              .         2.0                           : CWLS LOG ASCII STANDARD - VERSION 2.0
 WRAP              .         NO                            : ONE LINE PER DEPTH STEP
 DLM               .         SPACE                         : DELIMITING CHARACTER(SPACE TAB OR COMMA)
~Well Information
#_______________________________________________________________________________
#
#PARAMETER_NAME    .UNIT     VALUE                         : DESCRIPTION
#_______________________________________________________________________________
STRT               .m        2511                          : First reference value
STOP               .m        2677                          : Last reference value
STEP               .m        0.2                           : Step increment
NULL               .         -9999                         : Missing value
COMP               .                                       : Company
WELL               .         605                           : Well name
FLD                .                                       : Field
LOC                .                                       : Location
CNTY               .                                       : County
STAT               .                                       : State
CTRY               .                                       : Country
SRVC               .                                       : Service Company
DATE               .                                       : Date
API                .                                       : API number
EREF               .m        134                           : 
X                  .m        225746                        : 
Y                  .m        235643                        : 
group              .         Pad6                          : 
Интер-р            .         Пузин                         : 
Куст               .         6                             : 
Статус             .         Не проверено                  : 
Тип                .         Эксплуатация                  : 
~Parameter Information Block
#_______________________________________________________________________________
#
#PARAMETER_NAME    .UNIT     VALUE                         : DESCRIPTION
#_______________________________________________________________________________
SET                .         LAS3                          : 
REAL_CREATION_DATE .         Ср апр 11 2012-13_17_23       : 
TLFamily_DEPTH     .         Measured Depth                : 
TLFamily_KS        .         Potential Resistivity         : 
TLFamily_KS1       .         Extra Shallow Resistivity     : 
TLFamily_KS2       .         Shallow Resistivity           : 
TLFamily_KS3       .         Medium Resistivity            : 
TLFamily_KS4       .         Deep Resistivity              : 
TLFamily_KS5       .         Extra Deep Resistivity        : 
TLFamily_LLD       .         Lateral Log Resistivity       : 
TLFamily_OKS3      .         Medium Resistivity Inverted   : 
TLFamily_RM        .         Mud Resistivity               : 
TLFamily_SP        .         Spontaneous Potential         : 
group              .         INI                           : 
~Curve Information
#_______________________________________________________________________________
#
#LOGNAME           .UNIT     LOG_ID                        : DESCRIPTION
#_______________________________________________________________________________
DEPTH              .m                                      : Measured Depth 
KS                 .ohm.m                                  : Potential Resistivity 
KS1                .ohm.m                                  : Extra Shallow Resistivity 
KS2                .ohm.m                                  : Shallow Resistivity 
KS3                .ohm.m                                  : Medium Resistivity 
KS4                .ohm.m                                  : Deep Resistivity 
KS5                .ohm.m                                  : Extra Deep Resistivity 
LLD                .ohm.m                                  : Lateral Log Resistivity 
OKS3               .ohm.m                                  : Medium Resistivity Inverted 
RM                 .ohm.m                                  : Mud Resistivity 
SP                 .mV                                     : Spontaneous Potential 
~Ascii
# ...
2631.6     5.0848     1.367      3.5866     5.3004     4.7353     2.2277     4.6477     12.2625    0.292      29.1747   
2631.8     5.4325     1.3274     3.7156     5.8689     5.3692     2.5859     11.8337    13.8479    0.303      29.9975   
2632       5.7963     1.602      4.3643     6.7163     5.9922     3.0041     11.8128    14.0576    0.299      32.487    
2632.2     6.0295     2.0778     5.1895     7.6389     6.3772     3.5274     6.0209     13.1829    0.293      32.5159   
2632.4     6.1116     2.4842     5.7337     7.9562     6.6383     4.1394     3.4076     13.0981    0.295      33.1553   
2632.6     6.0647     2.274      5.5087     7.7094     7.3088     4.8653     3.2382     14.4553    0.298      30.0913   
2632.8     6.1565     2.0304     5.5119     7.6894     8.3676     5.6187     3.2582     17.1816    0.291      29.8919   
2633       6.4459     1.8007     5.6081     7.6729     9.1974     6.4626     3.9921     19.7674    0.286      28.9688   
2633.2     6.94       1.6944     5.3966     7.8071     9.7407     7.4482     6.9514     20.7287    0.292      25.9644   
2633.4     7.4337     1.8763     5.7862     8.2288     10.3094    8.2265     11.9941    20.1364    0.3        24.9314   
2633.6     7.6836     2.2179     6.4633     9.285      11.2651    8.5485     10.6007    19.9828    0.292      24.5869   
2633.8     7.8351     2.5358     7.187      10.0025    11.4878    8.6857     5.3684     20.4574    0.294      25.8186   
2634       8.0053     2.2586     6.7803     10.1747    10.7923    8.6107     5.1944     20.0984    0.297      25.6829   
2634.2     8.1979     2.1334     6.916      10.2039    9.879      8.2227     8.2686     18.5904    0.301      26.0455   
2634.4     8.3426     2.2955     7.6127     10.7326    9.5732     7.5619     10.0813    17.0236    0.296      27.6497   
2634.6     8.3486     2.5101     8.1895     11.1614    9.1205     7.1499     8.3341     15.9481    0.286      28.4573   
2634.8     8.279      2.5472     8.1485     11.2431    8.6047     6.8509     6.2587     15.0373    0.285      26.5171   
2635       8.1912     2.4595     8.0131     11.2086    7.9498     6.6515     5.8862     14.6705    0.288      25.9712   
2635.2     8.1441     2.3387     7.7256     11.3047    7.4264     6.5813     5.2865     14.8624    0.297      26.445    
2635.4     8.1018     2.2239     7.3638     11.4632    6.9796     6.8112     5.4442     15.6443    0.296      25.6306   
2635.6     8.1355     2.1635     7.0819     11.6376    6.9013     7.2832     5.4871     16.9148    0.296      24.1203   
2635.8     8.1635     2.1033     6.8346     11.7704    7.166      8.0907     5.5032     18.4931    0.298      22.9808   
2636       8.2448     2.0784     6.6613     12.0377    7.847      9.3427     5.5037     20.5645    0.298      24.3146   
2636.2     8.3855     2.0116     6.5985     12.7955    8.9841     11.0863    5.6386     23.1573    0.289      25.8955   
2636.4     8.5843     1.9723     6.6889     14.0106    10.5087    12.8865    6.6215     26.0181    0.29       23.2486   
2636.6     8.8844     2.0798     7.1646     15.4954    12.259     14.5052    7.7221     28.928     0.292      22.6498   
2636.8     9.2047     2.0091     7.3918     16.9712    14.1306    15.6108    11.598     30.3114    0.303      21.193    
2637       9.5651     2.206      7.9873     17.9007    15.655     16.1235    19.1386    29.9466    0.296      21.4617   
2637.2     9.8984     2.4128     8.2892     17.9962    16.6665    15.6108    10.9291    27.884     0.298      21.0795   
2637.4     10.1108    2.4265     8.2747     17.2788    17.1155    14.4417    9.7492     25.7028    0.298      17.6098   
2637.6     10.2851    2.4196     8.3274     16.3734    17.1976    13.0213    9.0841     24.0765    0.304      18.2245   
2637.8     10.4244    2.3726     8.3547     15.7143    17.1976    11.8213    9.3665     23.1058    0.291      19.9874   
2638       10.5459    2.4238     8.6222     15.3178    17.1518    10.7271    9.2157     22.5632    0.286      20.7291   
2638.2     10.6359    2.4076     8.5964     15.0767    17.2047    9.8861     8.7        22.2295    0.291      19.2329   
2638.4     10.7505    2.3726     8.5991     15.0409    17.0342    9.3248     8.2467     22.1895    0.301      19.7821   
2638.6     10.8321    2.3328     8.5416     15.486     17.1207    8.9142     8.7378     22.4726    0.302      16.6342   
2638.8     10.9161    2.3655     8.7451     16.5779    17.5518    8.5917     10.4415    23.012     0.296      17.3345   
2639       11.0369    2.4743     9.3287     17.9518    17.8586    8.39       13.2355    22.8731    0.296      18.7782   
2639.2     11.1657    2.5343     9.2979     19.1024    17.7571    8.2376     11.5674    22.0068    0.3        19.0383   
2639.4     11.2708    2.5343     9.1673     19.4978    17.4213    8.1066     11.2633    21.1657    0.294      17.1106   
2639.6     11.3285    2.5343     9.2217     19.8966    17.5561    8.0564     11.7245    20.8543    0.289      15.0269   
2639.8     11.3141    2.5708     9.5619     20.6619    18.3273    8.3241     12.9711    20.9844    0.3        13.9872   
2640       11.1926    2.6572     10.0125    21.893     19.7174    8.8985     12.458     21.5015    0.296      12.8472   
2640.2     11.0097    2.8075     10.5115    23.4116    21.6482    9.5511     13.5653    22.3126    0.299      14.3341   
2640.4     10.754     2.9501     11.1221    25.242     24.2027    10.1067    12.9087    23.3517    0.297      13.8846   
2640.6     10.4943    3.0602     11.8361    26.3784    26.3471    10.4176    12.2936    23.7699    0.301      17.7016   
2640.8     10.2784    3.0336     11.7492    26.3869    27.2547    10.3703    8.9403     23.2135    0.286      18.0224   
2641       10.0758    2.901      11.1352    25.3695    27.1551    9.9142     8.961      21.6145    0.297      17.8727   
2641.2     9.9371     2.7693     10.7868    24.4617    27.136     9.2948     8.7743     20.4718    0.297      18.9164   
2641.4     9.8087     2.693      10.3759    23.6444    26.7441    8.8854     8.5828     19.7191    0.299      18.9214   
2641.6     9.7223     2.642      10.0573    22.5767    25.7949    8.6477     7.837      19.3595    0.305      18.6449   
2641.8     9.6801     2.5841     9.5324     21.1623    24.2084    8.4228     7.1916     19.2969    0.303      16.2021   
2642       9.6863     2.4804     8.9751     19.7242    22.3968    8.1573     7.5118     19.4138    0.292      16.1793   
2642.2     9.8038     2.3901     8.6819     18.7377    21.0706    7.9037     7.6766     19.6624    0.291      15.8113   
2642.4     9.9732     2.3291     8.4473     18.1771    20.2804    7.8229     8.8997     19.8623    0.304      16.7932   
2642.6     10.1874    2.3187     8.4069     17.9714    19.9711    7.8229     9.8506     19.872     0.304      17.2125   
2642.8     10.4015    2.3924     8.4783     18.0875    20.0269    7.8229     10.9438    19.5673    0.3        14.7155   
2643       10.6069    2.464      8.6946     18.4265    20.4287    7.8229     11.4301    19.1774    0.3        17.8959   
2643.2     10.7417    2.5217     8.8796     18.8638    20.9751    7.8335     12.0277    18.6655    0.303      15.9084   
2643.4     10.7019    2.631      9.2388     19.3266    21.4546    7.8568     11.9381    17.9       0.295      17.894    
2643.6     10.6515    2.7068     9.6427     19.787     21.8703    7.8229     11.3345    17.0505    0.291      21.336    
2643.8     10.6388    2.7003     9.8509     19.9649    22.1701    7.8229     10.8943    16.2204    0.301      17.5554   
2644       10.6388    2.7349     9.9462     19.9306    22.1648    7.7943     10.2159    15.562     0.296      17.6566   
2644.2     10.6388    2.6959     9.9516     19.8668    22.0771    7.771      9.5763     14.9991    0.299      17.1742   
2644.4     10.6388    2.6801     9.7944     19.7316    21.8645    7.8284     8.9372     14.6362    0.299      18.2546   
2644.6     10.5962    2.5882     9.5325     19.5599    21.7769    7.927      9.8157     14.1893    0.304      20.6454   
2644.8     10.5397    2.6773     9.7604     19.708     21.9421    8.1443     11.3871    13.6746    0.291      21.3687   
