~Version
 VERS              .         2.0                           : CWLS LOG ASCII STANDARD - VERSION 2.0
 WRAP              .         NO                            : ONE LINE PER DEPTH STEP
 DLM               .         SPACE                         : DELIMITING CHARACTER(SPACE TAB OR COMMA)
~Well Information
#_______________________________________________________________________________
#
#PARAMETER_NAME    .UNIT     VALUE                         : DESCRIPTION
#_______________________________________________________________________________
STRT               .m        2511                          : First reference value
STOP               .m        2677                          : Last reference value
STEP               .m        0.2                           : Step increment
NULL               .         -9999                         : Missing value
COMP               .                                       : Company
WELL               .         605                           : Well name
FLD                .                                       : Field
LOC                .                                       : Location
CNTY               .                                       : County
STAT               .                                       : State
CTRY               .                                       : Country
SRVC               .                                       : Service Company
DATE               .                                       : Date
API                .                                       : API number
EREF               .m        134                           : 
X                  .m        225746                        : 
Y                  .m        235643                        : 
group              .         Pad6                          : 
Интер-р            .         Пузин                         : 
Куст               .         6                             : 
Статус             .         Не проверено                  : 
Тип                .         Эксплуатация                  : 
~Parameter Information Block
#_______________________________________________________________________________
#
#PARAMETER_NAME    .UNIT     VALUE                         : DESCRIPTION
#_______________________________________________________________________________
SET                .         LAS5                          : 
REAL_CREATION_DATE .         Ср апр 11 2012-13_17_24       : 
TLFamily_DEPTH     .         Measured Depth                : 
TLFamily_GR        .         Gamma Ray                     : 
TLFamily_TNPH      .         Neutron Porosity              : 
group              .         INI                           : 
~Curve Information
#_______________________________________________________________________________
#
#LOGNAME           .UNIT     LOG_ID                        : DESCRIPTION
#_______________________________________________________________________________
DEPTH              .m                                      : Measured Depth 
GR                 .gAPI                                   :  
TNPH               .v/v                                    : Neutron Porosity 
~Ascii
# ...
2608.2     148.38     0.241     
2608.4     151.08     0.22      
2608.6     153.54     0.201     
2608.8     152.43     0.193     
2609       144.85     0.19      
2609.2     114.18     0.189     
2609.4     79.08      0.176     
2609.6     61.94      0.162     
2609.8     53.31      0.148     
2610       50.27      0.146     
2610.2     52.1       0.149     
2610.4     55.68      0.164     
2610.6     58.5       0.173     
2610.8     58.46      0.178     
2611       59.8       0.177     
2611.2     60.91      0.173     
2611.4     62.78      0.171     
2611.6     66.09      0.169     
2611.8     68.24001   0.162     
2612       65.37      0.157     
2612.2     57.64      0.139     
2612.4     53.12      0.116     
2612.6     50.23      0.096     
2612.8     51.5       0.092     
2613       54.76      0.101     
2613.2     59.28      0.112     
2613.4     66.75      0.127     
2613.6     76.44      0.147     
2613.8     83.84      0.159     
2614       86.79      0.164     
2614.2     88.25      0.171     
2614.4     88.12      0.176     
2614.6     86.92001   0.183     
2614.8     85.48      0.188     
2615       84.5       0.191     
2615.2     83.21999   0.185     
2615.4     79.29      0.179     
2615.6     74.75999   0.17      
2615.8     72.14      0.165     
2616       71.59      0.173     
2616.2     71.31      0.19      
2616.4     70.97      0.197     
2616.6     73.09      0.194     
2616.8     71.42      0.192     
2617       66.68999   0.189     
2617.2     63.16      0.185     
2617.4     63.55      0.186     
2617.6     68.50999   0.188     
2617.8     75.94      0.19      
2618       81.59      0.188     
2618.2     84.69      0.179     
2618.4     85.25      0.17      
2618.6     84.46999   0.17      
2618.8     79.32999   0.176     
2619       70.35      0.174     
2619.2     64.78      0.179     
2619.4     61.87      0.185     
2619.6     57.57      0.183     
2619.8     54.54      0.175     
2620       55.41      0.169     
2620.2     56.52      0.166     
2620.4     56.92      0.172     
2620.6     56.03      0.179     
2620.8     54.93      0.186     
2621       54.65      0.188     
2621.2     56.23      0.188     
2621.4     58.77      0.189     
2621.6     61.02      0.19      
2621.8     59.71      0.191     
2622       55.79      0.188     
2622.2     54.92      0.182     
2622.4     54.48      0.167     
2622.6     52.24      0.152     
2622.8     53.99      0.15      
2623       57.93      0.157     
2623.2     61.38      0.158     
2623.4     61.25      0.144     
2623.6     56.46      0.128     
2623.8     48.84      0.104     
2624       39.86      0.082     
2624.2     35.51      0.078     
2624.4     37.87      0.078     
2624.6     41.27      0.07      
2624.8     44.12      0.075     
2625       48.29      0.098     
2625.2     52.69      0.117     
2625.4     56.04      0.134     
2625.6     59.01      0.157     
2625.8     61.81      0.168     
2626       60.62      0.172     
2626.2     58.3       0.173     
2626.4     55.3       0.161     
2626.6     48.35      0.139     
2626.8     39.53      0.117     
2627       32.44      0.102     
2627.2     28.18      0.095     
2627.4     28.09      0.105     
2627.6     31.05      0.12      
2627.8     33.34      0.141     
2628       36.48      0.155     
2628.2     42.55      0.161     
2628.4     49.49      0.187     
2628.6     54.76      0.19      
2628.8     53.47      0.18      
2629       50.45      0.177     
2629.2     49.52      0.175     
2629.4     48.91      0.185     
2629.6     46.09      0.19      
2629.8     45.41      0.191     
2630       47.68      0.189     
2630.2     48.69      0.185     
2630.4     45.98      0.18      
2630.6     44.51      0.175     
2630.8     44.14      0.172     
2631       44.63      0.169     
2631.2     45.5       0.16      
2631.4     44.89      0.153     
2631.6     43.54      0.148     
2631.8     43.79      0.142     
2632       45.3       0.14      
2632.2     48.69      0.151     
2632.4     52.9       0.181     
2632.6     57.13      0.213     
2632.8     65.96      0.22      
2633       80.63      0.226     
2633.2     97.98      0.239     
2633.4     110.37     0.248     
2633.6     116.07     0.264     
2633.8     117.67     0.26      
2634       116.02     0.231     
2634.2     108.37     0.208     
2634.4     94.03      0.203     
2634.6     78.81      0.205     
2634.8     69.17      0.208     
2635       64.96001   0.21      
2635.2     64.35001   0.207     
2635.4     65.48      0.205     
2635.6     67.81999   0.201     
2635.8     71.67      0.2       
2636       77.43      0.214     
2636.2     85.03      0.229     
2636.4     93.75      0.249     
2636.6     101.71     0.283     
2636.8     106.93     0.302     
2637       109.88     0.313     
2637.2     111.64     0.294     
2637.4     108.79     0.266     
2637.6     103.57     0.244     
2637.8     102.21     0.216     
2638       102.1      0.211     
2638.2     98.91      0.209     
2638.4     98.6       0.209     
2638.6     105.6      0.217     
2638.8     113.99     0.221     
2639       116.95     0.221     
2639.2     117.37     0.23      
2639.4     114.42     0.248     
2639.6     111.08     0.272     
2639.8     109.42     0.286     
2640       105.59     0.298     
2640.2     105.27     0.282     
2640.4     112.04     0.28      
2640.6     120.08     0.278     
2640.8     121.39     0.289     
2641       114.85     0.297     
2641.2     106.28     0.29      
2641.4     100.84     0.248     
2641.6     98.23      0.223     
2641.8     96.12      0.216     
2642       96.17      0.225     
2642.2     99.22      0.242     
2642.4     104.68     0.245     
2642.6     110.24     0.259     
2642.8     115.26     0.271     
2643       117.54     0.27      
2643.2     118.7      0.276     
2643.4     119.36     0.292     
2643.6     120.6      0.268     
2643.8     122.33     0.257     
2644       122.06     0.245     
2644.2     119.28     0.22      
2644.4     110.64     0.218     
2644.6     101.74     0.211     
2644.8     95.19      0.195     
2645       88.4       0.183     
2645.2     80.15      0.183     
2645.4     75.03999   0.186     
2645.6     69.78      0.183     
2645.8     60.9       0.177     
2646       52.41      0.179     
2646.2     48.5       0.181     
2646.4     45.16      0.188     
2646.6     42.4       0.199     
2646.8     40.86      0.197     
2647       43.18      0.192     
2647.2     47.41      0.194     
2647.4     44.89      0.202     
2647.6     42.57      0.21      
2647.8     42.93      0.215     
2648       43.57      0.215     
2648.2     43.41      0.221     
2648.4     42.69      0.246     
2648.6     35.17      0.29      
2648.8     25.28      0.344     
2649       19.08      0.383     
2649.2     11.11      0.415     
2649.4     13.05      0.39      
2649.6     18.1       0.359     
2649.8     28.84      0.324     
2650       34.92      0.301     
2650.2     42.37      0.261     
2650.4     66.87      0.25      
2650.6     90.45999   0.221     
2650.8     92.51      0.225     
2651       87.61      0.232     
2651.2     72.19      0.243     
2651.4     59.24      0.252     
2651.6     56.68      0.243     
2651.8     62.46      0.224     
2652       72.15      0.208     
2652.2     83.25      0.212     
2652.4     97.88      0.218     
2652.6     109.48     0.227     
2652.8     117.15     0.231     
2653       119.65     0.227     
2653.2     118.03     0.211     
2653.4     111.96     0.208     
2653.6     106.06     0.212     
2653.8     101.95     0.227     
2654       98.74      0.242     
2654.2     95.86      0.255     
2654.4     93.82      0.253     
2654.6     95.34      0.245     
2654.8     91.84      0.243     
2655       86.67      0.248     
2655.2     89.13      0.257     
2655.4     95.56      0.262     
2655.6     99.85      0.249     
2655.8     100.4      0.239     
2656       96.23      0.231     
2656.2     91.33      0.222     
2656.4     86.09      0.224     
2656.6     83.21      0.23      
