~Version
 VERS              .         2.0                           : CWLS LOG ASCII STANDARD - VERSION 2.0
 WRAP              .         NO                            : ONE LINE PER DEPTH STEP
 DLM               .         SPACE                         : DELIMITING CHARACTER(SPACE TAB OR COMMA)
~Well Information
#_______________________________________________________________________________
#
#PARAMETER_NAME    .UNIT     VALUE                         : DESCRIPTION
#_______________________________________________________________________________
STRT               .m        2511                          : First reference value
STOP               .m        2677                          : Last reference value
STEP               .m        0.2                           : Step increment
NULL               .         -9999                         : Missing value
COMP               .                                       : Company
WELL               .         605                           : Well name
FLD                .                                       : Field
LOC                .                                       : Location
CNTY               .                                       : County
STAT               .                                       : State
CTRY               .                                       : Country
SRVC               .                                       : Service Company
DATE               .                                       : Date
API                .                                       : API number
EREF               .m        134                           : 
X                  .m        225746                        : 
Y                  .m        235643                        : 
group              .         Pad6                          : 
Интер-р            .         Пузин                         : 
Куст               .         6                             : 
Статус             .         Не проверено                  : 
Тип                .         Эксплуатация                  : 
~Parameter Information Block
#_______________________________________________________________________________
#
#PARAMETER_NAME    .UNIT     VALUE                         : DESCRIPTION
#_______________________________________________________________________________
SET                .         LAS3                          : 
REAL_CREATION_DATE .         Ср апр 11 2012-13_17_23       : 
TLFamily_DEPTH     .         Measured Depth                : 
TLFamily_KS        .         Potential Resistivity         : 
TLFamily_KS1       .         Extra Shallow Resistivity     : 
TLFamily_KS2       .         Shallow Resistivity           : 
TLFamily_KS3       .         Medium Resistivity            : 
TLFamily_KS4       .         Deep Resistivity              : 
TLFamily_KS5       .         Extra Deep Resistivity        : 
TLFamily_LLD       .         Lateral Log Resistivity       : 
TLFamily_OKS3      .         Medium Resistivity Inverted   : 
TLFamily_RM        .         Mud Resistivity               : 
TLFamily_SP        .         Spontaneous Potential         : 
group              .         INI                           : 
~Curve Information
#_______________________________________________________________________________
#
#LOGNAME           .UNIT     LOG_ID                        : DESCRIPTION
#_______________________________________________________________________________
DEPTH              .m                                      : Measured Depth 
KS                 .ohm.m                                  : Potential Resistivity 
KS1                .ohm.m                                  : Extra Shallow Resistivity 
KS2                .ohm.m                                  : Shallow Resistivity 
KS3                .ohm.m                                  : Medium Resistivity 
KS4                .ohm.m                                  : Deep Resistivity 
KS5                .ohm.m                                  : Extra Deep Resistivity 
LLD                .ohm.m                                  : Lateral Log Resistivity 
OKS3               .ohm.m                                  : Medium Resistivity Inverted 
RM                 .ohm.m                                  : Mud Resistivity 
SP                 .mV                                     : Spontaneous Potential 
~Ascii
# ...
2578       9.7007     2.7337     9.4238     20.6477    25.1818    18.3635    9.7557     18.1087    0.3        18.9611   
2578.2     9.5863     2.7732     9.6247     20.4722    24.7248    18.2994    9.3125     17.7662    0.295      17.8522   
2578.4     9.4759     2.7795     9.6233     19.7133    23.7336    18.0519    7.4468     17.8867    0.292      19.6136   
2578.6     9.4191     2.5763     9.1896     18.3768    22.3786    17.746     6.4297     18.8189    0.291      19.819    
2578.8     9.4138     2.4099     8.8472     17.1985    21.45      17.4549    6.1371     20.1043    0.302      18.2727   
2579       9.4307     2.3728     8.5688     16.592     20.9962    17.3645    6.2675     21.1102    0.3        18.4628   
2579.2     9.5479     2.4115     8.5159     16.367     20.6341    17.5792    7.6313     22.0595    0.302      19.3211   
2579.4     9.813      2.3255     8.0362     16.2988    20.3049    17.8523    7.3228     23.021     0.296      18.9011   
2579.6     10.0433    2.3447     8.404      16.4065    20.2521    18.0737    9.0677     23.7965    0.296      19.0996   
2579.8     10.282     2.4681     8.4846     16.7525    20.574     18.2816    11.0519    24.0056    0.299      18.8722   
2580       10.4373    2.5765     8.6865     17.22      20.6216    18.5856    10.6689    23.9073    0.304      18.1829   
2580.2     10.5079    2.5984     8.8281     17.4695    20.6455    18.6873    9.2801     24.2293    0.306      18.3552   
2580.4     10.5883    2.642      9.0866     17.4312    20.356     18.7875    9.2826     24.7013    0.307      19.1234   
2580.6     10.7682    2.5526     8.999      17.0887    19.9488    18.9662    8.5749     25.0848    0.302      18.4884   
2580.8     10.9607    2.4932     8.9661     17.0157    19.5907    19.097     9.3908     25.2513    0.296      19.2397   
2581       11.2061    2.5268     9.1025     17.1935    19.638     19.3227    10.7689    25.0471    0.296      17.488    
2581.2     11.4095    2.5827     9.3359     17.4346    19.8027    19.4872    9.5069     24.6346    0.3        16.4958   
2581.4     11.6241    2.5096     9.1243     17.763     19.9913    19.7668    11.4824    24.0108    0.296      16.4843   
2581.6     11.8021    2.5646     9.3008     18.1788    20.192     19.9728    12.846     22.709     0.292      17.3314   
2581.8     12.0089    2.5882     9.4788     19.0065    20.5403    20.2564    12.4448    21.053     0.29       18.0756   
2582       12.1674    2.6515     9.8653     19.7946    21.0767    20.6823    13.5756    19.8055    0.29       19.5125   
2582.2     12.2808    2.7315     10.1098    20.6078    21.9799    21.1483    14.0309    19.0391    0.295      19.911    
2582.4     12.2898    2.8429     10.5965    21.4111    23.2399    21.697     16.2481    18.7097    0.291      18.7736   
2582.6     12.1927    2.9843     11.0992    22.6741    24.4226    22.32      14.8279    18.2897    0.296      18.8963   
2582.8     11.9389    3.0734     11.5926    24.1889    25.588     22.7692    15.4394    17.1278    0.301      19.4679   
2583       11.5337    3.2913     12.1717    25.9106    26.5605    22.8579    19.3761    14.4294    0.307      18.1037   
2583.2     11.1831    3.4435     12.9638    26.9765    27.0929    22.6292    12.3137    11.5033    0.302      19.0723   
2583.4     10.8688    3.3701     12.9059    27.1025    27.1261    22.1281    8.5736     10.0013    0.307      18.2364   
2583.6     10.495     3.2288     12.4381    26.9287    26.8498    21.1819    7.9447     8.9944     0.308      17.5586   
2583.8     10.0604    3.1809     12.5374    26.919     26.9207    20.2417    9.1722     8.8879     0.307      17.7618   
2584       9.4603     3.1997     11.9649    26.9035    27.1594    19.5941    8.2045     8.8505     0.297      19.6932   
2584.2     8.7288     3.1146     12.0518    26.8688    27.4471    19.2035    7.3954     8.8346     0.299      19.2604   
2584.4     7.8796     3.2199     11.9247    27.663     28.5404    18.4665    9.2085     8.7105     0.296      19.4193   
2584.6     7.4092     3.3369     12.3788    27.9888    28.7152    17.4465    7.875      8.2431     0.296      20.2708   
2584.8     7.2935     3.0096     11.9582    25.9688    26.4452    16.0862    4.4695     7.5931     0.295      19.9471   
2585       7.211      2.8607     9.7663     22.3736    23.198     14.3276    3.1328     7.4402     0.294      20.3623   
2585.2     7.0065     2.8576     8.6342     20.1251    21.1139    12.3242    3.5202     7.7488     0.293      18.7362   
2585.4     6.6202     2.7462     8.0261     18.6365    19.8997    10.8914    3.8261     8.2695     0.298      18.1249   
2585.6     6.2193     2.3928     7.9114     17.3735    18.9705    10.0716    4.0578     8.645      0.3        18.5478   
2585.8     5.9967     2.1777     7.8515     16.1858    18.1811    9.493      4.6356     8.7561     0.3        17.1816   
2586       5.814      2.2723     7.5869     15.045     17.6195    8.9897     4.803      8.6915     0.296      19.3687   
2586.2     5.7921     2.0395     7.1734     13.7527    16.7178    8.472      3.9596     8.7603     0.296      19.902    
2586.4     5.7921     1.9196     6.7767     12.069     15.3071    7.9067     3.5145     8.9614     0.297      19.295    
2586.6     5.7921     1.9288     6.0155     11.1495    13.708     7.2923     3.477      9.2739     0.297      19.0798   
2586.8     5.7921     1.9261     5.9028     10.8355    12.7845    6.7534     3.6342     9.5711     0.296      19.4346   
2587       5.7575     1.935      5.6851     10.727     12.2008    6.4405     4.4093     10.0576    0.292      20.6489   
2587.2     5.7921     2.0113     5.6555     10.5127    11.7673    6.2677     3.8272     10.4657    0.29       20.3236   
2587.4     5.8815     1.9728     5.6405     9.9189     11.2121    6.2259     4.0932     10.9369    0.285      20.0212   
2587.6     5.9095     1.961      5.574      8.9655     10.7138    6.1315     4.3151     11.5025    0.292      20.4746   
2587.8     5.9994     1.9415     5.624      8.4495     10.1598    6.1408     4.3566     12.4575    0.292      19.3555   
2588       6.1049     1.9612     5.5923     8.3518     9.5604     6.3985     4.1296     13.4178    0.292      20.1467   
2588.2     6.2121     1.9415     5.5842     8.6318     9.2614     6.8311     4.0441     13.9718    0.298      19.9757   
2588.4     6.403      1.8775     5.5463     8.6836     9.4601     7.3999     4.088      14.3068    0.305      21.058    
2588.6     6.6563     1.8696     5.4516     8.6836     9.9824     8.0196     5.0755     15.3445    0.306      19.876    
2588.8     6.8818     1.8608     5.6506     8.8781     10.2838    8.7567     5.5428     17.0605    0.301      20.8636   
2589       6.9746     2.0707     6.1104     9.5275     10.4315    9.4166     9.6027     17.5012    0.304      19.7184   
2589.2     7.0481     2.287      6.7364     10.1345    10.7333    9.8974     6.3998     16.7723    0.303      20.9233   
2589.4     7.2148     2.2456     6.6636     10.3114    11.1491    10.1236    6.0637     15.4119    0.304      18.6281   
2589.6     7.3523     2.2487     6.622      10.088     10.211     10.2082    5.4952     14.3919    0.295      19.6314   
2589.8     7.5194     2.2448     6.6139     9.9702     9.9558     10.4148    5.4561     13.5722    0.293      20.2424   
2590       7.6747     2.1614     6.652      10.0133    10.8809    11.0313    5.5114     13.2378    0.291      19.613    
2590.2     7.9224     2.1173     6.977      10.1416    11.8768    11.9035    5.5693     13.0105    0.294      21.4743   
2590.4     8.1788     2.14       6.8646     10.5314    11.9366    13.3074    6.203      13.0135    0.29       20.5765   
2590.6     8.3672     2.0295     7.0281     11.1846    11.9889    15.3145    5.8443     12.9609    0.291      22.5058   
2590.8     8.4048     2.0614     6.9234     11.9662    12.4195    17.8232    5.6573     13.2119    0.287      20.5264   
2591       8.4782     2.1921     8.5045     13.0474    13.9222    20.0749    13.1825    13.6506    0.303      21.1248   
2591.2     8.5592     2.3371     10.4555    14.1886    15.6551    21.614     54.5443    12.9961    0.299      21.2122   
