~Version
 VERS              .         2.0                           : CWLS LOG ASCII STANDARD - VERSION 2.0
 WRAP              .         NO                            : ONE LINE PER DEPTH STEP
 DLM               .         SPACE                         : DELIMITING CHARACTER(SPACE TAB OR COMMA)
~Well Information
#_______________________________________________________________________________
#
#PARAMETER_NAME    .UNIT     VALUE                         : DESCRIPTION
#_______________________________________________________________________________
STRT               .m        2511                          : First reference value
STOP               .m        2677                          : Last reference value
STEP               .m        0.2                           : Step increment
NULL               .         -9999                         : Missing value
COMP               .                                       : Company
WELL               .         605                           : Well name
FLD                .                                       : Field
LOC                .                                       : Location
CNTY               .                                       : County
STAT               .                                       : State
CTRY               .                                       : Country
SRVC               .                                       : Service Company
DATE               .                                       : Date
API                .                                       : API number
EREF               .m        134                           : 
X                  .m        225746                        : 
Y                  .m        235643                        : 
group              .         Pad6                          : 
Интер-р            .         Пузин                         : 
Куст               .         6                             : 
Статус             .         Не проверено                  : 
Тип                .         Эксплуатация                  : 
~Parameter Information Block
#_______________________________________________________________________________
#
#PARAMETER_NAME    .UNIT     VALUE                         : DESCRIPTION
#_______________________________________________________________________________
SET                .         LAS3                          : 
REAL_CREATION_DATE .         Ср апр 11 2012-13_17_23       : 
TLFamily_DEPTH     .         Measured Depth                : 
TLFamily_KS        .         Potential Resistivity         : 
TLFamily_KS1       .         Extra Shallow Resistivity     : 
TLFamily_KS2       .         Shallow Resistivity           : 
TLFamily_KS3       .         Medium Resistivity            : 
TLFamily_KS4       .         Deep Resistivity              : 
TLFamily_KS5       .         Extra Deep Resistivity        : 
TLFamily_LLD       .         Lateral Log Resistivity       : 
TLFamily_OKS3      .         Medium Resistivity Inverted   : 
TLFamily_RM        .         Mud Resistivity               : 
TLFamily_SP        .         Spontaneous Potential         : 
group              .         INI                           : 
~Curve Information
#_______________________________________________________________________________
#
#LOGNAME           .UNIT     LOG_ID                        : DESCRIPTION
#_______________________________________________________________________________
DEPTH              .m                                      : Measured Depth 
KS                 .ohm.m                                  : Potential Resistivity 
KS1                .ohm.m                                  : Extra Shallow Resistivity 
KS2                .ohm.m                                  : Shallow Resistivity 
KS3                .ohm.m                                  : Medium Resistivity 
KS4                .ohm.m                                  : Deep Resistivity 
KS5                .ohm.m                                  : Extra Deep Resistivity 
LLD                .ohm.m                                  : Lateral Log Resistivity 
OKS3               .ohm.m                                  : Medium Resistivity Inverted 
RM                 .ohm.m                                  : Mud Resistivity 
SP                 .mV                                     : Spontaneous Potential 
~Ascii
# ...
2551.2     6.4296     2.2561     7.1298     11.5537    8.297      5.2275     4.937      11.3058    0.308      23.5874   
2551.4     6.4764     2.2631     6.9885     11.5684    8.3411     5.2718     4.5637     11.4519    0.308      22.8852   
2551.6     6.4845     2.211      6.8323     11.6275    8.5622     5.2237     5.0791     11.682     0.308      22.7561   
2551.8     6.4868     2.3121     7.1112     11.6558    8.7416     5.2083     5.4839     11.6212    0.307      24.9561   
2552       6.5377     2.2809     6.9912     11.5883    8.8299     5.2275     4.5727     11.465     0.302      22.918    
2552.2     6.5029     2.2428     6.9506     11.3711    8.9964     5.1926     4.9635     11.46      0.305      24.0787   
2552.4     6.4417     2.3665     7.2732     11.424     9.2186     5.0765     5.0297     11.5723    0.308      22.6564   
2552.6     6.4548     2.3112     7.1556     11.2824    9.2401     5.0444     4.6699     11.602     0.303      22.5408   
2552.8     6.4845     2.2648     7.07       10.9819    9.0865     4.9181     4.8503     11.5529    0.307      22.847    
2553       6.4845     2.231      7.01       10.7535    9.0105     4.7898     4.786      11.5529    0.302      23.2011   
2553.2     6.4845     2.2209     6.9048     10.6699    8.9521     4.6719     4.8082     11.6443    0.298      24.6848   
2553.4     6.5271     2.2399     6.9023     10.654     8.8938     4.5949     4.7332     11.8724    0.299      23.5783   
2553.6     6.5377     2.211      6.8605     10.6077    8.836      4.5215     4.8977     12.1072    0.299      24.4647   
2553.8     6.5377     2.2245     6.908      10.6914    8.8222     4.4264     5.2324     12.2317    0.296      21.8478   
2554       6.5377     2.2648     7.0289     10.8171    8.7555     4.3353     5.1693     12.2626    0.296      23.1643   
2554.2     6.5191     2.2662     7.0056     10.8531    8.5985     4.2562     5.0894     12.1977    0.296      22.3076   
2554.4     6.4845     2.3022     7.0038     10.6778    8.3485     4.1785     4.4397     12.3226    0.296      22.5742   
2554.6     6.4845     2.2169     6.7734     10.5367    8.0897     4.0615     4.4612     12.7237    0.296      22.676    
2554.8     6.4845     2.2036     6.8023     10.3632    7.8892     4.0093     4.5115     13.2727    0.296      21.616    
2555       6.5735     2.1369     6.5864     10.1945    7.7645     4.0093     4.4095     13.862     0.296      21.9923   
2555.2     6.7014     2.0539     6.3947     10.032     7.7173     4.0788     4.9418     14.4481    0.301      21.6592   
2555.4     6.8765     2.1032     6.4045     10.0922    7.9432     4.2099     5.2738     15.051     0.302      23.9684   
2555.6     7.0071     2.1295     6.4934     10.3357    8.2597     4.4346     5.8365     15.5436    0.302      23.6607   
2555.8     7.1755     2.1948     6.7089     10.6283    8.6233     4.7381     6.1756     15.8844    0.302      23.3295   
2556       7.3401     2.2382     6.8368     10.7981    8.8543     5.0359     5.9826     15.9691    0.3        24.4378   
2556.2     7.49       2.2383     6.7941     10.9776    9.1599     5.3316     5.9653     16.4261    0.299      21.957    
2556.4     7.5957     2.328      7.1425     11.1837    9.4918     5.6225     5.8335     17.0605    0.302      21.4222   
2556.6     7.6948     2.2648     7.1758     11.3233    9.8411     6.0619     6.4065     17.8936    0.305      21.0132   
2556.8     7.8405     2.301      7.3519     11.5257    10.2816    6.5469     6.8577     18.5186    0.304      21.5731   
2557       7.998      2.3296     7.5845     11.9285    10.8595    6.9814     7.1517     19.0497    0.304      22.0205   
2557.2     8.0828     2.3973     7.8234     12.4687    11.4411    7.3247     7.5996     19.3258    0.307      20.1588   
2557.4     8.1996     2.478      8.1049     12.8916    11.7041    7.5185     7.0467     19.2139    0.302      20.595    
2557.6     8.2913     2.4804     8.0866     13.1371    11.58      7.5231     7.0199     18.924     0.302      20.1416   
2557.8     8.3523     2.4804     8.2143     13.2111    11.3753    7.3576     6.7866     18.6832    0.301      21.1871   
2558       8.4669     2.4766     8.2324     13.2364    11.0898    7.1728     6.1279     18.7349    0.296      21.0234   
2558.2     8.594      2.3671     7.9883     13.0271    10.7301    7.0975     6.0651     18.9325    0.296      22.8807   
2558.4     8.7641     2.3187     7.7808     12.9015    10.5741    6.9814     6.8256     19.2198    0.297      22.6501   
2558.6     8.9462     2.3275     7.8318     13.1334    10.6723    6.9754     8.4648     19.2858    0.302      21.6359   
2558.8     9.1162     2.4385     8.1341     13.6729    10.9034    6.9754     9.1722     18.9864    0.296      21.8427   
2559       9.2577     2.5149     8.3999     14.277     11.1527    6.9754     8.2884     18.608     0.298      21.4294   
2559.2     9.3553     2.5459     8.5475     14.7422    11.3526    6.9454     8.4167     18.2904    0.303      22.8318   
2559.4     9.4031     2.5882     8.8013     15.1817    11.6038    6.876      8.5651     18.1055    0.308      21.3628   
2559.6     9.4592     2.6404     8.9815     15.6165    11.904     6.8488     8.4742     17.9195    0.308      21.702    
2559.8     9.4671     2.6583     9.163      15.9894    12.2147    6.8089     8.6735     17.769     0.308      21.8422   
2560       9.4143     2.6959     9.3073     16.3153    12.5996    6.7636     8.5558     17.6351    0.304      21.4573   
2560.2     9.3449     2.7337     9.4306     16.6647    13.0032    6.7636     8.323      17.5233    0.302      22.3245   
2560.4     9.2683     2.7498     9.5575     16.9778    13.3242    6.7636     7.6569     17.602     0.301      22.0929   
2560.6     9.1895     2.7498     9.5217     17.1627    13.6281    6.775      7.0675     17.908     0.296      22.9056   
2560.8     9.1004     2.6859     9.3808     17.2874    13.8871    6.8433     6.7276     18.4813    0.294      21.2355   
2561       9.0942     2.5751     9.1474     17.3222    14.2216    6.8695     6.9223     19.1412    0.29       21.6007   
2561.2     9.1384     2.5343     9.0464     17.3378    14.584     6.8667     7.7339     19.6965    0.29       20.991    
2561.4     9.2268     2.548      8.9838     17.2702    14.8913    6.8165     7.4474     19.7211    0.286      20.6269   
2561.6     9.3513     2.5153     8.7556     17.0889    15.0633    6.8056     8.0915     19.5711    0.29       21.4447   
2561.8     9.4313     2.5343     8.6977     16.9443    15.2408    6.7106     8.0921     19.509     0.29       19.9305   
2562       9.516      2.5343     8.6934     16.8798    15.431     6.678      7.9753     19.5886    0.29       21.3883   
2562.2     9.5808     2.5343     8.7466     16.8314    15.6706    6.7045     8.3745     19.6547    0.295      19.7405   
2562.4     9.654      2.572      8.8869     16.8314    15.9591    6.7312     8.6719     19.6014    0.302      20.0183   
2562.6     9.7219     2.5882     8.9712     16.8603    16.2213    6.7724     8.4619     19.583     0.303      19.7173   
2562.8     9.7866     2.5882     9.0546     16.8314    16.5013    6.8716     8.4687     19.6583    0.308      18.5439   
2563       9.8345     2.5882     9.0673     16.9528    16.8739    6.9281     8.9144     19.7248    0.308      19.219    
2563.2     9.8425     2.6339     9.2475     17.2549    17.2963    7.0261     9.0541     19.7613    0.308      16.9581   
2563.4     9.8931     2.6938     9.3723     17.609     17.6409    7.1531     8.757      19.6709    0.308      19.4396   
2563.6     9.9341     2.6959     9.4667     17.8799    17.8744    7.2724     8.5812     19.6111    0.308      19.1332   
2563.8     9.9464     2.6959     9.4801     18.1155    18.009     7.3527     8.7294     19.6014    0.308      21.2958   
2564       9.9464     2.6959     9.519      18.2628    18.049     7.5283     9.0937     19.5011    0.303      22.6567   
2564.2     9.9464     2.6495     9.4947     18.313     18.0064    7.6519     8.7832     19.3882    0.3        21.4279   
2564.4     9.9464     2.7175     9.6179     18.4439    18.0394    7.7786     8.8837     19.3749    0.307      22.4631   
