~Version
 VERS              .         2.0                           : CWLS LOG ASCII STANDARD - VERSION 2.0
 WRAP              .         NO                            : ONE LINE PER DEPTH STEP
 DLM               .         SPACE                         : DELIMITING CHARACTER(SPACE TAB OR COMMA)
~Well Information
#_______________________________________________________________________________
#
#PARAMETER_NAME    .UNIT     VALUE                         : DESCRIPTION
#_______________________________________________________________________________
STRT               .m        2511                          : First reference value
STOP               .m        2677                          : Last reference value
STEP               .m        0.2                           : Step increment
NULL               .         -9999                         : Missing value
COMP               .                                       : Company
WELL               .         605                           : Well name
FLD                .                                       : Field
LOC                .                                       : Location
CNTY               .                                       : County
STAT               .                                       : State
CTRY               .                                       : Country
SRVC               .                                       : Service Company
DATE               .                                       : Date
API                .                                       : API number
EREF               .m        134                           : 
X                  .m        225746                        : 
Y                  .m        235643                        : 
group              .         Pad6                          : 
Интер-р            .         Пузин                         : 
Куст               .         6                             : 
Статус             .         Не проверено                  : 
Тип                .         Эксплуатация                  : 
~Parameter Information Block
#_______________________________________________________________________________
#
#PARAMETER_NAME    .UNIT     VALUE                         : DESCRIPTION
#_______________________________________________________________________________
SET                .         LAS3                          : 
REAL_CREATION_DATE .         Ср апр 11 2012-13_17_23       : 
TLFamily_DEPTH     .         Measured Depth                : 
TLFamily_KS        .         Potential Resistivity         : 
TLFamily_KS1       .         Extra Shallow Resistivity     : 
TLFamily_KS2       .         Shallow Resistivity           : 
TLFamily_KS3       .         Medium Resistivity            : 
TLFamily_KS4       .         Deep Resistivity              : 
TLFamily_KS5       .         Extra Deep Resistivity        : 
TLFamily_LLD       .         Lateral Log Resistivity       : 
TLFamily_OKS3      .         Medium Resistivity Inverted   : 
TLFamily_RM        .         Mud Resistivity               : 
TLFamily_SP        .         Spontaneous Potential         : 
group              .         INI                           : 
~Curve Information
#_______________________________________________________________________________
#
#LOGNAME           .UNIT     LOG_ID                        : DESCRIPTION
#_______________________________________________________________________________
DEPTH              .m                                      : Measured Depth 
KS                 .ohm.m                                  : Potential Resistivity 
KS1                .ohm.m                                  : Extra Shallow Resistivity 
KS2                .ohm.m                                  : Shallow Resistivity 
KS3                .ohm.m                                  : Medium Resistivity 
KS4                .ohm.m                                  : Deep Resistivity 
KS5                .ohm.m                                  : Extra Deep Resistivity 
LLD                .ohm.m                                  : Lateral Log Resistivity 
OKS3               .ohm.m                                  : Medium Resistivity Inverted 
RM                 .ohm.m                                  : Mud Resistivity 
SP                 .mV                                     : Spontaneous Potential 
~Ascii
# ...
2604.8     5.5652     2.1571     6.2842     9.2013     7.0256     4.7969     3.8715     8.8436     0.296      19.1971   
2605       5.5415     2.1177     6.2985     9.0321     6.8975     4.7402     3.8702     8.8346     0.29       20.8141   
2605.2     5.5258     2.1032     6.2842     8.8669     6.7904     4.691      3.9333     8.853      0.286      20.6531   
2605.4     5.5258     2.1032     6.2368     8.8041     6.7802     4.6343     3.9303     8.924      0.284      22.1974   
2605.6     5.4747     2.1032     6.2318     8.7901     6.8195     4.5919     3.9114     8.9975     0.286      20.6402   
2605.8     5.4725     2.1032     6.2318     8.798      6.8328     4.5549     3.8936     9.1268     0.286      21.1357   
2606       5.4725     2.1032     6.2247     8.8878     6.8708     4.5389     4.0252     9.2598     0.29       21.4193   
2606.2     5.4725     2.1032     6.1365     8.9857     6.9305     4.5389     4.2861     9.49       0.295      19.677    
2606.4     5.4725     2.0895     6.1273     9.0633     6.9349     4.4866     3.9473     9.8733     0.302      20.994    
2606.6     5.4299     2.1498     6.254      9.1096     6.8497     4.4598     3.6841     10.2627    0.302      20.4013   
2606.8     5.4193     2.1523     6.2203     9.0465     6.6929     4.3899     3.6137     10.7392    0.29       22.7563   
2607       5.4193     2.1032     6.1271     8.829      6.511      4.3271     3.8302     11.4168    0.29       22.6481   
2607.2     5.4193     2.0526     6.002      8.6394     6.3825     4.2793     4.3272     12.1929    0.29       23.0602   
2607.4     5.3699     2.0244     5.9598     8.5771     6.3593     4.2178     3.9001     12.7995    0.296      22.9129   
2607.6     5.3771     2.0809     6.1487     8.5771     6.314      4.1605     3.5        13.1063    0.291      24.7019   
2607.8     5.4506     2.1087     6.0711     8.5013     6.1498     4.1031     3.6851     13.3481    0.29       24.9494   
2608       5.4811     2.0036     5.8089     8.1672     5.9492     3.9757     3.4816     13.6254    0.29       25.8031   
2608.2     5.6275     1.9501     5.6361     7.7651     5.7016     3.8566     4.0858     14.0001    0.297      27.1472   
2608.4     5.8342     1.7948     5.2632     7.27       5.4097     3.8554     4.6377     14.3642    0.298      26.6016   
2608.6     6.1362     1.6694     4.8585     6.8513     5.2268     3.9993     4.8037     14.8935    0.29       28.4242   
2608.8     6.4531     1.6614     4.7727     6.7879     5.4057     4.4041     5.2415     15.7369    0.287      28.3919   
2609       6.7869     1.7089     4.9274     7.0346     5.8938     5.0471     5.8099     16.8991    0.288      29.8299   
2609.2     7.0803     1.7417     5.1517     7.8214     6.9043     5.6324     9.0796     18.7373    0.277      29.9943   
2609.4     7.2929     2.0179     6.2118     8.9441     7.9096     6.1417     9.4769     20.0999    0.283      30.3249   
2609.6     7.567      2.2197     6.8282     10.1212    8.6083     6.4886     9.9677     20.5613    0.284      31.1091   
2609.8     7.8068     2.334      7.2411     10.9105    8.8949     6.4735     8.9493     19.6138    0.284      30.6915   
2610       7.8692     2.5317     7.7366     11.5079    9.1203     6.2858     6.7788     18.7066    0.286      32.2857   
2610.2     7.8692     2.6103     7.9942     11.7098    9.0294     5.9846     5.6902     18.0114    0.29       32.1954   
2610.4     7.8524     2.5379     7.7837     11.5274    8.673      5.6692     5.1808     17.8503    0.29       32.9248   
2610.6     7.8498     2.3296     7.5252     11.1783    8.29       5.3238     5.0972     18.2817    0.293      33.7783   
2610.8     7.9209     2.1876     7.2501     10.8466    8.032      5.0715     5.1838     19.1251    0.296      32.722    
2611       8.079      2.0493     6.9393     10.7915    7.9425     4.8652     6.8315     20.4372    0.296      34.0879   
2611.2     8.1815     2.0989     7.1032     11.3064    8.2083     4.7295     9.2596     20.4404    0.29       33.0639   
2611.4     8.3731     2.3712     7.6138     11.8965    8.4307     4.6474     6.3623     19.6893    0.29       35.6401   
2611.6     8.5929     2.3128     7.2302     12.2044    8.4692     4.5919     5.8958     19.3014    0.29       34.7337   
2611.8     8.7713     2.2311     6.9936     12.2516    8.4383     4.6251     6.2969     19.7267    0.29       34.7169   
2612       9.0807     2.1443     6.7513     12.2516    8.642      4.7119     5.427      21.0446    0.29       33.0893   
2612.2     9.4845     2.002      6.569      12.388     9.1967     4.9306     5.6492     22.9602    0.29       32.7422   
2612.4     10.0647    1.8923     6.692      12.7538    9.9528     5.1918     10.3316    22.5429    0.288      32.2893   
2612.6     10.7573    1.9309     6.83       13.5315    10.8861    5.501      36.8951    20.3565    0.292      30.7827   
2612.8     11.4727    2.2254     7.6112     14.5511    12.0944    5.7624     53.9562    17.8986    0.296      30.0871   
2613       11.6985    2.6462     8.6897     16.1424    13.6388    6.0208     69.2529    16.0094    0.291      30.3293   
2613.2     11.5108    3.0449     9.9495     17.9254    15.2893    6.276      56.1308    14.1692    0.28       29.7108   
2613.4     10.9526    3.3612     11.4066    20.2568    17.3508    6.3398     42.9712    12.7464    0.275      24.6203   
2613.6     9.7988     3.8078     13.8381    22.2251    18.9595    6.279      11.2782    11.8264    0.28       26.8049   
2613.8     9.0852     3.4367     13.9649    22.6363    19.58      6.0709     5.4261     11.6866    0.279      22.0545   
2614       8.6106     2.9738     12.451     21.2136    18.3301    5.7819     5.1454     11.476     0.287      24.7952   
2614.2     8.3366     2.6166     11.1164    19.7742    17.196     5.3411     5.6283     11.453     0.289      21.789    
2614.4     8.188      2.4915     9.5866     18.8834    16.2929    5.0346     5.4403     11.6351    0.283      18.7004   
2614.6     8.0881     2.4074     8.6591     18.555     15.5414    4.9627     5.5992     12.1012    0.29       20.2639   
2614.8     8.0303     2.2736     7.8585     18.4365    15.0197    5.0366     6.1053     12.7215    0.286      18.6565   
2615       8.029      2.261      7.652      17.8604    14.7758    5.3533     6.2878     13.1798    0.278      19.4075   
2615.2     8.029      2.2057     7.4264     17.7769    15.332     5.9158     6.375      13.9761    0.277      16.3095   
2615.4     7.9315     2.3684     7.9291     18.1368    16.8633    6.5892     11.5529    15.0847    0.278      16.6687   
2615.6     7.8893     2.4944     8.5597     19.3217    18.7321    7.2698     9.9203     15.8009    0.282      18.165    
2615.8     7.8058     2.4901     8.7162     19.8172    20.4398    7.9222     5.9107     15.3286    0.274      19        
2616       7.7329     2.8217     9.4385     19.4762    21.1199    8.2252     5.0529     14.3115    0.283      21.2322   
2616.2     7.6088     2.7224     8.9207     18.0615    20.6702    8.1823     4.912      13.6455    0.282      22.5234   
2616.4     7.5725     2.5041     8.229      16.1215    19.1249    8.0239     5.2093     13.4097    0.282      20.3224   
2616.6     7.5524     2.3093     7.7194     14.7408    18.1534    7.9409     5.2743     13.6303    0.275      18.2541   
2616.8     7.5666     2.3146     7.7366     13.8971    17.9489    8.0959     5.6772     14.212     0.278      18.6884   
2617       7.6384     2.2135     7.3962     13.8202    18.1827    8.4999     7.2126     15.1953    0.272      18.0941   
2617.2     7.7095     2.2385     7.6789     14.1371    18.4751    8.9662     11.169     15.2085    0.275      17.4111   
2617.4     7.7656     2.3732     8.0458     14.5813    18.9179    9.301      10.9332    14.5908    0.274      18.9085   
2617.6     7.7698     2.5923     8.3845     15.0418    18.2831    9.5179     8.2527     13.3384    0.276      19.5011   
2617.8     7.6399     2.5751     8.2656     14.9265    16.7953    9.5179     6.4668     12.4038    0.279      22.0663   
2618       7.4158     2.5783     8.3085     14.792     15.407     9.3419     5.2911     12.2035    0.284      22.8874   
