~Version
 VERS              .         2.0                           : CWLS LOG ASCII STANDARD - VERSION 2.0
 WRAP              .         NO                            : ONE LINE PER DEPTH STEP
 DLM               .         SPACE                         : DELIMITING CHARACTER(SPACE TAB OR COMMA)
~Well Information
#_______________________________________________________________________________
#
#PARAMETER_NAME    .UNIT     VALUE                         : DESCRIPTION
#_______________________________________________________________________________
STRT               .m        2511                          : First reference value
STOP               .m        2677                          : Last reference value
STEP               .m        0.2                           : Step increment
NULL               .         -9999                         : Missing value
COMP               .                                       : Company
WELL               .         605                           : Well name
FLD                .                                       : Field
LOC                .                                       : Location
CNTY               .                                       : County
STAT               .                                       : State
CTRY               .                                       : Country
SRVC               .                                       : Service Company
DATE               .                                       : Date
API                .                                       : API number
EREF               .m        134                           : 
X                  .m        225746                        : 
Y                  .m        235643                        : 
group              .         Pad6                          : 
Интер-р            .         Пузин                         : 
Куст               .         6                             : 
Статус             .         Не проверено                  : 
Тип                .         Эксплуатация                  : 
~Parameter Information Block
#_______________________________________________________________________________
#
#PARAMETER_NAME    .UNIT     VALUE                         : DESCRIPTION
#_______________________________________________________________________________
SET                .         LAS3                          : 
REAL_CREATION_DATE .         Ср апр 11 2012-13_17_23       : 
TLFamily_DEPTH     .         Measured Depth                : 
TLFamily_KS        .         Potential Resistivity         : 
TLFamily_KS1       .         Extra Shallow Resistivity     : 
TLFamily_KS2       .         Shallow Resistivity           : 
TLFamily_KS3       .         Medium Resistivity            : 
TLFamily_KS4       .         Deep Resistivity              : 
TLFamily_KS5       .         Extra Deep Resistivity        : 
TLFamily_LLD       .         Lateral Log Resistivity       : 
TLFamily_OKS3      .         Medium Resistivity Inverted   : 
TLFamily_RM        .         Mud Resistivity               : 
TLFamily_SP        .         Spontaneous Potential         : 
group              .         INI                           : 
~Curve Information
#_______________________________________________________________________________
#
#LOGNAME           .UNIT     LOG_ID                        : DESCRIPTION
#_______________________________________________________________________________
DEPTH              .m                                      : Measured Depth 
KS                 .ohm.m                                  : Potential Resistivity 
KS1                .ohm.m                                  : Extra Shallow Resistivity 
KS2                .ohm.m                                  : Shallow Resistivity 
KS3                .ohm.m                                  : Medium Resistivity 
KS4                .ohm.m                                  : Deep Resistivity 
KS5                .ohm.m                                  : Extra Deep Resistivity 
LLD                .ohm.m                                  : Lateral Log Resistivity 
OKS3               .ohm.m                                  : Medium Resistivity Inverted 
RM                 .ohm.m                                  : Mud Resistivity 
SP                 .mV                                     : Spontaneous Potential 
~Ascii
2511.0     1.0676     0          0.0496     0          0          0          2541.005   28.0011    0.273      28.5189   
2511.2     2.8843     0.2214     0.0496     0          0          0          2509.219   24.8758    0.273      29.7662   
2511.4     4.1991     0.8097     0.0496     0          0          0          2659.607   23.1212    0.278      31.0493   
2511.6     5.0599     1.2617     0.0552     0          0          0          4147.433   21.7987    0.283      32.811    
2511.8     5.7359     1.6685     1.1512     0          0          0          1552.497   20.5204    0.286      32.8008   
2512       6.1288     1.8812     3.0888     0          0          0          1839.385   19.429     0.282      34.1487   
2512.2     6.3678     2.0885     4.5741     0          0          0          1446.554   18.4528    0.279      34.8792   
2512.4     6.4791     2.2509     5.7386     0          0          0          365.4526   17.5658    0.286      36.0086   
2512.6     6.5553     2.3402     6.3765     0          0          0          0          16.9158    0.29       35.4366   
2512.8     6.6336     2.211      6.4271     0          0          0          0          16.6456    0.292      35.7682   
2513       6.7357     2.1081     6.3512     1.5503     0          0          0.2233     16.7198    0.292      36.5662   
2513.2     6.9512     1.9639     6.012      4.1347     0          0          0.3574     17.2877    0.288      35.5216   
2513.4     7.3504     1.8204     5.6655     5.7368     0          0          0.9096     17.7447    0.29       35.9485   
2513.6     7.8294     1.7018     5.4586     6.9744     0          0          5.2989     17.3964    0.285      34.7562   
2513.8     8.6344     1.8543     5.7943     8.2663     0          0          8.8426     16.5858    0.285      35.2304   
2514       9.0748     2.1102     6.3301     9.6179     0          0          17.4099    15.7506    0.29       34.256    
2514.2     9.3208     2.3177     6.8213     11.0422    0          0          25.9974    14.6907    0.293      33.9693   
2514.4     9.3367     2.6745     7.9191     12.7305    0          0          15.2726    13.3353    0.296      36.528    
2514.6     9.0652     3.0676     9.9394     14.4602    0          0          9.2088     12.2948    0.293      33.6766   
2514.8     8.5165     3.2348     10.6532    15.7684    0          0          8.5485     11.4962    0.295      34.7962   
2515       7.9628     3.2786     11.187     16.5521    1.7643     0          5.748      10.7589    0.295      35.2201   
2515.2     7.4703     3.0721     11.0861    16.8155    5.2454     0          4.5948     10.1266    0.294      36.2905   
2515.4     6.9826     2.9052     10.5718    16.6529    7.4626     0          3.7412     10.0493    0.292      35.1397   
2515.6     6.5916     2.5976     9.4735     16.1369    8.6705     0          3.7236     10.4483    0.297      34.1095   
2515.8     6.3373     2.3444     8.3915     15.2851    9.2529     0          3.6236     11.0595    0.302      35.2385   
2516       6.2714     2.1141     7.5348     14.5918    9.4109     0          3.6775     11.845     0.302      33.6262   
2516.2     6.2714     1.968      6.7827     13.9109    9.4524     0          4.7642     12.8889    0.299      33.018    
2516.4     6.3305     1.9235     6.4144     13.544     9.624      0          5.0436     13.6252    0.293      31.5465   
2516.6     6.5189     1.9576     6.248      13.212     9.8115     0          4.8741     13.6548    0.296      32.9498   
2516.8     6.716      1.9869     6.0264     12.5906    9.8728     0          5.1248     13.563     0.296      31.0679   
2517       6.8983     1.9415     5.8241     11.9301    9.8207     0          5.8429     13.4718    0.296      29.6785   
2517.2     7.0698     1.9632     5.8916     11.6138    9.9104     0          6.5795     13.4307    0.296      28.8723   
2517.4     7.2146     2.0429     6.2748     11.4308    10.258     0          6.6195     13.263     0.296      26.4558   
2517.6     7.3296     2.1402     6.5523     11.3059    10.8167    0          6.5207     13.0022    0.296      26.0802   
2517.8     7.3899     2.2003     6.8266     11.2557    11.7146    0          6.3653     12.8937    0.296      23.7802   
2518       7.44       2.2648     7.0789     11.2861    12.159     0          6.2649     12.7969    0.294      24.9105   
2518.2     7.4762     2.2648     7.2244     11.3463    12.5273    0          6.4455     12.5926    0.29       24.9613   
2518.4     7.4964     2.2648     7.2524     11.5172    12.8637    0          6.7262     12.3029    0.287      24.7062   
2518.6     7.4538     2.2701     7.4288     12.0345    13.3073    0          6.9931     12.2458    0.286      25.1885   
2518.8     7.3544     2.4081     7.8169     12.7874    13.7228    0          5.8936     12.3431    0.294      25.313    
2519       7.2379     2.4737     8.0666     13.2289    13.7626    0          5.09       12.6924    0.3        26.5043   
2519.2     7.1345     2.4265     7.9422     13.3589    13.5441    0.1099     5.291      13.2427    0.301      27.8067   
2519.4     7.0736     2.3353     7.721      13.2801    13.134     1.4465     5.5125     13.6992    0.296      30.6599   
2519.6     7.0703     2.2697     7.5383     13.1951    12.7034    2.6149     5.5147     14.0175    0.298      30.4669   
2519.8     7.1236     2.2805     7.4175     13.0766    12.3158    3.5551     5.6069     14.3634    0.299      32.2069   
2520       7.1745     2.2503     7.2948     12.9244    12.0673    4.3399     6.4538     14.9154    0.299      33.4795   
2520.2     7.1412     2.2193     7.1728     13.1039    12.0592    4.9282     6.8005     15.1668    0.296      34.2662   
2520.4     7.0788     2.4328     7.6997     13.1569    12.0133    5.393      4.9277     15.1118    0.296      35.5998   
2520.6     7.0703     2.3854     7.498      12.9061    11.7063    5.7852     4.4511     15.0973    0.291      35.086    
2520.8     7.1199     2.2706     7.1106     12.1167    11.2088    6.0697     5.0133     15.4126    0.29       35.8692   
2521       7.2052     2.1144     6.6882     11.5482    10.9604    6.2462     6.014      15.6262    0.29       36.3435   
2521.2     7.3574     2.0493     6.6072     11.2818    10.9925    6.4375     6.4699     15.3366    0.294      41.3933   
2521.4     7.5938     2.0632     6.7096     11.3761    11.2239    6.7259     5.9805     14.8327    0.295      42.6157   
2521.6     7.8399     2.1526     6.7968     11.5358    11.4786    7.0906     5.9204     14.7695    0.296      41.7062   
2521.8     8.0583     2.1571     6.7138     11.6125    11.6052    7.5044     7.6702     14.912     0.299      42.8229   
2522       8.4823     2.1032     6.7731     11.8903    11.9885    8.2626     10.4883    14.2388    0.296      42.3646   
2522.2     8.7721     2.2372     7.3087     12.4741    12.5541    9.0162     11.3791    13.3356    0.296      43.6429   
2522.4     8.9304     2.4178     7.8019     13.4096    13.3295    9.6773     14.9441    12.411     0.298      43.2303   
2522.6     8.7841     2.6497     8.5517     14.5533    14.2856    10.317     15.1466    11.6838    0.302      43.5109   
2522.8     8.4306     3.049      9.766      15.8938    15.2525    10.6949    10.9439    10.9741    0.298      44.4315   
2523       7.9161     3.2726     10.7625    17.0236    15.6955    10.671     8.048      10.266     0.299      43.5212   
2523.2     7.3799     3.2511     11.077     17.4495    15.2546    10.2947    4.9563     9.7851     0.299      45.0374   
2523.4     6.9383     2.9868     10.2782    16.7898    14.2092    9.6863     3.9709     9.8387     0.302      43.5193   
2523.6     6.6129     2.5856     9.1258     15.4581    12.9687    8.9733     3.7719     10.3689    0.302      45.7953   
2523.8     6.4438     2.2505     8.1089     14.4066    12.1012    8.3818     3.8326     11.2481    0.303      44.8905   
2524       6.4209     2.0858     7.3675     13.7564    11.6833    8.0412     4.5112     12.2018    0.297      44.6486   
2524.2     6.4312     2.047      6.9566     13.6406    11.7172    7.8661     6.3213     12.5955    0.29       42.1356   
