~Version
 VERS              .         2.0                           : CWLS LOG ASCII STANDARD - VERSION 2.0
 WRAP              .         NO                            : ONE LINE PER DEPTH STEP
 DLM               .         SPACE                         : DELIMITING CHARACTER(SPACE TAB OR COMMA)
~Well Information
#_______________________________________________________________________________
#
#PARAMETER_NAME    .UNIT     VALUE                         : DESCRIPTION
#_______________________________________________________________________________
STRT               .m        2511                          : First reference value
STOP               .m        2677                          : Last reference value
STEP               .m        0.2                           : Step increment
NULL               .         -9999                         : Missing value
COMP               .                                       : Company
WELL               .         605                           : Well name
FLD                .                                       : Field
LOC                .                                       : Location
CNTY               .                                       : County
STAT               .                                       : State
CTRY               .                                       : Country
SRVC               .                                       : Service Company
DATE               .                                       : Date
API                .                                       : API number
EREF               .m        134                           : 
X                  .m        225746                        : 
Y                  .m        235643                        : 
group              .         Pad6                          : 
Интер-р            .         Пузин                         : 
Куст               .         6                             : 
Статус             .         Не проверено                  : 
Тип                .         Эксплуатация                  : 
~Parameter Information Block
#_______________________________________________________________________________
#
#PARAMETER_NAME    .UNIT     VALUE                         : DESCRIPTION
#_______________________________________________________________________________
SET                .         LAS3                          : 
REAL_CREATION_DATE .         Ср апр 11 2012-13_17_23       : 
TLFamily_DEPTH     .         Measured Depth                : 
TLFamily_KS        .         Potential Resistivity         : 
TLFamily_KS1       .         Extra Shallow Resistivity     : 
TLFamily_KS2       .         Shallow Resistivity           : 
TLFamily_KS3       .         Medium Resistivity            : 
TLFamily_KS4       .         Deep Resistivity              : 
TLFamily_KS5       .         Extra Deep Resistivity        : 
TLFamily_LLD       .         Lateral Log Resistivity       : 
TLFamily_OKS3      .         Medium Resistivity Inverted   : 
TLFamily_RM        .         Mud Resistivity               : 
TLFamily_SP        .         Spontaneous Potential         : 
group              .         INI                           : 
~Curve Information
#_______________________________________________________________________________
#
#LOGNAME           .UNIT     LOG_ID                        : DESCRIPTION
#_______________________________________________________________________________
DEPTH              .m                                      : Measured Depth 
KS                 .ohm.m                                  : Potential Resistivity 
KS1                .ohm.m                                  : Extra Shallow Resistivity 
KS2                .ohm.m                                  : Shallow Resistivity 
KS3                .ohm.m                                  : Medium Resistivity 
KS4                .ohm.m                                  : Deep Resistivity 
KS5                .ohm.m                                  : Extra Deep Resistivity 
LLD                .ohm.m                                  : Lateral Log Resistivity 
OKS3               .ohm.m                                  : Medium Resistivity Inverted 
RM                 .ohm.m                                  : Mud Resistivity 
SP                 .mV                                     : Spontaneous Potential 
~Ascii
# ...
2591.4     8.4758     2.7258     10.937     15.5825    16.7881    21.9164    13.9117    11.4717    0.298      19.1575   
2591.6     8.1572     3.2504     10.8556    17.4908    17.1305    21.2584    6.1095     10.1485    0.296      19.6046   
2591.8     7.6228     3.2238     10.5715    19.1639    16.7688    20.2375    5.5792     9.0734     0.296      18.3679   
2592       7.138      3.2225     10.9178    18.3877    15.6571    18.6981    3.9978     8.3808     0.299      20.1069   
2592.2     6.6601     2.9319     10.4022    16.1647    14.0173    15.7111    3.9494     7.9009     0.294      18.2534   
2592.4     6.2013     2.7108     9.8686     14.6371    12.3214    12.5536    3.3731     7.5498     0.296      18.5445   
2592.6     5.9322     2.4526     8.7948     14.1016    11.15      10.1129    3.2988     7.3726     0.297      18.1163   
2592.8     5.6366     2.2546     8.0474     13.9691    10.619     8.6634     3.3709     7.4796     0.286      18.0032   
2593       5.4128     2.2123     7.627      13.7374    10.3238    8.0936     3.2832     7.6483     0.29       18.5838   
2593.2     5.323      2.0796     7.0669     13.0281    9.9599     7.9472     3.206      7.7443     0.289      19.1163   
2593.4     5.3128     1.9477     6.3684     12.3722    9.6959     7.6494     3.3475     7.9658     0.282      19.4915   
2593.6     5.2482     1.9326     6.0894     11.8897    9.3213     6.847      4.1037     8.1325     0.284      19.4426   
2593.8     5.2062     1.9903     6.0451     11.622     9.0027     5.4088     3.8407     8.0645     0.29       20.1108   
2594       5.2062     2.0229     6.1521     11.0952    8.5012     4.2562     3.5136     7.8711     0.293      20.6507   
2594.2     5.1599     1.948      5.7555     10.4488    7.9579     3.3925     3.6343     7.8219     0.292      19.4624   
2594.4     5.0611     1.9954     5.8798     9.7957     7.5529     3.0295     3.3148     7.8357     0.302      19.9128   
2594.6     5.0376     1.9954     5.7952     9.3866     7.4742     3.0029     3.2144     7.9706     0.302      19.9214   
2594.8     5.0108     1.8463     5.4475     8.73       7.4642     3.0029     3.3583     8.0181     0.295      20.0235   
2595       5.0058     1.843      5.4949     8.2941     7.4225     2.9671     3.3857     8.4885     0.292      21.229    
2595.2     4.9984     1.8876     5.5397     8.2515     7.6185     2.8426     3.4752     8.8268     0.304      21.1434   
2595.4     5.0524     1.8416     5.432      8.1975     7.8377     2.7851     3.8581     8.8346     0.307      21.6171   
2595.6     5.1702     1.8338     5.3167     8.0596     7.9798     2.738      3.8638     8.8842     0.297      18.7685   
2595.8     5.2995     1.8773     5.4313     8.0706     8.0277     2.6851     4.003      8.8346     0.301      19.2945   
2596       5.3841     1.9004     5.3743     8.1174     8.018      2.6851     4.3279     8.8809     0.296      18.4774   
2596.2     5.4549     1.9449     5.4257     8.1717     7.9392     2.6957     4.3658     8.8879     0.293      19.9827   
2596.4     5.4825     2.0269     5.6768     8.2404     7.9377     2.738      4.315      8.8437     0.296      19.6898   
2596.6     5.4785     2.0582     5.8946     8.3649     7.9036     2.7806     4.3136     8.7935     0.296      20.5803   
2596.8     5.4725     2.1278     6.1547     8.4642     7.8338     2.8477     3.9269     8.6662     0.296      21.1185   
2597       5.4449     2.153      6.1794     8.5238     7.6583     2.9053     3.7987     8.5864     0.296      21.046    
2597.2     5.3767     2.1032     6.2604     8.4238     7.4853     2.9526     3.5807     8.5148     0.301      21.1587   
2597.4     5.366      2.0633     6.1643     8.3641     7.3194     3.0106     3.8627     8.5148     0.306      20.1327   
2597.6     5.366      2.0372     6.0438     8.4071     7.1387     3.0681     3.9935     8.448      0.302      22.1928   
2597.8     5.366      2.0493     6.1171     8.5538     7.0959     3.1674     3.8618     8.5065     0.3        20.9222   
2598       5.366      2.0493     6.0882     8.6303     7.0446     3.276      3.6317     8.4793     0.296      21.2346   
2598.2     5.366      2.0493     5.9654     8.6303     6.9805     3.5025     3.5835     8.5913     0.293      22.4451   
2598.4     5.4126     1.9889     5.7937     8.6013     6.8892     3.7205     4.1924     8.8061     0.296      22.8812   
2598.6     5.4193     1.9415     5.9634     8.6303     6.8854     3.9635     4.6753     8.9412     0.295      23.6647   
2598.8     5.4725     2.0287     6.12       8.7228     6.9163     4.0685     4.3481     8.8202     0.29       23.9032   
2599       5.4725     2.1032     6.1637     8.8817     6.9272     4.1159     4.1777     8.633      0.287      22.6393   
2599.2     5.4155     2.1515     6.1794     8.9499     6.8585     4.1975     3.9314     8.5247     0.284      21.6481   
2599.4     5.2869     2.1571     6.2641     8.9748     6.8328     4.295      3.7631     8.6086     0.285      21.1411   
2599.6     5.1643     2.1571     6.3558     8.6984     6.7704     4.5352     3.4513     8.8709     0.29       22.5032   
2599.8     5.153      2.1399     6.194      8.4007     6.5525     4.7847     2.6433     9.3381     0.29       19.6949   
2600       5.153      1.8371     5.6603     8.1121     6.347      4.9218     3.8923     9.5913     0.289      20.8339   
2600.2     5.1734     1.9392     5.8126     8.2478     6.406      4.9627     3.9702     9.4701     0.301      20.3324   
2600.4     5.2427     1.9415     5.7193     8.2676     6.3506     5.0115     3.6279     9.33       0.302      19.9336   
2600.6     5.2595     1.9415     5.6555     8.1714     6.3067     5.0157     3.607      9.3143     0.302      19.9715   
2600.8     5.3071     1.932      5.5289     8.151      6.256      5.0059     3.6328     9.4036     0.302      19.9492   
2601       5.3554     1.933      5.5222     8.151      6.2114     4.9471     3.7199     9.4408     0.298      19.9671   
2601.2     5.4362     1.9364     5.6031     8.1005     6.1604     4.8748     3.4802     9.5106     0.296      18.9314   
2601.4     5.6044     1.8443     5.4722     7.8265     5.9944     4.8717     3.3407     9.6719     0.296      19.429    
2601.6     5.8596     1.7119     5.0613     7.5833     6.338      4.9993     3.56       10.0751    0.301      17.0947   
2601.8     6.0009     1.6751     5.1263     7.8123     7.0157     5.1774     11.7792    10.1765    0.301      20.4049   
2602       6.0486     2.0717     6.3991     8.617      7.3277     5.2584     8.5689     9.6292     0.297      17.2574   
2602.2     6.0584     2.4232     6.954      9.3902     7.4571     5.3299     3.866      8.914      0.29       18.9595   
2602.4     5.9565     2.4536     6.8593     9.6049     7.3482     5.3276     3.8778     8.6322     0.29       18.6768   
2602.6     5.7791     2.2812     6.7095     9.4501     7.2574     5.2274     3.9708     8.6087     0.29       19.4087   
2602.8     5.6445     2.1687     6.7146     9.447      7.3097     5.1038     4.1317     8.7151     0.292      19.6375   
2603       5.5583     2.2073     6.9613     9.5197     7.4061     5.0686     3.8677     8.728      0.294      18.4143   
2603.2     5.5258     2.1692     6.8446     9.4719     7.309      5.0686     3.4713     8.7813     0.29       20.1414   
2603.4     5.4725     2.0731     6.3808     9.3442     7.1819     5.0362     3.5043     8.9499     0.293      20.1453   
2603.6     5.4725     2.0493     6.3393     9.2828     7.1537     5.0173     4.0342     9.3333     0.305      18.5764   
2603.8     5.5151     2.003      6.1209     9.3632     7.2242     5.0746     4.7404     9.6567     0.302      21.155    
2604       5.5732     2.0411     6.19       9.5823     7.3071     5.1216     4.5196     9.6527     0.302      22.2798   
2604.2     5.6217     2.129      6.3348     9.8852     7.3589     5.0641     4.3269     9.3695     0.302      21.8538   
2604.4     5.6323     2.1948     6.3439     9.792      7.3274     5.0068     4.1401     9.1087     0.302      20.8539   
2604.6     5.5825     2.1685     6.2403     9.4807     7.1975     4.8952     3.9004     8.9036     0.299      20.794    
