~Version
 VERS              .         2.0                           : CWLS LOG ASCII STANDARD - VERSION 2.0
 WRAP              .         NO                            : ONE LINE PER DEPTH STEP
 DLM               .         SPACE                         : DELIMITING CHARACTER(SPACE TAB OR COMMA)
~Well Information
#_______________________________________________________________________________
#
#PARAMETER_NAME    .UNIT     VALUE                         : DESCRIPTION
#_______________________________________________________________________________
STRT               .m        2460                          : First reference value
STOP               .m        2677                          : Last reference value
STEP               .m        0.2                           : Step increment
NULL               .         -9999                         : Missing value
COMP               .                                       : Company
WELL               .         606                           : Well name
FLD                .                                       : Field
LOC                .                                       : Location
CNTY               .                                       : County
STAT               .                                       : State
CTRY               .                                       : Country
SRVC               .                                       : Service Company
DATE               .                                       : Date
API                .                                       : API number
EREF               .m        134                           : 
X                  .m        225746                        : 
Y                  .m        235643                        : 
group              .         Pad6                          : 
Интер-р            .         Пузин                         : 
Куст               .         6                             : 
Статус             .         Не проверено                  : 
Тип                .         Нагнетательные                : 
~Parameter Information Block
#_______________________________________________________________________________
#
#PARAMETER_NAME    .UNIT     VALUE                         : DESCRIPTION
#_______________________________________________________________________________
SET                .         LAS1                          : 
REAL_CREATION_DATE .         Ср апр 11 2012-13_17_24       : 
TLFamily_DEPTH     .         Measured Depth                : 
TLFamily_KS        .         Potential Resistivity         : 
TLFamily_KS1       .         Extra Shallow Resistivity     : 
TLFamily_KS2       .         Shallow Resistivity           : 
TLFamily_KS3       .         Medium Resistivity            : 
TLFamily_KS4       .         Deep Resistivity              : 
TLFamily_KS5       .         Extra Deep Resistivity        : 
TLFamily_LLD       .         Lateral Log Resistivity       : 
TLFamily_OKS3      .         Medium Resistivity Inverted   : 
TLFamily_RM        .         Mud Resistivity               : 
TLFamily_SP        .         Spontaneous Potential         : 
group              .         INI                           : 
~Curve Information
#_______________________________________________________________________________
#
#LOGNAME           .UNIT     LOG_ID                        : DESCRIPTION
#_______________________________________________________________________________
DEPTH              .m                                      : Measured Depth 
KS                 .ohm.m                                  : Potential Resistivity 
KS1                .ohm.m                                  : Extra Shallow Resistivity 
KS2                .ohm.m                                  : Shallow Resistivity 
KS3                .ohm.m                                  : Medium Resistivity 
KS4                .ohm.m                                  : Deep Resistivity 
KS5                .ohm.m                                  : Extra Deep Resistivity 
LLD                .ohm.m                                  : Lateral Log Resistivity 
OKS3               .ohm.m                                  : Medium Resistivity Inverted 
RM                 .ohm.m                                  : Mud Resistivity 
SP                 .mV                                     : Spontaneous Potential 
~Ascii
# ...
2634.2     9.1706     2.2934     7.8504     11.1334    8.6016     9.2652     7.1546     17.5839    0.412      38.532    
2634.4     9.2965     2.3        7.9242     11.8536    8.617      8.6162     8.0684     17.6669    0.419      39.239    
2634.6     9.4131     2.2934     7.9411     12.7518    8.752      8.1873     8.5357     18.0232    0.432      38.0168   
2634.8     9.4944     2.2934     8.0191     13.7951    9.1481     7.9763     8.5507     18.7373    0.438      37.6841   
2635       9.5732     2.2954     8.2675     14.9429    9.8835     7.9768     8.39       19.6701    0.431      35.8099   
2635.2     9.6907     2.3839     8.7658     16.3334    11.0385    8.1207     8.2252     20.3368    0.425      37.3237   
2635.4     9.755      2.5084     9.3359     17.6906    12.5337    8.2609     8.526      20.6608    0.42       35.8112   
2635.6     9.805      2.5891     9.6817     18.7305    14.1793    8.2578     9.5864     20.7623    0.41       35.0447   
2635.8     9.8158     2.6796     10.033     19.2491    15.4454    8.19       10.7633    20.3091    0.42       35.9582   
2636       9.8643     2.7224     10.0155    19.0414    16.2837    8.08       11.2179    19.6176    0.425      34.1583   
2636.2     9.913      2.566      9.5646     18.4256    17.129     8.0645     11.37      19.3577    0.436      32.4172   
2636.4     9.8705     2.5613     9.5097     18.0442    18.5745    8.23       11.1559    19.8844    0.441      31.0915   
2636.6     9.913      2.5184     9.5772     18.2061    21.1932    8.7902     9.1001     21.0414    0.43       33.0776   
2636.8     9.913      2.5418     9.8376     18.9347    24.6724    9.5587     8.7504     22.6752    0.419      31.9386   
2637       9.8563     2.6257     10.425     20.1505    28.3671    10.114     8.8851     24.4423    0.417      31.4378   
2637.2     9.7985     2.701      11.0276    21.6081    31.2629    10.3471    8.8339     25.4858    0.417      32.9256   
2637.4     9.6965     2.86       11.4632    22.1899    31.5418    10.1306    10.3124    24.9782    0.424      33.84     
2637.6     9.5667     2.7782     10.812     21.514     29.3506    9.4787     11.0827    23.3384    0.433      30.8482   
2637.8     9.3882     2.6548     10.2996    20.2642    26.5235    8.5036     11.4683    21.5879    0.437      28.393    
2638       9.27       2.4988     9.5756     19.0837    23.9451    7.5652     9.073      20.4464    0.429      29.5376   
2638.2     9.2116     2.4137     9.2118     17.9801    21.7174    6.8516     8.2567     19.7063    0.425      28.888    
2638.4     9.2116     2.3846     9.0122     16.9952    19.8719    6.2807     7.5769     19.3502    0.417      29.6528   
2638.6     9.2122     2.3058     8.5781     16.0311    18.2564    5.854      7.6873     19.2472    0.417      29.1246   
2638.8     9.2704     2.2389     8.3034     15.4304    17.0972    5.5666     7.6415     19.2834    0.429      30.2005   
2639       9.3676     2.2389     8.2892     15.2388    16.5161    5.4328     7.2091     19.3592    0.435      30.7932   
2639.2     9.5077     2.28       8.3159     15.442     16.3527    5.4351     7.7229     19.4498    0.426      31.2812   
2639.4     9.7092     2.3658     8.5807     15.9375    16.5844    5.5627     8.7682     19.6094    0.421      30.2158   
2639.6     9.9228     2.4614     8.9318     16.6298    17.1438    5.8063     9.2919     19.5991    0.415      31.5807   
2639.8     10.1033    2.5178     9.2382     17.1628    17.656     6.1956     10.2926    19.4514    0.417      28.2591   
2640       10.3196    2.6205     9.5337     17.6051    18.2037    6.5891     11.0339    19.2221    0.431      28.1778   
2640.2     10.5172    2.6571     9.8159     17.9765    18.6631    6.965      11.4216    19.1391    0.441      26.462    
2640.4     10.6435    2.7291     10.1005    18.2264    18.9175    7.4483     11.4245    19.1156    0.432      27.5552   
2640.6     10.7604    2.7264     10.134     18.2523    18.996     7.9885     11.0418    19.0804    0.426      26.3054   
2640.8     10.7762    2.675      10.1659    18.1196    19.0129    8.6198     10.8565    19.2239    0.417      27.92     
2641       10.7762    2.6636     10.1161    17.8384    18.9017    9.1968     10.2594    19.6771    0.424      29.9391   
2641.2     10.7327    2.5627     9.5939     17.4356    18.6693    9.5548     9.6908     19.9593    0.434      29.3228   
2641.4     10.7074    2.506      9.3333     17.0909    18.7025    9.7174     9.0382     20.2384    0.444      28.2566   
2641.6     10.6683    2.4722     9.216      17.0206    19.0312    9.8284     8.9127     20.6705    0.433      29.0217   
2641.8     10.7135    2.5115     9.3288     17.1872    19.4792    9.873      9.4209     21.2659    0.425      30.7246   
2642       10.7803    2.5169     9.3992     17.2837    19.6527    9.9417     9.7264     21.7087    0.414      30.4086   
2642.2     10.838     2.5638     9.4122     17.1656    19.5127    10.0669    10.3635    22.2969    0.423      31.5259   
2642.4     10.8847    2.5072     9.1548     16.7751    19.1588    10.3136    10.6968    23.3955    0.433      33.1698   
2642.6     10.938     2.4515     8.9285     16.4375    19.023     10.7673    10.185     24.9688    0.442      34.9737   
2642.8     10.9739    2.38       8.7859     16.1312    19.0553    11.4942    8.7997     26.9271    0.432      35.1907   
2643       11.0447    2.3083     8.5069     15.8588    19.3793    12.5171    8.7471     29.3598    0.423      37.8465   
2643.2     11.0773    2.2871     8.3478     15.7865    20.078     13.9982    8.9855     33.0862    0.414      35.0309   
2643.4     11.278     2.2934     8.4813     16.3977    22.2901    17.127     8.5337     37.6606    0.424      37.3026   
2643.6     11.469     2.2934     8.5046     16.9908    24.2675    20.0526    9.0079     39.5368    0.434      34.1878   
2643.8     11.6794    2.3174     8.6287     17.6166    26.4076    23.7032    10.004     40.7431    0.439      37.3702   
2644       12.0041    2.3479     8.7523     18.3502    28.9917    27.8258    10.8757    41.6102    0.427      37.0633   
2644.2     12.3861    2.2833     8.7628     19.0802    32.1889    31.94      11.8003    42.5142    0.42       35.7394   
2644.4     12.8174    2.1844     8.7515     19.7173    34.7467    35.7817    12.1891    42.0364    0.418      34.0963   
2644.6     13.383     2.2062     9.1022     20.6087    36.6461    38.6865    12.4664    39.8417    0.432      35.4172   
2644.8     14.0743    2.4889     10.0631    21.7573    37.657     37.9227    13.7838    36.1437    0.439      34.5081   
2645       14.8411    2.7552     11.1265    21.922     35.7045    38.9005    30.8156    32.4116    0.426      32.8158   
2645.2     15.6607    2.7015     9.9463     20.1096    32.2663    40.9866    79.083     24.8792    0.41       34.3706   
2645.4     16.3845    2.0136     9.2484     21.929     34.7143    43.5305    90.0353    21.8243    0.412      33.8374   
2645.6     16.8471    3.6484     16.2306    28.6254    43.415     46.0857    110.3451   21.4072    0.43       32.8158   
2645.8     17.6186    3.8877     17.8378    34.428     48.0616    51.6032    129.3403   21.8597    0.435      32.7283   
2646       17.4282    3.9458     18.6488    36.4735    47.2468    52.3882    168.6774   18.6096    0.383      34.2072   
2646.2     16.5757    3.7213     17.7713    36.3516    44.9919    49.7192    122.4647   16.9155    0.405      35.4683   
2646.4     15.5226    3.4507     16.3608    35.3544    41.358     45.056     38.1363    15.3469    0.434      35.9716   
2646.6     14.7609    3.1702     14.663     34.2992    38.1093    40.4924    13.4067    14.3916    0.447      36.8862   
2646.8     14.0088    2.9474     13.3337    33.3908    35.7996    36.6397    11.338     13.7333    0.436      38.0619   
2647       13.3593    2.8386     12.4729    32.7231    34.6526    33.7728    9.7128     13.3719    0.427      37.1447   
2647.2     12.9037    2.8429     12.1263    32.5452    34.5395    31.9629    9.8733     13.3047    0.43       38.639    
2647.4     12.4811    2.9571     12.3247    32.7562    35.2642    31.2515    11.054     13.5803    0.442      39.8866   
