~Version
 VERS              .         2.0                           : CWLS LOG ASCII STANDARD - VERSION 2.0
 WRAP              .         NO                            : ONE LINE PER DEPTH STEP
 DLM               .         SPACE                         : DELIMITING CHARACTER(SPACE TAB OR COMMA)
~Well Information
#_______________________________________________________________________________
#
#PARAMETER_NAME    .UNIT     VALUE                         : DESCRIPTION
#_______________________________________________________________________________
STRT               .m        2460                          : First reference value
STOP               .m        2677                          : Last reference value
STEP               .m        0.2                           : Step increment
NULL               .         -9999                         : Missing value
COMP               .                                       : Company
WELL               .         606                           : Well name
FLD                .                                       : Field
LOC                .                                       : Location
CNTY               .                                       : County
STAT               .                                       : State
CTRY               .                                       : Country
SRVC               .                                       : Service Company
DATE               .                                       : Date
API                .                                       : API number
EREF               .m        134                           : 
X                  .m        225746                        : 
Y                  .m        235643                        : 
group              .         Pad6                          : 
Интер-р            .         Пузин                         : 
Куст               .         6                             : 
Статус             .         Не проверено                  : 
Тип                .         Нагнетательные                : 
~Parameter Information Block
#_______________________________________________________________________________
#
#PARAMETER_NAME    .UNIT     VALUE                         : DESCRIPTION
#_______________________________________________________________________________
SET                .         LAS1                          : 
REAL_CREATION_DATE .         Ср апр 11 2012-13_17_24       : 
TLFamily_DEPTH     .         Measured Depth                : 
TLFamily_KS        .         Potential Resistivity         : 
TLFamily_KS1       .         Extra Shallow Resistivity     : 
TLFamily_KS2       .         Shallow Resistivity           : 
TLFamily_KS3       .         Medium Resistivity            : 
TLFamily_KS4       .         Deep Resistivity              : 
TLFamily_KS5       .         Extra Deep Resistivity        : 
TLFamily_LLD       .         Lateral Log Resistivity       : 
TLFamily_OKS3      .         Medium Resistivity Inverted   : 
TLFamily_RM        .         Mud Resistivity               : 
TLFamily_SP        .         Spontaneous Potential         : 
group              .         INI                           : 
~Curve Information
#_______________________________________________________________________________
#
#LOGNAME           .UNIT     LOG_ID                        : DESCRIPTION
#_______________________________________________________________________________
DEPTH              .m                                      : Measured Depth 
KS                 .ohm.m                                  : Potential Resistivity 
KS1                .ohm.m                                  : Extra Shallow Resistivity 
KS2                .ohm.m                                  : Shallow Resistivity 
KS3                .ohm.m                                  : Medium Resistivity 
KS4                .ohm.m                                  : Deep Resistivity 
KS5                .ohm.m                                  : Extra Deep Resistivity 
LLD                .ohm.m                                  : Lateral Log Resistivity 
OKS3               .ohm.m                                  : Medium Resistivity Inverted 
RM                 .ohm.m                                  : Mud Resistivity 
SP                 .mV                                     : Spontaneous Potential 
~Ascii
# ...
2567.2     11.4119    2.8588     10.7233    19.0843    19.4984    9.7833     42.1057    22.2339    0.447      28.7567   
2567.4     11.4209    3.1112     11.3641    20.5582    20.9982    10.6202    15.9252    21.4716    0.443      28.7548   
2567.6     11.214     3.1112     11.584     21.2488    21.9369    11.4718    10.7375    21.7262    0.44       28.1182   
2567.8     10.9275    3.1562     11.9043    21.8725    23.041     12.0891    9.9187     22.5361    0.443      29.5462   
2568       10.686     3.0878     12.1119    22.4828    24.0385    12.5115    9.0699     23.3718    0.443      28.401    
2568.2     10.4944    3.022      12.2647    22.6211    24.3432    12.6154    9.4173     23.4418    0.443      28.7231   
2568.4     10.3985    2.9914     11.9071    22.2264    23.8296    12.3751    8.9412     22.7851    0.443      31.3853   
2568.6     10.3642    2.8714     11.2968    21.3785    22.8222    11.7921    8.2911     22.1945    0.443      28.3224   
2568.8     10.3446    2.7481     10.638     20.4684    21.7253    11.1353    7.8328     22.0079    0.44       29.0055   
2569       10.3482    2.6284     10.0954    19.8758    20.9441    10.63      7.8916     22.3756    0.441      28.3642   
2569.2     10.4055    2.6205     10.0709    19.5744    20.4123    10.2683    8.1309     22.953     0.444      31.4997   
2569.4     10.5076    2.5873     9.7628     19.3457    20.1516    10.1225    8.1301     23.788     0.443      28.5073   
2569.6     10.6336    2.5115     9.5295     18.8802    20.0024    10.1659    8.5173     24.7124    0.443      30.4451   
2569.8     10.786     2.566      9.624      18.7549    20.2976    10.3491    9.7208     25.5789    0.449      28.8903   
2570       10.9365    2.5919     9.7626     19.0525    20.922     10.7343    10.35      26.3347    0.448      30.7985   
2570.2     11.0593    2.6672     10.1149    19.8214    21.9596    11.0558    11.3873    27.0606    0.443      30.7867   
2570.4     11.131     2.7936     10.7443    20.8179    23.0945    11.2186    13.0896    27.1471    0.445      31.9935   
2570.6     11.2958    2.8897     10.9906    21.1452    23.3487    11.2232    12.2155    26.0296    0.443      31.1133   
2570.8     11.3696    2.7954     10.6923    20.5539    22.8197    10.9445    10.1876    25.3623    0.443      31.1311   
2571       11.3976    2.7828     10.6835    20.0778    22.3901    10.5525    9.8624     25.0991    0.44       29.653    
2571.2     11.4738    2.7296     10.6482    19.6707    22.1924    10.179     10.1311    24.8802    0.437      31.2457   
2571.4     11.5957    2.6895     10.4722    19.3224    21.6765    9.8726     9.7871     24.9724    0.436      30.9124   
2571.6     11.7211    2.6222     10.2409    18.9981    21.1094    9.6273     9.3005     25.1169    0.431      28.6249   
2571.8     11.9024    2.6205     10.1549    19.0079    20.8665    9.4819     10.2937    25.1299    0.431      31.4144   
2572       12.0738    2.6511     10.2832    19.3555    21.012     9.4639     11.8963    24.8276    0.431      31.4989   
2572.2     12.1817    2.7262     10.546     20.0373    21.6035    9.4939     12.7212    24.3883    0.431      32.2307   
2572.4     12.2386    2.8917     11.0179    20.7494    22.2084    9.6055     14.3075    23.9792    0.435      28.983    
2572.6     12.2778    2.8636     11.0925    21.358     22.6319    9.706      12.8274    23.5108    0.432      34.4719   
2572.8     12.2312    2.932      11.3147    21.682     22.8278    9.8052     12.8261    23.2838    0.432      33.2926   
2573       12.1789    2.8936     11.4669    21.8221    22.927     9.8772     11.9541    23.2335    0.431      31.9325   
2573.2     12.1789    2.8723     11.2726    21.7711    22.9861    10.0016    10.5931    23.3252    0.431      31.7838   
2573.4     12.1297    2.8067     11.2573    21.8352    23.2163    10.1495    10.75      23.3003    0.431      32.6891   
2573.6     12.1789    2.8386     11.3213    22.0766    23.7743    10.3858    11.7524    23.0465    0.431      32.7577   
2573.8     12.1723    2.8386     11.3239    22.3624    24.4335    10.6408    11.7491    22.7509    0.43       29.6822   
2574       12.1249    2.8662     11.4529    22.7872    25.234     10.9537    12.1853    22.501     0.425      32.6561   
2574.2     12.1225    2.8931     11.4908    23.1455    26.034     11.2666    12.3392    22.1456    0.427      31.5102   
2574.4     12.071     2.8931     11.534     23.3082    26.7225    11.5797    11.3707    21.5954    0.428      32.5081   
2574.6     12.071     2.8699     11.4736    23.2855    27.3776    11.9484    11.1523    21.0431    0.422      30.4508   
2574.8     12.071     2.8342     11.227     23.0153    27.829     12.3647    10.2034    20.7433    0.423      31.2906   
2575       12.071     2.7848     11.1935    23.1394    28.492     12.9164    10.6157    20.4854    0.422      30.3983   
2575.2     12.0629    2.8613     11.5596    23.6846    29.6492    13.5533    13.445     19.9163    0.42       31.718    
2575.4     11.9943    2.9871     11.9754    24.3661    30.7472    14.211     15.0187    19.2076    0.425      30.3484   
2575.6     11.8254    3.1108     12.2818    24.8765    31.4015    14.7579    14.2494    18.5247    0.425      31.3441   
2575.8     11.6454    3.1461     12.3884    24.9239    31.4616    15.1313    12.387     18.1091    0.425      31.7623   
2576       11.4646    3.0254     12.0802    24.6091    31.2147    15.5025    9.8407     17.8632    0.424      31.7899   
2576.2     11.2252    2.9567     11.9168    24.498     31.3147    15.8771    9.9942     17.5558    0.419      31.4682   
2576.4     10.9454    3.0252     12.3909    25.0639    31.9904    16.2165    12.3902    16.8656    0.425      32.328    
2576.6     10.5756    3.2152     12.9882    25.8369    32.6896    16.4979    14.3024    15.932     0.425      33.6216   
2576.8     10.2546    3.2702     12.9936    25.5664    31.9908    16.5019    11.3227    15.2719    0.43       32.3938   
2577       9.9071     3.0526     11.9209    24.3137    30.1392    16.1598    7.4136     15.311     0.426      34.1075   
2577.2     9.666      2.876      11.2617    22.5168    27.7174    15.6718    6.063      16.0849    0.427      34.2481   
2577.4     9.5785     2.5427     10.1413    21.1824    25.9805    15.3209    5.6206     17.1876    0.421      34.9637   
2577.6     9.5566     2.4568     9.8715     20.1893    24.9971    15.2771    6.3454     18.1385    0.425      32.9681   
2577.8     9.6432     2.4058     9.4649     20.0391    25.0119    15.462     7.5155     18.7605    0.42       34.1589   
2578       9.6868     2.5679     9.7281     20.0546    25.2145    15.8337    9.1967     18.7617    0.433      33.324    
2578.2     9.695      2.6683     9.7907     20.3127    25.5953    16.2091    9.9017     18.582     0.431      33.2352   
2578.4     9.6126     2.7841     10.0074    20.307     25.5095    16.4075    9.8462     18.3404    0.431      32.4987   
2578.6     9.5269     2.8062     10.1814    19.9823    24.9474    16.3917    9.0176     18.0727    0.431      32.222    
2578.8     9.4287     2.758      9.9421     19.0709    23.8274    16.3079    7.6451     18.2372    0.426      32.907    
2579       9.3965     2.6138     9.5381     17.6628    22.2642    16.2652    6.2387     19.0758    0.425      32.723    
2579.2     9.4274     2.4375     9.0152     16.5798    21.4374    16.1677    5.931      20.5268    0.421      35.0071   
2579.4     9.4863     2.4064     8.9196     16.0502    21.1039    16.3263    6.5553     21.9577    0.425      32.2308   
2579.6     9.6798     2.4035     8.9575     15.9394    21.0538    16.6521    7.5045     23.3463    0.425      34.3228   
2579.8     9.8708     2.3617     8.6555     16.033     21.061     17.0622    7.3403     24.2347    0.425      31.8815   
2580       10.0702    2.4602     8.9184     16.4934    21.2996    17.3281    9.8397     24.6475    0.425      33.0063   
2580.2     10.2602    2.5986     9.1919     16.8742    21.3625    17.5766    10.3897    24.6819    0.425      32.6089   
2580.4     10.4247    2.6205     9.2513     17.0669    21.1835    17.7309    9.3368     24.7894    0.425      34.2079   
