~Version
 VERS              .         2.0                           : CWLS LOG ASCII STANDARD - VERSION 2.0
 WRAP              .         NO                            : ONE LINE PER DEPTH STEP
 DLM               .         SPACE                         : DELIMITING CHARACTER(SPACE TAB OR COMMA)
~Well Information
#_______________________________________________________________________________
#
#PARAMETER_NAME    .UNIT     VALUE                         : DESCRIPTION
#_______________________________________________________________________________
STRT               .m        2460                          : First reference value
STOP               .m        2677                          : Last reference value
STEP               .m        0.2                           : Step increment
NULL               .         -9999                         : Missing value
COMP               .                                       : Company
WELL               .         606                           : Well name
FLD                .                                       : Field
LOC                .                                       : Location
CNTY               .                                       : County
STAT               .                                       : State
CTRY               .                                       : Country
SRVC               .                                       : Service Company
DATE               .                                       : Date
API                .                                       : API number
EREF               .m        134                           : 
X                  .m        225746                        : 
Y                  .m        235643                        : 
group              .         Pad6                          : 
Интер-р            .         Пузин                         : 
Куст               .         6                             : 
Статус             .         Не проверено                  : 
Тип                .         Нагнетательные                : 
~Parameter Information Block
#_______________________________________________________________________________
#
#PARAMETER_NAME    .UNIT     VALUE                         : DESCRIPTION
#_______________________________________________________________________________
SET                .         LAS1                          : 
REAL_CREATION_DATE .         Ср апр 11 2012-13_17_24       : 
TLFamily_DEPTH     .         Measured Depth                : 
TLFamily_KS        .         Potential Resistivity         : 
TLFamily_KS1       .         Extra Shallow Resistivity     : 
TLFamily_KS2       .         Shallow Resistivity           : 
TLFamily_KS3       .         Medium Resistivity            : 
TLFamily_KS4       .         Deep Resistivity              : 
TLFamily_KS5       .         Extra Deep Resistivity        : 
TLFamily_LLD       .         Lateral Log Resistivity       : 
TLFamily_OKS3      .         Medium Resistivity Inverted   : 
TLFamily_RM        .         Mud Resistivity               : 
TLFamily_SP        .         Spontaneous Potential         : 
group              .         INI                           : 
~Curve Information
#_______________________________________________________________________________
#
#LOGNAME           .UNIT     LOG_ID                        : DESCRIPTION
#_______________________________________________________________________________
DEPTH              .m                                      : Measured Depth 
KS                 .ohm.m                                  : Potential Resistivity 
KS1                .ohm.m                                  : Extra Shallow Resistivity 
KS2                .ohm.m                                  : Shallow Resistivity 
KS3                .ohm.m                                  : Medium Resistivity 
KS4                .ohm.m                                  : Deep Resistivity 
KS5                .ohm.m                                  : Extra Deep Resistivity 
LLD                .ohm.m                                  : Lateral Log Resistivity 
OKS3               .ohm.m                                  : Medium Resistivity Inverted 
RM                 .ohm.m                                  : Mud Resistivity 
SP                 .mV                                     : Spontaneous Potential 
~Ascii
# ...
2513.6     6.585      2.1277     6.8482     13.0779    10.579     5.1291     3.8285     13.3662    0.425      59.5709   
2513.8     6.4111     2.0433     6.4995     12.4018    10.579     5.137      3.6342     13.8098    0.419      58.5251   
2514       6.3414     2.0264     6.3261     11.6608    10.5881    5.1975     4.2139     13.7003    0.413      58.4823   
2514.2     6.2983     2.1316     6.4333     11.2075    10.7875    5.2846     4.7152     13.5745    0.407      55.1952   
2514.4     6.34       2.1844     6.5505     10.8935    11.104     5.4082     5.346      13.4482    0.423      50.3601   
2514.6     6.5238     2.1892     6.7063     10.6911    11.4976    5.5691     5.4966     13.3657    0.416      50.3215   
2514.8     6.7552     2.2389     6.9781     10.5905    12.0122    5.7764     5.5587     13.1452    0.417      45.4175   
2515       6.9355     2.2418     7.1611     10.5995    12.5481    6.03       5.7788     13.0261    0.41       43.6212   
2515.2     7.0632     2.3337     7.4793     10.8218    13.0968    6.3338     6.0553     13.0155    0.407      42.3487   
2515.4     7.1772     2.4033     7.8318     11.1145    13.5492    6.6921     6.2371     13.141     0.41       44.2222   
2515.6     7.3024     2.4132     7.9411     11.3097    13.7383    7.1195     6.4929     13.4633    0.419      39.2872   
2515.8     7.3773     2.2544     7.6491     11.6182    13.9799    7.5115     6.3848     14.0028    0.409      39.9661   
2516       7.4312     2.355      8.11       12.2489    14.2365    7.8074     5.3303     14.0714    0.407      41.3474   
2516.2     7.4312     2.4249     8.327      12.8692    14.2848    7.9806     5.1338     13.5756    0.409      41.9824   
2516.4     7.4406     2.4982     8.4728     13.1215    13.8857    7.9707     7.5997     12.7106    0.412      40.4927   
2516.6     7.4852     2.612      8.6802     13.2454    13.3351    7.8173     6.8742     11.9363    0.417      41.1271   
2516.8     7.4905     2.5706     8.4262     13.2644    12.8843    7.5461     8.0014     11.6584    0.419      44.5308   
2517       7.5776     2.5674     8.73       13.0541    12.0735    7.0622     6.6019     11.918     0.419      43.9628   
2517.2     7.5418     2.3355     8.0377     12.2736    11.1482    6.8117     5.7475     12.2733    0.416      48.4073   
2517.4     7.5079     2.1871     7.4812     11.746     10.6096    6.6419     5.4451     12.5808    0.41       48.3933   
2517.6     7.3243     2.2389     7.57       11.7823    10.6025    6.5248     5.3222     12.7873    0.408      51.9145   
2517.8     7.0536     2.4506     8.0765     12.1808    10.9168    6.5212     5.0008     13.3366    0.417      53.8881   
2518       7.0536     2.4233     7.8934     12.5695    11.2528    6.605      4.4914     13.5599    0.413      55.7453   
2518.2     7.0927     2.512      8.2114     12.6918    11.2163    6.6586     4.9776     13.4773    0.401      53.5861   
2518.4     7.1479     2.4538     8.0293     12.6826    11.0372    6.5716     5.8856     13.3877    0.404      55.6648   
2518.6     7.049      2.3782     7.6527     12.0331    10.5393    6.6028     5.8222     13.4663    0.415      53.455    
2518.8     6.9291     2.2147     7.0934     11.3362    10.1566    6.649      5.7832     14.0108    0.411      57.6977   
2519       6.8347     2.2337     7.1863     10.7625    9.9382     6.9275     5.1053     14.4437    0.414      59.11     
2519.2     6.7299     2.0519     6.4244     10.2664    9.8324     7.4675     4.7319     15.1539    0.415      59.7358   
2519.4     6.7232     1.8839     5.9786     9.8598     10.0121    8.1685     4.3053     16.2059    0.406      59.608    
2519.6     6.6759     1.8461     5.9681     10.2296    10.7878    8.8055     4.345      16.9363    0.408      61.9364   
2519.8     6.7484     2.0266     6.6148     10.8472    11.7104    9.5921     4.0129     16.3935    0.411      62.5804   
2520       6.9109     2.1832     6.9018     11.6825    12.6641    10.266     3.9128     14.9908    0.407      61.3884   
2520.2     7.255      2.5824     7.9019     12.7708    13.8846    10.4866    4.9977     13.5958    0.407      63.1218   
2520.4     7.6444     3.0961     9.3951     13.8238    14.7664    10.4267    8.8429     12.5745    0.409      62.5209   
2520.6     8.2236     3.0484     9.7273     13.9182    14.6495    10.3038    13.4787    11.8068    0.415      62.0899   
2520.8     8.6944     2.668      9.2645     13.327     13.9021    10.0093    18.6972    11.3181    0.413      61.6846   
2521       8.8116     2.632      9.8048     13.5933    13.9882    9.4674     16.149     10.9924    0.418      62.5941   
2521.2     8.5921     2.9228     10.8931    14.4234    14.3351    8.9534     8.3811     10.5915    0.427      62.0857   
2521.4     8.4157     2.9666     10.6229    14.7809    13.9526    8.4028     5.2032     10.3235    0.419      64.5495   
2521.6     8.2184     2.6862     9.5214     14.1212    12.7811    7.7733     7.0779     10.3133    0.412      61.686    
2521.8     7.8332     2.427      8.4505     13.565     11.6445    7.1185     9.4098     10.4537    0.412      63.6014   
2522       7.4723     2.2934     7.963      13.3051    10.9184    6.633      5.891      10.8995    0.431      63.9435   
2522.2     7.0879     2.2432     7.5513     13.1111    10.5748    6.4032     4.2832     12.0065    0.43       62.316    
2522.4     6.7937     2.0568     6.8594     12.4708    10.1922    6.3843     4.0885     12.9669    0.42       61.2678   
2522.6     6.5824     1.9364     6.4144     12.0418    10.1316    6.3959     4.1091     13.3097    0.414      61.7021   
2522.8     6.4583     2.1093     6.743      12.0421    10.3551    6.4973     3.7862     13.3489    0.424      61.792    
2523       6.3543     2.2871     6.8268     11.9095    10.5499    6.6866     3.5715     13.8525    0.429      59.0951   
2523.2     6.4368     2.1664     6.4761     11.6864    10.7723    6.9243     4.5704     14.8746    0.418      57.023    
2523.4     6.5619     2.2109     6.839      11.462     11.0851    7.0852     6.1651     15.1953    0.422      54.561    
2523.6     6.6874     2.184      6.9775     11.411     11.5116    7.2718     6.0699     15.0322    0.432      55.2829   
2523.8     6.8077     2.2934     7.1753     11.2053    12.0303    7.4118     4.4828     14.6602    0.427      52.4518   
2524       6.8457     2.2934     7.1753     11.0809    12.5506    7.5054     4.4451     14.4479    0.425      53.5762   
2524.2     6.9518     2.2987     7.3338     11.0226    12.9209    7.566      6.0546     14.1441    0.428      50.1623   
2524.4     7.1526     2.4024     7.7372     11.047     13.0355    7.6261     6.0442     13.8406    0.427      47.7689   
2524.6     7.3306     2.4024     7.8628     11.135     12.9426    7.6864     5.7632     13.7458    0.425      44.6484   
2524.8     7.4339     2.3246     7.6743     11.2376    12.6649    7.7014     5.9469     13.8636    0.425      44.8758   
2525       7.5391     2.2945     7.6136     11.2637    12.4203    7.7866     6.4048     13.876     0.43       45.5764   
2525.2     7.5658     2.3507     7.8876     11.561     12.4057    7.883      6.3261     13.9317    0.433      43.6643   
2525.4     7.6333     2.4486     8.3292     12.2145    12.6541    8.0062     5.545      13.9874    0.431      40.0545   
2525.6     7.7128     2.6172     8.7733     12.9659    12.7803    8.1289     5.5814     14.0999    0.426      40.6714   
2525.8     7.7812     2.5376     8.6993     13.4531    12.5427    8.2259     6.6338     14.1246    0.425      41.8726   
2526       7.8089     2.5191     8.6302     13.505     12.2278    8.1739     7.2862     14.2547    0.426      38.9755   
2526.2     7.7466     2.4561     8.4828     13.421     11.8822    8.0957     7.1813     14.4847    0.438      40.2896   
2526.4     7.6745     2.4001     8.2906     13.2727    11.6394    8.0143     6.2174     14.6909    0.436      38.5449   
2526.6     7.4865     2.3103     7.9615     12.9237    11.5409    7.9478     5.6218     14.7927    0.431      36.9246   
2526.8     7.419      2.2443     7.6736     12.6464    11.4183    7.903      5.6672     14.9826    0.429      36.9811   
