~Version
 VERS              .         2.0                           : CWLS LOG ASCII STANDARD - VERSION 2.0
 WRAP              .         NO                            : ONE LINE PER DEPTH STEP
 DLM               .         SPACE                         : DELIMITING CHARACTER(SPACE TAB OR COMMA)
~Well Information
#_______________________________________________________________________________
#
#PARAMETER_NAME    .UNIT     VALUE                         : DESCRIPTION
#_______________________________________________________________________________
STRT               .m        2460                          : First reference value
STOP               .m        2677                          : Last reference value
STEP               .m        0.2                           : Step increment
NULL               .         -9999                         : Missing value
COMP               .                                       : Company
WELL               .         606                           : Well name
FLD                .                                       : Field
LOC                .                                       : Location
CNTY               .                                       : County
STAT               .                                       : State
CTRY               .                                       : Country
SRVC               .                                       : Service Company
DATE               .                                       : Date
API                .                                       : API number
EREF               .m        134                           : 
X                  .m        225746                        : 
Y                  .m        235643                        : 
group              .         Pad6                          : 
Интер-р            .         Пузин                         : 
Куст               .         6                             : 
Статус             .         Не проверено                  : 
Тип                .         Нагнетательные                : 
~Parameter Information Block
#_______________________________________________________________________________
#
#PARAMETER_NAME    .UNIT     VALUE                         : DESCRIPTION
#_______________________________________________________________________________
SET                .         LAS1                          : 
REAL_CREATION_DATE .         Ср апр 11 2012-13_17_24       : 
TLFamily_DEPTH     .         Measured Depth                : 
TLFamily_KS        .         Potential Resistivity         : 
TLFamily_KS1       .         Extra Shallow Resistivity     : 
TLFamily_KS2       .         Shallow Resistivity           : 
TLFamily_KS3       .         Medium Resistivity            : 
TLFamily_KS4       .         Deep Resistivity              : 
TLFamily_KS5       .         Extra Deep Resistivity        : 
TLFamily_LLD       .         Lateral Log Resistivity       : 
TLFamily_OKS3      .         Medium Resistivity Inverted   : 
TLFamily_RM        .         Mud Resistivity               : 
TLFamily_SP        .         Spontaneous Potential         : 
group              .         INI                           : 
~Curve Information
#_______________________________________________________________________________
#
#LOGNAME           .UNIT     LOG_ID                        : DESCRIPTION
#_______________________________________________________________________________
DEPTH              .m                                      : Measured Depth 
KS                 .ohm.m                                  : Potential Resistivity 
KS1                .ohm.m                                  : Extra Shallow Resistivity 
KS2                .ohm.m                                  : Shallow Resistivity 
KS3                .ohm.m                                  : Medium Resistivity 
KS4                .ohm.m                                  : Deep Resistivity 
KS5                .ohm.m                                  : Extra Deep Resistivity 
LLD                .ohm.m                                  : Lateral Log Resistivity 
OKS3               .ohm.m                                  : Medium Resistivity Inverted 
RM                 .ohm.m                                  : Mud Resistivity 
SP                 .mV                                     : Spontaneous Potential 
~Ascii
# ...
2553.8     6.4601     2.3479     7.3879     11.1143    8.566      4.647      4.4126     11.5418    0.434      27.0965   
2554       6.4601     2.3479     7.4111     10.8683    8.6672     4.5732     4.4728     11.4963    0.435      29.0947   
2554.2     6.4601     2.3479     7.3467     10.6872    8.7559     4.45       4.5934     11.5364    0.437      28.78     
2554.4     6.4601     2.2958     7.2816     10.4426    8.71       4.3556     4.3139     11.6156    0.437      30.9259   
2554.6     6.4669     2.2934     7.2642     10.2816    8.733      4.2576     4.4671     11.7854    0.441      28.8967   
2554.8     6.5141     2.29       7.2732     10.1584    8.6595     4.1741     4.4565     11.979     0.439      27.9413   
2555       6.5141     2.2817     7.2309     10.1599    8.704      4.111      4.4309     12.2485    0.437      30.8788   
2555.2     6.5141     2.2946     7.2492     10.2392    8.7085     4.0468     4.4742     12.4865    0.437      30.1759   
2555.4     6.5141     2.3479     7.3879     10.3132    8.7085     3.9605     4.774      12.5771    0.437      30.7691   
2555.6     6.5033     2.3873     7.4762     10.3735    8.6444     3.8753     4.8524     12.6274    0.442      28.7719   
2555.8     6.4818     2.3964     7.4566     10.2927    8.3905     3.7821     4.814      12.8755    0.44       34.7203   
2556       6.4784     2.2934     7.1193     10.0246    8.05       3.6946     4.2198     13.2847    0.437      27.9658   
2556.2     6.5215     2.2597     7.0601     9.7732     7.7415     3.6306     4.1441     13.8134    0.437      30.0435   
2556.4     6.646      2.1835     6.7958     9.5281     7.5653     3.646      4.2058     14.4306    0.432      27.388    
2556.6     6.7689     2.1298     6.6438     9.4056     7.5141     3.7451     4.0972     15.1341    0.437      31.1476   
2556.8     6.9352     2.1298     6.6438     9.5084     7.6901     3.8832     4.5801     15.9747    0.437      27.6711   
2557       7.0849     2.1778     6.806      9.8013     8.0519     4.0893     4.9707     16.7409    0.44       26.9101   
2557.2     7.2553     2.2934     7.0473     10.1075    8.4505     4.3071     5.5635     17.4562    0.437      29.227    
2557.4     7.4275     2.2964     7.1579     10.3685    8.7476     4.5951     5.7037     18.0958    0.437      29.3365   
2557.6     7.6063     2.3433     7.2816     10.5412    9.0526     4.8614     5.643      18.8021    0.437      29.0486   
2557.8     7.7862     2.2934     7.3015     10.6844    9.4196     5.24       5.4665     19.4893    0.441      27.6585   
2558       7.9497     2.3161     7.5229     10.9434    9.9211     5.6453     5.7352     20.1845    0.441      30.5813   
2558.2     8.1002     2.3855     7.8513     11.4104    10.5936    6.0361     6.3229     20.8081    0.441      29.0954   
2558.4     8.2716     2.461      8.2539     11.8865    11.1125    6.3332     6.6229     21.0598    0.44       27.4541   
2558.6     8.4514     2.4952     8.3784     12.183     11.2931    6.5363     7.043      20.8201    0.437      26.9303   
2558.8     8.6305     2.4791     8.3612     12.1519    11.0685    6.5436     6.6694     20.3961    0.437      30.3278   
2559       8.8665     2.4518     8.2412     12.0934    10.7732    6.4364     6.5104     20.2463    0.44       28.7881   
2559.2     9.0666     2.4024     8.2406     12.0765    10.5521    6.3455     6.3309     20.1109    0.438      29.1052   
2559.4     9.3154     2.3993     8.2915     12.2496    10.4766    6.342      6.9768     20.0316    0.439      29.1813   
2559.6     9.5467     2.3575     8.327      12.7261    10.6998    6.3852     7.1612     19.6213    0.437      28.4562   
2559.8     9.6161     2.5799     9.1536     13.5688    11.1029    6.4267     9.3558     18.844     0.442      29.9066   
2560       9.6971     2.7841     9.6748     14.5042    11.5245    6.4861     11.6217    18.1884    0.443      28.7566   
2560.2     9.6864     2.7841     9.8156     15.032     11.649     6.5035     8.7496     17.8877    0.442      30.7775   
2560.4     9.6393     2.7841     9.8458     15.4098    11.7743    6.4718     7.5914     17.7641    0.442      29.0936   
2560.6     9.5823     2.77       10.0173    15.9185    11.9768    6.387      7.9019     17.641     0.443      30.8253   
2560.8     9.5353     2.7806     10.2304    16.3577    12.1743    6.3246     7.8606     17.5687    0.446      28.6695   
2561       9.5207     2.7296     10.0978    16.7068    12.4732    6.262      7.6358     17.4896    0.443      30.6864   
2561.2     9.4528     2.7309     10.0613    16.9404    12.8524    6.1816     7.9751     17.439     0.439      27.6555   
2561.4     9.3758     2.7841     10.1284    17.2587    13.2653    6.1806     8.1126     17.3833    0.443      29.4647   
2561.6     9.2975     2.7841     10.152     17.5719    13.6957    6.1806     7.9468     17.3856    0.443      27.6692   
2561.8     9.176      2.7826     10.1813    17.8537    14.3434    6.2505     7.3137     17.9129    0.443      29.1671   
2562       9.0605     2.7263     9.9557     17.7887    14.7899    6.3959     6.7234     18.6201    0.443      26.296    
2562.2     9.0497     2.6327     9.7349     17.5401    15.1939    6.4954     6.3601     19.4619    0.438      26.917    
2562.4     9.0549     2.5671     9.5701     17.3702    15.768     6.5563     6.3316     20.1151    0.437      28.5912   
2562.6     9.1491     2.6179     9.6064     17.2061    16.2062    6.5573     7.0432     20.3354    0.439      28.5344   
2562.8     9.2725     2.5304     9.173      16.8515    16.3455    6.537      7.263      20.2829    0.437      27.6589   
2563       9.3974     2.561      9.0889     16.4946    16.3177    6.4548     7.1147     20.2029    0.44       30.4333   
2563.2     9.5144     2.566      9.0889     16.3364    16.4454    6.3959     7.6741     20.2708    0.443      27.691    
2563.4     9.5908     2.5968     9.1662     16.2682    16.6651    6.3784     7.8014     20.3443    0.437      28.9611   
2563.6     9.6645     2.6205     9.3554     16.2722    16.8579    6.3892     8.2423     20.4191    0.437      30.6092   
2563.8     9.7818     2.6614     9.4609     16.2063    16.9984    6.4282     8.0951     20.5975    0.439      28.0335   
2564       9.8492     2.6239     9.4415     16.1047    17.1404    6.463      8.0806     20.8916    0.438      30.7129   
2564.2     9.8731     2.675      9.6645     16.2819    17.2784    6.5275     8.5016     21.2115    0.44       28.7669   
2564.4     9.9185     2.7296     9.8995     16.5817    17.496     6.5594     8.6504     21.5372    0.441      29.195    
2564.6     9.9755     2.7296     9.9634     16.7832    17.4818    6.6482     8.383      21.9887    0.441      27.0423   
2564.8     10.0316    2.6545     9.718      16.9112    17.3662    6.7283     8.2245     22.4591    0.433      29.3849   
2565       10.0748    2.6784     9.9131     17.1253    17.3902    6.8214     8.525      22.7402    0.438      26.7548   
2565.2     10.0748    2.7271     10.066     17.5217    17.6422    6.9219     8.6437     22.9247    0.439      29.4663   
2565.4     10.1238    2.7101     10.0499    17.6269    17.5756    7.0467     8.5247     22.8136    0.437      28.1267   
2565.6     10.186     2.6808     9.9454     17.5937    17.2864    7.123      8.3161     22.6761    0.44       28.7725   
2565.8     10.2739    2.6605     9.8545     17.3372    17.0088    7.1885     8.2813     22.2641    0.438      28.2755   
2566       10.3988    2.566      9.5673     17.1431    16.5909    7.3129     8.3638     21.9508    0.437      28.6325   
2566.2     10.4692    2.566      9.5622     17.0823    16.5288    7.4638     8.5229     21.8464    0.435      30.9169   
2566.4     10.5926    2.6205     9.6845     17.18      16.6961    7.6556     8.441      22.1136    0.439      26.8603   
2566.6     10.7701    2.5705     9.572      17.047     16.7395    8.0542     7.7362     22.723     0.437      27.6642   
2566.8     11.114     2.4117     8.9909     16.6597    16.8465    8.5879     7.773      23.4983    0.434      27.7994   
2567       11.3371    2.3681     9.0732     17.3772    17.7948    9.117      14.5991    23.335     0.442      29.3807   
