~Version
 VERS              .         2.0                           : CWLS LOG ASCII STANDARD - VERSION 2.0
 WRAP              .         NO                            : ONE LINE PER DEPTH STEP
 DLM               .         SPACE                         : DELIMITING CHARACTER(SPACE TAB OR COMMA)
~Well Information
#_______________________________________________________________________________
#
#PARAMETER_NAME    .UNIT     VALUE                         : DESCRIPTION
#_______________________________________________________________________________
STRT               .m        2460                          : First reference value
STOP               .m        2677                          : Last reference value
STEP               .m        0.2                           : Step increment
NULL               .         -9999                         : Missing value
COMP               .                                       : Company
WELL               .         606                           : Well name
FLD                .                                       : Field
LOC                .                                       : Location
CNTY               .                                       : County
STAT               .                                       : State
CTRY               .                                       : Country
SRVC               .                                       : Service Company
DATE               .                                       : Date
API                .                                       : API number
EREF               .m        134                           : 
X                  .m        225746                        : 
Y                  .m        235643                        : 
group              .         Pad6                          : 
Интер-р            .         Пузин                         : 
Куст               .         6                             : 
Статус             .         Не проверено                  : 
Тип                .         Нагнетательные                : 
~Parameter Information Block
#_______________________________________________________________________________
#
#PARAMETER_NAME    .UNIT     VALUE                         : DESCRIPTION
#_______________________________________________________________________________
SET                .         LAS1                          : 
REAL_CREATION_DATE .         Ср апр 11 2012-13_17_24       : 
TLFamily_DEPTH     .         Measured Depth                : 
TLFamily_KS        .         Potential Resistivity         : 
TLFamily_KS1       .         Extra Shallow Resistivity     : 
TLFamily_KS2       .         Shallow Resistivity           : 
TLFamily_KS3       .         Medium Resistivity            : 
TLFamily_KS4       .         Deep Resistivity              : 
TLFamily_KS5       .         Extra Deep Resistivity        : 
TLFamily_LLD       .         Lateral Log Resistivity       : 
TLFamily_OKS3      .         Medium Resistivity Inverted   : 
TLFamily_RM        .         Mud Resistivity               : 
TLFamily_SP        .         Spontaneous Potential         : 
group              .         INI                           : 
~Curve Information
#_______________________________________________________________________________
#
#LOGNAME           .UNIT     LOG_ID                        : DESCRIPTION
#_______________________________________________________________________________
DEPTH              .m                                      : Measured Depth 
KS                 .ohm.m                                  : Potential Resistivity 
KS1                .ohm.m                                  : Extra Shallow Resistivity 
KS2                .ohm.m                                  : Shallow Resistivity 
KS3                .ohm.m                                  : Medium Resistivity 
KS4                .ohm.m                                  : Deep Resistivity 
KS5                .ohm.m                                  : Extra Deep Resistivity 
LLD                .ohm.m                                  : Lateral Log Resistivity 
OKS3               .ohm.m                                  : Medium Resistivity Inverted 
RM                 .ohm.m                                  : Mud Resistivity 
SP                 .mV                                     : Spontaneous Potential 
~Ascii
# ...
2527       7.3537     2.2577     7.6098     12.3092    11.2737    7.9339     5.1253     15.392     0.425      40.1574   
2527.2     7.3233     2.0753     7.0439     12.123     11.2878    8.0001     5.0053     15.6784    0.429      37.9241   
2527.4     7.3729     2.169      7.4266     12.337     11.7571    8.1225     4.8599     15.1092    0.43       41.2163   
2527.6     7.4591     2.3973     8.1496     13.1954    12.6797    8.2191     5.2657     13.9831    0.425      41.7692   
2527.8     7.673      2.7638     8.9655     13.8356    13.2079    8.312      4.7241     13.0469    0.425      48.0958   
2528       7.8757     2.7734     8.8909     13.7996    13.1835    8.3885     6.3299     12.7936    0.419      46.2861   
2528.2     8.12       2.545      8.6038     13.3374    12.8452    8.4871     10.6497    12.9158    0.419      47.8265   
2528.4     8.2405     2.4872     8.7579     13.2283    12.8382    8.4961     13.104     12.9162    0.431      46.5012   
2528.6     8.1832     2.4999     9.123      13.6155    13.1389    8.5489     7.9007     12.6024    0.43       47.7839   
2528.8     8.0575     2.5706     9.1572     13.9933    13.3413    8.5923     5.2801     12.4865    0.425      46.3717   
2529       7.8838     2.5426     8.8477     13.9524    13.1811    8.5694     5.3678     12.9441    0.422      43.8528   
2529.2     7.7601     2.3804     8.2347     13.6411    12.8484    8.4477     6.3152     13.6501    0.424      43.9457   
2529.4     7.6351     2.2988     8.0372     13.5938    12.6646    8.305      6.5895     14.107     0.431      41.7047   
2529.6     7.5097     2.3614     8.1827     13.8724    12.7167    8.1427     5.6588     14.5301    0.432      42.231    
2529.8     7.3934     2.3518     8.0262     13.9369    12.6707    8.0175     4.5569     14.8968    0.427      39.7519   
2530       7.3665     2.4024     7.9678     13.6555    12.5564    7.8277     4.6722     15.2623    0.419      42.961    
2530.2     7.3429     2.417      8.0731     13.4563    12.539     7.6314     6.0735     15.5943    0.422      40.4097   
2530.4     7.4115     2.5083     8.266      13.3451    12.5564    7.3925     5.8949     15.9704    0.429      40.7233   
2530.6     7.4312     2.457      8.2547     13.3327    12.5505    7.146      5.6832     16.3915    0.43       40.3592   
2530.8     7.4312     2.6065     8.5989     13.0364    12.326     6.8962     6.2808     16.8328    0.426      45.2092   
2531       7.4019     2.4404     8.0933     12.377     11.7675    6.6455     6.0904     17.2349    0.425      44.635    
2531.2     7.335      2.2347     7.4081     11.3482    11.0035    6.4113     5.5791     17.5833    0.425      43.6463   
2531.4     7.2013     2.0853     6.8743     10.527     10.4628    6.342      5.5492     17.7972    0.416      47.7514   
2531.6     7.1023     1.8827     6.0956     9.9327     10.1586    6.5108     4.8104     17.8736    0.419      50.7824   
2531.8     7.0913     1.837      5.9362     9.9629     10.4764    6.8074     4.3093     18.1682    0.424      54.5232   
2532       7.1791     2.0145     6.5921     10.623     11.2803    7.2475     4.449      17.9378    0.425      54.5232   
2532.2     7.4487     2.1858     6.9434     11.3054    11.8285    7.7932     4.309      16.9303    0.419      58.2581   
2532.4     7.8754     2.27       7.3423     11.8626    12.3438    8.2226     4.4981     15.9561    0.402      58.0894   
2532.6     8.2964     2.4872     8.0576     12.7076    13.1299    8.6124     6.7299     15.0019    0.412      58.548    
2532.8     8.6988     2.7374     9.0243     13.7611    13.9994    8.9876     10.1314    13.9786    0.42       57.1708   
2533       9.2621     2.9191     10.0082    14.9359    14.8642    9.366      9.9127     13.0367    0.42       59.1658   
2533.2     9.6867     3.1309     11.1777    16.3259    15.8263    9.668      11.9219    12.1298    0.42       59.3255   
2533.4     9.98       3.3243     12.2777    17.8395    16.9078    9.6867     14.9214    11.3191    0.422      60.339    
2533.6     10.0698    3.4785     13.1019    18.7833    17.4046    9.4999     14.566     10.5302    0.43       59.4533   
2533.8     9.9598     3.2686     12.0398    18.5233    16.5405    9.0294     14.2665    9.777      0.432      60.6434   
2534       9.6183     2.8229     10.556     17.1472    14.6927    8.0427     14.1532    9.9411     0.437      60.7239   
2534.2     9.0869     2.5063     9.5025     16.3381    13.8276    7.486      11.9125    10.4777    0.442      59.9321   
2534.4     8.4481     2.1979     8.3985     15.239     12.8769    7.0579     8.8186     11.5178    0.437      63.0109   
2534.6     7.9203     2.0483     7.3836     14.4663    12.4495    6.8381     5.0935     12.802     0.429      62.3691   
2534.8     7.3796     2.1045     7.0846     14.1429    12.4454    6.8871     4.0267     13.2514    0.427      62.7573   
2535       6.935      2.1298     6.7084     13.6791    12.45      7.0145     3.5322     13.3336    0.431      61.4133   
2535.2     6.6891     2.1901     6.7786     13.4108    12.6439    7.088      3.4967     13.3336    0.431      62.1121   
2535.4     6.6466     2.2613     6.9719     13.202     12.907     7.1883     3.8773     13.3569    0.428      60.1562   
2535.6     6.7213     2.308      7.0718     12.6787    12.9756    7.3304     4.8407     13.3412    0.425      60.7997   
2535.8     6.8919     2.1933     6.9778     12.0759    13.0784    7.4454     5.0172     13.1054    0.42       57.7556   
2536       7.0168     2.2516     7.137      11.8343    13.2789    7.5005     5.2685     12.967     0.425      57.737    
2536.2     7.0839     2.3996     7.5408     11.4946    13.7638    7.6576     5.454      12.7065    0.429      54.9668   
2536.4     7.1622     2.3098     7.323      11.286     14.1033    7.8157     5.333      12.5451    0.435      55.9872   
2536.6     7.2694     2.3461     7.5029     11.2107    14.3514    8.0033     4.9809     12.5061    0.426      54.4842   
2536.8     7.3019     2.2934     7.497      11.3859    14.6149    8.251      6.0796     12.3039    0.423      55.0721   
2537       7.4168     2.2894     7.5801     11.6206    14.7422    8.5499     6.0582     12.1641    0.425      52.0214   
2537.2     7.442      2.2917     7.7429     12.2417    15.227     8.7517     5.1711     11.8383    0.425      48.8331   
2537.4     7.5148     2.5365     8.6272     13.0137    15.6112    9.0089     5.7426     11.2256    0.43       46.4005   
2537.6     7.6377     2.6482     8.7851     13.5934    15.7964    9.1897     5.6825     10.7317    0.425      45.7714   
2537.8     7.7593     2.6736     8.9385     13.8425    15.5006    9.2486     5.913      10.3679    0.425      42.6866   
2538       7.7896     2.675      9.1815     13.9796    15.0132    9.2486     7.2475     10.1771    0.433      42.0659   
2538.2     7.701      2.6568     9.0473     13.9823    14.6097    9.2111     9.0357     10.0675    0.439      44.8762   
2538.4     7.6372     2.5624     8.8762     13.7841    13.8564    9.0885     6.3529     10.0417    0.436      38.1057   
2538.6     7.3586     2.5061     8.6613     13.5201    13.2302    8.9651     6.3023     10.1497    0.436      41.0625   
2538.8     7.1777     2.4308     8.2774     13.1997    12.7295    8.84       5.4125     10.2712    0.432      37.6012   
2539       6.966      2.3444     7.9555     12.8938    12.3745    8.6633     4.7851     10.3874    0.432      38.7899   
2539.2     6.7725     2.2934     7.7102     12.6871    12.175     8.5826     4.538      10.3108    0.437      34.8007   
2539.4     6.6456     2.2934     7.5311     12.5115    11.9975    8.5002     4.2956     10.2419    0.439      37.526    
2539.6     6.5295     2.2934     7.3879     12.3299    11.8225    8.4353     4.2721     10.2251    0.437      34.5703   
2539.8     6.4647     2.2934     7.3879     12.1486    11.6983    8.3709     4.4245     10.2935    0.432      34.3335   
2540       6.4601     2.2934     7.3879     11.8506    11.5737    8.3069     4.69       10.2453    0.431      32.3409   
2540.2     6.4258     2.2934     7.3672     11.6153    11.4062    8.2798     4.5316     10.1453    0.435      32.7161   
