~Version
 VERS              .         2.0                           : CWLS LOG ASCII STANDARD - VERSION 2.0
 WRAP              .         NO                            : ONE LINE PER DEPTH STEP
 DLM               .         SPACE                         : DELIMITING CHARACTER(SPACE TAB OR COMMA)
~Well Information
#_______________________________________________________________________________
#
#PARAMETER_NAME    .UNIT     VALUE                         : DESCRIPTION
#_______________________________________________________________________________
STRT               .m        2460                          : First reference value
STOP               .m        2677                          : Last reference value
STEP               .m        0.2                           : Step increment
NULL               .         -9999                         : Missing value
COMP               .                                       : Company
WELL               .         606                           : Well name
FLD                .                                       : Field
LOC                .                                       : Location
CNTY               .                                       : County
STAT               .                                       : State
CTRY               .                                       : Country
SRVC               .                                       : Service Company
DATE               .                                       : Date
API                .                                       : API number
EREF               .m        134                           : 
X                  .m        225746                        : 
Y                  .m        235643                        : 
group              .         Pad6                          : 
Интер-р            .         Пузин                         : 
Куст               .         6                             : 
Статус             .         Не проверено                  : 
Тип                .         Нагнетательные                : 
~Parameter Information Block
#_______________________________________________________________________________
#
#PARAMETER_NAME    .UNIT     VALUE                         : DESCRIPTION
#_______________________________________________________________________________
SET                .         LAS1                          : 
REAL_CREATION_DATE .         Ср апр 11 2012-13_17_24       : 
TLFamily_DEPTH     .         Measured Depth                : 
TLFamily_KS        .         Potential Resistivity         : 
TLFamily_KS1       .         Extra Shallow Resistivity     : 
TLFamily_KS2       .         Shallow Resistivity           : 
TLFamily_KS3       .         Medium Resistivity            : 
TLFamily_KS4       .         Deep Resistivity              : 
TLFamily_KS5       .         Extra Deep Resistivity        : 
TLFamily_LLD       .         Lateral Log Resistivity       : 
TLFamily_OKS3      .         Medium Resistivity Inverted   : 
TLFamily_RM        .         Mud Resistivity               : 
TLFamily_SP        .         Spontaneous Potential         : 
group              .         INI                           : 
~Curve Information
#_______________________________________________________________________________
#
#LOGNAME           .UNIT     LOG_ID                        : DESCRIPTION
#_______________________________________________________________________________
DEPTH              .m                                      : Measured Depth 
KS                 .ohm.m                                  : Potential Resistivity 
KS1                .ohm.m                                  : Extra Shallow Resistivity 
KS2                .ohm.m                                  : Shallow Resistivity 
KS3                .ohm.m                                  : Medium Resistivity 
KS4                .ohm.m                                  : Deep Resistivity 
KS5                .ohm.m                                  : Extra Deep Resistivity 
LLD                .ohm.m                                  : Lateral Log Resistivity 
OKS3               .ohm.m                                  : Medium Resistivity Inverted 
RM                 .ohm.m                                  : Mud Resistivity 
SP                 .mV                                     : Spontaneous Potential 
~Ascii
# ...
2647.6     12.0991    2.9537     12.1498    32.7136    37.6397    31.2448    11.3162    14.8618    0.433      45.7499   
2647.8     11.6431    2.8931     12.6066    33.8327    41.4667    31.3656    11.3365    16.8969    0.421      41.324    
2648       11.1279    2.9079     13.3502    36.5773    46.9428    31.1248    8.2306     17.875     0.433      43.6149   
2648.2     10.6175    3.1392     14.206     37.2812    50.3567    30.1806    7.1461     17.3576    0.433      40.5532   
2648.4     10.0568    3.1598     13.424     35.2103    50.1465    28.1518    9.4577     16.008     0.423      40.7988   
2648.6     9.5534     2.9667     12.0616    31.4268    47.4547    25.1549    15.2192    14.587     0.41       39.4653   
2648.8     9.1913     2.8005     11.1107    27.7675    44.5193    21.9102    10.0806    13.4709    0.426      38.5708   
2649       8.8333     2.6733     10.4676    24.6495    41.3921    19.1243    7.0356     12.6128    0.441      40.1419   
2649.2     8.5301     2.5513     9.8017     22.0497    38.1428    16.9535    6.128      11.9504    0.428      43.588    
2649.4     8.3941     2.4833     9.4327     20.8036    36.3978    16.01      6.1507     11.6359    0.42       45.4831   
2649.6     8.1154     2.4571     9.1244     19.1314    33.5847    14.35      6.1125     11.1768    0.433      40.6917   
2649.8     7.9561     2.5115     9.0343     17.9216    30.3405    12.8927    6.4002     10.8248    0.433      42.8826   
2650       7.8042     2.5447     8.9756     16.8995    27.9274    11.5219    6.6332     10.4011    0.427      38.9549   
2650.2     7.6187     2.5095     8.6156     15.8122    24.8959    10.1489    6.7217     10.143     0.421      40.7383   
2650.4     7.3988     2.3374     8.0257     14.3637    20.9091    8.885      6.3038     10.4153    0.436      42.0225   
2650.6     7.1457     1.9714     6.8473     12.8461    17.7897    7.7804     4.9119     11.2147    0.436      41.3071   
2650.8     6.8942     1.8586     6.4514     11.9201    15.7371    6.8967     3.7476     11.7722    0.42       42.4837   
2651       6.744      1.9187     6.5741     11.7233    14.844     6.3593     3.7345     11.6564    0.423      44.8982   
2651.2     6.7173     2.0662     6.6235     11.6079    13.9804    6.0975     5.763      11.4582    0.43       43.8367   
2651.4     6.7211     2.1277     6.4213     11.3455    13.1524    5.9009     6.6472     11.3882    0.421      43.074    
2651.6     6.8944     2.0795     6.3135     11.1149    12.5203    5.7312     6.6805     11.4524    0.416      42.91     
2651.8     7.0229     2.1353     6.7691     11.0766    12.1777    5.6423     6.0781     11.6571    0.433      45.5823   
2652       7.1159     2.187      6.9813     11.0147    11.945     5.6828     6.2025     11.6584    0.421      43.9561   
2652.2     7.1615     2.2296     7.0434     10.692     11.8217    5.7729     6.9462     11.6624    0.414      43.0329   
2652.4     7.1615     2.1236     6.8135     10.4603    12.1115    5.9871     6.7247     11.774     0.435      43.0418   
2652.6     7.1615     2.1333     7.0819     10.5612    12.7734    6.2609     6.0862     12.0031    0.426      44.3692   
2652.8     7.2154     2.2815     7.5199     10.8776    13.3251    6.6754     6.2902     12.1669    0.417      44.5581   
2653       7.2085     2.2406     7.4881     11.1755    13.5732    7.2909     6.7628     12.3933    0.421      44.8751   
2653.2     7.1508     2.2563     7.2876     11.1327    13.7184    7.9139     6.9452     13.1415    0.417      44.4638   
2653.4     7.0536     2.082      6.7295     11.193     14.157     8.5608     5.6486     14.1877    0.425      45.0778   
2653.6     7.0536     2.1498     7.0664     11.3571    14.798     9.5304     4.9546     14.6703    0.431      45.1818   
2653.8     7.0644     2.1991     7.0444     11.6098    15.5819    10.8117    6.6088     14.8554    0.417      46.3524   
2654       7.1122     2.1353     6.8603     11.9569    16.9225    12.1613    8.4433     15.3306    0.425      45.3521   
2654.2     7.2156     2.1869     7.1467     12.8324    19.1386    13.8429    6.5596     16.2758    0.426      44.2658   
2654.4     7.3968     2.2436     7.6923     14.1091    21.6829    15.4238    7.0236     17.3163    0.419      41.5955   
2654.6     7.5085     2.4121     8.6213     15.2055    23.2457    16.3342    7.6073     17.886     0.43       41.124    
2654.8     7.5485     2.5083     8.9732     15.4045    22.6682    16.6107    8.6294     17.6248    0.416      40.8274   
2655       7.5931     2.41       8.6055     14.7995    20.8613    15.9503    8.9793     16.8544    0.424      40.5972   
2655.2     7.5644     2.3589     8.3223     14.1637    19.2505    14.6157    7.5085     16.5863    0.421      40.6522   
2655.4     7.549      2.4535     8.6762     13.6814    17.7469    13.3523    6.2587     16.2299    0.421      41.4106   
2655.6     7.6047     2.3515     8.3064     13.2604    15.9771    12.272     6.7308     15.6096    0.431      41.6301   
2655.8     7.5633     2.3081     8.1307     12.8521    14.4843    11.1368    6.9505     15.0386    0.416      38.9254   
2656       7.5391     2.3479     8.1053     12.6724    13.3977    10.2374    6.4551     14.6906    0.428      37.7966   
2656.2     7.5931     2.3471     8.0328     12.4538    12.4413    9.6138     6.6935     14.2335    0.417      37.292    
2656.4     7.5931     2.2934     7.9215     12.2662    11.6039    9.2509     6.7867     13.6055    0.427      37.211    
2656.6     7.5417     2.3381     7.9766     12.3476    10.9744    9.1108     6.7382     13.128     0.426      36.6662   
2656.8     7.5391     2.3479     8.0212     12.5199    10.5468    8.9695     7.0001     12.7737    0.414      36.5159   
2657       7.5283     2.3527     8.0709     12.5562    10.0985    8.7541     6.9416     12.5187    0.427      36.6081   
2657.2     7.4611     2.311      7.5616     12.1407    9.5184     8.4854     6.6844     12.6405    0.422      38.2355   
2657.4     7.3815     2.0208     7.0158     11.604     9.0722     8.3725     5.6892     12.8504    0.42       38.1663   
2657.6     7.2722     1.9705     7.0019     11.7786    9.3579     8.4617     4.5373     13.1561    0.428      37.0068   
2657.8     7.3233     1.9147     6.7681     12.4152    10.2479    8.8298     5.8645     13.2175    0.413      38.7658   
2658       7.3366     2.0983     7.4402     13.5516    11.6692    9.1736     6.2259     13.2011    0.423      37.8675   
2658.2     7.5465     2.3828     8.3407     15.2642    13.4579    9.2486     8.002      12.7643    0.42       37.9173   
2658.4     7.7977     2.7149     9.5255     16.4841    14.6319    9.0014     14.3644    12.6852    0.411      41.3229   
2658.6     7.9757     2.884      9.5926     16.434     14.9424    8.4851     17.8769    12.5946    0.427      40.3466   
2658.8     8.0237     2.6713     8.9752     15.2135    14.3693    7.824      11.4203    12.0193    0.416      38.0506   
2659       7.9707     2.5081     8.8711     14.6983    14.5971    7.1149     6.283      11.5449    0.437      40.2043   
2659.2     7.9422     2.488      9.3281     14.8994    15.2644    6.6172     6.1767     11.5017    0.432      46.4459   
2659.4     7.7956     2.775      10.3265    15.2205    15.5937    6.227      7.5484     11.5503    0.427      79.1121   
2659.6     7.6212     2.7323     9.9421     15.1063    15.4116    5.7811     9.0765     11.5503    0.423      49.3782   
2659.8     7.3308     2.5714     9.2825     14.5733    14.6197    5.1886     5.8899     11.5503    0.426      43.5822   
2660       6.9919     2.6108     9.0541     14.1377    13.6898    4.5981     5.2634     11.5503    0.44       49.0916   
2660.2     6.6882     2.3611     8.2331     13.4597    12.4064    4.0938     5.0482     11.5503    0.423      51.1328   
2660.4     6.3441     2.3108     7.9514     13.0571    11.4202    3.5837     4.589      11.5503    0.424      42.458    
2660.6     6.1191     2.2306     7.4843     12.4066    10.4471    3.1861     4.8128     11.5503    0.427      47.3016   
2660.8     5.8471     2.1244     6.9226     11.3428    9.3801     2.8674     3.9729     11.5503    0.408      49.3489   
