~Version
 VERS              .         2.0                           : CWLS LOG ASCII STANDARD - VERSION 2.0
 WRAP              .         NO                            : ONE LINE PER DEPTH STEP
 DLM               .         SPACE                         : DELIMITING CHARACTER(SPACE TAB OR COMMA)
~Well Information
#_______________________________________________________________________________
#
#PARAMETER_NAME    .UNIT     VALUE                         : DESCRIPTION
#_______________________________________________________________________________
STRT               .m        2460                          : First reference value
STOP               .m        2677                          : Last reference value
STEP               .m        0.2                           : Step increment
NULL               .         -9999                         : Missing value
COMP               .                                       : Company
WELL               .         606                           : Well name
FLD                .                                       : Field
LOC                .                                       : Location
CNTY               .                                       : County
STAT               .                                       : State
CTRY               .                                       : Country
SRVC               .                                       : Service Company
DATE               .                                       : Date
API                .                                       : API number
EREF               .m        134                           : 
X                  .m        225746                        : 
Y                  .m        235643                        : 
group              .         Pad6                          : 
Интер-р            .         Пузин                         : 
Куст               .         6                             : 
Статус             .         Не проверено                  : 
Тип                .         Нагнетательные                : 
~Parameter Information Block
#_______________________________________________________________________________
#
#PARAMETER_NAME    .UNIT     VALUE                         : DESCRIPTION
#_______________________________________________________________________________
SET                .         LAS1                          : 
REAL_CREATION_DATE .         Ср апр 11 2012-13_17_24       : 
TLFamily_DEPTH     .         Measured Depth                : 
TLFamily_KS        .         Potential Resistivity         : 
TLFamily_KS1       .         Extra Shallow Resistivity     : 
TLFamily_KS2       .         Shallow Resistivity           : 
TLFamily_KS3       .         Medium Resistivity            : 
TLFamily_KS4       .         Deep Resistivity              : 
TLFamily_KS5       .         Extra Deep Resistivity        : 
TLFamily_LLD       .         Lateral Log Resistivity       : 
TLFamily_OKS3      .         Medium Resistivity Inverted   : 
TLFamily_RM        .         Mud Resistivity               : 
TLFamily_SP        .         Spontaneous Potential         : 
group              .         INI                           : 
~Curve Information
#_______________________________________________________________________________
#
#LOGNAME           .UNIT     LOG_ID                        : DESCRIPTION
#_______________________________________________________________________________
DEPTH              .m                                      : Measured Depth 
KS                 .ohm.m                                  : Potential Resistivity 
KS1                .ohm.m                                  : Extra Shallow Resistivity 
KS2                .ohm.m                                  : Shallow Resistivity 
KS3                .ohm.m                                  : Medium Resistivity 
KS4                .ohm.m                                  : Deep Resistivity 
KS5                .ohm.m                                  : Extra Deep Resistivity 
LLD                .ohm.m                                  : Lateral Log Resistivity 
OKS3               .ohm.m                                  : Medium Resistivity Inverted 
RM                 .ohm.m                                  : Mud Resistivity 
SP                 .mV                                     : Spontaneous Potential 
~Ascii
# ...
2620.8     7.6722     2.3924     8.4007     13.1183    10.8525    4.6686     5.2236     9.4007     0.416      45.8132   
2621       7.3063     2.4685     8.5143     13.0312    10.1418    4.4824     4.4172     10.2778    0.4        45.1393   
2621.2     7.0375     2.2396     7.5272     12.6136    9.3545     4.4201     4.4154     11.5185    0.388      44.9601   
2621.4     6.7464     2.1139     6.9136     11.9628    8.7802     4.4043     4.1585     12.6368    0.404      46.1835   
2621.6     6.6071     2.0753     6.5907     11.2755    8.4018     4.5356     3.7403     13.3002    0.405      46.5936   
2621.8     6.5141     2.0315     6.1069     10.9188    8.4189     4.9157     4.0732     13.7287    0.403      47.8755   
2622       6.5245     2.2934     6.6416     10.824     8.8183     5.6491     4.7936     14.4645    0.4        48.9295   
2622.2     6.5636     2.2743     6.6007     10.819     9.442      7.4439     4.9335     15.7939    0.392      48.8366   
2622.4     6.4701     1.861      5.6352     9.9667     10.635     9.7431     4.9111     18.7615    0.404      47.1102   
2622.6     6.2935     1.5933     5.1755     9.6269     12.0347    12.1577    4.0901     19.8298    0.411      48.0983   
2622.8     6.2499     1.477      4.9634     9.9173     14.1269    14.7848    2.9583     19.6648    0.414      49.9357   
2623       6.4116     1.5333     5.1226     10.4232    16.329     17.2873    2.82       18.0299    0.406      49.6622   
2623.2     6.8216     1.7226     5.4718     11.0603    18.3764    19.6444    4.2971     15.9864    0.407      49.0457   
2623.4     7.5862     2.0153     6.2797     11.9966    20.159     21.7688    6.0221     13.6743    0.402      49.2697   
2623.6     8.6148     2.4971     7.7692     13.4194    22.1108    23.3372    11.6253    11.7986    0.411      50.1207   
2623.8     9.6294     3.1005     10.1114    15.0402    23.7217    24.2208    27.8599    10.4647    0.401      48.7934   
2624       10.4767    3.4965     12.0737    16.461     24.7851    24.7047    67.4526    9.3415     0.401      49.1684   
2624.2     10.8518    3.7413     14.0266    17.8276    25.2396    24.4372    115.9003   8.3133     0.397      49.4718   
2624.4     10.7266    4.0988     16.0818    19.5697    25.5025    22.9144    48.7122    7.5844     0.403      49.9218   
2624.6     10.2379    4.2263     17.2789    20.6488    24.0891    20.715     25.2235    6.919      0.403      49.9329   
2624.8     9.3697     3.8084     15.761     21.0414    21.1007    17.3947    17.3479    6.037      0.408      48.985    
2625       8.174      3.3555     13.6221    20.0971    17.1692    14.376     8.518      5.3262     0.415      50.9157   
2625.2     6.9457     2.6934     10.657     18.2883    13.6364    11.1373    6.0947     4.9713     0.421      50.813    
2625.4     5.9508     2.2136     8.5045     16.0244    10.4893    8.3579     3.811      4.7613     0.415      50.5286   
2625.6     5.2149     2.0104     7.4432     14.6267    9.0741     6.458      2.4759     4.7477     0.415      52.4058   
2625.8     4.6437     1.8827     6.2315     12.6897    7.607      5.0283     2.4086     4.9046     0.419      53.7654   
2626       4.215      1.7502     5.2133     10.9266    6.4551     4.0019     2.4389     5.308      0.424      53.9167   
2626.2     3.9973     1.6495     4.7782     9.6307     5.7641     3.2317     2.3087     5.7388     0.431      53.8562   
2626.4     3.8711     1.6644     4.4858     8.5523     5.2687     2.6681     2.1525     5.9842     0.425      55.35     
2626.6     3.8014     1.5895     4.0766     7.3034     4.7858     2.2572     2.1462     6.0383     0.424      54.5709   
2626.8     3.7626     1.5846     3.7618     6.3413     4.6208     1.9        2.4446     6.126      0.419      53.0538   
2627       3.7744     1.5804     3.6348     5.5802     4.6351     1.645      2.4559     6.4672     0.41       53.9115   
2627.2     3.8753     1.5301     3.5608     5.0217     4.7234     1.5126     2.4459     6.8984     0.404      56.6758   
2627.4     3.9329     1.5301     3.5632     4.6299     4.896      1.4977     2.5144     7.4948     0.405      54.5458   
2627.6     4.0313     1.5301     3.614      4.4646     5.1268     1.4977     2.539      8.3657     0.397      54.4441   
2627.8     4.116      1.5316     3.6259     4.4921     5.4944     1.5379     2.6201     9.7021     0.395      54.4098   
2628       4.2445     1.554      3.8142     4.6728     5.9852     1.5516     2.7702     10.836     0.397      53.7409   
2628.2     4.4316     1.5842     4.1523     4.9307     6.4102     1.6054     2.8584     11.2622    0.406      53.1128   
2628.4     4.645      1.8726     4.5844     5.1908     6.6216     1.6054     3.0717     11.0879    0.413      51.6886   
2628.6     4.8975     2.0033     4.7964     5.3914     6.5663     1.5557     4.1595     10.7622    0.412      51.7737   
2628.8     5.1587     2.1776     5.2355     5.5133     6.4053     1.5151     5.7012     10.4372    0.412      50.7092   
2629       5.4591     2.1629     5.4251     5.5079     6.2017     1.4977     4.9823     10.3615    0.41       49.0741   
2629.2     5.5939     2.071      5.6157     5.462      5.907      1.5487     5.3015     10.4352    0.413      49.4868   
2629.4     5.6196     2.0144     5.5255     5.5133     5.876      1.6013     4.4978     11.0821    0.413      50.7006   
2629.6     5.6509     1.8831     5.4141     5.5797     5.9013     1.7291     3.9077     11.8259    0.409      48.0745   
2629.8     5.6509     1.7832     5.1959     5.7057     5.8878     1.8947     3.7793     12.1194    0.407      48.2817   
2630       5.6884     1.7564     5.1123     5.8858     5.8791     2.1147     3.4901     12.0388    0.405      45.9856   
2630.2     5.8722     1.8843     5.2867     6.4149     6.0802     2.403      4.1982     12.0597    0.402      45.7481   
2630.4     6.1379     2.057      5.7538     7.2283     6.5278     2.863      5.2209     12.2354    0.41       42.5216   
2630.6     6.5328     2.2409     6.3138     8.1757     7.255      3.5368     5.8266     12.7173    0.417      40.0026   
2630.8     6.7943     2.3583     7.0852     9.1422     8.2728     4.5135     6.9242     13.5247    0.424      40.7422   
2631       6.9138     2.3527     7.4834     10.2372    9.7488     5.7423     6.9588     14.9733    0.422      41.0088   
2631.2     6.9651     2.4202     8.1513     11.1666    10.9493    7.3481     6.4662     16.5586    0.425      38.2614   
2631.4     6.9341     2.493      8.4952     11.6424    11.4671    9.3406     5.905      17.8051    0.425      38.2764   
2631.6     6.8116     2.3303     7.8181     11.3281    11.437     11.8408    5.4357     19.3882    0.425      40.4848   
2631.8     6.6745     2.0726     6.964      10.8179    11.7341    14.7889    5.7509     21.9829    0.421      40.0289   
2632       6.5807     2.0587     6.9268     11.1901    12.9837    17.9591    4.6197     25.698     0.417      39.4088   
2632.2     6.7066     2.0753     7.0343     11.9021    14.7867    20.3906    3.7303     29.1509    0.413      40.6023   
2632.4     6.7927     2.1281     7.4708     12.367     15.7388    21.9895    4.3555     30.492     0.41       40.743    
2632.6     6.9594     2.2401     7.4217     12.0545    14.8561    22.1634    4.6007     28.3205    0.423      37.4063   
2632.8     7.1727     2.1298     6.9105     11.1358    12.9644    20.6656    6.459      24.7929    0.425      35.7287   
2633       7.452      2.1298     6.9323     10.5872    11.5613    18.219     8.6157     21.9974    0.434      37.4972   
2633.2     7.9259     2.1353     7.0197     10.2941    10.5396    16.1219    7.0223     20.1884    0.429      37.4425   
2633.4     8.3483     2.1844     7.2519     10.1046    9.6793     14.2643    7.2794     18.9488    0.42       35.7147   
2633.6     8.6235     2.1844     7.3348     10.1044    9.0154     12.6158    7.3754     18.1487    0.416      37.9414   
2633.8     8.8222     2.1356     7.3401     10.1884    8.6016     11.2686    7.4809     17.7131    0.419      37.5832   
2634       8.9995     2.2093     7.5946     10.5128    8.6016     10.1282    7.1735     17.5487    0.413      37.3347   
