~Version
 VERS              .         2.0                           : CWLS LOG ASCII STANDARD - VERSION 2.0
 WRAP              .         NO                            : ONE LINE PER DEPTH STEP
 DLM               .         SPACE                         : DELIMITING CHARACTER(SPACE TAB OR COMMA)
~Well Information
#_______________________________________________________________________________
#
#PARAMETER_NAME    .UNIT     VALUE                         : DESCRIPTION
#_______________________________________________________________________________
STRT               .m        2460                          : First reference value
STOP               .m        2677                          : Last reference value
STEP               .m        0.2                           : Step increment
NULL               .         -9999                         : Missing value
COMP               .                                       : Company
WELL               .         606                           : Well name
FLD                .                                       : Field
LOC                .                                       : Location
CNTY               .                                       : County
STAT               .                                       : State
CTRY               .                                       : Country
SRVC               .                                       : Service Company
DATE               .                                       : Date
API                .                                       : API number
EREF               .m        134                           : 
X                  .m        225746                        : 
Y                  .m        235643                        : 
group              .         Pad6                          : 
Интер-р            .         Пузин                         : 
Куст               .         6                             : 
Статус             .         Не проверено                  : 
Тип                .         Нагнетательные                : 
~Parameter Information Block
#_______________________________________________________________________________
#
#PARAMETER_NAME    .UNIT     VALUE                         : DESCRIPTION
#_______________________________________________________________________________
SET                .         LAS1                          : 
REAL_CREATION_DATE .         Ср апр 11 2012-13_17_24       : 
TLFamily_DEPTH     .         Measured Depth                : 
TLFamily_KS        .         Potential Resistivity         : 
TLFamily_KS1       .         Extra Shallow Resistivity     : 
TLFamily_KS2       .         Shallow Resistivity           : 
TLFamily_KS3       .         Medium Resistivity            : 
TLFamily_KS4       .         Deep Resistivity              : 
TLFamily_KS5       .         Extra Deep Resistivity        : 
TLFamily_LLD       .         Lateral Log Resistivity       : 
TLFamily_OKS3      .         Medium Resistivity Inverted   : 
TLFamily_RM        .         Mud Resistivity               : 
TLFamily_SP        .         Spontaneous Potential         : 
group              .         INI                           : 
~Curve Information
#_______________________________________________________________________________
#
#LOGNAME           .UNIT     LOG_ID                        : DESCRIPTION
#_______________________________________________________________________________
DEPTH              .m                                      : Measured Depth 
KS                 .ohm.m                                  : Potential Resistivity 
KS1                .ohm.m                                  : Extra Shallow Resistivity 
KS2                .ohm.m                                  : Shallow Resistivity 
KS3                .ohm.m                                  : Medium Resistivity 
KS4                .ohm.m                                  : Deep Resistivity 
KS5                .ohm.m                                  : Extra Deep Resistivity 
LLD                .ohm.m                                  : Lateral Log Resistivity 
OKS3               .ohm.m                                  : Medium Resistivity Inverted 
RM                 .ohm.m                                  : Mud Resistivity 
SP                 .mV                                     : Spontaneous Potential 
~Ascii
# ...
2594       5.0287     2.0208     6.0594     8.7829     6.9097     2.9614     3.1824     8.1973     0.425      33.954    
2594.2     5.0035     2.0208     6.032      8.3314     6.6981     2.6734     3.2703     8.381      0.425      35.6073   
2594.4     5.0604     1.9768     5.8159     7.9821     6.6275     2.4569     3.2022     8.5606     0.425      38.0125   
2594.6     5.118      1.9118     5.5751     7.7262     6.6421     2.2917     3.3141     8.6823     0.425      36.2053   
2594.8     5.2208     1.9388     5.6058     7.5639     6.8076     2.1673     3.6909     8.6656     0.425      35.6865   
2595       5.2938     1.9663     5.5959     7.5161     7.2158     2.0774     3.7191     8.5782     0.42       35.2268   
2595.2     5.3885     1.9681     5.6068     7.5721     7.5263     2.036      3.74       8.5788     0.419      35.6258   
2595.4     5.4352     2.0477     5.8728     7.6986     7.7727     2.036      4.0955     8.6322     0.419      35.33     
2595.6     5.489      2.0681     5.9963     7.7818     7.8534     2.036      4.1272     8.6322     0.419      37.2117   
2595.8     5.489      2.1298     6.2325     7.8439     7.8534     2.036      4.1376     8.5711     0.413      36.6772   
2596       5.4782     2.163      6.3883     7.9726     7.8482     2.036      4.0716     8.4422     0.415      36.9431   
2596.2     5.4296     2.1844     6.5303     8.0519     7.73       2.036      3.9715     8.2684     0.416      36.2698   
2596.4     5.3811     2.1816     6.4803     8.0519     7.5241     2.0383     3.693      8.2444     0.413      37.1369   
2596.6     5.325      2.1298     6.382      8.0552     7.3315     2.0898     3.5987     8.196      0.413      36.8779   
2596.8     5.2672     2.1298     6.4418     8.1603     7.2636     2.134      3.8832     8.1457     0.419      38.0203   
2597       5.2193     2.1537     6.5348     8.3202     7.1808     2.2285     3.6616     8.0918     0.419      34.8448   
2597.2     5.1682     2.1377     6.3963     8.2301     7.0448     2.3566     3.208      8.163      0.417      36.1861   
2597.4     5.2193     2.0179     6.0445     8.0069     6.8669     2.484      3.0582     8.4696     0.418      36.842    
2597.6     5.2625     1.9118     5.7962     7.9459     6.7845     2.6102     3.3942     8.596      0.418      35.6541   
2597.8     5.3303     1.9592     5.9781     8.0718     6.7925     2.7357     4.2712     8.4943     0.419      35.5436   
2598       5.3811     2.0876     6.2228     8.3225     6.8661     2.8431     4.4973     8.1896     0.419      36.2932   
2598.2     5.3334     2.1844     6.3232     8.3732     6.7948     2.9367     3.9383     7.9636     0.425      34.9582   
2598.4     5.2695     2.2261     6.2962     8.284      6.6667     3.0642     3.808      7.679      0.425      34.5699   
2598.6     5.2117     2.1298     6.2409     8.2023     6.5943     3.2209     3.5656     7.6055     0.425      36.4382   
2598.8     5.1151     2.126      6.3497     8.0823     6.5173     3.3756     3.265      7.6367     0.425      38.0719   
2599       5.0574     2.0753     6.2734     8.0106     6.4638     3.6065     3.3808     7.7571     0.425      36.1876   
2599.2     5.0157     2.0782     6.2307     7.9321     6.4301     3.8632     3.5234     7.7676     0.426      35.5542   
2599.4     5.0574     2.0486     6.117      7.8032     6.3052     4.1728     3.3507     7.7377     0.426      38.9277   
2599.6     5.0574     1.9673     5.8468     7.6318     6.1966     4.4044     3.3614     7.7139     0.429      39.1364   
2599.8     5.0574     2.0208     5.8436     7.686      6.1966     4.5413     3.4925     7.7676     0.436      37.4544   
2600       5.0415     2.0208     5.798      7.8106     6.202      4.6561     3.4821     7.7715     0.44       37.0124   
2600.2     4.9963     2.032      5.9076     7.8412     6.2501     4.6984     3.7621     7.8167     0.443      38.342    
2600.4     4.9495     2.0789     6.0256     7.8756     6.2501     4.7273     3.6192     7.8242     0.437      38.1237   
2600.6     4.8774     2.1244     6.001      7.7976     6.1956     4.6876     3.3346     7.9178     0.434      38.3092   
2600.8     4.8416     2.059      5.8769     7.5489     6.1198     4.6734     3.0628     8.1804     0.431      37.9599   
2601       4.8416     1.9118     5.6286     7.2819     6.0912     4.6908     2.9249     8.6029     0.425      38.341    
2601.2     4.8703     1.9118     5.5807     7.2967     6.1463     4.7273     3.3861     8.6948     0.425      38.6357   
2601.4     4.958      1.9477     5.6122     7.3755     6.2846     4.7273     3.388      8.7943     0.423      35.8643   
2601.6     5.0035     2.0235     5.7951     7.4986     6.412      4.7273     3.6341     8.7464     0.419      36.7597   
2601.8     5.0089     2.0726     5.8775     7.499      6.4603     4.7273     3.9174     8.6879     0.419      36.7245   
2602       5.0574     2.016      5.7541     7.371      6.4051     4.7273     3.5562     8.7777     0.419      35.8006   
2602.2     5.0598     1.9651     5.687      7.2502     6.357      4.7273     3.212      9.0218     0.419      36.8303   
2602.4     5.1172     1.9147     5.7098     7.3113     6.4213     4.7273     3.2501     9.247      0.418      37.6158   
2602.6     5.1751     1.9761     5.9233     7.4398     6.5226     4.7273     3.5216     9.1771     0.418      36.957    
2602.8     5.2223     2.0871     6.2185     7.6186     6.5679     4.6817     4.2072     8.9326     0.417      35.4745   
2603       5.2732     2.1555     6.1922     7.6397     6.468      4.5833     4.2748     8.6357     0.414      34.5926   
2603.2     5.2732     2.1244     6.1127     7.6331     6.2839     4.4726     3.8106     8.4827     0.413      37.5521   
2603.4     5.2732     2.0727     6.1464     7.579      6.0858     4.3532     3.5961     8.5466     0.413      35.2748   
2603.6     5.2732     2.0497     6.1298     7.643      6.0493     4.3178     3.5813     8.6099     0.413      34.398    
2603.8     5.2261     2.122      6.4177     7.7766     6.0473     4.2967     3.608      8.7358     0.413      36.4072   
2604       5.2147     2.1298     6.4167     7.8899     6.0862     4.2481     3.7511     8.8654     0.419      38.3059   
2604.2     5.1653     2.1298     6.2964     7.8899     6.031      4.2428     3.6521     9.0824     0.419      35.6139   
2604.4     5.1653     2.1298     6.2262     7.8899     5.9693     4.2212     3.6092     9.3528     0.419      36.7781   
2604.6     5.189      2.1272     6.1998     7.9116     5.8977     4.189      3.6325     9.8185     0.419      36.1208   
2604.8     5.2193     2.0807     6.1502     8.0841     5.9218     4.1404     3.6524     10.4054    0.422      36.4543   
2605       5.2153     2.1441     6.3249     8.2056     5.9294     4.0575     3.8155     10.9677    0.422      33.652    
2605.2     5.1653     2.1844     6.3754     8.1976     5.89       3.992      4.0392     11.5059    0.419      34.0531   
2605.4     5.1545     2.1787     6.2314     7.987      5.7665     3.906      3.7759     12.1512    0.419      35.2329   
2605.6     5.1114     2.06       6.0332     7.7379     5.6954     3.821      3.3747     12.959     0.411      33.6399   
2605.8     5.1114     2.0208     5.9819     7.6715     5.6964     3.7242     3.3549     13.8382    0.401      34.5641   
2606       5.1127     2.0708     6.18       7.6042     5.5911     3.5582     3.7013     14.4174    0.401      37.0755   
2606.2     5.1704     1.9922     5.7435     7.3108     5.2924     3.3731     3.9708     15.265     0.407      36.652    
2606.4     5.266      1.9216     5.536      6.8966     4.9689     3.1615     3.3173     15.7304    0.407      35.7114   
2606.6     5.3961     1.8991     5.346      6.6619     4.8275     3.0701     3.3781     15.8597    0.405      37.9368   
2606.8     5.6923     1.671      4.7441     6.171      4.5331     2.9574     3.4188     15.8394    0.397      40.4284   
2607       6.1228     1.6443     4.761      6.011      4.4383     2.8972     3.7947     15.4614    0.395      41.9641   
2607.2     6.5338     1.7712     5.0142     6.3232     4.6368     2.9642     5.5278     15.0283    0.398      41.4338   
