~Version
 VERS              .         2.0                           : CWLS LOG ASCII STANDARD - VERSION 2.0
 WRAP              .         NO                            : ONE LINE PER DEPTH STEP
 DLM               .         SPACE                         : DELIMITING CHARACTER(SPACE TAB OR COMMA)
~Well Information
#_______________________________________________________________________________
#
#PARAMETER_NAME    .UNIT     VALUE                         : DESCRIPTION
#_______________________________________________________________________________
STRT               .m        2460                          : First reference value
STOP               .m        2677                          : Last reference value
STEP               .m        0.2                           : Step increment
NULL               .         -9999                         : Missing value
COMP               .                                       : Company
WELL               .         606                           : Well name
FLD                .                                       : Field
LOC                .                                       : Location
CNTY               .                                       : County
STAT               .                                       : State
CTRY               .                                       : Country
SRVC               .                                       : Service Company
DATE               .                                       : Date
API                .                                       : API number
EREF               .m        134                           : 
X                  .m        225746                        : 
Y                  .m        235643                        : 
group              .         Pad6                          : 
Интер-р            .         Пузин                         : 
Куст               .         6                             : 
Статус             .         Не проверено                  : 
Тип                .         Нагнетательные                : 
~Parameter Information Block
#_______________________________________________________________________________
#
#PARAMETER_NAME    .UNIT     VALUE                         : DESCRIPTION
#_______________________________________________________________________________
SET                .         LAS1                          : 
REAL_CREATION_DATE .         Ср апр 11 2012-13_17_24       : 
TLFamily_DEPTH     .         Measured Depth                : 
TLFamily_KS        .         Potential Resistivity         : 
TLFamily_KS1       .         Extra Shallow Resistivity     : 
TLFamily_KS2       .         Shallow Resistivity           : 
TLFamily_KS3       .         Medium Resistivity            : 
TLFamily_KS4       .         Deep Resistivity              : 
TLFamily_KS5       .         Extra Deep Resistivity        : 
TLFamily_LLD       .         Lateral Log Resistivity       : 
TLFamily_OKS3      .         Medium Resistivity Inverted   : 
TLFamily_RM        .         Mud Resistivity               : 
TLFamily_SP        .         Spontaneous Potential         : 
group              .         INI                           : 
~Curve Information
#_______________________________________________________________________________
#
#LOGNAME           .UNIT     LOG_ID                        : DESCRIPTION
#_______________________________________________________________________________
DEPTH              .m                                      : Measured Depth 
KS                 .ohm.m                                  : Potential Resistivity 
KS1                .ohm.m                                  : Extra Shallow Resistivity 
KS2                .ohm.m                                  : Shallow Resistivity 
KS3                .ohm.m                                  : Medium Resistivity 
KS4                .ohm.m                                  : Deep Resistivity 
KS5                .ohm.m                                  : Extra Deep Resistivity 
LLD                .ohm.m                                  : Lateral Log Resistivity 
OKS3               .ohm.m                                  : Medium Resistivity Inverted 
RM                 .ohm.m                                  : Mud Resistivity 
SP                 .mV                                     : Spontaneous Potential 
~Ascii
# ...
2580.6     10.5474    2.6184     9.3747     16.8884    20.7668    17.766     8.8016     25.0832    0.425      33.5887   
2580.8     10.7193    2.5623     9.3015     16.6821    20.3435    17.8727    8.2563     25.3993    0.425      32.0052   
2581       10.9095    2.5115     9.2561     16.4238    20.0358    17.9967    8.6251     25.4661    0.425      33.4593   
2581.2     11.1227    2.5678     9.5322     16.4627    19.9087    18.1675    9.896      24.9552    0.425      31.8802   
2581.4     11.3777    2.5879     9.5781     16.6431    19.8784    18.4167    9.9737     24.5846    0.425      31.6763   
2581.6     11.6122    2.5224     9.5733     16.9661    19.9631    18.6619    9.8176     23.9209    0.425      30.1697   
2581.8     11.8466    2.6221     9.9529     17.5755    20.3259    18.9112    12.5178    22.9686    0.425      33.1408   
2582       12.0639    2.6779     10.0911    18.2765    20.8669    19.2592    11.7952    21.693     0.425      31.3826   
2582.2     12.186     2.7665     10.4665    19.1209    21.4368    19.6326    12.6248    20.5401    0.425      32.0235   
2582.4     12.2899    2.795      10.8318    20.0241    22.2171    20.0721    13.2654    19.048     0.428      29.8953   
2582.6     12.3343    2.9081     11.407     21.035     23.0798    20.5437    14.8969    17.3235    0.431      31.2141   
2582.8     12.2234    3.0324     11.9744    22.193     24.0339    21.036     14.9632    15.6016    0.43       28.5888   
2583       11.9641    3.1638     12.6716    23.714     25.3252    21.2436    16.1027    14.0857    0.431      31.127    
2583.2     11.5602    3.3952     13.6498    25.2557    26.3347    21.0985    18.3701    12.6807    0.431      30.9444   
2583.4     11.1162    3.4898     14.0528    26.2234    26.6023    20.7034    14.5455    11.4606    0.435      32.3415   
2583.6     10.676     3.3545     13.6061    25.9947    26.1334    20.0664    9.6551     10.7172    0.432      31.0825   
2583.8     10.1786    3.1678     13.0167    25.7197    25.8436    19.2313    7.8194     10.2447    0.431      30.3394   
2584       9.6878     3.1853     13.1538    25.9444    26.147     18.4068    8.1389     9.6644     0.431      32.4885   
2584.2     9.2363     3.1853     13.0569    26.2008    26.7259    17.8904    9.0938     9.1054     0.431      31.8959   
2584.4     8.7397     3.1654     12.789     26.2213    26.9852    17.4153    8.4227     8.7263     0.431      33.3194   
2584.6     8.163      3.1171     12.5168    26.6076    27.7043    16.6499    7.7032     8.5652     0.436      33.4641   
2584.8     7.5176     3.3023     13.0394    26.6682    27.8674    15.5587    7.1434     8.1691     0.438      34.9456   
2585       7.0251     3.1649     12.1934    25.3323    26.5263    14.3179    6.7678     7.7407     0.432      34.0804   
2585.2     6.6504     2.8107     10.5397    22.2367    23.7645    12.7492    4.3865     7.7431     0.425      33.1028   
2585.4     6.3431     2.4329     9.1451     19.2009    21.0071    11.083     3.1088     8.1155     0.425      33.7066   
2585.6     6.22       2.2351     8.2116     17.0056    19.1373    9.791      3.345      8.4664     0.422      36.4369   
2585.8     6.1504     2.1325     7.6521     15.5867    18.1387    8.8798     3.7066     8.7246     0.422      36.0298   
2586       6.0668     2.223      7.5387     14.7723    17.6282    8.1711     4.114      8.9384     0.425      34.0221   
2586.2     5.9463     2.3001     7.3694     13.9783    16.8654    7.577      4.5329     9.069      0.431      35.9341   
2586.4     5.8792     2.2651     6.856      12.761     15.5187    7.0746     4.2108     9.3046     0.425      35.5542   
2586.6     5.8127     2.1347     6.3932     11.3526    14.0271    6.5823     3.4054     9.8536     0.423      36.0777   
2586.8     5.8127     2.0142     6.0913     10.3794    13.0296    6.154      3.3287     10.4311    0.425      33.5607   
2587       5.8233     2.015      6.1607     9.8066     12.406     5.8602     3.884      10.8095    0.43       39.0318   
2587.2     5.889      2.0309     6.1587     9.3736     11.9052    5.6713     4.0947     11.1964    0.426      35.8434   
2587.4     5.9746     2.0208     5.9801     8.7369     11.1786    5.5269     3.914      11.5178    0.425      39.3568   
2587.6     6.0385     2.025      5.8377     8.3628     10.4967    5.4327     4.1437     11.8528    0.43       33.9798   
2587.8     6.1673     2.0226     5.7547     8.074      9.9048     5.5005     4.2248     12.3832    0.427      36.5991   
2588       6.2955     1.9691     5.6494     7.8739     9.4609     5.814      3.9395     13.1545    0.429      34.8402   
2588.2     6.439      1.9706     5.6587     7.8099     9.4583     6.3635     3.9255     14.5197    0.429      33.9942   
2588.4     6.6895     1.8662     5.5463     7.9437     9.7601     7.1447     4.0668     16.0082    0.429      36.4424   
2588.6     6.948      1.89       5.7569     8.477      10.5839    7.8962     5.0665     17.1583    0.425      34.7201   
2588.8     7.1797     2.0504     6.5058     9.2688     11.3747    8.5513     8.146      16.4259    0.428      36.4827   
2589       7.3889     2.449      7.3518     9.8588     11.6195    9.0603     9.9056     14.9253    0.433      33.6159   
2589.2     7.5302     2.4291     7.1734     9.9285     11.1452    9.4647     6.0114     13.4039    0.436      37.0984   
2589.4     7.5557     2.4073     7.2473     9.8841     10.6772    9.8064     5.7991     12.5544    0.437      34.7823   
2589.6     7.624      2.3359     7.2829     9.8343     10.4747    10.4667    5.3807     12.0842    0.431      36.1196   
2589.8     7.7046     2.265      7.3608     9.8645     10.6198    11.6405    5.4044     11.9286    0.431      32.4606   
2590       7.8089     2.1982     7.3982     10.1498    11.1799    13.4628    5.5028     11.9702    0.434      37.863    
2590.2     7.8605     2.241      7.6584     10.7619    12.283     16.0575    6.0516     12.1698    0.438      35.8568   
2590.4     8.0325     2.2558     7.8097     11.7145    14.063     18.9309    5.628      12.8894    0.44       35.7426   
2590.6     8.0745     2.1967     7.9601     13.2856    16.3245    21.4369    5.9737     13.6841    0.442      34.7379   
2590.8     7.9816     2.5704     9.4131     15.6838    18.3069    22.989     20.3526    13.4122    0.453      36.1925   
2591       7.8403     3.0874     11.0396    17.7903    18.7929    23.451     27.2726    11.9255    0.458      36.0593   
2591.2     7.5267     3.2117     10.8405    18.5434    18.0447    22.2247    7.8912     10.4355    0.451      35.347    
2591.4     7.0203     3.1297     10.7501    17.7875    16.4031    19.9953    5.6152     9.2471     0.455      36.1934   
2591.6     6.5701     2.9486     10.3939    16.8627    14.9091    17.1091    4.3858     8.4917     0.45       34.7793   
2591.8     6.1431     2.7707     10.0267    15.4904    13.206     14.5548    3.7893     7.9218     0.449      34.7847   
2592       5.8116     2.5654     9.3089     14.1421    11.6935    12.1172    3.4529     7.6383     0.442      34.2693   
2592.2     5.6084     2.3539     8.3841     12.9636    10.3396    10.1061    3.1619     7.5514     0.437      35.8654   
2592.4     5.3957     2.2258     7.779      12.0941    9.4292     8.4281     3.2407     7.6102     0.437      34.978    
2592.6     5.3166     2.1509     7.2003     11.4182    8.7034     7.1184     3.156      7.7377     0.436      34.9259   
2592.8     5.2732     2.0245     6.5716     10.8668    8.2028     6.1172     3.1096     7.9038     0.431      35.4356   
2593       5.2392     1.9821     6.2349     10.751     7.9876     5.2467     3.471      7.9816     0.426      37.0991   
2593.2     5.2212     2.1072     6.4002     10.5943    7.8628     4.6105     4.0856     7.8256     0.431      33.7765   
2593.4     5.2422     2.07       6.132      10.1998    7.6112     4.098      3.4586     7.7558     0.426      35.0425   
2593.6     5.1165     2.0458     6.0997     9.6458     7.3098     3.6442     3.3423     7.8483     0.423      34.5693   
2593.8     5.0574     2.0915     6.2142     9.2631     7.1025     3.2553     3.4309     8.0474     0.425      37.0511   
