~Version
 VERS              .         2.0                           : CWLS LOG ASCII STANDARD - VERSION 2.0
 WRAP              .         NO                            : ONE LINE PER DEPTH STEP
 DLM               .         SPACE                         : DELIMITING CHARACTER(SPACE TAB OR COMMA)
~Well Information
#_______________________________________________________________________________
#
#PARAMETER_NAME    .UNIT     VALUE                         : DESCRIPTION
#_______________________________________________________________________________
STRT               .m        2460                          : First reference value
STOP               .m        2677                          : Last reference value
STEP               .m        0.2                           : Step increment
NULL               .         -9999                         : Missing value
COMP               .                                       : Company
WELL               .         606                           : Well name
FLD                .                                       : Field
LOC                .                                       : Location
CNTY               .                                       : County
STAT               .                                       : State
CTRY               .                                       : Country
SRVC               .                                       : Service Company
DATE               .                                       : Date
API                .                                       : API number
EREF               .m        134                           : 
X                  .m        225746                        : 
Y                  .m        235643                        : 
group              .         Pad6                          : 
Интер-р            .         Пузин                         : 
Куст               .         6                             : 
Статус             .         Не проверено                  : 
Тип                .         Нагнетательные                : 
~Parameter Information Block
#_______________________________________________________________________________
#
#PARAMETER_NAME    .UNIT     VALUE                         : DESCRIPTION
#_______________________________________________________________________________
SET                .         LAS1                          : 
REAL_CREATION_DATE .         Ср апр 11 2012-13_17_24       : 
TLFamily_DEPTH     .         Measured Depth                : 
TLFamily_KS        .         Potential Resistivity         : 
TLFamily_KS1       .         Extra Shallow Resistivity     : 
TLFamily_KS2       .         Shallow Resistivity           : 
TLFamily_KS3       .         Medium Resistivity            : 
TLFamily_KS4       .         Deep Resistivity              : 
TLFamily_KS5       .         Extra Deep Resistivity        : 
TLFamily_LLD       .         Lateral Log Resistivity       : 
TLFamily_OKS3      .         Medium Resistivity Inverted   : 
TLFamily_RM        .         Mud Resistivity               : 
TLFamily_SP        .         Spontaneous Potential         : 
group              .         INI                           : 
~Curve Information
#_______________________________________________________________________________
#
#LOGNAME           .UNIT     LOG_ID                        : DESCRIPTION
#_______________________________________________________________________________
DEPTH              .m                                      : Measured Depth 
KS                 .ohm.m                                  : Potential Resistivity 
KS1                .ohm.m                                  : Extra Shallow Resistivity 
KS2                .ohm.m                                  : Shallow Resistivity 
KS3                .ohm.m                                  : Medium Resistivity 
KS4                .ohm.m                                  : Deep Resistivity 
KS5                .ohm.m                                  : Extra Deep Resistivity 
LLD                .ohm.m                                  : Lateral Log Resistivity 
OKS3               .ohm.m                                  : Medium Resistivity Inverted 
RM                 .ohm.m                                  : Mud Resistivity 
SP                 .mV                                     : Spontaneous Potential 
~Ascii
# ...
2486.8     5.9994     2.2804     6.8886     8.8885     7.4258     4.5971     4.7634     10.2534    0.443      33.2105   
2487       6.0285     2.2389     6.8603     8.9749     7.4258     4.601      4.5215     10.2497    0.443      32.8727   
2487.2     6.0285     2.2441     6.9202     9.1405     7.4258     4.6196     4.4136     10.1527    0.445      35.0512   
2487.4     6.0285     2.2828     7.0016     9.2647     7.4234     4.6196     4.5826     10.1471    0.443      33.7804   
2487.6     6.0285     2.2389     6.9062     9.3482     7.3685     4.5931     4.5703     10.2318    0.439      33.7019   
2487.8     6.0285     2.2344     6.808      9.3482     7.3189     4.5658     4.2846     10.3547    0.437      33.6783   
2488       5.9746     2.1844     6.7398     9.3482     7.3048     4.5658     4.1862     10.4155    0.439      34.1062   
2488.2     5.9688     2.1668     6.6729     9.3169     7.2942     4.5658     4.2063     10.413     0.443      33.763    
2488.4     5.9206     2.1844     6.6814     9.3536     7.3285     4.5822     4.3411     10.3572    0.443      35.2813   
2488.6     5.9221     2.1896     6.7022     9.4579     7.4343     4.6196     4.5183     10.2491    0.441      33.2957   
2488.8     5.9794     2.2389     6.772      9.5136     7.5589     4.6196     4.6559     10.1063    0.437      32.4648   
2489       6.0362     2.2422     6.8936     9.6082     7.684      4.6196     4.759      9.8908     0.437      33.6335   
2489.2     6.0825     2.2934     7.0133     9.6827     7.8082     4.6196     4.7731     9.7162     0.444      33.9388   
2489.4     6.0855     2.2934     7.1222     9.7263     7.9285     4.6196     4.7934     9.659      0.444      34.2956   
2489.6     6.1364     2.2904     7.0891     9.6836     7.9602     4.6196     4.5484     9.659      0.443      32.4179   
2489.8     6.1262     2.2343     6.9198     9.5651     7.9612     4.6196     4.2481     9.6483     0.44       34.6788   
2490       6.0825     2.1894     6.9613     9.5667     8.0137     4.5709     4.1296     9.4721     0.44       33.5837   
2490.2     6.0544     2.2061     6.9095     9.6183     8.0486     4.6129     4.4633     9.2265     0.443      35.2574   
2490.4     5.9879     2.2389     6.905      9.6697     8.0672     4.6058     4.6064     9.0598     0.448      33.2667   
2490.6     5.9746     2.2823     6.9627     9.7389     8.1222     4.6196     4.6121     9.0116     0.443      33.1394   
2490.8     5.9746     2.2917     6.9653     9.8343     8.1707     4.5675     4.5501     9.0898     0.443      33.1023   
2491       5.9828     2.2636     7.0514     9.8343     8.1206     4.5658     4.4199     9.2497     0.443      32.9115   
2491.2     5.9795     2.2389     7.0159     9.7681     8.1102     4.5658     4.2419     9.3916     0.44       31.8045   
2491.4     5.9539     2.1844     6.8328     9.6445     8.043      4.5347     4.0914     9.5182     0.445      31.8546   
2491.6     5.8598     2.1872     6.8066     9.5642     8.0137     4.5296     3.9593     9.6439     0.443      33.6352   
2491.8     5.8023     2.2389     6.8564     9.5693     8.0137     4.512      4.1684     9.7682     0.443      32.3145   
2492       5.7048     2.2389     6.8006     9.5616     8.0113     4.484      4.1993     9.8909     0.438      31.784    
2492.2     5.6774     2.2129     6.6676     9.4256     7.919      4.4253     4.1284     10.0174    0.437      29.9655   
2492.4     5.642      2.1385     6.449      9.127      7.698      4.3648     3.9477     10.1984    0.446      33.0561   
2492.6     5.5412     2.0166     6.1102     8.7775     7.4668     4.3048     3.7039     10.5012    0.448      29.5462   
2492.8     5.4828     2.0034     6.0022     8.4507     7.3191     4.2451     3.4825     10.7883    0.449      29.6502   
2493       5.4351     1.9338     5.8018     8.2281     7.2224     4.2794     3.434      10.8391    0.443      32.3781   
2493.2     5.4363     1.9663     5.8052     8.1734     7.2241     4.2967     3.6356     10.6768    0.443      32.3414   
2493.4     5.4932     2.1058     6.1311     8.3758     7.3464     4.329      4.2586     10.4811    0.438      31.2081   
2493.6     5.5854     2.1878     6.3819     8.619      7.4689     4.3871     4.8274     10.1911    0.443      31.8639   
2493.8     5.7606     2.2389     6.5374     8.7068     7.5861     4.4469     5.037      9.8748     0.443      35.1988   
2494       5.9438     2.2496     6.7285     8.8112     7.5887     4.4878     4.8664     9.6848     0.44       33.3274   
2494.2     6.0354     2.2934     6.8854     8.9028     7.6396     4.512      4.7944     9.5202     0.443      33.9756   
2494.4     6.0926     2.2934     6.9573     8.9749     7.6396     4.5545     4.6823     9.4        0.442      32.0925   
2494.6     6.1364     2.2389     7.0158     9.0435     7.6523     4.594      4.4949     9.3245     0.445      35.4892   
2494.8     6.1364     2.2389     7.0126     9.2005     7.693      4.6196     4.4692     9.2007     0.449      32.0004   
2495       6.1266     2.2744     7.0508     9.4026     7.7369     4.6346     4.4959     9.0817     0.449      31.5488   
2495.2     6.0825     2.2934     7.1222     9.7044     7.7999     4.6734     4.6428     9.0123     0.449      32.3705   
2495.4     6.0825     2.2934     7.1197     9.8638     7.8027     4.7262     4.4481     8.933      0.449      34.4842   
2495.6     6.0452     2.2934     7.0731     9.9369     7.8578     4.7273     4.357      8.8583     0.45       32.8432   
2495.8     6.0177     2.2934     7.127      10.0055    7.9068     4.7273     4.2829     8.7943     0.453      31.5855   
2496       5.9704     2.2919     7.1033     9.9931     7.9068     4.7273     4.1973     8.7967     0.456      33.2487   
2496.2     5.9134     2.2389     7.0123     9.8951     7.8665     4.7273     3.91       8.9208     0.451      30.4953   
2496.4     5.8212     2.234      6.86       9.7091     7.7952     4.7273     3.7802     9.1149     0.449      32.2367   
2496.6     5.7431     2.1298     6.6224     9.4667     7.7294     4.6797     3.6333     9.1885     0.449      31.5795   
2496.8     5.6685     2.1298     6.5375     9.313      7.693      4.6734     3.8231     9.2267     0.447      31.9881   
2497       5.5873     2.1651     6.5327     9.2375     7.6933     4.6591     4.0015     9.2751     0.453      30.4753   
2497.2     5.5412     2.1844     6.4843     9.113      7.7465     4.6196     3.9138     9.3989     0.449      31.4118   
2497.4     5.5081     2.168      6.462      8.9896     7.7139     4.616      3.8383     9.4998     0.444      30.8569   
2497.6     5.5261     2.1601     6.4124     8.8665     7.6346     4.5529     3.9208     9.5509     0.443      32.6651   
2497.8     5.5422     2.1844     6.4806     8.7417     7.5756     4.4897     3.9517     9.5509     0.442      31.1502   
2498       5.489      2.1823     6.4292     8.616      7.4995     4.4258     3.8586     9.5715     0.445      30.9917   
2498.2     5.489      2.1298     6.3416     8.4495     7.3257     4.3936     3.706      9.6958     0.445      32.5613   
2498.4     5.489      2.0825     6.2185     8.3143     7.2035     4.3505     3.6751     9.8698     0.443      32.4227   
2498.6     5.489      2.0769     6.2717     8.2139     7.1027     4.3018     3.7784     9.9456     0.443      33.7037   
2498.8     5.489      2.1032     6.2405     8.2139     7.0476     4.2917     3.88       10.0372    0.443      30.4248   
2499       5.489      2.0753     6.1723     8.2139     6.9475     4.2667     3.9098     10.0324    0.452      31.5474   
2499.2     5.489      2.0765     6.1669     8.2159     6.8914     4.2428     3.9794     9.9212     0.449      31.4073   
2499.4     5.5184     2.1298     6.2477     8.2679     6.8914     4.1897     4.1086     9.7957     0.449      31.8375   
2499.6     5.5527     2.1298     6.3297     8.3166     6.8914     4.189      4.2142     9.6657     0.449      29.7745   
2499.8     5.6126     2.1298     6.3862     8.3934     6.8929     4.189      4.2134     9.5441     0.444      31.6592   
2500       5.7048     2.1485     6.5074     8.5194     6.9448     4.189      4.2152     9.3465     0.44       29.9565   
