~Version
 VERS              .         2.0                           : CWLS LOG ASCII STANDARD - VERSION 2.0
 WRAP              .         NO                            : ONE LINE PER DEPTH STEP
 DLM               .         SPACE                         : DELIMITING CHARACTER(SPACE TAB OR COMMA)
~Well Information
#_______________________________________________________________________________
#
#PARAMETER_NAME    .UNIT     VALUE                         : DESCRIPTION
#_______________________________________________________________________________
STRT               .m        2460                          : First reference value
STOP               .m        2677                          : Last reference value
STEP               .m        0.2                           : Step increment
NULL               .         -9999                         : Missing value
COMP               .                                       : Company
WELL               .         606                           : Well name
FLD                .                                       : Field
LOC                .                                       : Location
CNTY               .                                       : County
STAT               .                                       : State
CTRY               .                                       : Country
SRVC               .                                       : Service Company
DATE               .                                       : Date
API                .                                       : API number
EREF               .m        134                           : 
X                  .m        225746                        : 
Y                  .m        235643                        : 
group              .         Pad6                          : 
Интер-р            .         Пузин                         : 
Куст               .         6                             : 
Статус             .         Не проверено                  : 
Тип                .         Нагнетательные                : 
~Parameter Information Block
#_______________________________________________________________________________
#
#PARAMETER_NAME    .UNIT     VALUE                         : DESCRIPTION
#_______________________________________________________________________________
SET                .         LAS1                          : 
REAL_CREATION_DATE .         Ср апр 11 2012-13_17_24       : 
TLFamily_DEPTH     .         Measured Depth                : 
TLFamily_KS        .         Potential Resistivity         : 
TLFamily_KS1       .         Extra Shallow Resistivity     : 
TLFamily_KS2       .         Shallow Resistivity           : 
TLFamily_KS3       .         Medium Resistivity            : 
TLFamily_KS4       .         Deep Resistivity              : 
TLFamily_KS5       .         Extra Deep Resistivity        : 
TLFamily_LLD       .         Lateral Log Resistivity       : 
TLFamily_OKS3      .         Medium Resistivity Inverted   : 
TLFamily_RM        .         Mud Resistivity               : 
TLFamily_SP        .         Spontaneous Potential         : 
group              .         INI                           : 
~Curve Information
#_______________________________________________________________________________
#
#LOGNAME           .UNIT     LOG_ID                        : DESCRIPTION
#_______________________________________________________________________________
DEPTH              .m                                      : Measured Depth 
KS                 .ohm.m                                  : Potential Resistivity 
KS1                .ohm.m                                  : Extra Shallow Resistivity 
KS2                .ohm.m                                  : Shallow Resistivity 
KS3                .ohm.m                                  : Medium Resistivity 
KS4                .ohm.m                                  : Deep Resistivity 
KS5                .ohm.m                                  : Extra Deep Resistivity 
LLD                .ohm.m                                  : Lateral Log Resistivity 
OKS3               .ohm.m                                  : Medium Resistivity Inverted 
RM                 .ohm.m                                  : Mud Resistivity 
SP                 .mV                                     : Spontaneous Potential 
~Ascii
# ...
2500.2     5.7433     2.2351     6.7099     8.6443     6.9448     4.189      4.2598     9.101      0.443      33.1163   
2500.4     5.7695     2.1898     6.6491     8.7        6.8922     4.189      4.5075     8.905      0.443      32.4567   
2500.6     5.8127     2.2374     6.6969     8.7296     6.9448     4.189      4.3468     8.8504     0.443      31.6474   
2500.8     5.8127     2.1844     6.7286     8.8499     6.9794     4.1969     4.1973     8.906      0.443      31.5149   
2501       5.8127     2.1844     6.7448     8.9256     7.0541     4.2428     4.2053     9.0056     0.442      30.7316   
2501.2     5.8127     2.1854     6.763      9.0758     7.1766     4.2714     4.148      9.0742     0.437      30.7564   
2501.4     5.8066     2.2415     6.9097     9.3176     7.3021     4.3031     4.1956     9.1221     0.437      30.9739   
2501.6     5.7588     2.2934     7.0511     9.4576     7.469      4.3505     4.3877     9.2282     0.437      30.1136   
2501.8     5.7588     2.2879     7.0067     9.4938     7.4793     4.3505     4.4212     9.4671     0.435      30.2934   
2502       5.7337     2.2245     6.8564     9.4203     7.448      4.347      4.0327     9.6918     0.433      31.8079   
2502.2     5.6593     2.1844     6.8176     9.2962     7.4204     4.2967     3.7104     9.9621     0.431      30.5834   
2502.4     5.5858     2.179      6.6855     9.1483     7.2516     4.2513     3.713      10.2221    0.433      29.9272   
2502.6     5.4666     2.0738     6.3444     8.8303     7.1032     4.2091     3.7268     10.6009    0.437      30.7313   
2502.8     5.3738     2.0208     6.0785     8.5012     6.952      4.1352     3.5037     11.0219    0.437      31.0759   
2503       5.3166     1.9784     5.9556     8.2046     6.8297     4.0931     3.2703     11.2805    0.433      30.7115   
2503.2     5.2732     1.913      5.7314     8.0278     6.7818     4.0814     3.4306     11.4175    0.431      30.6377   
2503.4     5.2732     1.9903     5.8221     7.9479     6.7715     4.0814     3.6413     11.5539    0.429      30.6117   
2503.6     5.3264     2.0251     5.9094     8.0469     6.8878     4.122      3.7428     11.6494    0.431      29.7234   
2503.8     5.4517     2.0808     6.1327     8.1201     6.9611     4.1612     4.0306     11.6584    0.436      30.2812   
2504       5.6029     2.1519     6.3772     8.1978     7.0301     4.189      4.3508     11.6584    0.429      28.1451   
2504.2     5.7527     2.1888     6.6156     8.3273     7.0978     4.189      4.5803     11.7031    0.429      31.6312   
2504.4     5.8757     2.2389     6.7085     8.4433     7.1052     4.1648     4.8402     11.885     0.426      31.5888   
2504.6     5.9999     2.2389     6.9337     8.5672     7.1021     4.1342     4.879      12.097     0.431      28.8413   
2504.8     6.0766     2.2389     6.9833     8.693      7.0116     4.0715     4.7405     12.4906    0.435      30.6415   
2505       6.1364     2.2334     7.0105     8.7736     6.9438     4.0079     4.6902     12.9285    0.434      31.8154   
2505.2     6.1364     2.1844     6.9606     8.9217     6.8676     3.9737     4.6344     13.5773    0.431      30.2224   
2505.4     6.1364     2.1844     6.8751     9.066      6.7845     3.9398     4.4848     14.241     0.427      31.1459   
2505.6     6.1364     2.1844     6.8957     9.189      6.7845     3.9199     4.5256     15.071     0.431      31.9436   
2505.8     6.1401     2.1844     6.8931     9.3133     6.7845     3.9199     4.5178     15.9739    0.431      33.4478   
2506       6.1904     2.1622     6.7712     9.2942     6.7542     3.9724     4.3955     16.5638    0.433      31.2854   
2506.2     6.2        2.1254     6.6087     9.1838     6.6858     3.9737     4.4126     16.8455    0.43       30.4103   
2506.4     6.2443     2.0693     6.4099     9.0411     6.6776     3.9737     4.3983     17.016     0.43       32.956    
2506.6     6.2752     1.9841     6.2401     8.9124     6.6807     4.0322     4.4042     16.8906    0.426      32.7553   
2506.8     6.4003     2.0208     6.2717     8.9198     6.8239     4.0953     4.3987     16.6053    0.431      34.6796   
2507       6.5363     2.0317     6.4001     9.026      7.0736     4.2044     4.394      16.6711    0.431      33.7387   
2507.2     6.7818     2.0989     6.4967     9.1432     7.398      4.3308     4.4332     16.4672    0.431      35.6342   
2507.4     7.0646     2.0791     6.6436     9.3607     7.7394     4.5069     5.0337     15.8843    0.429      39.1915   
2507.6     7.3961     2.1861     7.0865     9.99       8.3487     4.6728     5.5519     15.2309    0.425      40.0946   
2507.8     7.7751     2.4597     8.0214     10.8663    9.0705     4.8357     5.7255     14.5166    0.42       43.989    
2508       8.1496     2.7172     9.0935     12.3483    10.1145    4.9908     6.0334     13.4586    0.427      47.0756   
2508.2     8.5749     3.1731     10.9886    14.2513    11.16      5.0599     8.2446     12.6339    0.428      48.9253   
2508.4     8.977      3.225      11.4213    15.0891    11.503     4.9677     10.5951    12.8373    0.428      48.4406   
2508.6     9.1862     2.9987     11.0855    15.1063    11.1747    4.8638     12.1606    13.5127    0.425      53.251    
2508.8     9.1094     2.7634     10.3651    14.8906    10.7692    4.6621     16.9719    14.431     0.424      52.8879   
2509       8.5832     2.5645     9.6197     14.4815    10.3475    4.4892     15.0876    15.3768    0.434      54.5903   
2509.2     8.1353     2.481      8.9936     14.0797    10.0682    4.3773     7.9581     16.3624    0.432      56.182    
2509.4     7.6557     2.3507     8.0178     13.6415    9.7715     4.4043     5.4739     17.6555    0.427      58.8452   
2509.6     7.3404     2.1705     7.2188     12.922     9.55       4.4985     4.9773     18.5662    0.425      59.619    
2509.8     7.1186     1.9879     6.6204     12.3764    9.58       4.7355     4.4396     18.1495    0.425      57.0266   
2510       6.9996     2.0708     6.7083     12.3632    9.9761     5.0315     4.7964     17.738     0.431      57.472    
2510.2     7.0126     2.2284     6.9393     12.1931    10.4641    5.4295     4.2773     18.1478    0.429      58.7804   
2510.4     7.1444     1.9716     6.2929     11.5079    10.8215    5.916      4.0944     18.8148    0.424      54.5056   
2510.6     7.4129     1.7714     5.9624     11.0006    11.3346    6.3568     5.2651     18.4037    0.406      53.6156   
2510.8     7.7197     1.926      6.8168     11.5117    12.4545    6.8335     5.5207     16.8619    0.401      55.8729   
2511       8.0133     2.3566     7.9251     12.759     14.0822    7.3006     4.8354     15         0.416      57.6494   
2511.2     8.5207     2.7914     9.1405     14.2103    15.72      7.7386     5.2332     13.3951    0.415      56.6326   
2511.4     9.1435     3.1689     10.5445    15.569     17.2899    8.1119     12.5531    12.2487    0.406      56.3311   
2511.6     9.8464     3.3329     11.7749    16.8601    18.5221    8.319      29.5426    11.3265    0.401      59.2175   
2511.8     10.3543    3.5347     13.2553    18.4098    19.4803    8.2109     38.1465    10.6884    0.401      57.1545   
2512       10.4406    3.7888     14.5645    19.3728    19.4068    7.9368     27.173     10.096     0.406      57.5521   
2512.2     10.2228    3.2647     12.5754    18.6213    17.8832    7.5968     13.8185    10.0074    0.415      57.6068   
2512.4     9.7387     2.8603     11.3174    17.4975    16.0633    7.0486     13.7395    10.3562    0.425      62.6963   
2512.6     8.9868     2.6892     10.5628    17.2331    14.954     6.4768     7.5541     10.673     0.425      60.852    
2512.8     8.2664     2.6131     9.8521     17.0966    13.9001    6.0903     4.285      10.8663    0.428      61.4378   
2513       7.7208     2.4861     8.8043     16.4782    12.7354    5.7155     4.3294     11.1582    0.422      61.9397   
2513.2     7.2377     2.316      7.7995     15.1188    11.515     5.4567     4.8825     11.6133    0.425      60.8886   
2513.4     6.8527     2.0782     6.8457     13.9303    10.8266    5.2361     4.2986     12.4389    0.425      60.0304   
