~Version
 VERS              .         2.0                           : CWLS LOG ASCII STANDARD - VERSION 2.0
 WRAP              .         NO                            : ONE LINE PER DEPTH STEP
 DLM               .         SPACE                         : DELIMITING CHARACTER(SPACE TAB OR COMMA)
~Well Information
#_______________________________________________________________________________
#
#PARAMETER_NAME    .UNIT     VALUE                         : DESCRIPTION
#_______________________________________________________________________________
STRT               .m        2460                          : First reference value
STOP               .m        2677                          : Last reference value
STEP               .m        0.2                           : Step increment
NULL               .         -9999                         : Missing value
COMP               .                                       : Company
WELL               .         606                           : Well name
FLD                .                                       : Field
LOC                .                                       : Location
CNTY               .                                       : County
STAT               .                                       : State
CTRY               .                                       : Country
SRVC               .                                       : Service Company
DATE               .                                       : Date
API                .                                       : API number
EREF               .m        134                           : 
X                  .m        225746                        : 
Y                  .m        235643                        : 
group              .         Pad6                          : 
Интер-р            .         Пузин                         : 
Куст               .         6                             : 
Статус             .         Не проверено                  : 
Тип                .         Нагнетательные                : 
~Parameter Information Block
#_______________________________________________________________________________
#
#PARAMETER_NAME    .UNIT     VALUE                         : DESCRIPTION
#_______________________________________________________________________________
SET                .         LAS1                          : 
REAL_CREATION_DATE .         Ср апр 11 2012-13_17_24       : 
TLFamily_DEPTH     .         Measured Depth                : 
TLFamily_KS        .         Potential Resistivity         : 
TLFamily_KS1       .         Extra Shallow Resistivity     : 
TLFamily_KS2       .         Shallow Resistivity           : 
TLFamily_KS3       .         Medium Resistivity            : 
TLFamily_KS4       .         Deep Resistivity              : 
TLFamily_KS5       .         Extra Deep Resistivity        : 
TLFamily_LLD       .         Lateral Log Resistivity       : 
TLFamily_OKS3      .         Medium Resistivity Inverted   : 
TLFamily_RM        .         Mud Resistivity               : 
TLFamily_SP        .         Spontaneous Potential         : 
group              .         INI                           : 
~Curve Information
#_______________________________________________________________________________
#
#LOGNAME           .UNIT     LOG_ID                        : DESCRIPTION
#_______________________________________________________________________________
DEPTH              .m                                      : Measured Depth 
KS                 .ohm.m                                  : Potential Resistivity 
KS1                .ohm.m                                  : Extra Shallow Resistivity 
KS2                .ohm.m                                  : Shallow Resistivity 
KS3                .ohm.m                                  : Medium Resistivity 
KS4                .ohm.m                                  : Deep Resistivity 
KS5                .ohm.m                                  : Extra Deep Resistivity 
LLD                .ohm.m                                  : Lateral Log Resistivity 
OKS3               .ohm.m                                  : Medium Resistivity Inverted 
RM                 .ohm.m                                  : Mud Resistivity 
SP                 .mV                                     : Spontaneous Potential 
~Ascii
# ...
2473.4     5.1507     2.0208     5.9505     8.3851     7.3396     4.3505     3.6689     9.014      0.439      32.9414   
2473.6     5.1114     1.9733     5.8595     8.2094     7.2613     4.3099     3.7256     9.0838     0.439      33.2346   
2473.8     5.1114     1.9663     5.8464     8.0859     7.1967     4.2967     3.7547     9.1526     0.443      32.6912   
2474       5.1114     2.0005     5.8464     7.9416     7.1586     4.2642     3.7706     9.2257     0.443      32.9049   
2474.2     5.1137     2.0208     5.9076     7.8899     7.1586     4.2428     3.8117     9.3347     0.443      34.3622   
2474.4     5.1653     2.0208     5.9528     7.8857     7.1203     4.2382     3.7887     9.3347     0.439      32.1343   
2474.6     5.1653     2.0208     5.9528     7.8261     7.0239     4.189      3.8834     9.289      0.437      32.4236   
2474.8     5.2193     2.0208     5.9011     7.7411     6.9213     4.1352     3.9014     9.2694     0.44       33.4885   
2475       5.2193     2.0208     5.9267     7.7123     6.7731     4.0814     3.9102     9.2032     0.446      32.6298   
2475.2     5.2193     1.9887     5.8694     7.7278     6.6797     4.0652     3.9865     9.2097     0.443      33.7431   
2475.4     5.2729     2.0208     6.0576     7.7371     6.5858     4.0275     4.0243     9.2846     0.441      32.9012   
2475.6     5.2971     2.0208     6.0059     7.8358     6.5663     4.0275     4.0046     9.4428     0.437      32.1047   
2475.8     5.3357     2.0208     6.0059     7.8801     6.4672     4.0275     4.0553     9.4466     0.437      32.2207   
2476       5.3811     2.026      6.1225     8.0106     6.5173     4.0131     4.1665     9.5479     0.436      32.8787   
2476.2     5.3848     2.0753     6.3075     8.162      6.5603     4.0275     4.3188     9.7282     0.444      31.7584   
2476.4     5.4351     2.0753     6.2757     8.2725     6.5707     3.9911     4.2329     9.9065     0.443      31.8877   
2476.6     5.4802     2.1164     6.3683     8.3756     6.5707     3.9748     4.1425     9.9883     0.437      32.1453   
2476.8     5.4859     2.0753     6.3119     8.376      6.5304     3.9737     4.182      10.0567    0.44       33.6867   
2477       5.4351     2.0753     6.2185     8.3717     6.5173     3.9737     4.1355     10.2506    0.443      32.579    
2477.2     5.4257     2.0367     6.1738     8.3161     6.5173     3.9303     3.9495     10.5892    0.447      31.9796   
2477.4     5.3811     1.9668     5.9923     8.1788     6.4638     3.9737     3.8361     11.0323    0.443      31.088    
2477.6     5.3811     1.9118     5.7715     7.9944     6.4638     3.9737     3.6191     11.303     0.44       32.3144   
2477.8     5.3811     1.9118     5.7401     7.9491     6.469      3.9855     3.5321     11.2508    0.437      31.8445   
2478       5.3403     1.9169     5.7521     8.065      6.5722     4.0342     3.7147     10.9998    0.439      29.7119   
2478.2     5.4391     2.0315     5.9717     8.1932     6.6796     4.0814     4.4801     10.7203    0.443      31.6339   
2478.4     5.5285     2.1012     6.154      8.3721     6.8284     4.1242     4.9428     10.5936    0.441      32.1923   
2478.6     5.7076     2.1298     6.3783     8.5449     7.0029     4.189      5.0717     10.4737    0.437      32.1617   
2478.8     5.885      2.1298     6.6025     8.671      7.0741     4.2228     4.9041     10.4517    0.437      32.6827   
2479       6.0033     2.1324     6.7251     8.7967     7.1629     4.2428     4.9821     10.329     0.437      33.9293   
2479.2     6.0693     2.148      6.769      8.9209     7.2682     4.2469     4.9209     10.2109    0.442      31.577    
2479.4     6.0825     2.1819     6.8139     9.0627     7.3879     4.253      4.773      10.1371    0.444      33.8005   
2479.6     6.0825     2.1844     6.9269     9.277      7.4546     4.2428     4.69       10.0629    0.443      33.2534   
2479.8     6.0825     2.181      6.9054     9.4514     7.4793     4.2428     4.7414     9.8881     0.437      33.9398   
2480       6.0816     2.1298     6.8003     9.5855     7.5327     4.2428     4.7676     9.8211     0.437      32.3174   
2480.2     6.0285     2.1298     6.7653     9.7009     7.5358     4.2428     4.702      9.8211     0.445      35.4606   
2480.4     6.0285     2.1298     6.7752     9.7848     7.5908     4.2016     4.5694     9.8211     0.443      34.8149   
2480.6     5.9948     2.0905     6.7551     9.7756     7.6387     4.2037     4.483      9.8155     0.442      35.1033   
2480.8     5.9746     2.1192     6.6598     9.6723     7.6108     4.2751     4.4758     9.7041     0.437      34.1344   
2481       5.9675     2.0304     6.4357     9.7168     7.7775     4.338      4.4309     9.8551     0.437      35.5672   
2481.2     5.9206     2.227      6.9813     9.9541     8.0286     4.3829     4.4106     10.0286    0.438      36.211    
2481.4     5.9232     2.1844     6.9004     10.1411    8.2809     4.4695     4.3888     10.1377    0.446      35.2023   
2481.6     5.9746     2.1844     6.8283     10.0185    8.2844     4.512      4.4594     10.0103    0.444      34.1925   
2481.8     5.9311     2.1885     6.7549     9.9368     8.378      4.512      4.4458     9.8312     0.441      33.8484   
2482       5.9066     2.2386     6.7843     9.8174     8.4427     4.512      4.4337     9.6092     0.443      34.442    
2482.2     5.8719     2.2        6.6464     9.6624     8.4693     4.512      4.5656     9.4257     0.443      33.2064   
2482.4     5.9206     2.2389     6.701      9.5592     8.4412     4.512      4.5861     9.2991     0.443      34.5069   
2482.6     5.9314     2.2389     6.8043     9.5102     8.4412     4.5348     4.5869     9.1729     0.445      34.1878   
2482.8     5.9784     2.2389     6.8583     9.5134     8.4612     4.5658     4.6771     9.0476     0.444      34.9923   
2483       6.0285     2.2637     6.9722     9.5642     8.4947     4.5756     4.6931     8.9565     0.443      32.2364   
2483.2     6.0285     2.2934     7.1116     9.6194     8.5457     4.6196     4.802      8.9614     0.443      33.8981   
2483.4     6.0285     2.3479     7.1839     9.6977     8.5481     4.6499     4.7214     9.0803     0.443      34.5875   
2483.6     6.0224     2.3454     7.2255     9.8158     8.5199     4.6734     4.4791     9.1759     0.445      34.0479   
2483.8     5.965      2.2934     7.1706     9.8283     8.4464     4.6337     4.1886     9.2777     0.447      34.2472   
2484       5.9063     2.2452     6.9919     9.6528     8.2475     4.6196     4.0214     9.5158     0.446      34.0758   
2484.2     5.7832     2.17       6.6509     9.4165     8.0004     4.5873     3.7651     9.833      0.445      34.5368   
2484.4     5.6607     2.1264     6.4469     9.2027     7.7999     4.5273     3.5486     10.1135    0.443      32.8746   
2484.6     5.5484     2.0753     6.3259     9.0594     7.6383     4.512      3.7143     10.2515    0.444      33.2876   
2484.8     5.4704     2.0753     6.2577     8.8884     7.5548     4.461      3.9493     10.3272    0.444      33.8517   
2485       5.4351     2.0961     6.1834     8.7217     7.416      4.4581     3.9871     10.4504    0.443      34.3648   
2485.2     5.4351     2.0753     6.0176     8.5227     7.2566     4.4581     3.9425     10.5289    0.443      31.9209   
2485.4     5.4477     2.0753     6.0601     8.3735     7.212      4.4581     3.9089     10.5776    0.443      33.9327   
2485.6     5.5159     2.0975     6.1614     8.3561     7.2161     4.4581     4.1143     10.5471    0.443      33.6718   
2485.8     5.5941     2.1656     6.3159     8.376      7.2708     4.4581     4.4022     10.4296    0.443      32.8785   
2486       5.6655     2.1844     6.3852     8.3778     7.3189     4.5044     4.6518     10.363     0.443      33.6998   
2486.2     5.7843     2.1869     6.4604     8.4333     7.3487     4.5154     4.544      10.3425    0.443      35.0802   
2486.4     5.8502     2.2389     6.6828     8.5731     7.4152     4.5658     4.5958     10.2721    0.443      34.8865   
2486.6     5.9279     2.2872     6.854      8.7161     7.4258     4.5658     4.7765     10.2534    0.443      33.1006   
