~Version
 VERS              .         2.0                           : CWLS LOG ASCII STANDARD - VERSION 2.0
 WRAP              .         NO                            : ONE LINE PER DEPTH STEP
 DLM               .         SPACE                         : DELIMITING CHARACTER(SPACE TAB OR COMMA)
~Well Information
#_______________________________________________________________________________
#
#PARAMETER_NAME    .UNIT     VALUE                         : DESCRIPTION
#_______________________________________________________________________________
STRT               .m        2460                          : First reference value
STOP               .m        2677                          : Last reference value
STEP               .m        0.2                           : Step increment
NULL               .         -9999                         : Missing value
COMP               .                                       : Company
WELL               .         606                           : Well name
FLD                .                                       : Field
LOC                .                                       : Location
CNTY               .                                       : County
STAT               .                                       : State
CTRY               .                                       : Country
SRVC               .                                       : Service Company
DATE               .                                       : Date
API                .                                       : API number
EREF               .m        134                           : 
X                  .m        225746                        : 
Y                  .m        235643                        : 
group              .         Pad6                          : 
Интер-р            .         Пузин                         : 
Куст               .         6                             : 
Статус             .         Не проверено                  : 
Тип                .         Нагнетательные                : 
~Parameter Information Block
#_______________________________________________________________________________
#
#PARAMETER_NAME    .UNIT     VALUE                         : DESCRIPTION
#_______________________________________________________________________________
SET                .         LAS1                          : 
REAL_CREATION_DATE .         Ср апр 11 2012-13_17_24       : 
TLFamily_DEPTH     .         Measured Depth                : 
TLFamily_KS        .         Potential Resistivity         : 
TLFamily_KS1       .         Extra Shallow Resistivity     : 
TLFamily_KS2       .         Shallow Resistivity           : 
TLFamily_KS3       .         Medium Resistivity            : 
TLFamily_KS4       .         Deep Resistivity              : 
TLFamily_KS5       .         Extra Deep Resistivity        : 
TLFamily_LLD       .         Lateral Log Resistivity       : 
TLFamily_OKS3      .         Medium Resistivity Inverted   : 
TLFamily_RM        .         Mud Resistivity               : 
TLFamily_SP        .         Spontaneous Potential         : 
group              .         INI                           : 
~Curve Information
#_______________________________________________________________________________
#
#LOGNAME           .UNIT     LOG_ID                        : DESCRIPTION
#_______________________________________________________________________________
DEPTH              .m                                      : Measured Depth 
KS                 .ohm.m                                  : Potential Resistivity 
KS1                .ohm.m                                  : Extra Shallow Resistivity 
KS2                .ohm.m                                  : Shallow Resistivity 
KS3                .ohm.m                                  : Medium Resistivity 
KS4                .ohm.m                                  : Deep Resistivity 
KS5                .ohm.m                                  : Extra Deep Resistivity 
LLD                .ohm.m                                  : Lateral Log Resistivity 
OKS3               .ohm.m                                  : Medium Resistivity Inverted 
RM                 .ohm.m                                  : Mud Resistivity 
SP                 .mV                                     : Spontaneous Potential 
~Ascii
# ...
2540.4     6.358      2.2934     7.3033     11.4036    11.2972    8.2345     4.4454     10.1415    0.437      34.9806   
2540.6     6.2983     2.2886     7.2657     11.0606    11.0025    8.2798     4.3864     10.0913    0.442      33.6121   
2540.8     6.2686     2.2389     7.1222     10.761     10.823     8.2798     4.4538     10.0799    0.438      32.9681   
2541       6.2349     2.2389     7.1191     10.5672    10.7011    8.2798     4.3341     10.0372    0.434      31.9671   
2541.2     6.1904     2.2389     7.029      10.428     10.5341    8.2798     4.1908     10.0372    0.432      34.9331   
2541.4     6.1633     2.186      6.9627     10.3183    10.4056    8.2798     4.2097     10.0372    0.435      31.5917   
2541.6     6.1364     2.1844     6.9364     10.2306    10.2822    8.2327     4.2395     10.0558    0.441      33.5887   
2541.8     6.1354     2.1808     6.8181     10.1112    10.1578    8.2798     4.1614     10.0838    0.437      32.4303   
2542       6.0825     2.1352     6.7744     10.1745    10.1514    8.2082     4.1292     9.931      0.432      33.5757   
2542.2     6.0895     2.305      7.1829     10.3502    10.1487    8.0834     4.0486     9.805      0.431      30.9462   
2542.4     6.1364     2.3189     7.2099     10.3784    9.9733     7.9712     4.0851     9.7058     0.436      33.1115   
2542.6     6.1335     2.2563     7.0246     10.2674    9.7821     7.8393     4.5645     9.6333     0.439      33.9677   
2542.8     6.0825     2.1898     6.8695     10.0349    9.3776     7.5177     4.7652     9.4419     0.443      32.4961   
2543       6.0918     2.2544     7.0895     10.0278    9.264      7.2082     4.0373     9.3163     0.438      33.8701   
2543.2     6.0825     2.3217     7.2039     10.0451    9.1373     7.0019     4.1022     9.3389     0.436      30.5939   
2543.4     6.0825     2.2462     7.0355     9.9412     8.9743     6.8404     4.5538     9.4437     0.435      32.0489   
2543.6     6.0415     2.2476     7.001      9.8829     8.889      6.6198     4.29       9.4208     0.438      32.196    
2543.8     5.9751     2.2617     7.0157     9.829      8.7043     6.4502     3.8725     9.2459     0.441      31.6354   
2544       5.953      2.2443     6.9121     9.7803     8.5353     6.2796     3.9308     9.2766     0.439      30.6859   
2544.2     5.9206     2.336      7.1007     9.803      8.4652     6.094      4.5531     9.3369     0.437      31.4982   
2544.4     5.899      2.271      6.9343     9.7032     8.3104     6.007      3.9318     9.4506     0.433      30.0977   
2544.6     5.7903     2.2351     6.8285     9.5665     8.1752     5.9619     3.9909     9.5518     0.44       30.8557   
2544.8     5.7242     2.1789     6.6862     9.3155     7.9964     5.8648     4.0957     9.8352     0.443      31.4803   
2545       5.694      2.1298     6.5192     9.1824     7.9068     5.8042     3.6374     10.0602    0.437      32.7321   
2545.2     5.6509     2.1298     6.4527     9.1321     7.912      5.8429     3.5473     10.221     0.437      29.7765   
2545.4     5.658      2.1298     6.4824     9.1321     8.0137     5.8812     3.611      10.3078    0.437      31.3354   
2545.6     5.7048     2.1441     6.4843     9.1321     8.0333     5.9114     3.71       10.377     0.436      30.5142   
2545.8     5.7588     2.1844     6.5143     9.1367     8.0505     5.9026     3.8904     10.4155    0.44       30.8093   
2546       5.7895     2.1844     6.5425     9.1266     8.0095     5.8381     3.9867     10.3734    0.441      30.2891   
2546.2     5.8565     2.1844     6.5375     9.0034     7.9397     5.774      4.0694     10.3074    0.437      32.6066   
2546.4     5.9206     2.1844     6.5375     8.8802     7.817      5.6623     4.0966     10.3379    0.437      30.317    
2546.6     5.9451     2.1844     6.5781     8.8081     7.7465     5.6423     3.9571     10.5078    0.434      29.6405   
2546.8     6.0114     2.1844     6.5853     8.755      7.701      5.6209     3.9047     10.6276    0.437      33.019    
2547       6.0393     2.1311     6.5598     8.8622     7.8499     5.5566     4.033      10.8339    0.44       30.6476   
2547.2     6.1036     2.2673     7.0818     9.1998     7.9648     5.4884     5.2661     10.6291    0.437      33.5076   
2547.4     6.1286     2.4158     7.3323     9.4552     8.001      5.3634     5.2502     10.3783    0.437      31.2228   
2547.6     6.1309     2.4016     7.2334     9.412      7.7075     5.1637     3.9822     10.2608    0.437      33.4399   
2547.8     6.0617     2.3247     7.0413     9.2508     7.4285     4.9135     3.7857     10.3615    0.437      31.6242   
2548       5.9438     2.2028     6.8517     9.0716     7.1148     4.7051     3.6178     10.3981    0.438      32.2296   
2548.2     5.9106     2.184      6.8478     8.9542     6.8783     4.5443     3.8313     10.5213    0.437      29.0373   
2548.4     5.8804     2.1298     6.601      8.831      6.7565     4.4531     3.861      10.7178    0.437      30.0645   
2548.6     5.9206     2.1298     6.4491     8.7541     6.6434     4.443      3.801      11.0025    0.432      30.5452   
2548.8     5.958      2.1298     6.4311     8.7544     6.6704     4.4892     3.8835     11.1901    0.431      30.2379   
2549       5.9752     2.1298     6.43       8.8103     6.6954     4.5881     3.9574     11.5114    0.437      31.006    
2549.2     6.0328     2.1132     6.3562     8.8992     6.8787     4.8398     3.9168     11.9179    0.439      30.0309   
2549.4     6.1247     2.0753     6.3288     9.0827     7.2099     5.1524     3.9488     12.4574    0.433      30.3388   
2549.6     6.2378     2.1278     6.4977     9.4998     7.7559     5.4606     4.0642     12.8509    0.433      27.0859   
2549.8     6.3169     2.2389     6.9095     9.8428     8.2405     5.7117     4.5233     12.8825    0.434      29.5327   
2550       6.4407     2.242      6.9171     10.0347    8.5838     5.9059     4.9982     12.7804    0.437      30.3688   
2550.2     6.5658     2.2934     7.0565     9.9963     8.7094     5.9653     4.7619     12.6403    0.441      29.2193   
2550.4     6.6894     2.2934     7.0268     9.9742     8.7644     5.9653     4.8331     12.5538    0.438      28.6953   
2550.6     6.7884     2.2934     7.1247     9.9464     8.8538     5.9653     4.625      12.3849    0.437      28.8275   
2550.8     6.8804     2.2934     7.2816     10.0452    8.9707     5.9653     4.8353     12.2257    0.436      28.6114   
2551       6.9457     2.2972     7.2956     10.0571    8.9773     5.9653     5.0845     12.2133    0.433      27.9474   
2551.2     6.9457     2.4001     7.7223     10.3222    9.1573     5.9176     5.6632     11.9048    0.437      28.7154   
2551.4     6.9385     2.5133     8.0157     10.6626    9.3292     5.818      5.7722     11.4958    0.443      28.8797   
2551.6     6.8356     2.566      8.2423     10.8532    9.2968     5.6744     5.3913     11.0567    0.442      31.6028   
2551.8     6.7072     2.5207     8.1397     10.9257    9.1607     5.4862     4.7203     10.7926    0.437      27.7662   
2552       6.5829     2.5115     8.2384     10.9999    8.9138     5.2474     4.6843     10.6666    0.439      31.1702   
2552.2     6.5035     2.4819     8.1724     11.1259    8.6612     5.0161     4.3998     10.581     0.437      29.3112   
2552.4     6.4436     2.4058     7.8341     10.9611    8.3149     4.8765     4.0439     10.7311    0.437      30.8716   
2552.6     6.4003     2.2919     7.5166     10.8433    8.0986     4.7525     3.8636     11.0384    0.439      27.2368   
2552.8     6.361      2.2418     7.3914     10.8605    8.0631     4.6734     4.2014     11.2802    0.437      28.4409   
2553       6.4631     2.2481     7.2205     10.9146    8.0137     4.6734     4.6613     11.3316    0.435      28.9047   
2553.2     6.4778     2.2404     7.1266     10.9638    8.071      4.6738     4.2825     11.5189    0.437      29.3337   
2553.4     6.4062     2.3237     7.3636     11.2102    8.3643     4.7273     4.405      11.633     0.441      28.399    
2553.6     6.4601     2.3976     7.5463     11.2906    8.5465     4.7273     5.033      11.6411    0.438      30.7257   
