~Version
 VERS              .         2.0                           : CWLS LOG ASCII STANDARD - VERSION 2.0
 WRAP              .         NO                            : ONE LINE PER DEPTH STEP
 DLM               .         SPACE                         : DELIMITING CHARACTER(SPACE TAB OR COMMA)
~Well Information
#_______________________________________________________________________________
#
#PARAMETER_NAME    .UNIT     VALUE                         : DESCRIPTION
#_______________________________________________________________________________
STRT               .m        2460                          : First reference value
STOP               .m        2677                          : Last reference value
STEP               .m        0.2                           : Step increment
NULL               .         -9999                         : Missing value
COMP               .                                       : Company
WELL               .         606                           : Well name
FLD                .                                       : Field
LOC                .                                       : Location
CNTY               .                                       : County
STAT               .                                       : State
CTRY               .                                       : Country
SRVC               .                                       : Service Company
DATE               .                                       : Date
API                .                                       : API number
EREF               .m        134                           : 
X                  .m        225746                        : 
Y                  .m        235643                        : 
group              .         Pad6                          : 
Интер-р            .         Пузин                         : 
Куст               .         6                             : 
Статус             .         Не проверено                  : 
Тип                .         Нагнетательные                : 
~Parameter Information Block
#_______________________________________________________________________________
#
#PARAMETER_NAME    .UNIT     VALUE                         : DESCRIPTION
#_______________________________________________________________________________
SET                .         LAS1                          : 
REAL_CREATION_DATE .         Ср апр 11 2012-13_17_24       : 
TLFamily_DEPTH     .         Measured Depth                : 
TLFamily_KS        .         Potential Resistivity         : 
TLFamily_KS1       .         Extra Shallow Resistivity     : 
TLFamily_KS2       .         Shallow Resistivity           : 
TLFamily_KS3       .         Medium Resistivity            : 
TLFamily_KS4       .         Deep Resistivity              : 
TLFamily_KS5       .         Extra Deep Resistivity        : 
TLFamily_LLD       .         Lateral Log Resistivity       : 
TLFamily_OKS3      .         Medium Resistivity Inverted   : 
TLFamily_RM        .         Mud Resistivity               : 
TLFamily_SP        .         Spontaneous Potential         : 
group              .         INI                           : 
~Curve Information
#_______________________________________________________________________________
#
#LOGNAME           .UNIT     LOG_ID                        : DESCRIPTION
#_______________________________________________________________________________
DEPTH              .m                                      : Measured Depth 
KS                 .ohm.m                                  : Potential Resistivity 
KS1                .ohm.m                                  : Extra Shallow Resistivity 
KS2                .ohm.m                                  : Shallow Resistivity 
KS3                .ohm.m                                  : Medium Resistivity 
KS4                .ohm.m                                  : Deep Resistivity 
KS5                .ohm.m                                  : Extra Deep Resistivity 
LLD                .ohm.m                                  : Lateral Log Resistivity 
OKS3               .ohm.m                                  : Medium Resistivity Inverted 
RM                 .ohm.m                                  : Mud Resistivity 
SP                 .mV                                     : Spontaneous Potential 
~Ascii
2460.0     0.04       0.222      0          0          0          0          -9999      20.7814    0.318      -9999     
2460.2     0.04       0.9771     0          0          0          0          -9999      18.3287    0.326      -9999     
2460.4     0.04       1.4274     0          0          0          0          -9999      16.0567    0.363      -9999     
2460.6     0.8939     1.7253     0.8477     0          0          0          -9999      14.4096    0.38       -9999     
2460.8     2.6216     1.8623     2.9319     0          0          0          -9999      13.2577    0.391      -9999     
2461       3.7009     1.9118     4.2078     0          0          0          -9999      12.3942    0.4        -9999     
2461.2     4.4045     1.9663     4.9176     0          0          0          -9999      11.7825    0.406      -9999     
2461.4     4.8522     1.969      5.3126     0          0          0          -9999      11.2364    0.407      -9999     
2461.6     5.1806     2.0709     5.8418     0.0033     0          0          -9999      10.6775    0.403      -9999     
2461.8     5.4298     2.1697     6.3611     1.2106     0          0          -9999      10.1304    0.401      -9999     
2462       5.6314     2.2127     6.5496     3.9442     0          0          -9999      9.7593     0.401      -9999     
2462.2     5.8105     2.1892     6.6979     5.8091     0          0          -9999      9.6123     0.402      -9999     
2462.4     5.9077     2.2389     6.8869     7.1736     0          0          -9999      9.5455     0.407      -9999     
2462.6     5.9563     2.2501     7.12       8.1741     0          0          -9999      9.4596     0.407      -9999     
2462.8     5.9746     2.2879     7.1971     8.8347     0          0          -9999      9.3105     0.412      -9999     
2463       5.9505     2.2389     7.106      9.2266     0          0          -9999      9.2126     0.424      29.0835   
2463.2     5.8667     2.2721     7.1084     9.4782     0          0          -9999      9.1726     0.434      31.8636   
2463.4     5.8128     2.2389     7.0105     9.6183     0          0          -9999      9.1726     0.436      32.023    
2463.6     5.7563     2.2348     6.9127     9.5781     0          0          -9999      9.2193     0.431      32.1952   
2463.8     5.6638     2.1714     6.7066     9.4713     0.7666     0          -9999      9.34       0.436      33.5346   
2464       5.5869     2.1298     6.5558     9.2892     2.7853     0          -9999      9.4428     0.443      33.7336   
2464.2     5.481      2.1244     6.4059     9.05       4.0787     0          -9999      9.5146     0.443      32.9354   
2464.4     5.4177     2.0753     6.3219     8.837      4.9784     0          -9999      9.6731     0.441      33.1947   
2464.6     5.3703     2.0403     6.1597     8.6376     5.5481     0          -9999      9.8807     0.437      33.1172   
2464.8     5.3229     2.0163     6.0026     8.4344     5.8757     0          -9999      10.0855    0.438      33.2744   
2465       5.2732     2.0208     5.9528     8.2832     6.1098     0          -9999      10.2047    0.439      33.9084   
2465.2     5.2732     2.0208     5.9527     8.1786     6.2596     0          -9999      10.3119    0.443      34.4406   
2465.4     5.2732     1.9675     5.8708     8.0262     6.3511     0          -9999      10.3652    0.44       34.1463   
2465.6     5.2948     1.9663     5.7933     7.931      6.357      0          -9999      10.4041    0.437      35.3178   
2465.8     5.333      1.9663     5.8493     7.8867     6.3901     0          -9999      10.3082    0.437      36.0598   
2466       5.3919     2.0208     5.9536     7.892      6.4638     0          -9999      10.248     0.437      34.8658   
2466.2     5.4814     2.0208     6.0548     7.9953     6.5211     0          4.1205     10.232     0.437      38.2846   
2466.4     5.5792     2.0333     6.2042     8.146      6.6269     0          4.3666     10.343     0.437      35.3919   
2466.6     5.6602     2.0753     6.4046     8.2928     6.7287     0          4.3665     10.4737    0.438      35.3805   
2466.8     5.7282     2.0753     6.4311     8.3973     6.7898     0          4.343      10.5375    0.437      38.0607   
2467       5.7588     2.0753     6.4311     8.4953     6.8379     0          4.3526     10.635     0.437      36.113    
2467.2     5.7588     2.0703     6.3742     8.5908     6.8379     0          4.3623     10.7299    0.438      35.6246   
2467.4     5.7588     2.0208     6.2824     8.6353     6.8419     0          4.2785     10.7938    0.444      36.3243   
2467.6     5.7695     2.0343     6.2774     8.7141     6.9041     0          4.2456     10.8231    0.443      37.1225   
2467.8     5.8127     2.0753     6.3829     8.8938     6.9996     0          4.2361     10.8247    0.438      34.6191   
2468       5.8667     2.0753     6.4843     9.028      7.1085     0          4.3907     10.7286    0.437      37.161    
2468.2     5.9269     2.1146     6.5005     9.1321     7.2042     0.6656     4.5698     10.571     0.441      37.1006   
2468.4     5.9746     2.1298     6.6381     9.1846     7.2998     1.4314     4.6703     10.37      0.443      35.737    
2468.6     6.0212     2.1298     6.6317     9.2292     7.4014     2.0449     4.7202     10.2763    0.444      36.5936   
2468.8     6.0299     2.1298     6.6821     9.2818     7.5538     2.5659     4.7276     10.2534    0.443      35.8691   
2469       6.0825     2.1298     6.6969     9.4319     7.7183     2.9913     4.6153     10.2989    0.443      35.0499   
2469.2     6.0825     2.1298     6.693      9.4603     7.915      3.3939     4.5428     10.2534    0.441      36.8248   
2469.4     6.0825     2.0867     6.6438     9.5807     8.1235     3.7531     4.5271     10.2532    0.445      36.2716   
2469.6     6.0825     2.1087     6.6546     9.7413     8.4711     4.1056     4.5271     10.1994    0.448      36.079    
2469.8     6.0933     2.1532     6.8606     10.0931    8.856      4.3648     4.5593     10.1267    0.444      36.7453   
2470       6.1472     2.2191     7.1102     10.4104    9.1825     4.6383     4.9999     9.7833     0.443      36.6849   
2470.2     6.2007     2.3479     7.3399     10.6812    9.4155     4.8279     5.2792     9.4039     0.443      35.5104   
2470.4     6.2527     2.3479     7.3658     10.7525    9.4513     4.921      5.8295     8.9407     0.443      35.9455   
2470.6     6.2983     2.3475     7.4756     10.7374    9.3596     4.9426     5.1209     8.6205     0.447      36.0493   
2470.8     6.293      2.2886     7.4296     10.5855    9.2552     4.9426     4.9554     8.416      0.449      34.4021   
2471       6.2443     2.2934     7.3831     10.4801    9.131      4.9176     4.5919     8.308      0.442      35.3501   
2471.2     6.1928     2.2389     7.3823     10.4221    9.0568     4.8887     4.2918     8.2767     0.447      35.7338   
2471.4     6.073      2.2334     7.2216     10.3153    8.9059     4.8544     4.265      8.2539     0.443      35.3713   
2471.6     5.9432     2.1844     7.0418     10.1809    8.7493     4.8026     4.1027     8.235      0.447      34.6366   
2471.8     5.7908     2.157      6.7806     10.0349    8.5496     4.7488     3.985      8.2333     0.449      34.6795   
2472       5.6508     2.1298     6.7431     9.9334     8.3974     4.6956     3.873      8.2593     0.445      33.8728   
2472.2     5.5558     2.1276     6.5999     9.8798     8.293      4.6425     3.8507     8.362      0.443      34.5908   
2472.4     5.459      2.0753     6.4532     9.6382     8.0911     4.5934     3.8123     8.3934     0.443      33.7483   
2472.6     5.3743     2.0476     6.252      9.3364     7.8799     4.529      3.7044     8.5193     0.439      34.1389   
2472.8     5.3147     2.0208     6.1073     9.0345     7.6853     4.4581     3.6202     8.6427     0.447      33.5964   
2473       5.2273     2.0208     6.0641     8.7909     7.5338     4.4082     3.5417     8.7874     0.446      34.6757   
2473.2     5.1653     2.0208     5.9789     8.5833     7.436      4.372      3.6155     8.9067     0.443      33.8154   
