~Version
 VERS              .         2.0                           : CWLS LOG ASCII STANDARD - VERSION 2.0
 WRAP              .         NO                            : ONE LINE PER DEPTH STEP
 DLM               .         SPACE                         : DELIMITING CHARACTER(SPACE TAB OR COMMA)
~Well Information
#_______________________________________________________________________________
#
#PARAMETER_NAME    .UNIT     VALUE                         : DESCRIPTION
#_______________________________________________________________________________
STRT               .m        2460                          : First reference value
STOP               .m        2677                          : Last reference value
STEP               .m        0.2                           : Step increment
NULL               .         -9999                         : Missing value
COMP               .                                       : Company
WELL               .         606                           : Well name
FLD                .                                       : Field
LOC                .                                       : Location
CNTY               .                                       : County
STAT               .                                       : State
CTRY               .                                       : Country
SRVC               .                                       : Service Company
DATE               .                                       : Date
API                .                                       : API number
EREF               .m        134                           : 
X                  .m        225746                        : 
Y                  .m        235643                        : 
group              .         Pad6                          : 
Интер-р            .         Пузин                         : 
Куст               .         6                             : 
Статус             .         Не проверено                  : 
Тип                .         Нагнетательные                : 
~Parameter Information Block
#_______________________________________________________________________________
#
#PARAMETER_NAME    .UNIT     VALUE                         : DESCRIPTION
#_______________________________________________________________________________
SET                .         LAS1                          : 
REAL_CREATION_DATE .         Ср апр 11 2012-13_17_24       : 
TLFamily_DEPTH     .         Measured Depth                : 
TLFamily_KS        .         Potential Resistivity         : 
TLFamily_KS1       .         Extra Shallow Resistivity     : 
TLFamily_KS2       .         Shallow Resistivity           : 
TLFamily_KS3       .         Medium Resistivity            : 
TLFamily_KS4       .         Deep Resistivity              : 
TLFamily_KS5       .         Extra Deep Resistivity        : 
TLFamily_LLD       .         Lateral Log Resistivity       : 
TLFamily_OKS3      .         Medium Resistivity Inverted   : 
TLFamily_RM        .         Mud Resistivity               : 
TLFamily_SP        .         Spontaneous Potential         : 
group              .         INI                           : 
~Curve Information
#_______________________________________________________________________________
#
#LOGNAME           .UNIT     LOG_ID                        : DESCRIPTION
#_______________________________________________________________________________
DEPTH              .m                                      : Measured Depth 
KS                 .ohm.m                                  : Potential Resistivity 
KS1                .ohm.m                                  : Extra Shallow Resistivity 
KS2                .ohm.m                                  : Shallow Resistivity 
KS3                .ohm.m                                  : Medium Resistivity 
KS4                .ohm.m                                  : Deep Resistivity 
KS5                .ohm.m                                  : Extra Deep Resistivity 
LLD                .ohm.m                                  : Lateral Log Resistivity 
OKS3               .ohm.m                                  : Medium Resistivity Inverted 
RM                 .ohm.m                                  : Mud Resistivity 
SP                 .mV                                     : Spontaneous Potential 
~Ascii
# ...
2607.4     6.9929     1.9684     5.4959     6.8416     5.0103     3.0907     6.4577     15.1899    0.401      46.8676   
2607.6     7.2687     2.1655     6.2642     7.4758     5.4343     3.3045     6.2584     15.2207    0.406      49.4861   
2607.8     7.454      2.2821     6.7118     8.0679     5.8279     3.493      7.6185     15.0546    0.407      51.5688   
2608       7.6723     2.2725     7.0523     8.7096     6.2961     3.6314     7.1575     14.7873    0.407      52.3122   
2608.2     7.9037     2.4058     7.6203     9.4875     6.798      3.7436     7.0477     14.3706    0.407      54.7614   
2608.4     7.9897     2.5282     8.075      10.3448    7.2791     3.8049     9.2486     13.5475    0.41       56.0598   
2608.6     8.0247     2.6523     8.5184     11.064     7.6319     3.8067     9.3068     12.6661    0.413      57.2576   
2608.8     8.0126     2.662      8.7545     11.9487    8.0888     3.7343     8.6364     11.5843    0.411      57.2643   
2609       7.8869     2.566      8.5972     12.4009    8.4092     3.7005     7.2388     11.2548    0.413      59.186    
2609.2     7.7179     2.5183     8.805      12.8028    8.7249     3.612      6.408      11.177     0.407      60.9205   
2609.4     7.5238     2.4471     8.5978     12.9643    8.9222     3.5969     5.8606     11.1661    0.405      59.4182   
2609.6     7.3453     2.3795     8.4348     12.9035    8.9587     3.5478     5.5905     11.0993    0.398      60.503    
2609.8     7.2175     2.3069     8.1034     12.913     9.0351     3.4793     5.3291     11.064     0.395      60.9109   
2610       7.0897     2.3263     7.8801     12.8609    9.178      3.4355     5.1836     11.2336    0.4        61.6788   
2610.2     6.9622     2.2123     7.4354     12.6804    9.3364     3.4355     4.9755     11.6263    0.401      60.4284   
2610.4     6.8814     2.2389     7.3202     12.5142    9.4618     3.4477     4.7058     12.0052    0.401      61.1229   
2610.6     6.7838     2.1175     6.8703     12.2055    9.6331     3.5127     4.8671     12.2202    0.405      60.9657   
2610.8     6.7754     2.1444     6.8264     11.8426    9.8747     3.6334     4.5698     12.3696    0.401      60.3057   
2611       6.7299     2.1307     6.683      11.6623    10.2689    3.8661     4.8508     12.6733    0.411      60.1633   
2611.2     6.7299     2.127      6.5993     11.101     10.3411    4.1937     4.608      12.9619    0.413      60.5055   
2611.4     6.7785     2.0324     6.1919     10.5224    10.4288    4.607      4.6208     13.7327    0.415      58.737    
2611.6     6.9145     1.9118     5.862      10.1103    11.0447    5.465      4.25       15.4317    0.413      57.6389   
2611.8     7.1171     1.9478     5.9935     10.2767    11.9947    6.4224     4.3955     16.0152    0.413      55.763    
2612       7.3839     2.0718     6.3153     10.743     13.3013    7.5402     6.2513     16.6646    0.416      54.4394   
2612.2     7.7025     2.111      6.6226     11.5968    15.2382    8.641      7.1159     17.9159    0.408      52.2427   
2612.4     8.0729     2.1408     7.1449     12.6979    17.3682    9.3867     6.2709     18.2454    0.407      52.3906   
2612.6     8.305      2.3294     7.8453     13.4396    18.4504    10.1432    8.6792     17.7688    0.409      53.2654   
2612.8     8.4194     2.771      9.3023     14.5581    19.6449    10.6934    26.6315    16.2035    0.407      52.4097   
2613       8.4828     2.9412     9.7432     14.986     19.6768    10.7653    18.1578    14.4287    0.407      50.8204   
2613.2     8.2788     2.8594     9.7139     14.2655    17.7969    10.2622    7.8934     11.983     0.405      50.2012   
2613.4     8.0292     2.6418     9.3712     13.365     16.0668    9.8032     7.052      11.2577    0.398      51.7784   
2613.6     7.827      2.463      8.9867     12.77      14.7435    9.4323     4.983      11.1611    0.4        52.4979   
2613.8     7.6258     2.2915     8.4655     12.4315    13.7864    9.3563     4.9358     11.3627    0.406      52.1427   
2614       7.4794     2.2668     8.0465     12.4762    13.2294    9.6146     4.968      11.8793    0.402      48.9257   
2614.2     7.4216     2.2248     7.7728     12.4495    12.9701    10.86      5.0115     12.5286    0.399      49.734    
2614.4     7.3902     2.2331     7.6498     13.3356    13.8857    12.5178    5.0422     14.0882    0.4        47.3447   
2614.6     7.4312     2.2934     7.916      15.0088    15.5715    14.1553    5.1615     15.5261    0.389      47.1422   
2614.8     7.4746     2.3142     8.3639     16.8039    17.3045    15.4167    5.4008     16.0147    0.404      47.7241   
2615       7.5027     2.6789     9.5277     18.4837    18.4481    15.7655    5.895      15.3599    0.407      44.6745   
2615.2     7.5316     3.1305     10.5167    18.6475    18.0302    15.3383    11.8606    13.9056    0.393      44.886    
2615.4     7.3894     2.8804     9.5332     18.0573    17.208     14.5138    17.115     13.1743    0.398      43.9514   
2615.6     7.2782     2.7324     9.0904     15.6887    14.896     12.7847    6.2022     11.9433    0.417      43.6109   
2615.8     7.0322     2.4794     8.4706     14.0271    13.3472    10.7366    4.4443     11.315     0.417      42.2231   
2616       6.8243     2.3479     8.2647     12.6512    12.1805    9.2574     4.2362     10.9398    0.419      40.5373   
2616.2     6.7021     2.293      7.8162     11.7301    11.3341    8.1009     4.3071     10.794     0.41       41.9046   
2616.4     6.6125     2.2826     7.4715     11.1577    10.731     7.2016     4.6318     10.8792    0.407      40.8906   
2616.6     6.5655     2.3456     7.4076     10.8553    10.4563    6.4464     4.7386     11.1599    0.407      41.082    
2616.8     6.5075     2.2934     7.1182     10.6286    10.0798    5.8816     4.614      11.5593    0.406      41.7826   
2617       6.4494     2.199      6.8032     10.4228    9.1957     5.0789     4.6188     11.9866    0.424      41.5453   
2617.2     6.4601     2.2312     6.7399     10.2319    8.6286     4.7246     4.6046     11.9856    0.411      41.983    
2617.4     6.4601     2.0819     6.3462     9.926      8.1114     4.482      4.6603     12.1814    0.399      41.3161   
2617.6     6.5089     2.1442     6.4188     9.6759     7.8534     4.3371     4.6105     12.8059    0.395      42.8666   
2617.8     6.5725     2.1298     6.4498     9.6134     7.8486     4.332      4.5621     13.7459    0.39       45.1478   
2618       6.622      2.0755     6.3769     9.4672     7.8099     4.4957     4.6268     14.3524    0.393      43.88     
2618.2     6.6875     2.0021     6.0982     9.4034     8.0439     4.8062     4.6707     14.5284    0.401      43.6584   
2618.4     6.8193     1.9826     6.0435     9.5239     8.6825     5.3338     4.7656     14.8438    0.401      42.5874   
2618.6     7.0431     2.0153     6.178      10.0922    10.0817    5.9427     4.9102     15.9559    0.391      41.8306   
2618.8     7.3549     2.065      6.5698     11.0481    12.0572    6.5533     5.1085     16.7114    0.389      41.8628   
2619       7.6424     2.0179     6.9085     12.1482    14.3893    6.975      5.6534     16.4391    0.399      40.826    
2619.2     7.9774     2.4008     8.0583     13.2675    16.3277    7.0305     6.8047     15.1061    0.4        40.0549   
2619.4     8.3349     2.7288     8.8162     13.7683    16.9194    6.8242     15.3546    13.3967    0.394      39.7306   
2619.6     8.5795     2.6715     8.6994     13.2686    16.0224    6.3219     20.3633    11.9266    0.4        39.4203   
2619.8     8.7178     2.4629     8.5962     12.6779    14.6363    5.8695     9.5658     10.7594    0.401      40.9333   
2620       8.7074     2.6569     9.6638     13.3145    14.5801    5.5642     6.0832     9.9858     0.404      40.5448   
2620.2     8.5878     2.9026     10.5878    14.1364    14.3645    5.3585     5.8423     9.3443     0.402      41.0677   
2620.4     8.324      2.8717     10.1175    14.1062    13.3242    5.155      10.067     9.0073     0.411      42.8484   
2620.6     7.9748     2.5795     9.0658     13.3047    11.7551    4.9457     8.5225     8.9244     0.414      43.5474   
