~Version
 VERS              .         2.0                           : CWLS LOG ASCII STANDARD - VERSION 2.0
 WRAP              .         NO                            : ONE LINE PER DEPTH STEP
 DLM               .         SPACE                         : DELIMITING CHARACTER(SPACE TAB OR COMMA)
~Well Information
#_______________________________________________________________________________
#
#PARAMETER_NAME    .UNIT     VALUE                         : DESCRIPTION
#_______________________________________________________________________________
STRT               .m        2460                          : First reference value
STOP               .m        2678                          : Last reference value
STEP               .m        0.2                           : Step increment
NULL               .         -9999                         : Missing value
COMP               .                                       : Company
WELL               .         606                           : Well name
FLD                .                                       : Field
LOC                .                                       : Location
CNTY               .                                       : County
STAT               .                                       : State
CTRY               .                                       : Country
SRVC               .                                       : Service Company
DATE               .                                       : Date
API                .                                       : API number
EREF               .m        134                           : 
X                  .m        225746                        : 
Y                  .m        235643                        : 
group              .         Pad6                          : 
Интер-р            .         Пузин                         : 
Куст               .         6                             : 
Статус             .         Не проверено                  : 
Тип                .         Нагнетательные                : 
~Parameter Information Block
#_______________________________________________________________________________
#
#PARAMETER_NAME    .UNIT     VALUE                         : DESCRIPTION
#_______________________________________________________________________________
SET                .         LAS3                          : 
REAL_CREATION_DATE .         Ср апр 11 2012-13_17_24       : 
TLFamily_DEPTH     .         Measured Depth                : 
TLFamily_GR        .         Gamma Ray                     : 
TLFamily_TNPH      .         Neutron Porosity              : 
group              .         INI                           : 
~Curve Information
#_______________________________________________________________________________
#
#LOGNAME           .UNIT     LOG_ID                        : DESCRIPTION
#_______________________________________________________________________________
DEPTH              .m                                      : Measured Depth 
GR                 .gAPI                                   :  
TNPH               .v/v                                    : Neutron Porosity 
~Ascii
# ...
2605.8     144.75     0.216     
2606       147.18     0.219     
2606.2     147.92     0.22      
2606.4     149.15     0.212     
2606.6     147.61     0.2       
2606.8     146.86     0.186     
2607       148.72     0.166     
2607.2     154.96     0.153     
2607.4     162.88     0.142     
2607.6     169.06     0.138     
2607.8     158.69     0.137     
2608       117.48     0.126     
2608.2     80.03      0.127     
2608.4     64.29      0.122     
2608.6     56.56      0.118     
2608.8     55.91      0.118     
2609       57.27      0.127     
2609.2     61.44      0.13      
2609.4     65.29      0.136     
2609.6     64.01      0.135     
2609.8     63.61      0.139     
2610       63.38      0.149     
2610.2     65.17999   0.154     
2610.4     67.67999   0.149     
2610.6     68.76      0.151     
2610.8     66.2       0.151     
2611       63.41      0.143     
2611.2     60.8       0.134     
2611.4     59         0.128     
2611.6     60.94      0.127     
2611.8     62.78      0.126     
2612       61.51      0.122     
2612.2     63.05      0.115     
2612.4     65.5       0.11      
2612.6     66.66      0.107     
2612.8     66.47      0.102     
2613       65.74001   0.109     
2613.2     65.63      0.119     
2613.4     68.48      0.124     
2613.6     71.09      0.128     
2613.8     74.71      0.133     
2614       77.14      0.135     
2614.2     76.12      0.138     
2614.4     76.12      0.142     
2614.6     77.74001   0.129     
2614.8     77.63      0.114     
2615       77.57      0.105     
2615.2     75.54      0.107     
2615.4     72.9       0.115     
2615.6     73.42      0.121     
2615.8     76.5       0.126     
2616       78.94      0.128     
2616.2     78.17001   0.125     
2616.4     76.98      0.132     
2616.6     80.21      0.138     
2616.8     83.62      0.147     
2617       85.87      0.143     
2617.2     86.98      0.14      
2617.4     86.79      0.136     
2617.6     83.61      0.131     
2617.8     80.02      0.135     
2618       79.52      0.137     
2618.2     76.48      0.131     
2618.4     74.56001   0.125     
2618.6     74.68001   0.117     
2618.8     76.25      0.116     
2619       78.36      0.109     
2619.2     73.84      0.106     
2619.4     66.53      0.104     
2619.6     60.64      0.1       
2619.8     58.63      0.111     
2620       58.9       0.121     
2620.2     59.45      0.123     
2620.4     59.24      0.112     
2620.6     54.62      0.11      
2620.8     54.06      0.117     
2621       61.95      0.122     
2621.2     68.21      0.133     
2621.4     70.02      0.136     
2621.6     71.02      0.145     
2621.8     71.62      0.147     
2622       72.25999   0.14      
2622.2     71.09      0.13      
2622.4     64.17      0.126     
2622.6     59.89      0.127     
2622.8     56.79      0.127     
2623       53.68      0.124     
2623.2     50.62      0.121     
2623.4     45.04      0.112     
2623.6     40.75      0.104     
2623.8     36.98      0.091     
2624       31.74      0.081     
2624.2     27.32      0.078     
2624.4     26.3       0.079     
2624.6     27.36      0.082     
2624.8     28.43      0.084     
2625       30.68      0.086     
2625.2     34.15      0.095     
2625.4     38         0.11      
2625.6     45.18      0.135     
2625.8     49.76      0.147     
2626       49.28      0.149     
2626.2     48.31      0.143     
2626.4     46.25      0.146     
2626.6     46.19      0.144     
2626.8     48.24      0.135     
2627       49.65      0.142     
2627.2     50.8       0.145     
2627.4     49.11      0.144     
2627.6     45.75      0.146     
2627.8     44.44      0.147     
2628       46.2       0.143     
2628.2     50.11      0.142     
2628.4     56.25      0.137     
2628.6     64.13      0.132     
2628.8     71.26      0.131     
2629       74.72      0.134     
2629.2     74.46      0.141     
2629.4     73.94      0.147     
2629.6     71.26      0.15      
2629.8     70.41      0.162     
2630       75.63      0.168     
2630.2     86.52      0.171     
2630.4     103.13     0.173     
2630.6     119.6      0.18      
2630.8     123.71     0.183     
2631       119.54     0.186     
2631.2     118.56     0.179     
2631.4     121.46     0.17      
2631.6     123.53     0.171     
2631.8     123.98     0.178     
2632       120.63     0.211     
2632.2     108.51     0.212     
2632.4     96.37      0.229     
2632.6     99.41      0.229     
2632.8     105.73     0.208     
2633       106.33     0.171     
2633.2     107.9      0.154     
2633.4     114.99     0.145     
2633.6     113.63     0.153     
2633.8     104.6      0.159     
2634       97.67999   0.169     
2634.2     96.41      0.172     
2634.4     99.53      0.165     
2634.6     106.8      0.168     
2634.8     115.83     0.174     
2635       117.63     0.177     
2635.2     110.8      0.185     
2635.4     103.02     0.191     
2635.6     99.98      0.191     
2635.8     100.82     0.187     
2636       101.81     0.181     
2636.2     104.97     0.184     
2636.4     110.52     0.189     
2636.6     112.85     0.202     
2636.8     116.72     0.2       
2637       118.72     0.196     
2637.2     114.11     0.195     
2637.4     111.56     0.202     
2637.6     109.95     0.205     
2637.8     110.9      0.193     
2638       112.1      0.168     
2638.2     106.41     0.165     
2638.4     105.95     0.165     
2638.6     102.98     0.173     
2638.8     96.28      0.17      
2639       93.53      0.167     
2639.2     93.57001   0.17      
2639.4     96.26      0.172     
2639.6     98.48      0.176     
2639.8     104.35     0.185     
2640       113.12     0.195     
2640.2     118.98     0.204     
2640.4     119.35     0.204     
2640.6     119.31     0.202     
2640.8     117.94     0.202     
2641       114.89     0.193     
2641.2     115.34     0.191     
2641.4     119.02     0.192     
2641.6     118.78     0.18      
2641.8     111.09     0.174     
2642       101.58     0.17      
2642.2     94.82001   0.164     
2642.4     90.17      0.166     
2642.6     83.28      0.157     
2642.8     75.35      0.142     
2643       70.67001   0.129     
2643.2     67.48      0.127     
2643.4     71.1       0.132     
2643.6     75.17999   0.136     
2643.8     80.52      0.134     
2644       91.56      0.145     
2644.2     98.88      0.161     
2644.4     101.18     0.178     
2644.6     97.06001   0.189     
2644.8     87.49      0.194     
2645       71.75999   0.207     
2645.2     51.81      0.241     
2645.4     29.62      0.241     
2645.6     16.36      0.251     
2645.8     17.7       0.251     
2646       24.52      0.244     
2646.2     32.18      0.253     
2646.4     46.05      0.252     
2646.6     63.3       0.212     
2646.8     82.27      0.195     
2647       97.43      0.192     
2647.2     105.12     0.19      
2647.4     108.5      0.179     
2647.6     108.56     0.174     
2647.8     102.55     0.174     
2648       95.78      0.177     
2648.2     84.46999   0.187     
2648.4     68.44      0.19      
2648.6     66.86      0.192     
2648.8     79.51      0.17      
2649       95.24001   0.151     
2649.2     101.22     0.143     
2649.4     103.58     0.137     
2649.6     104.7      0.151     
2649.8     104.38     0.164     
2650       107.1      0.174     
2650.2     107.75     0.176     
2650.4     102.49     0.174     
2650.6     92.76      0.183     
2650.8     82.45      0.191     
2651       80.94      0.186     
2651.2     89.8       0.182     
2651.4     98.9       0.177     
2651.6     101.47     0.174     
2651.8     96.98      0.172     
2652       97.77      0.173     
2652.2     99.55      0.181     
2652.4     97.39999   0.185     
2652.6     94.54001   0.18      
2652.8     92.17      0.175     
2653       92.83      0.171     
2653.2     89.62      0.163     
2653.4     81.05      0.149     
2653.6     75.95      0.137     
2653.8     71.37      0.133     
2654       74.49001   0.136     
2654.2     85.26      0.155     
