~Version
 VERS              .         2.0                           : CWLS LOG ASCII STANDARD - VERSION 2.0
 WRAP              .         NO                            : ONE LINE PER DEPTH STEP
 DLM               .         SPACE                         : DELIMITING CHARACTER(SPACE TAB OR COMMA)
~Well Information
#_______________________________________________________________________________
#
#PARAMETER_NAME    .UNIT     VALUE                         : DESCRIPTION
#_______________________________________________________________________________
STRT               .m        2460                          : First reference value
STOP               .m        2678                          : Last reference value
STEP               .m        0.2                           : Step increment
NULL               .         -9999                         : Missing value
COMP               .                                       : Company
WELL               .         606                           : Well name
FLD                .                                       : Field
LOC                .                                       : Location
CNTY               .                                       : County
STAT               .                                       : State
CTRY               .                                       : Country
SRVC               .                                       : Service Company
DATE               .                                       : Date
API                .                                       : API number
EREF               .m        134                           : 
X                  .m        225746                        : 
Y                  .m        235643                        : 
group              .         Pad6                          : 
Интер-р            .         Пузин                         : 
Куст               .         6                             : 
Статус             .         Не проверено                  : 
Тип                .         Нагнетательные                : 
~Parameter Information Block
#_______________________________________________________________________________
#
#PARAMETER_NAME    .UNIT     VALUE                         : DESCRIPTION
#_______________________________________________________________________________
SET                .         LAS3                          : 
REAL_CREATION_DATE .         Ср апр 11 2012-13_17_24       : 
TLFamily_DEPTH     .         Measured Depth                : 
TLFamily_GR        .         Gamma Ray                     : 
TLFamily_TNPH      .         Neutron Porosity              : 
group              .         INI                           : 
~Curve Information
#_______________________________________________________________________________
#
#LOGNAME           .UNIT     LOG_ID                        : DESCRIPTION
#_______________________________________________________________________________
DEPTH              .m                                      : Measured Depth 
GR                 .gAPI                                   :  
TNPH               .v/v                                    : Neutron Porosity 
~Ascii
2460.0     64.37      0.18      
2460.2     82.12      0.177     
2460.4     92         0.16      
2460.6     94.06999   0.157     
2460.8     92.92      0.159     
2461       94.75999   0.164     
2461.2     98.7       0.163     
2461.4     99.87      0.157     
2461.6     100.67     0.157     
2461.8     98.81      0.157     
2462       96.37      0.16      
2462.2     95.17      0.162     
2462.4     91.26      0.163     
2462.6     88.72      0.166     
2462.8     92.33      0.171     
2463       94.99      0.173     
2463.2     93.92999   0.17      
2463.4     96.18      0.176     
2463.6     98.75      0.184     
2463.8     98.21      0.192     
2464       98.85001   0.195     
2464.2     101.31     0.194     
2464.4     103.87     0.196     
2464.6     105.98     0.196     
2464.8     107.77     0.184     
2465       103.84     0.167     
2465.2     102.21     0.157     
2465.4     102.52     0.158     
2465.6     103.08     0.17      
2465.8     104.62     0.185     
2466       105.85     0.176     
2466.2     104.7      0.172     
2466.4     104.67     0.175     
2466.6     101.79     0.18      
2466.8     99.65      0.179     
2467       100.84     0.183     
2467.2     101.87     0.188     
2467.4     100.98     0.182     
2467.6     100.07     0.171     
2467.8     99.93      0.167     
2468       98.68      0.175     
2468.2     97.03      0.172     
2468.4     96.41      0.166     
2468.6     97.25999   0.166     
2468.8     97.67      0.162     
2469       98.99001   0.155     
2469.2     100.61     0.153     
2469.4     102.92     0.156     
2469.6     104.22     0.164     
2469.8     103.16     0.177     
2470       99.03      0.172     
2470.2     92.72      0.159     
2470.4     88.03001   0.156     
2470.6     88.06      0.159     
2470.8     94.14      0.164     
2471       95.43      0.17      
2471.2     94.23      0.17      
2471.4     98.72      0.172     
2471.6     101.67     0.175     
2471.8     101.83     0.183     
2472       103.38     0.187     
2472.2     106.32     0.191     
2472.4     109.23     0.195     
2472.6     108.51     0.196     
2472.8     107.54     0.194     
2473       107.29     0.192     
2473.2     106.99     0.185     
2473.4     106.21     0.185     
2473.6     104.73     0.193     
2473.8     105.46     0.185     
2474       109        0.179     
2474.2     110.72     0.183     
2474.4     109.8      0.181     
2474.6     108.07     0.175     
2474.8     106.84     0.178     
2475       106.91     0.187     
2475.2     109.21     0.188     
2475.4     110.24     0.181     
2475.6     108.22     0.175     
2475.8     104.44     0.17      
2476       101.45     0.172     
2476.2     101.26     0.176     
2476.4     101.61     0.176     
2476.6     98.39      0.174     
2476.8     97.37      0.17      
2477       99.75      0.166     
2477.2     104.21     0.161     
2477.4     104.63     0.157     
2477.6     102.31     0.156     
2477.8     99.94      0.161     
2478       100.15     0.167     
2478.2     97.60001   0.179     
2478.4     95         0.176     
2478.6     91.88      0.167     
2478.8     90.17999   0.164     
2479       93.21999   0.161     
2479.2     95.33      0.158     
2479.4     94.38      0.163     
2479.6     92.19      0.171     
2479.8     89.36      0.176     
2480       89         0.174     
2480.2     94.25999   0.165     
2480.4     99.77      0.158     
2480.6     101.64     0.16      
2480.8     104.85     0.166     
2481       106.28     0.168     
2481.2     103.93     0.169     
2481.4     103.83     0.173     
2481.6     106.03     0.179     
2481.8     105.58     0.167     
2482       103.62     0.167     
2482.2     103.96     0.166     
2482.4     104.24     0.163     
2482.6     100.9      0.167     
2482.8     96.54      0.175     
2483       98.14999   0.174     
2483.2     99.86      0.166     
2483.4     102.75     0.16      
2483.6     106.5      0.16      
2483.8     110.29     0.166     
2484       111.22     0.163     
2484.2     109.88     0.162     
2484.4     112.91     0.163     
2484.6     112.55     0.159     
2484.8     111.72     0.162     
2485       111.31     0.177     
2485.2     110.08     0.185     
2485.4     109.79     0.191     
2485.6     111.52     0.196     
2485.8     111.94     0.2       
2486       111.39     0.191     
2486.2     110.23     0.176     
2486.4     107.68     0.167     
2486.6     105.41     0.165     
2486.8     101.87     0.162     
2487       101.01     0.166     
2487.2     102.31     0.17      
2487.4     102.2      0.174     
2487.6     99.11      0.171     
2487.8     97.92      0.168     
2488       99.81      0.172     
2488.2     102.35     0.185     
2488.4     106.56     0.191     
2488.6     108.84     0.177     
2488.8     108.37     0.17      
2489       107.53     0.173     
2489.2     106.85     0.179     
2489.4     103.98     0.176     
2489.6     101.91     0.173     
2489.8     102.47     0.168     
2490       101.99     0.162     
2490.2     100.79     0.163     
2490.4     101.78     0.161     
2490.6     101.59     0.162     
2490.8     100.63     0.166     
2491       100.03     0.173     
2491.2     101.55     0.174     
2491.4     101.78     0.173     
2491.6     101.71     0.178     
2491.8     100.94     0.18      
2492       100.63     0.172     
2492.2     101.24     0.177     
2492.4     106        0.184     
2492.6     111.33     0.181     
2492.8     114.26     0.177     
2493       118.07     0.181     
2493.2     116.21     0.185     
2493.4     111.27     0.178     
2493.6     106.22     0.174     
2493.8     99.55      0.173     
2494       95.45      0.16      
2494.2     96.04      0.154     
2494.4     96.95      0.162     
2494.6     97.95999   0.177     
2494.8     99.14      0.182     
2495       101.32     0.172     
2495.2     101.52     0.163     
2495.4     101.34     0.158     
2495.6     100.19     0.157     
2495.8     105.4      0.162     
2496       111.9      0.167     
2496.2     115.09     0.178     
2496.4     114.66     0.183     
2496.6     114.94     0.182     
2496.8     116.76     0.187     
2497       113.54     0.192     
2497.2     110.18     0.19      
2497.4     108.14     0.188     
2497.6     110.38     0.183     
2497.8     111.77     0.179     
2498       111.02     0.178     
2498.2     111.94     0.167     
2498.4     112.43     0.158     
2498.6     109.08     0.171     
2498.8     111.74     0.19      
2499       111.64     0.192     
2499.2     106.74     0.194     
2499.4     105.67     0.191     
2499.6     105.29     0.189     
2499.8     100.47     0.181     
2500       97.39      0.171     
2500.2     97.42      0.168     
2500.4     96.6       0.168     
2500.6     94.2       0.164     
2500.8     95.56      0.159     
2501       100.38     0.158     
2501.2     103.26     0.168     
2501.4     106.53     0.178     
2501.6     106.54     0.18      
2501.8     103.65     0.181     
2502       104.06     0.187     
2502.2     107.95     0.189     
2502.4     111.19     0.19      
2502.6     110.91     0.188     
2502.8     112.97     0.186     
2503       116.94     0.181     
2503.2     118.62     0.175     
2503.4     117.24     0.177     
2503.6     112.3      0.183     
2503.8     106.57     0.187     
2504       106.24     0.187     
2504.2     104.75     0.175     
2504.4     103.13     0.166     
2504.6     103.53     0.159     
2504.8     105.67     0.151     
2505       108.92     0.142     
2505.2     113.03     0.14      
2505.4     118.47     0.147     
2505.6     121.67     0.16      
2505.8     122.01     0.17      
2506       121.15     0.176     
2506.2     120.32     0.18      
2506.4     119.49     0.177     
2506.6     116.95     0.167     
2506.8     115.06     0.161     
2507       111.11     0.157     
2507.2     101.7      0.147     
2507.4     96.81      0.141     
2507.6     89.32      0.14      
2507.8     77.73      0.14      
2508       69.91      0.133     
2508.2     65.01      0.12      
2508.4     65.24001   0.12      
