~Version
 VERS              .         2.0                           : CWLS LOG ASCII STANDARD - VERSION 2.0
 WRAP              .         NO                            : ONE LINE PER DEPTH STEP
 DLM               .         SPACE                         : DELIMITING CHARACTER(SPACE TAB OR COMMA)
~Well Information
#_______________________________________________________________________________
#
#PARAMETER_NAME    .UNIT     VALUE                         : DESCRIPTION
#_______________________________________________________________________________
STRT               .m        2460                          : First reference value
STOP               .m        2678                          : Last reference value
STEP               .m        0.2                           : Step increment
NULL               .         -9999                         : Missing value
COMP               .                                       : Company
WELL               .         606                           : Well name
FLD                .                                       : Field
LOC                .                                       : Location
CNTY               .                                       : County
STAT               .                                       : State
CTRY               .                                       : Country
SRVC               .                                       : Service Company
DATE               .                                       : Date
API                .                                       : API number
EREF               .m        134                           : 
X                  .m        225746                        : 
Y                  .m        235643                        : 
group              .         Pad6                          : 
Интер-р            .         Пузин                         : 
Куст               .         6                             : 
Статус             .         Не проверено                  : 
Тип                .         Нагнетательные                : 
~Parameter Information Block
#_______________________________________________________________________________
#
#PARAMETER_NAME    .UNIT     VALUE                         : DESCRIPTION
#_______________________________________________________________________________
SET                .         LAS3                          : 
REAL_CREATION_DATE .         Ср апр 11 2012-13_17_24       : 
TLFamily_DEPTH     .         Measured Depth                : 
TLFamily_GR        .         Gamma Ray                     : 
TLFamily_TNPH      .         Neutron Porosity              : 
group              .         INI                           : 
~Curve Information
#_______________________________________________________________________________
#
#LOGNAME           .UNIT     LOG_ID                        : DESCRIPTION
#_______________________________________________________________________________
DEPTH              .m                                      : Measured Depth 
GR                 .gAPI                                   :  
TNPH               .v/v                                    : Neutron Porosity 
~Ascii
# ...
2557.2     280.32     0.209     
2557.4     300.89     0.21      
2557.6     308.92     0.208     
2557.8     322.29     0.208     
2558       354.37     0.215     
2558.2     400.5      0.233     
2558.4     447.71     0.242     
2558.6     474.88     0.236     
2558.8     494.51     0.221     
2559       511.7      0.209     
2559.2     475.38     0.202     
2559.4     405.8      0.197     
2559.6     367.34     0.19      
2559.8     349.17     0.195     
2560       365.4      0.197     
2560.2     391.14     0.218     
2560.4     394.87     0.228     
2560.6     385.26     0.238     
2560.8     374.56     0.246     
2561       367.57     0.24      
2561.2     348.38     0.22      
2561.4     317.51     0.202     
2561.6     299.24     0.195     
2561.8     297.15     0.203     
2562       300.99     0.218     
2562.2     309.75     0.22      
2562.4     322.15     0.231     
2562.6     333.1      0.244     
2562.8     322.85     0.245     
2563       312.72     0.229     
2563.2     325.39     0.217     
2563.4     328.01     0.217     
2563.6     314.54     0.218     
2563.8     301.88     0.238     
2564       297.11     0.255     
2564.2     295.66     0.257     
2564.4     294.85     0.259     
2564.6     293.42     0.259     
2564.8     284.11     0.266     
2565       278.26     0.265     
2565.2     270.26     0.246     
2565.4     260.79     0.223     
2565.6     247.85     0.213     
2565.8     226.12     0.208     
2566       202.67     0.192     
2566.2     193.63     0.194     
2566.4     194.57     0.204     
2566.6     188.71     0.194     
2566.8     168.27     0.2       
2567       143.42     0.207     
2567.2     129.84     0.188     
2567.4     148.57     0.191     
2567.6     175.06     0.203     
2567.8     181.15     0.218     
2568       173.01     0.224     
2568.2     162.93     0.217     
2568.4     155.67     0.209     
2568.6     149.2      0.208     
2568.8     144.64     0.226     
2569       147.7      0.24      
2569.2     155.82     0.245     
2569.4     164.08     0.233     
2569.6     165.52     0.217     
2569.8     165.85     0.214     
2570       170.35     0.224     
2570.2     180.4      0.222     
2570.4     189.79     0.221     
2570.6     182.15     0.22      
2570.8     153.23     0.212     
2571       140.56     0.202     
2571.2     142.24     0.198     
2571.4     139.65     0.197     
2571.6     131.96     0.189     
2571.8     121.46     0.178     
2572       116.58     0.18      
2572.2     116.85     0.182     
2572.4     116.11     0.186     
2572.6     115.63     0.18      
2572.8     122.86     0.174     
2573       130.06     0.186     
2573.2     132.57     0.2       
2573.4     130.58     0.2       
2573.6     130.99     0.196     
2573.8     135.75     0.192     
2574       136.64     0.201     
2574.2     133.71     0.21      
2574.4     134.31     0.208     
2574.6     138.05     0.204     
2574.8     143.46     0.208     
2575       143.36     0.208     
2575.2     142.66     0.208     
2575.4     139.08     0.216     
2575.6     134.01     0.212     
2575.8     129.15     0.206     
2576       125.9      0.199     
2576.2     128.32     0.205     
2576.4     133.47     0.213     
2576.6     133.84     0.196     
2576.8     129.96     0.182     
2577       124.96     0.171     
2577.2     118.14     0.172     
2577.4     116.37     0.182     
2577.6     118.91     0.184     
2577.8     125.42     0.184     
2578       132.8      0.196     
2578.2     137.88     0.206     
2578.4     139.01     0.208     
2578.6     135.32     0.212     
2578.8     130.73     0.21      
2579       123.14     0.209     
2579.2     119.11     0.207     
2579.4     124.19     0.213     
2579.6     134.02     0.22      
2579.8     146.04     0.227     
2580       155.62     0.24      
2580.2     158.58     0.251     
2580.4     157.46     0.25      
2580.6     158.47     0.235     
2580.8     161.26     0.222     
2581       167.24     0.22      
2581.2     180.81     0.224     
2581.4     188.87     0.232     
2581.6     185.59     0.244     
2581.8     180.7      0.239     
2582       169        0.224     
2582.2     162        0.231     
2582.4     164.78     0.23      
2582.6     169.13     0.234     
2582.8     174.65     0.237     
2583       182.04     0.242     
2583.2     188.3      0.244     
2583.4     179.75     0.239     
2583.6     159.89     0.22      
2583.8     147.32     0.21      
2584       144.61     0.208     
2584.2     144.15     0.208     
2584.4     136.61     0.204     
2584.6     128        0.191     
2584.8     129.21     0.18      
2585       139.58     0.184     
2585.2     152.33     0.19      
2585.4     155.14     0.201     
2585.6     150.45     0.207     
2585.8     149.11     0.206     
2586       151.61     0.191     
2586.2     148.8      0.182     
2586.4     140.6      0.181     
2586.6     137.43     0.192     
2586.8     138.71     0.203     
2587       142.24     0.204     
2587.2     141.65     0.196     
2587.4     140.39     0.196     
2587.6     140.34     0.197     
2587.8     140.87     0.201     
2588       141.24     0.208     
2588.2     140.74     0.204     
2588.4     142.4      0.194     
2588.6     142.37     0.192     
2588.8     134.94     0.189     
2589       130.75     0.188     
2589.2     133.52     0.191     
2589.4     134.92     0.19      
2589.6     135.37     0.183     
2589.8     134.04     0.188     
2590       127.33     0.191     
2590.2     124.19     0.18      
2590.4     122.09     0.16      
2590.6     112.62     0.156     
2590.8     97.81999   0.152     
2591       96.5       0.146     
2591.2     121.82     0.138     
2591.4     149.41     0.16      
2591.6     150.41     0.189     
2591.8     147.05     0.191     
2592       145.26     0.182     
2592.2     140.71     0.182     
2592.4     139.04     0.186     
2592.6     139.11     0.19      
2592.8     134.72     0.19      
2593       132.54     0.187     
2593.2     135.45     0.191     
2593.4     137.17     0.196     
2593.6     137.41     0.199     
2593.8     135.98     0.199     
2594       135.53     0.194     
2594.2     136.98     0.192     
2594.4     138.37     0.192     
2594.6     138.6      0.189     
2594.8     140.1      0.189     
2595       141.4      0.188     
2595.2     140.48     0.184     
2595.4     141.55     0.178     
2595.6     143.54     0.175     
2595.8     147.06     0.177     
2596       152.03     0.191     
2596.2     156.63     0.207     
2596.4     159.26     0.212     
2596.6     157.8      0.211     
2596.8     155.79     0.2       
2597       157.06     0.187     
2597.2     161.52     0.181     
2597.4     161.81     0.18      
2597.6     157.04     0.182     
2597.8     153.07     0.193     
2598       151.08     0.195     
2598.2     145.35     0.188     
2598.4     143.2      0.19      
2598.6     141.54     0.192     
2598.8     136.2      0.187     
2599       136.75     0.184     
2599.2     136.8      0.184     
2599.4     134.85     0.185     
2599.6     132.82     0.187     
2599.8     129.58     0.181     
2600       128.03     0.182     
2600.2     127.77     0.188     
2600.4     128.34     0.19      
2600.6     128.75     0.203     
2600.8     129.93     0.21      
2601       131.71     0.206     
2601.2     135.77     0.195     
2601.4     140.61     0.19      
2601.6     140.14     0.192     
2601.8     138.13     0.2       
2602       138.83     0.2       
2602.2     142.2      0.197     
2602.4     142.8      0.201     
2602.6     144.76     0.208     
2602.8     147.95     0.204     
2603       149.27     0.207     
2603.2     149.22     0.2       
2603.4     146.48     0.194     
2603.6     145.53     0.196     
2603.8     148.29     0.192     
2604       147.23     0.181     
2604.2     148.29     0.184     
2604.4     153.74     0.189     
2604.6     157.26     0.186     
2604.8     153.35     0.187     
2605       148.33     0.185     
2605.2     144.52     0.191     
2605.4     143.69     0.202     
2605.6     144.29     0.212     
