~Version
 VERS              .         2.0                           : CWLS LOG ASCII STANDARD - VERSION 2.0
 WRAP              .         NO                            : ONE LINE PER DEPTH STEP
 DLM               .         SPACE                         : DELIMITING CHARACTER(SPACE TAB OR COMMA)
~Well Information
#_______________________________________________________________________________
#
#PARAMETER_NAME    .UNIT     VALUE                         : DESCRIPTION
#_______________________________________________________________________________
STRT               .m        2460                          : First reference value
STOP               .m        2677                          : Last reference value
STEP               .m        0.2                           : Step increment
NULL               .         -9999                         : Missing value
COMP               .                                       : Company
WELL               .         606                           : Well name
FLD                .                                       : Field
LOC                .                                       : Location
CNTY               .                                       : County
STAT               .                                       : State
CTRY               .                                       : Country
SRVC               .                                       : Service Company
DATE               .                                       : Date
API                .                                       : API number
EREF               .m        134                           : 
X                  .m        225746                        : 
Y                  .m        235643                        : 
group              .         Pad6                          : 
Интер-р            .         Пузин                         : 
Куст               .         6                             : 
Статус             .         Не проверено                  : 
Тип                .         Нагнетательные                : 
~Parameter Information Block
#_______________________________________________________________________________
#
#PARAMETER_NAME    .UNIT     VALUE                         : DESCRIPTION
#_______________________________________________________________________________
SET                .         LAS1                          : 
REAL_CREATION_DATE .         Ср апр 11 2012-13_17_24       : 
TLFamily_DEPTH     .         Measured Depth                : 
TLFamily_KS        .         Potential Resistivity         : 
TLFamily_KS1       .         Extra Shallow Resistivity     : 
TLFamily_KS2       .         Shallow Resistivity           : 
TLFamily_KS3       .         Medium Resistivity            : 
TLFamily_KS4       .         Deep Resistivity              : 
TLFamily_KS5       .         Extra Deep Resistivity        : 
TLFamily_LLD       .         Lateral Log Resistivity       : 
TLFamily_OKS3      .         Medium Resistivity Inverted   : 
TLFamily_RM        .         Mud Resistivity               : 
TLFamily_SP        .         Spontaneous Potential         : 
group              .         INI                           : 
~Curve Information
#_______________________________________________________________________________
#
#LOGNAME           .UNIT     LOG_ID                        : DESCRIPTION
#_______________________________________________________________________________
DEPTH              .m                                      : Measured Depth 
KS                 .ohm.m                                  : Potential Resistivity 
KS1                .ohm.m                                  : Extra Shallow Resistivity 
KS2                .ohm.m                                  : Shallow Resistivity 
KS3                .ohm.m                                  : Medium Resistivity 
KS4                .ohm.m                                  : Deep Resistivity 
KS5                .ohm.m                                  : Extra Deep Resistivity 
LLD                .ohm.m                                  : Lateral Log Resistivity 
OKS3               .ohm.m                                  : Medium Resistivity Inverted 
RM                 .ohm.m                                  : Mud Resistivity 
SP                 .mV                                     : Spontaneous Potential 
~Ascii
# ...
2661       5.4805     2.0699     6.3336     10.1987    8.4278     2.6665     3.5856     11.5503    0.407      47.4185   
2661.2     5.2324     2.0208     5.4671     9.0503     7.6454     2.5351     3.1932     11.5503    0.402      49.8203   
2661.4     5.1653     2.0024     5.1268     8.2817     7.1069     2.5204     3.2003     11.5503    0.394      66.4886   
2661.6     5.1626     1.9118     5.0491     7.6631     6.7931     2.6158     3.546      11.5503    0.385      64.5757   
2661.8     5.0902     1.9118     5.0478     7.1269     6.6828     2.8046     3.5566     11.5503    0.383      77.2471   
2662       5.0035     1.9118     4.8611     6.819      6.8917     3.0879     3.7696     11.5503    0.377      57.0447   
2662.2     5.0035     1.9118     4.5511     6.8497     7.3599     3.5047     4.6461     11.5503    0.377      45.4885   
2662.4     5.0035     1.9118     4.4644     7.0074     7.9246     4.0799     5.4282     11.5503    0.382      45.4336   
2662.6     5.0035     1.9118     4.4687     7.1357     8.5234     4.8097     6.2883     11.5503    0.377      56.9      
2662.8     5.0035     1.9118     4.4644     7.1877     9.2281     5.6378     6.3972     11.5503    0.377      73.2313   
2663       5.0035     1.9118     4.4666     7.1891     10.2507    6.5458     6.8317     11.5503    0.38       49.8257   
2663.2     5.0035     1.9118     4.4671     7.2653     11.1181    7.4871     8.1252     11.5503    0.377      37.4177   
2663.4     5.0035     1.9118     4.4644     7.4777     11.5329    8.3757     11.0341    0          0.381      37.7469   
2663.6     5.0035     1.9118     4.5064     7.5658     11.3593    9.1969     11.4345    0          0.381      36.8118   
2663.8     5.0035     1.9118     4.4705     7.5658     11.2265    10.068     8.1854     0          0.377      37.1607   
2664       5.0035     1.9118     4.5168     7.5658     11.3305    11.2524    6.3526     0          0.377      37.5592   
2664.2     5.0035     1.9118     4.5082     7.5658     11.8814    12.8643    7.517      0          0.379      38.3056   
2664.4     5.0035     1.9118     4.4818     7.5658     12.9106    14.7526    8.1514     0          0.377      35.4718   
2664.6     5.0035     1.9118     4.5176     7.5658     14.2389    16.3969    7.8928     0          0.382      33.864    
2664.8     5.0035     1.9118     4.4845     7.5658     14.7135    17.2369    9.0413     0          0.377      33.8069   
2665       5.0035     1.9118     4.5176     7.5658     14.7502    17.148     9.1662     0          0.377      34.7502   
2665.2     5.0035     1.9118     4.5131     7.5658     15.0795    16.295     10.4498    0          0.377      33.8107   
2665.4     5.0035     1.9118     4.5176     7.5658     15.5102    14.7858    8.9518     0          0.377      34.2422   
2665.6     5.0035     1.9118     4.5176     7.5658     15.5492    13.1788    5.9036     0          0.378      34.216    
2665.8     5.0035     1.9118     4.5176     7.5419     15.5492    11.8763    4.6785     0          0.377      34.2216   
2666       5.0035     1.7206     4.5176     7.5658     15.5492    11.0172    7.2675     0          0.381      40.2975   
2666.2     5.0035     0          4.5176     7.5658     15.5492    10.2922    11.436     0          0.113      39.9768   
2666.4     4.0028     0          4.5176     7.5574     15.5492    9.4953     11.9519    0          0          35.6716   
2666.6     0          0          4.0658     7.5277     15.5492    8.6144     7.1323     0          0          36.6236   
2666.8     0          0          0          7.5658     15.5492    7.7464     4.5114     0          0          43.1812   
2667       0          0          0          7.5605     15.5492    7.0138     4.2024     0          0          54.3341   
2667.2     0          0          0          7.5658     15.5492    6.456      4.1676     0          0          55.8854   
2667.4     0          0          0          7.5658     15.5492    6.0136     4.2946     0          0          49.3542   
2667.6     0          0          0          7.5636     15.5492    5.7454     4.4881     0          0          49.638    
2667.8     0          0          0          6.8092     15.5492    5.61       4.6368     0          0          49.1957   
2668       0          0          0          0          15.5492    5.6166     4.7104     0          0          49.6934   
2668.2     0          0          0          0          15.5492    5.7153     4.5608     0          0          49.074    
2668.4     0          0          0          0          15.5492    6.0256     4.4132     0          0          48.864    
2668.6     0          0          0          0          15.5492    6.4266     4.2169     0          0          47.696    
2668.8     0          0          0          0          15.5492    6.9167     3.9431     0          0          46.3941   
2669       0          0          0          0          15.5492    7.1898     3.9051     0          0          47.2789   
2669.2     0          0          0          0          15.5492    7.2033     5.9536     0          0          46.6197   
2669.4     0          0          0          0          15.5492    7.2487     8.7374     0          0          47.0295   
2669.6     0          0          0          0          15.5492    7.3647     9.1284     0          0          46.0676   
2669.8     0          0          0          0          13.9943    7.4186     13.2357    0          0          45.5661   
2670       0          0          0          0          0          7.4186     15.6327    0          0          46.6592   
2670.2     0          0          0          0          0          7.4186     9.9472     0          0          45.2835   
2670.4     0          0          0          0          0          7.4186     8.8316     0          0          45.0075   
2670.6     0          0          0          0          0          7.4096     9.9738     0          0          43.6179   
2670.8     0          0          0          0          0          7.4186     9.9709     0          0          44.1849   
2671       0          0          0          0          0          7.4186     8.9158     0          0          42.7371   
2671.2     0          0          0          0          0          7.4186     8.609      0          0          43.8065   
2671.4     0          0          0          0          0          7.4186     9.5506     0          0          44.0904   
2671.6     0          0          0          0          0          7.4186     10.5394    0          0          43.9632   
2671.8     0          0          0          0          0          7.4186     10.6556    0          0          -9999     
2672       0          0          0          0          0          7.4186     10.3072    0          0          -9999     
2672.2     0          0          0          0          0          7.4186     10.8245    0          0          -9999     
2672.4     0          0          0          0          0          7.4186     7.3434     0          0          -9999     
2672.6     0          0          0          0          0          7.4186     8.9141     0          0          -9999     
2672.8     0          0          0          0          0          7.4186     38.0945    0          0          -9999     
2673       0          0          0          0          0          7.4186     35.9953    0          0          -9999     
2673.2     0          0          0          0          0          7.4186     9.417      0          0          -9999     
2673.4     0          0          0          0          0          7.3974     6.5039     0          0          -9999     
2673.6     0          0          0          0          0          7.4186     6.4394     0          0          -9999     
2673.8     0          0          0          0          0          7.4186     5.7665     0          0          -9999     
2674       0          0          0          0          0          7.4186     5.5233     0          0          -9999     
2674.2     0          0          0          0          0          0          5.4319     0          0          -9999     
