~Version
 VERS              .         2.0                           : CWLS LOG ASCII STANDARD - VERSION 2.0
 WRAP              .         NO                            : ONE LINE PER DEPTH STEP
 DLM               .         SPACE                         : DELIMITING CHARACTER(SPACE TAB OR COMMA)
~Well Information
#_______________________________________________________________________________
#
#PARAMETER_NAME    .UNIT     VALUE                         : DESCRIPTION
#_______________________________________________________________________________
STRT               .m        2460                          : First reference value
STOP               .m        2678                          : Last reference value
STEP               .m        0.2                           : Step increment
NULL               .         -9999                         : Missing value
COMP               .                                       : Company
WELL               .         606                           : Well name
FLD                .                                       : Field
LOC                .                                       : Location
CNTY               .                                       : County
STAT               .                                       : State
CTRY               .                                       : Country
SRVC               .                                       : Service Company
DATE               .                                       : Date
API                .                                       : API number
EREF               .m        134                           : 
X                  .m        225746                        : 
Y                  .m        235643                        : 
group              .         Pad6                          : 
Интер-р            .         Пузин                         : 
Куст               .         6                             : 
Статус             .         Не проверено                  : 
Тип                .         Нагнетательные                : 
~Parameter Information Block
#_______________________________________________________________________________
#
#PARAMETER_NAME    .UNIT     VALUE                         : DESCRIPTION
#_______________________________________________________________________________
SET                .         LAS3                          : 
REAL_CREATION_DATE .         Ср апр 11 2012-13_17_24       : 
TLFamily_DEPTH     .         Measured Depth                : 
TLFamily_GR        .         Gamma Ray                     : 
TLFamily_TNPH      .         Neutron Porosity              : 
group              .         INI                           : 
~Curve Information
#_______________________________________________________________________________
#
#LOGNAME           .UNIT     LOG_ID                        : DESCRIPTION
#_______________________________________________________________________________
DEPTH              .m                                      : Measured Depth 
GR                 .gAPI                                   :  
TNPH               .v/v                                    : Neutron Porosity 
~Ascii
# ...
2508.6     62.53      0.131     
2508.8     62.44      0.142     
2509       67.5       0.142     
2509.2     75.06      0.146     
2509.4     80.02      0.153     
2509.6     78.31001   0.154     
2509.8     80.74001   0.149     
2510       84.99      0.149     
2510.2     89.73      0.156     
2510.4     93.37      0.167     
2510.6     92.79      0.162     
2510.8     84.71      0.157     
2511       69.94      0.151     
2511.2     59.03      0.133     
2511.4     53.63      0.113     
2511.6     51.16      0.103     
2511.8     53.25      0.099     
2512       55.23      0.097     
2512.2     56.37      0.114     
2512.4     57.27      0.128     
2512.6     57.67      0.137     
2512.8     65.55      0.156     
2513       73.19      0.173     
2513.2     76.89999   0.174     
2513.4     81.08      0.167     
2513.6     82.01      0.161     
2513.8     83.57001   0.158     
2514       86.28999   0.149     
2514.2     92.39999   0.149     
2514.4     102.17     0.153     
2514.6     111.49     0.15      
2514.8     115.19     0.147     
2515       111.37     0.146     
2515.2     107.98     0.154     
2515.4     106.95     0.161     
2515.6     104.6      0.151     
2515.8     100.53     0.145     
2516       99.86      0.146     
2516.2     103.51     0.151     
2516.4     100.25     0.153     
2516.6     91.89999   0.148     
2516.8     83.41      0.139     
2517       83.72      0.132     
2517.2     89.72      0.133     
2517.4     94.31      0.139     
2517.6     90.88      0.149     
2517.8     82.67      0.152     
2518       81.25      0.153     
2518.2     84.15      0.153     
2518.4     85.39      0.152     
2518.6     88.8       0.154     
2518.8     89.86      0.159     
2519       83.55      0.155     
2519.2     74.86      0.151     
2519.4     70.03      0.145     
2519.6     70.74001   0.146     
2519.8     71.13      0.144     
2520       69.99      0.14      
2520.2     66.99001   0.129     
2520.4     61.33      0.123     
2520.6     55.46      0.121     
2520.8     53.48      0.118     
2521       54.72      0.123     
2521.2     57.83      0.136     
2521.4     62.37      0.14      
2521.6     63.68      0.149     
2521.8     63.96      0.149     
2522       66.38      0.144     
2522.2     72.28      0.147     
2522.4     76.27      0.146     
2522.6     77.32001   0.14      
2522.8     81.13      0.136     
2523       88.35      0.131     
2523.2     94.39999   0.137     
2523.4     92.73      0.15      
2523.6     84.04      0.156     
2523.8     79.06999   0.161     
2524       83.24001   0.158     
2524.2     94.52      0.159     
2524.4     103.49     0.156     
2524.6     103.39     0.159     
2524.8     101.03     0.161     
2525       101.55     0.157     
2525.2     103.2      0.16      
2525.4     103.63     0.163     
2525.6     104.51     0.16      
2525.8     102.63     0.155     
2526       102.01     0.149     
2526.2     106.57     0.15      
2526.4     110.35     0.145     
2526.6     112.01     0.142     
2526.8     114.53     0.154     
2527       113.09     0.162     
2527.2     109.51     0.158     
2527.4     106.56     0.155     
2527.6     98.6       0.147     
2527.8     82.75      0.142     
2528       74.18999   0.132     
2528.2     73.31001   0.128     
2528.4     71.87      0.134     
2528.6     76.05      0.145     
2528.8     84.25999   0.147     
2529       91.99001   0.152     
2529.2     98.84      0.16      
2529.4     106.48     0.169     
2529.6     112.2      0.168     
2529.8     116.38     0.167     
2530       113.53     0.162     
2530.2     105.74     0.156     
2530.4     103.9      0.146     
2530.6     104.63     0.145     
2530.8     100.35     0.148     
2531       99.68001   0.145     
2531.2     104.8      0.142     
2531.4     99.5       0.144     
2531.6     89.74      0.149     
2531.8     81.2       0.146     
2532       75.26      0.134     
2532.2     72.5       0.128     
2532.4     70.68      0.125     
2532.6     67.78      0.127     
2532.8     64.44      0.123     
2533       60.73      0.117     
2533.2     56.04      0.111     
2533.4     50.95      0.11      
2533.6     47.52      0.108     
2533.8     46.34      0.111     
2534       47.92      0.115     
2534.2     53.69      0.122     
2534.4     59.8       0.126     
2534.6     62.64      0.132     
2534.8     73.26      0.144     
2535       77.64      0.148     
2535.2     78.46      0.141     
2535.4     82.93999   0.136     
2535.6     87.60001   0.14      
2535.8     93.58      0.143     
2536       94.41      0.15      
2536.2     90.26      0.149     
2536.4     84.58      0.147     
2536.6     77.73      0.139     
2536.8     75.27      0.131     
2537       80.4       0.133     
2537.2     92.27      0.141     
2537.4     106.45     0.148     
2537.6     112.73     0.148     
2537.8     98.88      0.147     
2538       95.76      0.149     
2538.2     101.67     0.155     
2538.4     112.48     0.165     
2538.6     116.58     0.162     
2538.8     123.2      0.159     
2539       127.84     0.161     
2539.2     126.44     0.158     
2539.4     122.66     0.157     
2539.6     119.31     0.158     
2539.8     120.93     0.163     
2540       123.14     0.164     
2540.2     122.55     0.168     
2540.4     124.27     0.173     
2540.6     128.61     0.171     
2540.8     133.09     0.17      
2541       133.36     0.165     
2541.2     131.46     0.161     
2541.4     130.89     0.161     
2541.6     133.55     0.163     
2541.8     136.48     0.167     
2542       132.1      0.17      
2542.2     126.64     0.174     
2542.4     120.95     0.17      
2542.6     111.16     0.162     
2542.8     112.44     0.159     
2543       119.35     0.162     
2543.2     119.26     0.164     
2543.4     120.71     0.165     
2543.6     124.2      0.159     
2543.8     124.65     0.16      
2544       123.98     0.164     
2544.2     120.76     0.168     
2544.4     119.73     0.168     
2544.6     122.22     0.172     
2544.8     125.72     0.171     
2545       128.6      0.181     
2545.2     133.92     0.192     
2545.4     142.53     0.189     
2545.6     152.55     0.193     
2545.8     159.01     0.204     
2546       159.18     0.207     
2546.2     164.46     0.201     
2546.4     163.87     0.189     
2546.6     158.77     0.18      
2546.8     151.39     0.174     
2547       147.5      0.175     
2547.2     140.9      0.179     
2547.4     136.3      0.18      
2547.6     140.84     0.184     
2547.8     146.01     0.179     
2548       140.5      0.172     
2548.2     135.41     0.167     
2548.4     133.42     0.165     
2548.6     131.84     0.164     
2548.8     139.3      0.166     
2549       148.87     0.169     
2549.2     157.78     0.186     
2549.4     171.52     0.191     
2549.6     194.66     0.184     
2549.8     218.06     0.19      
2550       215.46     0.209     
2550.2     202.42     0.223     
2550.4     204.45     0.226     
2550.6     211.45     0.216     
2550.8     219.35     0.199     
2551       226.44     0.201     
2551.2     236.44     0.209     
2551.4     243.01     0.208     
2551.6     234.16     0.202     
2551.8     226.4      0.201     
2552       224.45     0.2       
2552.2     219.19     0.208     
2552.4     215.12     0.222     
2552.6     219.86     0.227     
2552.8     223.39     0.232     
2553       225.81     0.231     
2553.2     238.09     0.224     
2553.4     257.56     0.225     
2553.6     270.05     0.228     
2553.8     274.55     0.221     
2554       275.32     0.213     
2554.2     274.59     0.22      
2554.4     275.21     0.235     
2554.6     269.89     0.231     
2554.8     260.91     0.213     
2555       255.03     0.205     
2555.2     245.07     0.202     
2555.4     232.97     0.195     
2555.6     221.79     0.183     
2555.8     205.66     0.187     
2556       196.25     0.195     
2556.2     196.32     0.198     
2556.4     200.5      0.196     
2556.6     208.93     0.188     
2556.8     230.01     0.191     
2557       255.3      0.199     
