~Version
 VERS              .         2.0                           : CWLS LOG ASCII STANDARD - VERSION 2.0
 WRAP              .         NO                            : ONE LINE PER DEPTH STEP
 DLM               .         SPACE                         : DELIMITING CHARACTER(SPACE TAB OR COMMA)
~Well Information
#_______________________________________________________________________________
#
#PARAMETER_NAME    .UNIT     VALUE                         : DESCRIPTION
#_______________________________________________________________________________
STRT               .m        2698.3                        : First reference value
STOP               .m        2869.499914                   : Last reference value
STEP               .m        0.1999999                     : Step increment
NULL               .         -9999                         : Missing value
COMP               .                                       : Company
WELL               .         700                           : Well name
FLD                .                                       : Field
LOC                .                                       : Location
CNTY               .                                       : County
STAT               .                                       : State
CTRY               .                                       : Country
SRVC               .                                       : Service Company
DATE               .                                       : Date
API                .                                       : API number
EREF               .m        141.23                        : 
X                  .m        221071                        : 
Y                  .m        253934                        : 
group              .         Pad7                          : 
Интер-р            .         Зайцев                        : 
Куст               .         7                             : 
Статус             .         Не проверено                  : 
Тип                .         Нагнетательные                : 
~Parameter Information Block
#_______________________________________________________________________________
#
#PARAMETER_NAME    .UNIT     VALUE                         : DESCRIPTION
#_______________________________________________________________________________
SET                .         LAS3                          : 
REAL_CREATION_DATE .         Ср апр 11 2012-13_17_25       : 
TLFamily_DEPTH     .         Measured Depth                : 
TLFamily_GR        .         Gamma Ray                     : 
TLFamily_TNPH      .         Neutron Porosity              : 
group              .         INI                           : 
~Curve Information
#_______________________________________________________________________________
#
#LOGNAME           .UNIT     LOG_ID                        : DESCRIPTION
#_______________________________________________________________________________
DEPTH              .m                                      : Measured Depth 
GR                 .gAPI                                   :  
TNPH               .v/v                                    : Neutron Porosity 
~Ascii
# ...
2745.499976 71.614     0.196018  
2745.699976 73.067     0.195227  
2745.899976 74.069     0.19852   
2746.099976 70.36      0.19525   
2746.299976 70.77      0.198646  
2746.499976 74.626     0.205805  
2746.699976 74.095     0.199824  
2746.899976 65.86501   0.187519  
2747.099976 57.702     0.176373  
2747.299976 49.278     0.161491  
2747.499975 48.984     0.159662  
2747.699975 70.752     0.176747  
2747.899975 94.49799   0.212794  
2748.099975 115.147    0.23714   
2748.299975 125.004    0.232341  
2748.499975 130.436    0.226446  
2748.699975 127.688    0.231184  
2748.899975 125.005    0.239356  
2749.099975 128.3      0.239888  
2749.299975 129.769    0.235009  
2749.499974 130.864    0.229125  
2749.699974 132.543    0.230699  
2749.899974 131.156    0.23138   
2750.099974 131.859    0.235489  
2750.299974 132.922    0.242275  
2750.499974 133.568    0.243729  
2750.699974 129.845    0.249214  
2750.899974 127.284    0.24657   
2751.099974 126.577    0.24874   
2751.299974 124.762    0.243983  
2751.499973 119.468    0.240039  
2751.699973 102.816    0.236221  
2751.899973 98.098     0.237102  
2752.099973 100.219    0.241354  
2752.299973 101.786    0.23242   
2752.499973 105.714    0.230958  
2752.699973 113.526    0.229741  
2752.899973 118.027    0.229104  
2753.099973 131.465    0.237117  
2753.299972 142.022    0.24837   
2753.499972 149.113    0.255999  
2753.699972 153.06     0.267432  
2753.899972 153.81     0.270885  
2754.099972 154.771    0.265486  
2754.299972 151.626    0.254172  
2754.499972 149.464    0.246386  
2754.699972 142.599    0.254687  
2754.899972 137.64     0.259888  
2755.099972 136.338    0.244443  
2755.299972 135.408    0.241958  
2755.499971 135.651    0.249651  
2755.699971 134.661    0.252615  
2755.899971 128.959    0.256076  
2756.099971 120.938    0.268954  
2756.299971 119.641    0.271693  
2756.499971 126.178    0.261057  
2756.699971 129.767    0.253811  
2756.899971 131.02     0.249114  
2757.099971 133.596    0.242581  
2757.299971 141.497    0.238042  
2757.49997 150.387    0.231403  
2757.69997 163.918    0.24561   
2757.89997 175.065    0.256348  
2758.09997 199.979    0.258986  
2758.29997 224.434    0.254915  
2758.49997 225.453    0.263935  
2758.69997 216.1      0.274889  
2758.89997 212.199    0.268546  
2759.09997 212.81     0.253891  
2759.29997 223.93     0.243947  
2759.499969 237.064    0.246679  
2759.699969 241.12     0.277702  
2759.899969 227.91     0.289774  
2760.099969 216.432    0.284914  
2760.299969 210.945    0.287795  
2760.499969 211.967    0.286528  
2760.699969 225.001    0.284906  
2760.899969 247.348    0.287298  
2761.099969 258.516    0.297293  
2761.299968 272.313    0.30634   
2761.499968 279.911    0.299691  
2761.699968 275.697    0.294199  
2761.899968 254.856    0.287067  
2762.099968 241.011    0.271038  
2762.299968 222.759    0.261666  
2762.499968 207.992    0.263944  
2762.699968 196.906    0.272239  
2762.899968 190.894    0.274468  
2763.099968 190.567    0.274835  
2763.299968 194.543    0.267498  
2763.499967 211.537    0.250702  
2763.699967 226.826    0.247736  
2763.899967 250.989    0.254729  
2764.099967 268.44     0.272933  
2764.299967 281.591    0.271423  
2764.499967 307.727    0.274946  
2764.699967 337.323    0.292788  
2764.899967 361.235    0.30202   
2765.099967 364.246    0.295252  
2765.299967 359.208    0.285167  
2765.499966 356.652    0.2907    
2765.699966 361.704    0.291156  
2765.899966 370.002    0.279973  
2766.099966 378.965    0.294428  
2766.299966 394.104    0.315551  
2766.499966 407.881    0.314381  
2766.699966 407.781    0.311273  
2766.899966 416.2      0.312604  
2767.099966 431.013    0.316109  
2767.299966 436.135    0.305304  
2767.499965 425.486    0.299599  
2767.699965 407.548    0.291638  
2767.899965 385.78     0.290028  
2768.099965 373.902    0.30337   
2768.299965 355.188    0.295663  
2768.499965 330.48     0.271745  
2768.699965 326.171    0.278613  
2768.899965 340.625    0.301114  
2769.099965 356.921    0.317307  
2769.299964 366.013    0.328157  
2769.499964 372.239    0.336423  
2769.699964 378.452    0.341178  
2769.899964 380.839    0.332077  
2770.099964 378.644    0.314465  
2770.299964 372.092    0.326885  
2770.499964 352.635    0.326638  
2770.699964 347.723    0.30808   
2770.899964 341.86     0.309477  
2771.099964 337.195    0.308382  
2771.299964 333.447    0.317847  
2771.499963 327.823    0.330291  
2771.699963 316.866    0.321678  
2771.899963 290.469    0.298515  
2772.099963 269.219    0.281498  
2772.299963 249.652    0.281137  
2772.499963 242.327    0.276636  
2772.699963 243.463    0.278045  
2772.899963 239.711    0.283183  
2773.099963 234.39     0.285532  
2773.299963 224.683    0.294517  
2773.499962 216.136    0.309759  
2773.699962 200.135    0.334877  
2773.899962 176.964    0.335725  
2774.099962 164.795    0.301997  
2774.299962 156.597    0.29427   
2774.499962 155.983    0.286955  
2774.699962 162.416    0.273688  
2774.899962 166.927    0.263757  
2775.099962 170.913    0.258877  
2775.299962 176.45     0.264507  
2775.499961 178.997    0.276873  
2775.699961 181.578    0.277544  
2775.899961 184.096    0.272378  
2776.099961 177.85     0.273926  
2776.299961 155.608    0.276641  
2776.499961 142.632    0.272484  
2776.699961 137.522    0.278093  
2776.899961 129.63     0.286885  
2777.099961 126.834    0.28721   
2777.29996 122.663    0.288782  
2777.49996 119.223    0.297693  
2777.69996 118.558    0.288589  
2777.89996 120.293    0.271111  
2778.09996 120.615    0.252329  
2778.29996 123.786    0.252263  
2778.49996 129.242    0.257002  
2778.69996 134.792    0.246921  
2778.89996 131.951    0.24193   
2779.09996 130.315    0.261582  
2779.29996 134.236    0.283256  
2779.499959 139.194    0.285185  
2779.699959 143.356    0.284315  
2779.899959 141.295    0.272881  
2780.099959 136.987    0.264802  
2780.299959 137.639    0.260262  
2780.499959 140.755    0.273228  
2780.699959 145.626    0.274027  
2780.899959 148.723    0.277033  
2781.099959 149.399    0.295265  
2781.299959 149.259    0.303887  
2781.499958 147.265    0.298658  
2781.699958 144.466    0.288393  
2781.899958 142.638    0.287643  
2782.099958 139.737    0.297052  
2782.299958 135.254    0.275192  
2782.499958 127.59     0.258906  
2782.699958 129.379    0.256459  
2782.899958 136.586    0.263281  
2783.099958 142.417    0.278893  
2783.299958 149.382    0.281129  
2783.499957 144.876    0.272167  
2783.699957 127.2      0.263158  
2783.899957 116.347    0.255477  
2784.099957 110.471    0.254962  
2784.299957 111.299    0.254437  
2784.499957 117.438    0.268429  
2784.699957 130.453    0.2744    
2784.899957 135.132    0.291753  
2785.099957 133.09     0.313807  
2785.299957 130.788    0.323943  
2785.499956 120.863    0.325201  
2785.699956 115.027    0.306741  
2785.899956 119.667    0.29382   
2786.099956 135.907    0.302701  
2786.299956 161.755    0.337224  
2786.499956 189.411    0.348211  
2786.699956 208.461    0.351693  
2786.899956 222.303    0.350846  
2787.099956 224.877    0.338728  
2787.299956 217.723    0.328484  
2787.499955 214.799    0.33933   
2787.699955 222.629    0.344819  
2787.899955 228.053    0.331723  
2788.099955 233.825    0.316523  
2788.299955 223.709    0.311958  
2788.499955 215.425    0.30386   
2788.699955 219.68     0.305048  
2788.899955 228.065    0.316601  
2789.099955 209.91     0.316236  
2789.299955 177.231    0.310486  
2789.499954 146.724    0.325281  
2789.699954 137.636    0.321678  
2789.899954 137.553    0.295341  
2790.099954 135.15     0.284068  
2790.299954 129.779    0.28768   
2790.499954 127.332    0.280738  
2790.699954 129.761    0.270716  
2790.899954 128.774    0.26013   
2791.099954 127.49     0.255579  
2791.299954 128.638    0.259195  
2791.499953 128.775    0.257342  
2791.699953 132.405    0.249831  
2791.899953 145.52     0.254588  
2792.099953 155.37     0.263302  
2792.299953 160.002    0.267392  
2792.499953 163.861    0.264509  
