~Version
 VERS              .         2.0                           : CWLS LOG ASCII STANDARD - VERSION 2.0
 WRAP              .         NO                            : ONE LINE PER DEPTH STEP
 DLM               .         SPACE                         : DELIMITING CHARACTER(SPACE TAB OR COMMA)
~Well Information
#_______________________________________________________________________________
#
#PARAMETER_NAME    .UNIT     VALUE                         : DESCRIPTION
#_______________________________________________________________________________
STRT               .m        2698.3                        : First reference value
STOP               .m        2869.499914                   : Last reference value
STEP               .m        0.1999999                     : Step increment
NULL               .         -9999                         : Missing value
COMP               .                                       : Company
WELL               .         700                           : Well name
FLD                .                                       : Field
LOC                .                                       : Location
CNTY               .                                       : County
STAT               .                                       : State
CTRY               .                                       : Country
SRVC               .                                       : Service Company
DATE               .                                       : Date
API                .                                       : API number
EREF               .m        141.23                        : 
X                  .m        221071                        : 
Y                  .m        253934                        : 
group              .         Pad7                          : 
Интер-р            .         Зайцев                        : 
Куст               .         7                             : 
Статус             .         Не проверено                  : 
Тип                .         Нагнетательные                : 
~Parameter Information Block
#_______________________________________________________________________________
#
#PARAMETER_NAME    .UNIT     VALUE                         : DESCRIPTION
#_______________________________________________________________________________
SET                .         LAS3                          : 
REAL_CREATION_DATE .         Ср апр 11 2012-13_17_25       : 
TLFamily_DEPTH     .         Measured Depth                : 
TLFamily_GR        .         Gamma Ray                     : 
TLFamily_TNPH      .         Neutron Porosity              : 
group              .         INI                           : 
~Curve Information
#_______________________________________________________________________________
#
#LOGNAME           .UNIT     LOG_ID                        : DESCRIPTION
#_______________________________________________________________________________
DEPTH              .m                                      : Measured Depth 
GR                 .gAPI                                   :  
TNPH               .v/v                                    : Neutron Porosity 
~Ascii
# ...
2792.699953 161.919    0.269316  
2792.899953 149.639    0.274629  
2793.099953 137.922    0.277448  
2793.299953 137.381    0.272965  
2793.499952 142.28     0.278838  
2793.699952 147.766    0.296238  
2793.899952 152.188    0.283675  
2794.099952 156.374    0.280601  
2794.299952 155.764    0.284993  
2794.499952 147.179    0.291174  
2794.699952 138.774    0.296351  
2794.899952 134.804    0.304261  
2795.099952 132.914    0.302257  
2795.299952 133.639    0.29564   
2795.499951 137.723    0.283539  
2795.699951 143.984    0.273851  
2795.899951 148.627    0.258972  
2796.099951 151.66     0.260739  
2796.299951 148.079    0.267472  
2796.499951 147.522    0.279775  
2796.699951 148.6      0.294707  
2796.899951 149.298    0.29238   
2797.099951 145.051    0.293251  
2797.299951 141.833    0.292149  
2797.49995 136.2      0.280593  
2797.69995 127.755    0.258361  
2797.89995 111.299    0.251173  
2798.09995 96.102     0.256077  
2798.29995 105.005    0.245492  
2798.49995 132.775    0.241109  
2798.69995 151.04     0.258661  
2798.89995 156.142    0.279625  
2799.09995 153.173    0.276515  
2799.29995 149.856    0.279107  
2799.499949 148.643    0.289493  
2799.699949 150.215    0.290173  
2799.899949 150.433    0.290766  
2800.099949 145.444    0.295758  
2800.299949 142.126    0.309586  
2800.499949 138.859    0.308502  
2800.699949 137.144    0.297621  
2800.899949 137.628    0.292609  
2801.099949 137.206    0.284917  
2801.299949 136.732    0.288289  
2801.499948 137.062    0.287689  
2801.699948 138.742    0.266441  
2801.899948 139.372    0.261396  
2802.099948 139.552    0.264141  
2802.299948 135.298    0.269613  
2802.499948 135.433    0.269832  
2802.699948 135.263    0.281981  
2802.899948 135.01     0.281707  
2803.099948 135.248    0.286208  
2803.299948 136.464    0.2838    
2803.499947 141.437    0.280222  
2803.699947 146.508    0.274473  
2803.899947 145.154    0.288671  
2804.099947 140.811    0.288846  
2804.299947 139.032    0.27173   
2804.499947 140.096    0.269729  
2804.699947 138.35     0.270254  
2804.899947 132.068    0.260765  
2805.099947 118.76     0.240771  
2805.299947 111.092    0.192972  
2805.499946 127.027    0.189474  
2805.699946 152.117    0.186401  
2805.899946 145.136    0.18214   
2806.099946 99.759     0.172695  
2806.299946 74.23801   0.160598  
2806.499946 64.326     0.166658  
2806.699946 62.027     0.175206  
2806.899946 60.217     0.186451  
2807.099946 59.059     0.189277  
2807.299946 58.711     0.186304  
2807.499945 59.898     0.178012  
2807.699945 59.791     0.179364  
2807.899945 59.673     0.190408  
2808.099945 59.023     0.198763  
2808.299945 59.802     0.203242  
2808.499945 60.501     0.204645  
2808.699945 60.241     0.207785  
2808.899945 59.189     0.209657  
2809.099945 58.221     0.208758  
2809.299945 56.512     0.215369  
2809.499944 57.42      0.218109  
2809.699944 59.08      0.216639  
2809.899944 63.295     0.215023  
2810.099944 67.123     0.219483  
2810.299944 67.238     0.219877  
2810.499944 66.241     0.209305  
2810.699944 65.381     0.20769   
2810.899944 63.512     0.208704  
2811.099944 62.666     0.207493  
2811.299944 60.944     0.213749  
2811.499943 62.415     0.228065  
2811.699943 61.895     0.227149  
2811.899943 60.714     0.220663  
2812.099943 62.087     0.2154    
2812.299943 63.482     0.215935  
2812.499943 60.54401   0.214874  
2812.699943 58.514     0.212144  
2812.899943 56.513     0.222882  
2813.099943 56.179     0.218673  
2813.299943 58.158     0.207504  
2813.499942 59.123     0.221308  
2813.699942 58.118     0.219931  
2813.899942 57.813     0.216464  
2814.099942 55.618     0.222573  
2814.299942 52.76      0.224199  
2814.499942 50.141     0.218752  
2814.699942 49.83      0.222778  
2814.899942 50.841     0.22223   
2815.099942 53.143     0.224568  
2815.299942 56.641     0.220459  
2815.499941 58.208     0.21863   
2815.699941 57.499     0.211478  
2815.899941 56.793     0.200314  
2816.099941 56.024     0.198132  
2816.299941 54.556     0.194444  
2816.499941 51.436     0.195614  
2816.699941 52.449     0.18954   
2816.899941 50.793     0.185032  
2817.099941 50.973     0.178731  
2817.299941 52         0.168758  
2817.49994 53.193     0.163022  
2817.69994 55.365     0.169828  
2817.89994 59.039     0.185981  
2818.09994 61.522     0.198778  
2818.29994 64.614     0.203438  
2818.49994 69.593     0.197658  
2818.69994 70.022     0.197773  
2818.89994 69.112     0.201502  
2819.09994 67.678     0.206485  
2819.29994 69.94701   0.222713  
2819.499939 70.318     0.228575  
2819.699939 69.821     0.222034  
2819.899939 69.993     0.218195  
2820.099939 70.764     0.218432  
2820.299939 71.40601   0.221037  
2820.499939 73.984     0.228909  
2820.699939 76.343     0.228114  
2820.899939 75.383     0.217027  
2821.099939 73.297     0.20254   
2821.299939 81.17      0.219257  
2821.499938 95.487     0.246909  
2821.699938 104.163    0.265661  
2821.899938 107.735    0.265971  
2822.099938 110.327    0.270421  
2822.299938 114.262    0.279467  
2822.499938 123.481    0.302571  
2822.699938 138.101    0.323092  
2822.899938 134.435    0.313426  
2823.099938 130.425    0.321249  
2823.299938 127.846    0.322684  
2823.499937 120.361    0.307037  
2823.699937 102.922    0.273347  
2823.899937 94.394     0.264454  
2824.099937 91.729     0.266264  
2824.299937 89.149     0.261188  
2824.499937 80.965     0.234276  
2824.699937 75.634     0.215434  
2824.899937 80.313     0.231045  
2825.099937 87.69901   0.242191  
2825.299937 95.071     0.246235  
2825.499936 101.271    0.258153  
2825.699936 101.077    0.27564   
2825.899936 98.55099   0.281871  
2826.099936 100.991    0.289305  
2826.299936 105.04     0.311303  
2826.499936 110.159    0.312543  
2826.699936 108.145    0.290444  
2826.899936 101.661    0.2551    
2827.099936 88.76199   0.239596  
2827.299936 79.48399   0.235499  
2827.499935 74.69      0.224521  
2827.699935 70.52901   0.219213  
2827.899935 70.61401   0.218106  
2828.099935 72.825     0.221855  
2828.299935 78.898     0.233119  
2828.499935 88.965     0.243055  
2828.699935 99.767     0.25507   
2828.899935 107.438    0.252448  
2829.099935 111.109    0.254109  
2829.299935 110.262    0.251498  
2829.499934 111.135    0.258199  
2829.699934 115.153    0.262926  
2829.899934 116.879    0.274633  
2830.099934 116.001    0.290294  
2830.299934 115.361    0.294603  
2830.499934 116.173    0.284479  
2830.699934 118.085    0.282604  
2830.899934 120.41     0.291332  
2831.099934 118.617    0.295765  
2831.299934 115.576    0.30004   
2831.499933 113.236    0.291986  
2831.699933 112.226    0.290565  
2831.899933 106.862    0.26511   
2832.099933 92.614     0.224665  
2832.299933 74.175     0.239438  
2832.499933 63.163     0.263045  
2832.699933 50.485     0.305951  
2832.899933 40.605     0.367728  
2833.099933 31.26      0.380574  
2833.299933 14.534     0.377288  
2833.499932 13.681     0.405196  
2833.699932 17.063     0.407495  
2833.899932 18.397     0.405131  
2834.099932 19.793     0.392416  
2834.299932 21.528     0.368487  
2834.499932 31.51      0.321217  
2834.699932 50.663     0.324478  
2834.899932 73.322     0.327407  
2835.099932 93.399     0.325375  
2835.299932 96.439     0.309092  
2835.499931 105.748    0.279716  
2835.699931 110.648    0.26996   
2835.899931 110.645    0.263901  
2836.099931 107.665    0.273801  
2836.299931 105.12     0.284166  
2836.499931 104.634    0.275299  
2836.699931 102.766    0.275318  
2836.899931 100.949    0.278113  
2837.099931 96.482     0.28318   
2837.299931 90.764     0.298639  
2837.49993 84.009     0.3073    
2837.69993 80.66      0.290038  
2837.89993 77.00301   0.244865  
2838.09993 75.763     0.218599  
2838.29993 75.844     0.219458  
2838.49993 76.622     0.214313  
2838.69993 87.523     0.21701   
2838.89993 93.153     0.229321  
2839.09993 92.33499   0.256402  
2839.299929 107.501    0.269853  
2839.499929 132.123    0.26839   
2839.699929 124.768    0.278375  
2839.899929 116.514    0.273188  
