~Version
 VERS              .         2.0                           : CWLS LOG ASCII STANDARD - VERSION 2.0
 WRAP              .         NO                            : ONE LINE PER DEPTH STEP
 DLM               .         SPACE                         : DELIMITING CHARACTER(SPACE TAB OR COMMA)
~Well Information
#_______________________________________________________________________________
#
#PARAMETER_NAME    .UNIT     VALUE                         : DESCRIPTION
#_______________________________________________________________________________
STRT               .m        2698.3                        : First reference value
STOP               .m        2869.499914                   : Last reference value
STEP               .m        0.1999999                     : Step increment
NULL               .         -9999                         : Missing value
COMP               .                                       : Company
WELL               .         700                           : Well name
FLD                .                                       : Field
LOC                .                                       : Location
CNTY               .                                       : County
STAT               .                                       : State
CTRY               .                                       : Country
SRVC               .                                       : Service Company
DATE               .                                       : Date
API                .                                       : API number
EREF               .m        141.23                        : 
X                  .m        221071                        : 
Y                  .m        253934                        : 
group              .         Pad7                          : 
Интер-р            .         Зайцев                        : 
Куст               .         7                             : 
Статус             .         Не проверено                  : 
Тип                .         Нагнетательные                : 
~Parameter Information Block
#_______________________________________________________________________________
#
#PARAMETER_NAME    .UNIT     VALUE                         : DESCRIPTION
#_______________________________________________________________________________
SET                .         LAS1                          : 
REAL_CREATION_DATE .         Ср апр 11 2012-13_17_25       : 
TLFamily_DEPTH     .         Measured Depth                : 
TLFamily_GZ1       .         Extra Shallow Resistivity     : 
TLFamily_GZ2       .         Shallow Resistivity           : 
TLFamily_GZ3       .         Medium Resistivity            : 
TLFamily_GZ4       .         Deep Resistivity              : 
TLFamily_GZ5       .         Extra Deep Resistivity        : 
TLFamily_GZr       .         Medium Resistivity Inverted   : 
TLFamily_LLD       .         Lateral Log Resistivity       : 
TLFamily_PS        .         Spontaneous Potential         : 
TLFamily_PZ        .         Potential Resistivity         : 
TLFamily_RS        .         Mud Resistivity               : 
group              .         INI                           : 
~Curve Information
#_______________________________________________________________________________
#
#LOGNAME           .UNIT     LOG_ID                        : DESCRIPTION
#_______________________________________________________________________________
DEPTH              .m                                      : Measured Depth 
GZ1                .ohm.m                                  : Extra Shallow Resistivity 
GZ2                .ohm.m                                  : Shallow Resistivity 
GZ3                .ohm.m                                  : Medium Resistivity 
GZ4                .ohm.m                                  : Deep Resistivity 
GZ5                .ohm.m                                  : Extra Deep Resistivity 
GZr                .ohm.m                                  : Medium Resistivity Inverted 
LLD                .ohm.m                                  : Lateral Log Resistivity 
PS                 .mV                                     : Spontaneous Potential 
PZ                 .ohm.m                                  : Potential Resistivity 
RS                 .ohm.m                                  : Mud Resistivity 
~Ascii
# ...
2843.499927 2.3894     8.0549     15.812     27.4202    22.0479    16.2138    8.7235     34.053     6.9106     0.4013    
2843.699927 2.3033     7.6841     14.1022    23.6597    19.4627    14.917     5.499      33.7979    6.9212     0.5352    
2843.899927 2.0373     6.9491     11.8298    19.4788    16.7814    14.0768    4.7203     34.3194    7.004      0.4491    
2844.099927 1.8279     6.2958     10.0374    15.74      14.3351    13.9681    4.6005     34.4916    7.2143     0.4568    
2844.299927 1.726      5.8594     9.2426     13.5842    12.8856    14.4467    5.514      32.6243    7.4067     0.398     
2844.499927 1.7546     6.0455     9.3372     12.9891    12.0889    14.7978    7.7355     30.5855    7.6659     0.3936    
2844.699927 1.9999     6.6971     10.072     12.8323    11.6547    14.4919    11.8348    29.8726    7.842      0.4021    
2844.899927 2.1852     7.0977     10.9254    12.5283    11.3911    13.6454    12.9791    29.0686    7.9752     0.4022    
2845.099927 2.372      7.4123     11.5937    11.8492    10.9997    12.6563    10.8121    28.1635    7.9714     0.4059    
2845.299927 2.3726     7.4935     11.9321    11.0476    10.4362    11.9287    8.6568     28.7563    7.85       0.4042    
2845.499926 2.3726     7.7534     11.8446    10.2252    9.8478     11.6887    7.5789     29.6456    7.6364     0.4056    
2845.699926 2.3187     8.0108     11.6362    9.3614     9.2917     11.8721    6.3402     28.9861    7.4355     0.4034    
2845.899926 2.1719     7.3771     10.8496    8.4035     8.8445     12.6047    4.6542     28.3238    7.3366     0.5095    
2846.099926 1.838      6.3701     9.9838     7.6746     8.4616     13.3456    4.9287     28.7594    7.3923     0.4008    
2846.299926 1.6764     5.9993     9.5741     7.6746     8.1936     13.551     7.46       28.3418    7.5266     0.3986    
2846.499926 1.8239     6.1995     10.1858    8.0506     8.1956     13.4       10.6426    27.0182    7.7038     0.4029    
2846.699926 2.042      6.4897     10.7651    8.6544     8.4363     13.0497    10.6878    27.2265    7.7627     0.5521    
2846.899926 2.1466     6.4016     11.0267    9.3322     8.992      13.0895    6.9011     28.3721    7.7629     0.4313    
2847.099926 2.0573     6.1889     10.9431    10.4426    9.7178     13.8545    5.7239     28.1654    7.8028     0.4005    
2847.299926 1.8345     5.9268     10.9773    12.0427    10.8165    15.3547    5.7379     27.4978    7.9205     0.3942    
2847.499925 1.7483     6.0408     11.3896    14.0031    11.9876    16.3466    8.2319     27.4251    8.137      0.3941    
2847.699925 1.8566     6.3812     12.1714    16.0811    13.0786    16.8037    10.7802    26.3509    8.4401     0.3965    
2847.899925 2.0329     6.9447     13.1648    17.9978    13.9991    16.4155    23.7349    24.5562    8.6307     0.3991    
2848.099925 2.3542     7.9102     14.3433    19.4421    15.1542    15.4511    26.3044    24.6589    8.6233     0.4101    
2848.299925 2.8115     8.7792     14.8295    20.1473    16.5637    14.8618    12.4146    25.8462    8.4849     0.4045    
2848.499925 2.5919     8.222      14.6067    20.4136    18.6331    15.2994    6.0338     25.3847    8.3472     0.4013    
2848.699925 2.1702     7.571      14.1893    21.5257    21.3775    17.4458    5.8272     24.4339    8.2653     0.3958    
2848.899925 2.0756     7.8413     14.4567    23.7106    24.8708    20.4584    7.6558     24.9083    8.2058     0.3988    
2849.099925 2.0664     7.995      15.4252    26.6       29.2417    22.8168    9.1581     25.276     8.2214     0.4011    
2849.299925 2.1919     8.4152     16.8535    30.1643    32.4656    24.9008    11.3092    24.8311    8.2235     0.3936    
2849.499924 2.2996     8.8219     18.7774    33.7348    33.4298    26.9322    10.7065    25.5118    8.1844     0.4041    
2849.699924 2.5249     9.5648     19.823     33.5171    32.6919    27.2395    12.2105    27.3154    8.0823     0.3963    
2849.899924 2.4085     9.0555     18.8812    30.0527    30.2437    25.427     6.951      28.5698    8.1643     0.4027    
2850.099924 2.0945     7.9369     16.7395    24.6144    26.0485    22.2509    6.4931     30.0232    8.3469     0.3941    
2850.299924 1.9508     7.3502     14.8941    20.974     22.105     20.6056    6.6671     32.5024    8.5215     0.3989    
2850.499924 1.832      6.8011     13.3599    18.1866    19.594     20.2906    6.8531     33.8192    8.7494     0.3945    
2850.699924 1.7799     6.3805     12.2296    16.405     18.0142    20.2097    7.4898     33.3003    8.9539     0.3972    
2850.899924 1.8353     6.3366     11.6747    15.2002    17.4177    20.1877    7.9816     33.2878    9.1967     0.3929    
2851.099924 1.884      6.3907     11.6109    14.621     17.7987    20.241     8.11       33.8243    9.4552     0.397     
2851.299924 1.8612     6.4376     12.0284    14.5271    18.9494    20.5233    9.3363     33.2848    9.6717     0.3937    
2851.499923 1.9415     6.9259     12.9625    15.1774    20.4939    20.6674    10.5078    32.8379    9.9137     0.4004    
2851.699923 1.9954     7.3527     14.5771    16.6408    21.682     20.6674    12.0519    33.8693    10.1766    0.3969    
2851.899923 2.0951     7.94       16.5257    18.1959    22.323     20.6674    17.4296    34.726     10.4196    0.5395    
2852.099923 2.2058     8.603      17.9037    18.9941    22.3625    20.6674    14.6748    34.6979    10.7121    0.3904    
2852.299923 2.211      8.4258     17.6456    18.4676    21.8057    20.6674    12.1361    35.6859    11.0031    0.3941    
2852.499923 2.1571     8.1983     16.9785    17.7935    20.8566    20.6674    12.0861    37.2235    11.2928    0.3926    
2852.699923 2.1077     8.2035     16.5074    17.462     20.1864    20.6674    12.8601    37.2327    11.5047    0.3845    
2852.899923 2.1032     8.146      16.3628    17.5878    20.2556    20.6674    12.636     36.9305    11.6586    0.3845    
2853.099923 2.16       8.4118     16.3541    18.2247    20.9634    20.6674    11.2834    37.7083    11.7572    0.4163    
2853.299923 2.211      8.2794     16.6936    19.5384    22.1       20.6674    10.0696    37.8252    11.7572    0.3832    
2853.499922 2.1571     8.6449     17.7694    21.9491    22.8012    20.6674    10.7368    37.0405    11.771     0.3707    
2853.699922 2.1571     8.9561     19.1884    24.7355    23.2082    20.6674    14.3031    37.69      11.8239    0.3609    
2853.899922 2.1571     9.0609     20.1423    26.7615    23.2236    20.6674    21.7364    39.1294    11.8638    0.3609    
2854.099922 2.1571     9.1133     20.5877    27.606     22.9045    20.6674    15.1228    38.6464    11.8638    0.3609    
2854.299922 2.1571     9.1317     20.923     28.0513    22.2396    20.6674    15.9697    37.3176    11.8638    0.3609    
2854.499922 2.1571     9.4018     21.9261    29.0243    21.5452    20.6674    23.7224    37.4356    11.8818    0.3609    
2854.699922 2.1571     9.5325     23.5571    30.3655    20.9515    20.6674    44.568     37.6091    11.8638    0.3609    
2854.899922 2.0621     9.5325     24.2365    30.8417    20.2491    20.6674    31.7209    36.652     11.8638    0.3609    
2855.099922 2.025      9.5325     24.3401    30.1046    19.3127    20.6674    19.8098    36.1855    11.8638    0.3609    
2855.299921 2.1571     9.5325     24.2869    29.3216    18.2961    20.6674    18.4498    36.1516    11.8638    0.3609    
2855.499921 2.1571     9.5325     24.1963    29.3181    17.4652    20.6674    19.2313    35.057     11.8638    0.3609    
2855.699921 2.1571     9.5325     23.6291    30.3928    17.1648    20.6674    19.9404    33.8365    11.8638    0.3609    
2855.899921 2.1571     9.5325     23.1616    31.7846    17.412     20.6674    22.4351    33.4323    11.8638    0.3609    
2856.099921 2.1571     9.5325     23.1153    34.0605    17.888     20.6674    20.3816    32.7281    11.8638    0.3609    
2856.299921 2.1571     9.5325     23.1153    35.732     18.6784    20.6674    17.4129    31.7643    11.8638    0.3609    
2856.499921 2.1571     9.5325     23.1153    37.572     19.8041    20.6674    18.2878    31.5515    11.8638    0.3609    
