~Version
 VERS              .         2.0                           : CWLS LOG ASCII STANDARD - VERSION 2.0
 WRAP              .         NO                            : ONE LINE PER DEPTH STEP
 DLM               .         SPACE                         : DELIMITING CHARACTER(SPACE TAB OR COMMA)
~Well Information
#_______________________________________________________________________________
#
#PARAMETER_NAME    .UNIT     VALUE                         : DESCRIPTION
#_______________________________________________________________________________
STRT               .m        2698.3                        : First reference value
STOP               .m        2869.499914                   : Last reference value
STEP               .m        0.1999999                     : Step increment
NULL               .         -9999                         : Missing value
COMP               .                                       : Company
WELL               .         700                           : Well name
FLD                .                                       : Field
LOC                .                                       : Location
CNTY               .                                       : County
STAT               .                                       : State
CTRY               .                                       : Country
SRVC               .                                       : Service Company
DATE               .                                       : Date
API                .                                       : API number
EREF               .m        141.23                        : 
X                  .m        221071                        : 
Y                  .m        253934                        : 
group              .         Pad7                          : 
Интер-р            .         Зайцев                        : 
Куст               .         7                             : 
Статус             .         Не проверено                  : 
Тип                .         Нагнетательные                : 
~Parameter Information Block
#_______________________________________________________________________________
#
#PARAMETER_NAME    .UNIT     VALUE                         : DESCRIPTION
#_______________________________________________________________________________
SET                .         LAS1                          : 
REAL_CREATION_DATE .         Ср апр 11 2012-13_17_25       : 
TLFamily_DEPTH     .         Measured Depth                : 
TLFamily_GZ1       .         Extra Shallow Resistivity     : 
TLFamily_GZ2       .         Shallow Resistivity           : 
TLFamily_GZ3       .         Medium Resistivity            : 
TLFamily_GZ4       .         Deep Resistivity              : 
TLFamily_GZ5       .         Extra Deep Resistivity        : 
TLFamily_GZr       .         Medium Resistivity Inverted   : 
TLFamily_LLD       .         Lateral Log Resistivity       : 
TLFamily_PS        .         Spontaneous Potential         : 
TLFamily_PZ        .         Potential Resistivity         : 
TLFamily_RS        .         Mud Resistivity               : 
group              .         INI                           : 
~Curve Information
#_______________________________________________________________________________
#
#LOGNAME           .UNIT     LOG_ID                        : DESCRIPTION
#_______________________________________________________________________________
DEPTH              .m                                      : Measured Depth 
GZ1                .ohm.m                                  : Extra Shallow Resistivity 
GZ2                .ohm.m                                  : Shallow Resistivity 
GZ3                .ohm.m                                  : Medium Resistivity 
GZ4                .ohm.m                                  : Deep Resistivity 
GZ5                .ohm.m                                  : Extra Deep Resistivity 
GZr                .ohm.m                                  : Medium Resistivity Inverted 
LLD                .ohm.m                                  : Lateral Log Resistivity 
PS                 .mV                                     : Spontaneous Potential 
PZ                 .ohm.m                                  : Potential Resistivity 
RS                 .ohm.m                                  : Mud Resistivity 
~Ascii
# ...
2817.099941 2.0463     6.0994     8.9958     8.9463     6.6243     11.8026    5.1268     23.5365    6.2133     0.4022    
2817.299941 2.2206     6.6443     9.4804     9.3385     6.6823     11.1453    7.4907     24.2563    6.3178     0.4022    
2817.49994 2.3821     6.9861     9.7466     9.3104     6.5228     10.5346    7.868      23.628     6.2702     0.3963    
2817.69994 2.4714     7.0885     9.5169     9.1505     6.2606     10.1688    6.4003     22.7203    6.185      0.4984    
2817.89994 2.3074     6.8193     9.0772     8.3279     6.0035     10.2814    4.5011     23.2245    6.019      0.3956    
2818.09994 2.0684     6.7372     8.5914     7.8444     5.8069     10.8211    3.9199     23.8323    5.9409     0.3908    
2818.29994 2.0493     6.5637     8.3711     7.5825     5.6776     11.7569    3.8411     23.1067    5.8986     0.4       
2818.49994 2.0058     6.4083     8.3015     7.3966     5.6025     12.7479    4.1133     21.8892    5.9003     0.4022    
2818.69994 1.9954     6.1447     8.215      7.1378     5.5721     13.2464    4.3187     21.6916    5.9897     0.4389    
2818.89994 1.9119     5.7478     8.1008     6.8833     5.6362     13.3184    4.6159     21.957     6.1686     0.4583    
2819.09994 1.8876     5.4865     8.2024     6.7802     5.7292     13.4608    4.7635     21.7444    6.2182     0.3916    
2819.29994 2.096      5.9364     8.4941     6.9107     5.9084     14.3034    5.175      22.6298    6.2203     0.4005    
2819.499939 2.053      5.9646     8.7146     7.0422     6.2648     15.3236    4.7411     24.9552    6.2657     0.4035    
2819.699939 1.8755     5.6067     8.3837     6.938      6.845      16.1948    4.3258     26.2621    6.4324     0.4022    
2819.899939 1.7799     5.3865     8.1158     7.133      7.5091     17.401     4.472      26.232     6.629      0.3877    
2820.099939 1.8338     5.5958     8.217      7.6323     8.4016     19.4072    4.5871     26.6166    6.8511     0.3845    
2820.299939 1.7899     5.5186     8.4826     8.3696     9.4528     21.5759    4.9531     29.1886    7.1952     0.3935    
2820.499939 1.7442     5.4638     8.8336     9.2332     10.4856    23.2413    5.1247     32.7845    7.6412     0.3963    
2820.699939 1.7694     5.6708     9.5569     10.2628    11.4101    23.4239    6.3763     37.158     8.1429     0.4028    
2820.899939 2.037      6.5728     10.5382    11.1695    12.1785    22.4308    11.5392    43.3956    8.5279     0.4059    
2821.099939 2.2943     7.2611     11.332     11.8593    12.8753    21.1703    18.7983    48.9418    8.8017     0.3989    
2821.299939 2.3497     7.5322     11.6584    12.3696    13.6266    20.752     10.7534    52.5685    8.97       0.4022    
2821.499938 2.3726     8.0011     11.8805    12.9796    14.6267    21.2114    8.2961     55.7554    8.9989     0.4099    
2821.699938 2.3253     8.2957     12.2585    13.6337    16.0257    21.9417    7.7387     58.2499    9.0742     0.4108    
2821.899938 2.3187     8.5225     12.7339    14.3201    17.7918    22.812     7.4525     59.9295    9.1501     0.4059    
2822.099938 2.3176     8.7329     13.1704    15.0842    19.5533    24.1932    7.4866     61.44      9.2903     0.3987    
2822.299938 2.1848     8.2227     13.7222    15.9604    21.1434    25.6851    6.9254     63.1214    9.5016     0.3963    
2822.499938 2.2093     8.5016     14.7474    16.9439    22.4169    26.3921    8.0016     64.3714    9.7278     0.4043    
2822.699938 2.3978     9.2748     16.2637    17.8447    22.6994    26.0737    13.9124    65.3114    9.8931     0.4057    
2822.899938 2.5348     9.7373     17.8175    18.2989    21.9253    25.1133    14.6981    65.1306    9.8931     0.3989    
2823.099938 2.6959     10.2152    18.5899    17.9483    20.6284    24.1852    13.3169    64.4813    9.8931     0.3996    
2823.299938 2.6097     9.9271     18.5413    17.0726    18.9134    22.9822    9.2436     63.3701    9.8931     0.4024    
2823.499937 2.5237     9.8982     17.8835    16.0215    16.9642    22.0839    8.0142     61.9454    9.8928     0.4073    
2823.699937 2.4327     9.5848     17.7899    15.5542    15.1638    21.5123    8.3772     60.7254    9.8428     0.4079    
2823.899937 2.5361     9.7944     17.7367    15.2324    13.6402    20.5874    8.8196     59.3233    9.7602     0.4078    
2824.099937 2.4903     9.7125     17.7641    15.0601    12.3017    19.2194    10.5028    57.5276    9.7866     0.4006    
2824.299937 2.4418     9.4217     17.2366    14.516     11.1301    18.0056    8.6181     54.4915    9.7503     0.404     
2824.499937 2.2889     8.9508     16.9005    14.3879    10.0744    17.6232    8.0971     51.768     9.8022     0.4081    
2824.699937 2.1438     8.7038     16.8324    14.5293    9.3381     17.576     7.6548     49.0801    9.7866     0.4041    
2824.899937 2.3587     8.9561     17.2458    15.2159    8.8793     17.6374    9.1384     47.904     9.7845     0.3981    
2825.099937 2.3824     9.0027     17.9016    16.2382    8.706      17.8724    10.0515    48.9823    9.7131     0.4001    
2825.299937 2.4976     9.456      18.6708    17.3384    8.7636     18.219     10.848     51.4416    9.6025     0.4052    
2825.499936 2.5408     9.7014     19.4636    18.36      9.1243     18.8202    11.572     53.6761    9.428      0.4116    
2825.699936 2.5227     9.7136     20.5356    19.7608    9.6509     20.5012    9.7492     54.7239    9.2747     0.4065    
2825.899936 2.485      10.0094    22.2668    22.2218    9.9991     22.8764    7.6108     55.432     9.0774     0.432     
2826.099936 2.617      11.0441    24.3623    25.1792    10.1005    24.2821    9.8595     55.2337    8.817      0.4553    
2826.299936 2.6957     11.2388    24.9614    26.585     9.9349     24.2811    14.2048    54.4994    8.6643     0.408     
2826.499936 2.6447     10.7484    23.8478    26.5292    9.2851     22.5631    10.3739    54.0123    8.6053     0.4034    
2826.699936 2.5364     10.1575    22.2826    25.9286    8.2577     21.1019    8.2776     52.2145    8.3997     0.3988    
2826.899936 2.5111     9.7438     20.6275    24.7323    7.244      20.5114    8.0531     49.3194    8.2475     0.5626    
2827.099936 2.3309     8.7868     18.648     22.8647    6.3968     20.5726    5.9731     47.3932    8.2451     0.4178    
2827.299936 2.1925     8.2792     16.5808    20.6875    5.6043     20.9945    5.5887     45.8524    8.3515     0.401     
2827.499935 2.0098     7.3315     15.0375    18.761     4.9263     21.3008    6.1139     44.5526    8.609      0.3964    
2827.699935 1.9415     6.9188     13.9668    17.3448    4.4335     21.6512    6.7229     44.6439    8.8727     0.4897    
2827.899935 2.0384     6.9473     13.3092    16.5189    4.0978     22.2116    7.7799     45.8913    9.1339     0.6877    
2828.099935 2.0493     6.8651     12.9452    15.8976    3.9217     22.7866    8.2052     46.3817    9.416      0.5301    
2828.299935 1.9686     6.7389     12.6802    15.1576    3.8559     23.4415    8.0677     45.9933    9.7517     0.4017    
2828.499935 1.8963     6.5985     12.5711    14.6437    3.8504     24.0501    7.9016     46.8376    10.1503    0.404     
2828.699935 1.9415     6.8473     12.7766    14.567     3.9657     24.3209    9.758      48.6777    10.5453    0.4028    
2828.899935 2.065      7.279      13.192     14.8681    4.2181     23.7711    13.2074    49.6722    10.9362    0.5547    
2829.099935 2.0235     7.6532     13.691     15.3326    4.6059     22.8035    14.6139    49.7858    11.2733    0.4268    
2829.299935 2.3187     8.3023     14.5085    16.1706    5.1192     21.3263    15.2518    50.2706    11.5815    0.4082    
2829.499934 2.3686     8.7236     15.2005    16.6941    5.5954     20.6761    15.4914    52.058     11.8387    0.4022    
2829.699934 2.4484     9.1573     15.9861    17.3321    5.9807     20.36      15.6186    54.1856    11.9428    0.5322    
2829.899934 2.5034     9.6013     16.8242    18.182     6.3913     20.3921    15.3042    55.3259    11.9703    0.4198    
2830.099934 2.5882     9.9439     17.643     19.3057    6.8721     21.1008    16.0194    56.3141    11.9702    0.4048    
