~Version
 VERS              .         2.0                           : CWLS LOG ASCII STANDARD - VERSION 2.0
 WRAP              .         NO                            : ONE LINE PER DEPTH STEP
 DLM               .         SPACE                         : DELIMITING CHARACTER(SPACE TAB OR COMMA)
~Well Information
#_______________________________________________________________________________
#
#PARAMETER_NAME    .UNIT     VALUE                         : DESCRIPTION
#_______________________________________________________________________________
STRT               .m        2698.3                        : First reference value
STOP               .m        2869.499914                   : Last reference value
STEP               .m        0.1999999                     : Step increment
NULL               .         -9999                         : Missing value
COMP               .                                       : Company
WELL               .         700                           : Well name
FLD                .                                       : Field
LOC                .                                       : Location
CNTY               .                                       : County
STAT               .                                       : State
CTRY               .                                       : Country
SRVC               .                                       : Service Company
DATE               .                                       : Date
API                .                                       : API number
EREF               .m        141.23                        : 
X                  .m        221071                        : 
Y                  .m        253934                        : 
group              .         Pad7                          : 
Интер-р            .         Зайцев                        : 
Куст               .         7                             : 
Статус             .         Не проверено                  : 
Тип                .         Нагнетательные                : 
~Parameter Information Block
#_______________________________________________________________________________
#
#PARAMETER_NAME    .UNIT     VALUE                         : DESCRIPTION
#_______________________________________________________________________________
SET                .         LAS3                          : 
REAL_CREATION_DATE .         Ср апр 11 2012-13_17_25       : 
TLFamily_DEPTH     .         Measured Depth                : 
TLFamily_GR        .         Gamma Ray                     : 
TLFamily_TNPH      .         Neutron Porosity              : 
group              .         INI                           : 
~Curve Information
#_______________________________________________________________________________
#
#LOGNAME           .UNIT     LOG_ID                        : DESCRIPTION
#_______________________________________________________________________________
DEPTH              .m                                      : Measured Depth 
GR                 .gAPI                                   :  
TNPH               .v/v                                    : Neutron Porosity 
~Ascii
# ...
2840.099929 110.723    0.251988  
2840.299929 99.628     0.249819  
2840.499929 79.152     0.249421  
2840.699929 82.17101   0.245476  
2840.899929 91.48599   0.246746  
2841.099929 99.156     0.237663  
2841.299929 96.866     0.218656  
2841.499928 88.09399   0.206586  
2841.699928 76.51399   0.213168  
2841.899928 74.864     0.226904  
2842.099928 79.021     0.234526  
2842.299928 79.73199   0.234679  
2842.499928 81.214     0.244935  
2842.699928 86.904     0.266478  
2842.899928 93.745     0.269065  
2843.099928 98.423     0.271333  
2843.299928 92.577     0.254068  
2843.499927 77.486     0.245325  
2843.699927 73.08601   0.223588  
2843.899927 73.312     0.210357  
2844.099927 74.186     0.208726  
2844.299927 81.537     0.214355  
2844.499927 89.236     0.223449  
2844.699927 101.102    0.237178  
2844.899927 105.415    0.25287   
2845.099927 98.189     0.25939   
2845.299927 86.888     0.25412   
2845.499926 83.25      0.219007  
2845.699926 84.08      0.224371  
2845.899926 90.856     0.233601  
2846.099926 103.271    0.239649  
2846.299926 102.098    0.245661  
2846.499926 91.94199   0.25331   
2846.699926 80.337     0.243243  
2846.899926 71.926     0.235991  
2847.099926 66.343     0.229691  
2847.299926 63.899     0.211666  
2847.499925 63.035     0.200377  
2847.699925 62.006     0.18618   
2847.899925 60.872     0.179768  
2848.099925 60.993     0.182464  
2848.299925 63.361     0.196921  
2848.499925 72.297     0.202742  
2848.699925 77.863     0.21006   
2848.899925 87.459     0.231465  
2849.099925 95.40399   0.255181  
2849.299925 99.292     0.27479   
2849.499924 98.311     0.295627  
2849.699924 85.499     0.291436  
2849.899924 74.454     0.264275  
2850.099924 68.425     0.225483  
2850.299924 68.407     0.225679  
2850.499924 69.228     0.228019  
2850.699924 69.985     0.21852   
2850.899924 72.95399   0.210477  
2851.099924 78.942     0.207235  
2851.299924 81.908     0.219207  
2851.499923 83.493     0.252061  
2851.699923 85.86      0.27437   
2851.899923 86.71899   0.285235  
2852.099923 88.545     0.281686  
2852.299923 91.14101   0.267752  
2852.499923 91.25      0.251951  
2852.699923 92.843     0.244809  
2852.899923 100.385    0.263735  
2853.099923 111.459    0.286497  
2853.299923 112.942    0.297896  
2853.499922 105.354    0.303696  
2853.699922 93.067     0.304381  
2853.899922 78.383     0.316867  
2854.099922 75.06699   0.324146  
2854.299922 78.484     0.295654  
2854.499922 79.047     0.30637   
2854.699922 80.873     0.31708   
2854.899922 83.903     0.303051  
2855.099922 83.909     0.280902  
2855.299921 82.819     0.268295  
2855.499921 81.582     0.269219  
2855.699921 82.01199   0.278568  
2855.899921 85.32899   0.303699  
2856.099921 91.328     0.310214  
2856.299921 94.013     0.304382  
2856.499921 90.01099   0.325218  
2856.699921 79.086     0.335983  
2856.899921 60.646     0.326054  
2857.099921 48.761     0.320389  
2857.299921 55.87      0.32843   
2857.49992 80.069     0.317264  
2857.69992 94.706     0.280265  
2857.89992 95.23      0.251779  
2858.09992 90.15701   0.241947  
2858.29992 87.205     0.248047  
2858.49992 80.88899   0.242632  
2858.69992 77.31499   0.242947  
2858.89992 82.426     0.238636  
2859.09992 93.967     0.25276   
2859.29992 101.569    0.274403  
2859.499919 110.51     0.274706  
2859.699919 114.99     0.265633  
2859.899919 115.282    0.26413   
2860.099919 116.842    0.269549  
2860.299919 113.151    0.279124  
2860.499919 101.62     0.275385  
2860.699919 88.334     0.262105  
2860.899919 73.223     0.23039   
2861.099919 67.905     0.20969   
2861.299919 74.396     0.203957  
2861.499918 84.734     0.220952  
2861.699918 91.748     0.234225  
2861.899918 92.87599   0.238057  
2862.099918 96.084     0.246498  
2862.299918 97.245     0.256531  
2862.499918 100.706    0.24312   
2862.699918 102.475    0.230933  
2862.899918 101.453    0.236649  
2863.099918 101.466    0.259365  
2863.299917 102.429    0.270541  
2863.499917 102.01     0.271633  
2863.699917 103.167    0.275249  
2863.899917 106.7      0.280095  
2864.099917 106.352    0.279228  
2864.299917 107.4      0.287393  
2864.499917 104.96     0.299153  
2864.699917 102.907    0.309287  
2864.899917 104.663    0.294443  
2865.099917 108.61     0.273968  
2865.299917 109.226    0.257503  
2865.499916 110.045    0.25162   
2865.699916 110.39     0.268335  
2865.899916 109.339    0.296954  
2866.099916 107.907    0.310108  
2866.299916 105.071    0.298998  
2866.499916 98.897     0.289066  
2866.699916 94.847     0.302123  
2866.899916 93.742     0.309882  
2867.099916 97.378     0.31354   
2867.299916 97.804     0.323146  
2867.499915 97.571     0.341488  
2867.699915 97.253     0.357807  
2867.899915 96.144     0.365243  
2868.099915 96.661     0.34059   
2868.299915 96.814     0.307027  
2868.499915 93.78999   0.282172  
2868.699915 91.40701   0.272588  
2868.899915 90.019     0.277421  
2869.099915 91.14101   0.273908  
2869.299915 93.24899   0.261653  
2869.499914 94.2       0.258032  
