~Version
 VERS              .         2.0                           : CWLS LOG ASCII STANDARD - VERSION 2.0
 WRAP              .         NO                            : ONE LINE PER DEPTH STEP
 DLM               .         SPACE                         : DELIMITING CHARACTER(SPACE TAB OR COMMA)
~Well Information
#_______________________________________________________________________________
#
#PARAMETER_NAME    .UNIT     VALUE                         : DESCRIPTION
#_______________________________________________________________________________
STRT               .m        2698.3                        : First reference value
STOP               .m        2869.499914                   : Last reference value
STEP               .m        0.1999999                     : Step increment
NULL               .         -9999                         : Missing value
COMP               .                                       : Company
WELL               .         700                           : Well name
FLD                .                                       : Field
LOC                .                                       : Location
CNTY               .                                       : County
STAT               .                                       : State
CTRY               .                                       : Country
SRVC               .                                       : Service Company
DATE               .                                       : Date
API                .                                       : API number
EREF               .m        141.23                        : 
X                  .m        221071                        : 
Y                  .m        253934                        : 
group              .         Pad7                          : 
Интер-р            .         Зайцев                        : 
Куст               .         7                             : 
Статус             .         Не проверено                  : 
Тип                .         Нагнетательные                : 
~Parameter Information Block
#_______________________________________________________________________________
#
#PARAMETER_NAME    .UNIT     VALUE                         : DESCRIPTION
#_______________________________________________________________________________
SET                .         LAS1                          : 
REAL_CREATION_DATE .         Ср апр 11 2012-13_17_25       : 
TLFamily_DEPTH     .         Measured Depth                : 
TLFamily_GZ1       .         Extra Shallow Resistivity     : 
TLFamily_GZ2       .         Shallow Resistivity           : 
TLFamily_GZ3       .         Medium Resistivity            : 
TLFamily_GZ4       .         Deep Resistivity              : 
TLFamily_GZ5       .         Extra Deep Resistivity        : 
TLFamily_GZr       .         Medium Resistivity Inverted   : 
TLFamily_LLD       .         Lateral Log Resistivity       : 
TLFamily_PS        .         Spontaneous Potential         : 
TLFamily_PZ        .         Potential Resistivity         : 
TLFamily_RS        .         Mud Resistivity               : 
group              .         INI                           : 
~Curve Information
#_______________________________________________________________________________
#
#LOGNAME           .UNIT     LOG_ID                        : DESCRIPTION
#_______________________________________________________________________________
DEPTH              .m                                      : Measured Depth 
GZ1                .ohm.m                                  : Extra Shallow Resistivity 
GZ2                .ohm.m                                  : Shallow Resistivity 
GZ3                .ohm.m                                  : Medium Resistivity 
GZ4                .ohm.m                                  : Deep Resistivity 
GZ5                .ohm.m                                  : Extra Deep Resistivity 
GZr                .ohm.m                                  : Medium Resistivity Inverted 
LLD                .ohm.m                                  : Lateral Log Resistivity 
PS                 .mV                                     : Spontaneous Potential 
PZ                 .ohm.m                                  : Potential Resistivity 
RS                 .ohm.m                                  : Mud Resistivity 
~Ascii
# ...
2856.699921 2.1571     9.5325     23.1153    40.6171    21.0205    20.6674    23.3707    31.3193    11.8638    0.3609    
2856.899921 2.1571     9.5325     23.1153    44.2223    22.0874    0          40.0143    30.7732    11.8638    0.3609    
2857.099921 2.1571     9.5325     23.1153    45.9419    22.8932    0          120.1463   30.9571    11.8638    0.3609    
2857.299921 2.1571     9.5325     23.1153    46.4117    23.4754    0          71.2783    30.945     11.8638    0.3609    
2857.49992 2.1571     9.5325     23.1153    46.8021    23.4164    0          16.4492    29.8218    11.8638    0.3609    
2857.69992 2.1571     9.5325     23.1153    48.873     22.8356    0          8.7252     29.1737    11.8638    0.3609    
2857.89992 2.1571     9.5325     23.1153    50.0352    21.5105    0          7.1579     29.0896    11.8638    0.3609    
2858.09992 2.1571     9.5325     23.1153    50.081     20.0867    0          6.6913     28.0769    11.8638    0.3609    
2858.29992 2.0501     9.5325     23.1153    50.0887    18.7564    0          6.3712     26.8782    11.8638    0.3609    
2858.49992 2.1571     9.5325     23.1383    50.1008    17.1398    0          6.3045     26.0281    11.8638    0.3609    
2858.69992 2.0021     9.5325     23.1378    50.081     15.5089    0          6.0944     24.4903    11.8638    0.3609    
2858.89992 2.0214     9.5325     23.1368    50.124     14.1277    0          6.1542     22.9415    11.8638    0.3609    
2859.09992 2.1571     9.5325     23.1371    50.081     13.038     0          6.387      22.5882    11.8638    0         
2859.29992 2.1571     9.5325     23.1454    50.081     12.1848    0          7.3943     23.1462    0          0         
2859.499919 0          9.5325     23.143     50.081     11.6254    0          9.3147     23.9874    0          0         
2859.699919 0          9.5325     23.1426    50.081     11.28      0          9.3161     24.6749    0          0         
2859.899919 0          9.5325     23.1153    50.081     11.0053    0          9.1674     25.1666    0          0         
2860.099919 0          0          23.1153    50.081     10.7593    0          8.8822     25.7477    0          0         
2860.299919 0          0          23.1153    50.081     10.6974    0          9.29       26.2685    0          0         
2860.499919 0          0          23.1153    50.0511    10.8171    0          10.0675    26.1915    0          0         
2860.699919 0          0          23.1153    50.0284    11.0463    0          11.4226    25.6742    0          0         
2860.899919 0          0          23.1153    50.0496    11.3575    0          20.4787    25.2209    0          0         
2861.099919 0          0          23.1153    50.0284    11.585     0          24.4282    24.9413    0          0         
2861.299919 0          0          0          50.0284    11.6896    0          19.5521    24.8955    0          0         
2861.499918 0          0          0          50.081     11.6896    0          11.1366    25.2786    0          0         
2861.699918 0          0          0          50.054     11.7253    0          8.9355     25.9314    0          0         
2861.899918 0          0          0          50.081     11.9553    0          9.3747     26.2143    0          0         
2862.099918 0          0          0          50.081     12.28      0          8.8402     25.9252    0          0         
2862.299918 0          0          0          50.081     12.3252    0          9.4343     25.555     0          0         
2862.499918 0          0          0          50.081     12.3252    0          9.7305     25.5413    0          0         
2862.699918 0          0          0          50.0725    12.3252    0          9.664      25.7       0          0         
2862.899918 0          0          0          50.0627    12.3252    0          9.5587     25.736     0          0         
2863.099918 0          0          0          50.0284    12.3252    0          9.6909     25.7114    0          0         
2863.299917 0          0          0          0          12.3252    0          9.6014     25.8353    0          0         
2863.499917 0          0          0          0          12.3252    0          9.7161     26.1639    0          0         
2863.699917 0          0          0          0          12.3252    0          9.9499     26.7753    0          0         
2863.899917 0          0          0          0          12.3252    0          10.2573    27.6904    0          0         
2864.099917 0          0          0          0          12.3252    0          10.5564    28.7407    0          0         
2864.299917 0          0          0          0          12.3252    0          10.6924    29.5309    0          0         
2864.499917 0          0          0          0          12.3252    0          10.6156    29.6908    0          0         
2864.699917 0          0          0          0          12.3252    0          10.6344    29.1746    0          0         
2864.899917 0          0          0          0          12.3252    0          10.6714    27.7231    0          0         
2865.099917 0          0          0          0          12.3252    0          10.5467    -9999      0          0         
2865.299917 0          0          0          0          12.3252    0          10.6076    -9999      0          0         
2865.499916 0          0          0          0          12.3252    0          10.2372    -9999      0          0         
2865.699916 0          0          0          0          12.3252    0          10.0483    -9999      0          0         
2865.899916 0          0          0          0          12.3252    0          10.0983    -9999      0          0         
2866.099916 0          0          0          0          12.3252    0          9.4256     -9999      0          0         
2866.299916 0          0          0          0          12.3252    0          8.2593     -9999      0          0         
2866.499916 0          0          0          0          12.3252    0          7.3533     -9999      0          0         
2866.699916 0          0          0          0          12.3252    0          6.4361     -9999      0          0         
2866.899916 0          0          0          0          12.3252    0          6.5986     -9999      0          0         
2867.099916 0          0          0          0          12.3252    0          7.5723     -9999      0          0         
2867.299916 0          0          0          0          12.3252    0          7.7227     -9999      0          0         
2867.499915 0          0          0          0          6.1626     0          6.0963     -9999      0          0         
2867.699915 0          0          0          0          0          0          14.0052    -9999      0          0         
2867.899915 0          0          0          0          0          0          8.8093     -9999      0          0         
2868.099915 0          0          0          0          0          0          7.0102     -9999      0          0         
2868.299915 0          0          0          0          0          0          7.6867     -9999      0          0         
2868.499915 0          0          0          0          0          0          9.1004     -9999      0          0         
2868.699915 0          0          0          0          0          0          9.926      -9999      0          0         
2868.899915 0          0          0          0          0          0          9.9768     -9999      0          0         
2869.099915 0          0          0          0          0          0          9.9768     -9999      0          0         
2869.299915 0          0          0          0          0          0          9.9724     -9999      0          0         
2869.499914 0          0          0          0          0          0          9.9721     -9999      0          0         
