~Version
 VERS              .         2.0                           : CWLS LOG ASCII STANDARD - VERSION 2.0
 WRAP              .         NO                            : ONE LINE PER DEPTH STEP
 DLM               .         SPACE                         : DELIMITING CHARACTER(SPACE TAB OR COMMA)
~Well Information
#_______________________________________________________________________________
#
#PARAMETER_NAME    .UNIT     VALUE                         : DESCRIPTION
#_______________________________________________________________________________
STRT               .m        2698.3                        : First reference value
STOP               .m        2869.499914                   : Last reference value
STEP               .m        0.1999999                     : Step increment
NULL               .         -9999                         : Missing value
COMP               .                                       : Company
WELL               .         700                           : Well name
FLD                .                                       : Field
LOC                .                                       : Location
CNTY               .                                       : County
STAT               .                                       : State
CTRY               .                                       : Country
SRVC               .                                       : Service Company
DATE               .                                       : Date
API                .                                       : API number
EREF               .m        141.23                        : 
X                  .m        221071                        : 
Y                  .m        253934                        : 
group              .         Pad7                          : 
Интер-р            .         Зайцев                        : 
Куст               .         7                             : 
Статус             .         Не проверено                  : 
Тип                .         Нагнетательные                : 
~Parameter Information Block
#_______________________________________________________________________________
#
#PARAMETER_NAME    .UNIT     VALUE                         : DESCRIPTION
#_______________________________________________________________________________
SET                .         LAS1                          : 
REAL_CREATION_DATE .         Ср апр 11 2012-13_17_25       : 
TLFamily_DEPTH     .         Measured Depth                : 
TLFamily_GZ1       .         Extra Shallow Resistivity     : 
TLFamily_GZ2       .         Shallow Resistivity           : 
TLFamily_GZ3       .         Medium Resistivity            : 
TLFamily_GZ4       .         Deep Resistivity              : 
TLFamily_GZ5       .         Extra Deep Resistivity        : 
TLFamily_GZr       .         Medium Resistivity Inverted   : 
TLFamily_LLD       .         Lateral Log Resistivity       : 
TLFamily_PS        .         Spontaneous Potential         : 
TLFamily_PZ        .         Potential Resistivity         : 
TLFamily_RS        .         Mud Resistivity               : 
group              .         INI                           : 
~Curve Information
#_______________________________________________________________________________
#
#LOGNAME           .UNIT     LOG_ID                        : DESCRIPTION
#_______________________________________________________________________________
DEPTH              .m                                      : Measured Depth 
GZ1                .ohm.m                                  : Extra Shallow Resistivity 
GZ2                .ohm.m                                  : Shallow Resistivity 
GZ3                .ohm.m                                  : Medium Resistivity 
GZ4                .ohm.m                                  : Deep Resistivity 
GZ5                .ohm.m                                  : Extra Deep Resistivity 
GZr                .ohm.m                                  : Medium Resistivity Inverted 
LLD                .ohm.m                                  : Lateral Log Resistivity 
PS                 .mV                                     : Spontaneous Potential 
PZ                 .ohm.m                                  : Potential Resistivity 
RS                 .ohm.m                                  : Mud Resistivity 
~Ascii
# ...
2803.899947 1.9355     5.9699     7.7579     7.2602     3.4416     14.2647    3.85       71.592     5.1961     0.4022    
2804.099947 1.855      5.5668     7.4593     6.8789     3.3737     15.205     3.7028     70.9067    5.353      0.4033    
2804.299947 1.6707     5.0905     7.0426     6.4717     3.3737     16.0093    3.4371     71.2993    5.6697     0.4078    
2804.499947 1.5407     4.7006     6.9315     6.2683     3.3828     16.5333    3.184      71.4097    6.1016     0.4008    
2804.699947 1.5593     4.7666     7.1248     6.3321     3.4468     16.2174    3.5966     69.9232    6.5886     0.4759    
2804.899947 1.8101     5.4543     7.719      6.631      3.479      14.7993    4.5736     68.3315    7.2653     0.3937    
2805.099947 2.1417     6.2646     8.3635     6.8854     3.4796     13.2386    9.289      67.853     7.3297     0.3904    
2805.299947 2.3626     6.8689     8.7819     6.8854     3.4918     12.079     14.8718    66.9499    7.3899     0.3858    
2805.499946 2.3479     7.1224     9.0832     6.9288     3.5326     11.5566    11.9348    64.2413    7.3079     0.3862    
2805.699946 2.3678     7.8409     9.4711     6.9487     3.552      11.4996    6.965      61.296     7.1376     0.4018    
2805.899946 2.3572     8.1695     9.8988     7.0742     3.669      11.4342    5.6906     59.2609    7.0201     0.4064    
2806.099946 2.2735     8.1462     10.2322    7.1483     3.8442     11.2395    5.793      56.2325    6.9622     0.3909    
2806.299946 2.3241     8.0893     10.7705    7.4018     3.9718     11.135     5.8028     51.6678    6.8792     0.3848    
2806.499946 2.4131     8.2751     11.4031    7.6537     4.0622     10.8437    5.9082     48.0128    6.807      0.3923    
2806.699946 2.389      8.1621     11.7184    7.7787     4.0622     10.7324    6.0623     45.8746    6.7472     0.3931    
2806.899946 2.3248     7.8794     11.8987    7.7798     4.0622     10.6328    5.8623     43.2042    6.7261     0.3927    
2807.099946 2.3726     7.746      12.2135    7.7576     4.0345     10.2737    5.5296     38.3611    6.658      0.4303    
2807.299946 2.3368     7.5806     12.5696    7.8324     3.9656     10.3153    5.3851     33.0582    6.5811     0.5203    
2807.499945 2.3187     7.4921     12.5467    7.9519     3.9563     10.3808    4.992      30.169     6.5207     0.4107    
2807.699945 1.8429     7.4289     12.3434    8.236      4.0093     10.5402    4.8943     28.1431    6.457      0.3904    
2807.899945 2.1344     7.4544     12.1147    8.4993     4.0093     10.4876    5.3852     25.2001    6.4106     0.3904    
2808.099945 2.2648     7.3221     11.8151    8.8114     4.0686     10.4869    5.3238     22.8062    6.3755     0.393     
2808.299945 2.2648     7.2204     11.6073    9.0994     4.1333     10.4795    5.0995     22.4851    6.3247     0.3948    
2808.499945 2.2648     7.1889     11.5593    9.503      4.1936     10.6184    5.0653     23.1596    6.3225     0.3926    
2808.699945 2.2648     7.1203     11.509     10.0507    4.264      10.7755    4.8671     22.5026    6.2714     0.4033    
2808.899945 2.3177     7.1821     11.385     10.4926    4.3389     10.7329    5.3577     20.5044    6.2714     0.4883    
2809.099945 2.285      7.126      11.3215    10.6803    4.3806     10.6664    5.1007     18.695     6.2714     0.3998    
2809.299945 2.2648     7.07       11.1164    11.0593    4.4539     10.5935    4.9674     18.0963    2.3595     0.3947    
2809.499944 1.8539     7.0177     10.9569    11.3891    4.5489     10.6235    4.8028     17.1808    6.2159     0.3904    
2809.699944 2.211      7.0505     10.8973    11.6583    4.677      10.9146    5.09       15.507     6.1649     0.3931    
2809.899944 2.2595     7.1142     10.8803    11.7785    4.8048     11.0476    5.2201     15.0237    6.1649     0.3986    
2810.099944 2.295      7.2352     10.8924    11.6755    4.8836     10.9651    5.4626     16.0966    6.1649     0.3916    
2810.299944 2.2648     7.1087     10.7889    11.4689    4.9945     10.7296    4.9596     16.7932    6.1649     0.3896    
2810.499944 2.2648     6.9757     10.6875    11.2442    5.0157     10.5998    4.9368     15.7876    6.1638     0.3868    
2810.699944 2.2117     6.9883     10.6104    11.1264    5.0157     10.6201    5.1629     14.3745    6.1117     0.3887    
2810.899944 2.2723     7.122      10.5475    10.9266    5.0529     10.4003    5.226      15.1315    6.1088     0.3932    
2811.099944 2.2573     7.1202     10.413     10.6341    5.0686     10.1719    5.059      17.0118    6.0584     0.3909    
2811.299944 2.2648     7.1748     10.3796    10.3245    5.0373     9.9333     4.9257     16.6735    6.008      0.3963    
2811.499943 2.2648     7.1224     10.2476    9.9405     5.0157     9.8355     4.817      15.1777    5.9383     0.493     
2811.699943 2.2545     6.9799     10.0629    9.56       5.0157     9.7048     4.6101     15.3624    5.4892     0.419     
2811.899943 2.211      6.8442     9.8903     9.1938     5.0157     9.6341     4.4604     16.1613    4.6617     0.3962    
2812.099943 2.1034     6.734      9.8019     9.0151     5.0409     9.6874     4.5384     15.7222    5.7868     0.3904    
2812.299943 2.1571     6.6832     9.8019     8.8883     5.112      9.6874     4.7028     15.386     5.7388     0.3904    
2812.499943 2.1105     6.5985     9.7493     8.7601     5.2171     9.6341     4.6753     16.7109    5.7388     0.392     
2812.699943 2.1571     6.5111     9.6954     8.6527     5.3139     9.6874     4.5624     18.4898    5.7388     0.4573    
2812.899943 2.1239     6.4522     9.4206     8.6217     5.4412     9.7578     4.6215     18.64      5.7013     0.3963    
2813.099943 2.0484     6.4937     9.7569     8.6659     5.5668     9.8466     4.6665     17.8211    5.6856     0.3934    
2813.299943 2.1571     6.5339     9.7357     8.6662     5.6927     9.8233     4.6435     18.428     5.6856     0.4649    
2813.499942 2.1148     6.425      9.5582     8.5884     5.861      9.6926     4.5828     19.241     5.7405     0.3963    
2813.699942 2.0526     6.249      9.3362     8.5216     5.9426     9.6146     4.5818     18.3939    5.79       0.3963    
2813.899942 2.1779     6.4937     9.4058     8.7565     6.0145     9.4742     5.1328     17.7673    5.7388     0.3963    
2814.099942 2.1945     6.5363     9.4291     8.7795     6.0145     9.3063     5.1703     18.666     5.7388     0.3914    
2814.299942 2.1615     6.5461     9.4291     8.7604     5.9405     9.2073     4.9602     19.9288    5.7055     0.3931    
2814.499942 2.1885     6.6105     9.2686     8.6217     5.8517     9.1248     4.7266     20.3473    5.6856     0.3963    
2814.699942 2.1147     6.5461     9.139      8.5537     5.7862     9.1554     4.5802     20.0374    5.6839     0.3889    
2814.899942 2.1571     6.5461     9.1034     8.5734     5.723      9.288      4.5821     20.1443    5.6284     0.5146    
2815.099942 2.1851     6.6597     9.2339     8.6623     5.7042     9.4198     4.5807     21.1374    5.5271     0.3904    
2815.299942 2.1571     6.6173     9.2794     8.6145     5.6866     9.4508     4.5107     21.8372    5.515      0.4322    
2815.499941 2.1484     6.4831     9.2532     8.4832     5.6131     9.3202     4.4879     21.3362    5.4729     0.4563    
2815.699941 2.1035     6.4686     9.175      8.303      5.5636     9.2705     4.4427     20.9572    5.4725     0.398     
2815.899941 2.1328     6.3394     9.012      8.1942     5.5453     9.4057     4.215      20.9843    5.4725     0.4044    
2816.099941 2.1032     6.0934     8.8162     7.989      5.5538     9.6852     4.0107     21.2923    5.4758     0.4018    
2816.299941 2.0296     5.9188     8.6436     7.8577     5.6577     10.0236    3.9967     22.8539    5.5734     0.3931    
2816.499941 1.9486     5.7654     8.4364     7.8328     5.8672     10.4221    3.9812     24.5941    5.6701     0.3904    
2816.699941 1.9321     5.6134     8.3162     7.9557     6.1261     11.0241    4.013      24.5882    5.8848     0.3923    
2816.899941 1.8876     5.589      8.5259     8.3865     6.3853     11.6134    4.0391     23.5338    6.064      0.4007    
