~Version
 VERS              .         2.0                           : CWLS LOG ASCII STANDARD - VERSION 2.0
 WRAP              .         NO                            : ONE LINE PER DEPTH STEP
 DLM               .         SPACE                         : DELIMITING CHARACTER(SPACE TAB OR COMMA)
~Well Information
#_______________________________________________________________________________
#
#PARAMETER_NAME    .UNIT     VALUE                         : DESCRIPTION
#_______________________________________________________________________________
STRT               .m        2698.3                        : First reference value
STOP               .m        2869.499914                   : Last reference value
STEP               .m        0.1999999                     : Step increment
NULL               .         -9999                         : Missing value
COMP               .                                       : Company
WELL               .         700                           : Well name
FLD                .                                       : Field
LOC                .                                       : Location
CNTY               .                                       : County
STAT               .                                       : State
CTRY               .                                       : Country
SRVC               .                                       : Service Company
DATE               .                                       : Date
API                .                                       : API number
EREF               .m        141.23                        : 
X                  .m        221071                        : 
Y                  .m        253934                        : 
group              .         Pad7                          : 
Интер-р            .         Зайцев                        : 
Куст               .         7                             : 
Статус             .         Не проверено                  : 
Тип                .         Нагнетательные                : 
~Parameter Information Block
#_______________________________________________________________________________
#
#PARAMETER_NAME    .UNIT     VALUE                         : DESCRIPTION
#_______________________________________________________________________________
SET                .         LAS1                          : 
REAL_CREATION_DATE .         Ср апр 11 2012-13_17_25       : 
TLFamily_DEPTH     .         Measured Depth                : 
TLFamily_GZ1       .         Extra Shallow Resistivity     : 
TLFamily_GZ2       .         Shallow Resistivity           : 
TLFamily_GZ3       .         Medium Resistivity            : 
TLFamily_GZ4       .         Deep Resistivity              : 
TLFamily_GZ5       .         Extra Deep Resistivity        : 
TLFamily_GZr       .         Medium Resistivity Inverted   : 
TLFamily_LLD       .         Lateral Log Resistivity       : 
TLFamily_PS        .         Spontaneous Potential         : 
TLFamily_PZ        .         Potential Resistivity         : 
TLFamily_RS        .         Mud Resistivity               : 
group              .         INI                           : 
~Curve Information
#_______________________________________________________________________________
#
#LOGNAME           .UNIT     LOG_ID                        : DESCRIPTION
#_______________________________________________________________________________
DEPTH              .m                                      : Measured Depth 
GZ1                .ohm.m                                  : Extra Shallow Resistivity 
GZ2                .ohm.m                                  : Shallow Resistivity 
GZ3                .ohm.m                                  : Medium Resistivity 
GZ4                .ohm.m                                  : Deep Resistivity 
GZ5                .ohm.m                                  : Extra Deep Resistivity 
GZr                .ohm.m                                  : Medium Resistivity Inverted 
LLD                .ohm.m                                  : Lateral Log Resistivity 
PS                 .mV                                     : Spontaneous Potential 
PZ                 .ohm.m                                  : Potential Resistivity 
RS                 .ohm.m                                  : Mud Resistivity 
~Ascii
# ...
2790.699954 3.0192     12.8061    31.0858    40.1744    27.6085    12.0882    10.9219    79.2471    10.5965    0.4165    
2790.899954 3.0192     12.7497    30.7039    40.3878    26.6828    11.5346    10.3582    77.8532    10.1374    0.5162    
2791.099954 3.0273     12.6198    30.1518    40.3692    25.9128    11.0991    9.9033     77.0985    9.6197     0.416     
2791.299954 2.9115     12.0031    29.5971    40.5295    25.0215    10.7553    10.3121    77.275     9.3024     0.4149    
2791.499953 3.0356     12.5096    28.9101    40.4021    23.9141    10.286     9.3002     76.1005    8.7876     0.4198    
2791.699953 3.0152     12.1687    28.1022    39.5497    22.6832    9.725      8.7794     74.2115    8.3422     0.4198    
2791.899953 2.8984     11.5622    26.3774    37.4226    21.1925    9.2192     9.571      73.8422    7.9185     0.4214    
2792.099953 2.8106     11.0724    24.4282    34.9808    19.356     8.9048     7.0008     73.8562    7.441      0.4257    
2792.299953 2.629      10.1578    22.2601    32.064     17.6752    8.8011     6.1179     72.7567    7.1296     0.5157    
2792.499953 2.4291     9.2876     20.1569    29.325     16.2189    8.9586     5.2706     72.508     6.833      0.4105    
2792.699953 2.3161     8.7144     18.5877    27.1423    14.9739    9.2568     4.4593     74.0234    6.5986     0.4117    
2792.899953 2.1988     8.2115     17.3819    25.4229    14.0753    9.5785     4.1424     75.0975    6.4333     0.4115    
2793.099953 2.1571     7.7753     16.2717    23.7768    13.3738    9.6444     4.5725     75.3743    6.3689     0.3992    
2793.299953 2.1413     7.3975     14.9196    21.6864    12.5972    9.7389     4.4151     76.3395    6.3244     0.4111    
2793.499952 2.0581     6.8477     14.1686    20.3524    11.9712    9.9184     4.757      76.998     6.2727     0.4089    
2793.699952 2.0493     6.8566     13.3659    19.1165    11.6131    10         4.3984     76.2364    6.3164     0.4129    
2793.899952 2.0493     6.7186     12.9318    18.4543    11.3843    9.9994     4.6865     75.6002    6.3247     0.4139    
2794.099952 2.1074     6.9481     12.6012    17.9525    11.2364    9.833      4.9045     75.2205    6.3079     0.4139    
2794.299952 2.1983     7.1239     12.4733    17.4929    11.061     9.5356     5.582      73.5505    6.2601     0.4159    
2794.499952 2.3687     7.4964     12.0919    16.6568    10.79      9.2631     6.0224     71.982     6.09       0.4112    
2794.699952 2.2465     7.2393     11.4053    15.4176    10.4391    9.1544     5.8996     72.5492    6.0125     0.4047    
2794.899952 2.1371     6.8995     10.7014    14.0711    10.0541    9.3958     4.7759     73.4408    5.8848     0.3996    
2795.099952 2.0468     6.7632     10.3589    13.2149    9.6981     10.0307    3.8717     72.8524    5.761      0.4028    
2795.299952 2.0037     6.6675     10.0856    12.4986    9.5106     10.7833    3.8374     72.5005    5.7388     0.4081    
2795.499951 1.9673     6.4473     9.9343     11.9137    9.4042     11.4011    3.9486     73.2374    5.7388     0.5495    
2795.699951 2.0389     6.5314     9.8111     11.4608    9.276      11.7782    4.3058     73.2936    5.7813     0.455     
2795.899951 1.9954     6.2802     9.7159     10.8661    9.1852     11.6595    4.525      72.8599    5.825      0.4176    
2796.099951 2.0183     6.1612     9.5221     10.2665    9.0755     11.7128    4.4652     73.9068    5.8627     0.4141    
2796.299951 2.0097     6.0206     9.3835     9.7127     9.0505     11.5608    4.3317     75.246     5.8512     0.4133    
2796.499951 2.0493     6.1912     9.1622     9.2136     9.1485     11.4651    4.8549     74.6435    5.9215     0.4091    
2796.699951 1.9415     5.9397     8.851      8.835      9.4991     11.629     4.6816     73.7578    5.9849     0.4081    
2796.899951 1.9415     5.9174     8.5721     8.7833     10.2227    12.1922    4.1787     74.4435    6.0177     0.4008    
2797.099951 1.8813     5.7693     8.487      9.1455     11.3138    13.3023    4.2136     74.8675    6.1486     0.4009    
2797.299951 1.7528     5.5688     8.6257     9.8327     12.9831    14.5599    3.7859     74.1668    6.3549     0.4053    
2797.49995 1.7799     5.7853     9.158      11.0462    14.768     15.4056    4.0845     74.5032    6.6106     0.4044    
2797.69995 1.8071     6.0098     10.2146    12.6039    16.3568    15.7889    5.4705     75.876     6.9434     0.4091    
2797.89995 2.1001     6.9143     11.6545    14.0531    17.1762    14.7734    7.037      75.9624    7.0826     0.4175    
2798.09995 2.6003     8.0925     12.6417    14.4865    17.2973    13.1285    22.1998    75.2181    7.1929     0.4195    
2798.29995 2.5426     8.0655     12.3953    13.2431    15.7494    11.0113    12.3954    75.2485    7.1015     0.412     
2798.49995 2.4749     8.1984     11.9517    12.2384    14.1494    10.2784    5.3348     75.218     6.9322     0.4046    
2798.69995 2.3345     8.1703     11.387     11.0075    12.2005    9.5154     5.5579     74.9168    6.7983     0.5258    
2798.89995 2.2648     8.1234     11.1597    10.4187    11.1692    9.2278     4.888      75.0487    6.7216     0.4161    
2799.09995 2.2648     7.9287     11.1822    10.0468    10.4579    8.9658     4.8417     74.2881    6.6469     0.4081    
2799.29995 2.2648     7.8591     11.4358    9.8742     9.8643     8.6329     4.9918     72.5721    6.5659     0.4136    
2799.499949 2.3282     7.9682     12.1139    9.8725     9.3614     8.3361     5.0422     72.4211    6.4324     0.4144    
2799.699949 2.4186     8.222      12.9267    10.0198    8.8647     8.0345     5.6063     73.487     6.2326     0.4185    
2799.899949 2.5343     8.4809     13.5937    9.9478     8.3307     7.827      5.7153     73.0128    5.948      0.4117    
2800.099949 2.5051     8.3091     13.7007    9.7326     7.6539     7.7153     6.048      71.8529    5.6691     0.4104    
2800.299949 2.4237     8.0886     13.0591    9.2327     6.9536     7.7885     5.1734     72.3359    5.4139     0.4044    
2800.499949 2.2416     7.544      12.2919    8.7597     6.2738     7.9705     4.2188     73.0708    5.1648     0.5565    
2800.699949 2.1619     7.1573     11.5339    8.2874     5.6658     8.1111     3.6265     72.4859    4.9849     0.4022    
2800.899949 2.0389     6.7474     10.868     7.9374     5.135      8.3159     3.3316     72.443     4.9046     0.4036    
2801.099949 1.9415     6.2164     10.2926    7.6831     4.7268     8.427      3.3698     73.6902    4.8312     0.4076    
2801.299949 1.9415     6.127      9.7992     7.5694     4.3658     8.4615     3.2479     74.022     4.7895     0.4135    
2801.499948 1.9415     5.7924     9.3994     7.5694     4.0528     8.5584     3.408      73.0312    4.7802     0.4126    
2801.699948 1.8971     5.5421     8.8331     7.4642     3.8722     8.7529     3.6733     72.1864    4.7822     0.4031    
2801.899948 1.8228     5.2883     8.2552     7.4642     3.7344     9.2154     3.307      72.2573    4.8753     0.4017    
2802.099948 1.6943     4.9934     7.7231     7.4642     3.6568     9.8467     3.159      72.9607    5.0527     0.3959    
2802.299948 1.7258     5.0608     7.6415     7.6703     3.6385     10.3872    3.0373     73.4382    5.181      0.4019    
2802.499948 1.8776     5.5408     7.8656     7.9781     3.6581     10.6349    3.6375     73.1256    5.3032     0.4035    
2802.699948 2.0871     5.9159     8.103      8.2007     3.6915     10.7853    5.1179     72.3073    5.3128     0.4094    
2802.899948 2.1473     6.0222     8.151      8.2007     3.6902     11.226     5.7281     71.4292    5.2777     0.441     
2803.099948 2.1032     6.0959     8.151      8.1481     3.6572     11.7933    4.6416     70.802     5.201      0.4583    
2803.299948 2.0494     6.2685     8.151      8.0245     3.6258     12.4268    3.9699     70.8229    5.1496     0.405     
2803.499947 1.9954     6.2842     8.1071     7.8479     3.5753     12.9735    3.9883     71.6909    5.0997     0.485     
2803.699947 1.9804     6.1189     7.9697     7.637      3.4906     13.5542    3.9814     72.2967    5.1089     0.4279    
