~Version
 VERS              .         2.0                           : CWLS LOG ASCII STANDARD - VERSION 2.0
 WRAP              .         NO                            : ONE LINE PER DEPTH STEP
 DLM               .         SPACE                         : DELIMITING CHARACTER(SPACE TAB OR COMMA)
~Well Information
#_______________________________________________________________________________
#
#PARAMETER_NAME    .UNIT     VALUE                         : DESCRIPTION
#_______________________________________________________________________________
STRT               .m        2698.3                        : First reference value
STOP               .m        2869.499914                   : Last reference value
STEP               .m        0.1999999                     : Step increment
NULL               .         -9999                         : Missing value
COMP               .                                       : Company
WELL               .         700                           : Well name
FLD                .                                       : Field
LOC                .                                       : Location
CNTY               .                                       : County
STAT               .                                       : State
CTRY               .                                       : Country
SRVC               .                                       : Service Company
DATE               .                                       : Date
API                .                                       : API number
EREF               .m        141.23                        : 
X                  .m        221071                        : 
Y                  .m        253934                        : 
group              .         Pad7                          : 
Интер-р            .         Зайцев                        : 
Куст               .         7                             : 
Статус             .         Не проверено                  : 
Тип                .         Нагнетательные                : 
~Parameter Information Block
#_______________________________________________________________________________
#
#PARAMETER_NAME    .UNIT     VALUE                         : DESCRIPTION
#_______________________________________________________________________________
SET                .         LAS1                          : 
REAL_CREATION_DATE .         Ср апр 11 2012-13_17_25       : 
TLFamily_DEPTH     .         Measured Depth                : 
TLFamily_GZ1       .         Extra Shallow Resistivity     : 
TLFamily_GZ2       .         Shallow Resistivity           : 
TLFamily_GZ3       .         Medium Resistivity            : 
TLFamily_GZ4       .         Deep Resistivity              : 
TLFamily_GZ5       .         Extra Deep Resistivity        : 
TLFamily_GZr       .         Medium Resistivity Inverted   : 
TLFamily_LLD       .         Lateral Log Resistivity       : 
TLFamily_PS        .         Spontaneous Potential         : 
TLFamily_PZ        .         Potential Resistivity         : 
TLFamily_RS        .         Mud Resistivity               : 
group              .         INI                           : 
~Curve Information
#_______________________________________________________________________________
#
#LOGNAME           .UNIT     LOG_ID                        : DESCRIPTION
#_______________________________________________________________________________
DEPTH              .m                                      : Measured Depth 
GZ1                .ohm.m                                  : Extra Shallow Resistivity 
GZ2                .ohm.m                                  : Shallow Resistivity 
GZ3                .ohm.m                                  : Medium Resistivity 
GZ4                .ohm.m                                  : Deep Resistivity 
GZ5                .ohm.m                                  : Extra Deep Resistivity 
GZr                .ohm.m                                  : Medium Resistivity Inverted 
LLD                .ohm.m                                  : Lateral Log Resistivity 
PS                 .mV                                     : Spontaneous Potential 
PZ                 .ohm.m                                  : Potential Resistivity 
RS                 .ohm.m                                  : Mud Resistivity 
~Ascii
# ...
2830.299934 2.6362     10.2252    18.4521    20.5766    7.4802     21.6067    15.6043    57.0867    11.9319    0.4115    
2830.499934 2.642      10.4379    19.2832    21.679     8.2275     22.135     15.1088    56.4559    11.8172    0.4143    
2830.699934 2.6825     10.5957    20.195     22.8044    9.1965     23.9365    14.1606    54.9997    11.6698    0.4061    
2830.899934 2.7498     10.9596    21.3918    24.097     10.4603    26.3143    13.8205    53.9918    11.4527    0.4165    
2831.099934 2.8392     11.3278    22.6163    25.5596    12.0644    27.9206    13.6802    53.8683    11.1975    0.4167    
2831.299934 2.901      11.5891    23.1153    27.0338    14.3331    30.5262    12.07      53.7129    10.936     0.4103    
2831.499933 2.6821     10.6083    22.6657    28.7133    17.0072    35.029     9.1716     52.411     10.8518    0.4178    
2831.699933 2.4441     9.6665     21.9897    31.1705    18.8963    40.9074    6.8601     49.9962    10.9078    0.4152    
2831.899933 2.2721     9.0439     21.4112    33.1787    20.9625    46.7199    6.6693     47.4364    11.2204    0.406     
2832.099933 1.98       8.1076     18.3512    31.2306    23.775     42.9795    7.3297     45.6219    12.1814    0.3979    
2832.299933 1.249      5.7371     17.3407    30.4976    23.6344    38.4804    11.3947    44.2408    13.1977    0.367     
2832.499933 2.0015     8.1526     19.0298    31.3182    21.9456    35.1115    33.1921    41.939     13.7401    0.3918    
2832.699933 2.4207     9.5764     17.2314    28.6602    23.959     30.5705    78.4764    38.4898    14.3893    0.3907    
2832.899933 1.0555     4.0807     14.6894    25.1656    25.6643    22.954     62.3621    36.1186    15.3091    0.3558    
2833.099933 1.5491     8.2408     16.6903    29.8137    25.6152    24.209     20.8993    35.4658    15.2975    0.3782    
2833.299933 2.642      12.0034    23.6216    40.058     29.094     29.3778    26.2708    34.6861    14.5095    0.4087    
2833.499932 2.7045     12.3921    25.3479    40.9007    33.5861    28.8889    58.1031    34.4789    14.5213    0.4058    
2833.699932 2.4804     12.1978    26.7932    42.3086    34.3512    26.3055    83.2408    35.4828    14.4457    0.4019    
2833.899932 3.0731     14.5983    28.6417    43.2598    34.2926    25.1447    54.2231    35.5638    14.204     0.4874    
2834.099932 2.9709     12.9661    30.0177    42.1031    34.5663    25.7657    17.116     35.5405    13.8358    0.4927    
2834.299932 2.7939     12.3247    30.4655    39.7415    34.7564    25.5121    11.3467    36.8844    13.6273    0.4042    
2834.499932 2.7033     12.1933    31.022     38.8479    34.8321    24.2549    12.7503    38.2087    13.5214    0.3944    
2834.699932 2.8055     12.9241    31.3379    38.5587    34.9838    23.2658    17.0871    40.2378    13.3342    0.5558    
2834.899932 2.8791     12.657     32.8852    39.0823    34.5334    22.06      18.1844    43.2298    12.9973    0.4225    
2835.099932 2.8436     12.345     31.6604    37.7057    33.7734    20.2957    15.9945    44.9761    12.8295    0.4114    
2835.299932 2.7097     11.4349    28.5172    35.5373    31.9371    18.6677    13.3422    46.0889    12.6944    0.4064    
2835.499931 2.6088     11.1566    27.3381    34.4538    29.9854    17.7526    12.0474    48.0689    12.5093    0.4036    
2835.699931 2.6264     10.9858    27.077     34.3285    28.468     17.4189    12.5761    50.3206    12.3121    0.4131    
2835.899931 2.642      10.947     27.0191    35.1183    27.5842    17.5345    12.81      53.1796    12.0942    0.4064    
2836.099931 2.642      11.0598    26.838     37.7181    27.3072    17.7982    12.7623    54.741     11.9003    0.4025    
2836.299931 2.644      11.1632    27.194     41.2294    27.6876    18.0358    12.2504    53.441     11.7234    0.4118    
2836.499931 2.6892     11.2465    28.3945    45.1112    28.5333    18.5387    14.0494    52.0646    11.5192    0.4021    
2836.699931 2.7558     11.8457    30.2408    48.6337    29.8538    19.2692    14.1071    50.2387    11.2846    0.4301    
2836.899931 2.7627     12.2699    32.4982    54.2738    31.0225    19.6014    15.4101    47.8686    10.9217    0.4578    
2837.099931 3.1349     13.7619    34.8192    58.1996    31.4602    19.066     25.26      47.2911    10.3758    0.4139    
2837.299931 3.3426     14.5329    35.6542    57.0574    30.693     17.8052    41.3903    47.7239    9.8073     0.4071    
2837.49993 3.1785     13.6691    33.7875    54.1142    28.8696    16.5444    17.3273    47.1072    9.281      0.4086    
2837.69993 2.9384     12.3833    29.7958    48.2227    25.8585    15.4525    7.8542     45.9061    8.8171     0.4073    
2837.89993 2.5677     10.9574    25.7925    41.9419    22.5967    14.9648    6.1623     45.0922    8.5208     0.3968    
2838.09993 2.2768     9.5734     22.4395    35.9738    19.738     15.0142    5.2354     42.9601    8.3497     0.4014    
2838.29993 2.1032     8.7203     20.3877    32.0422    17.3829    15.3539    5.308      40.0543    8.2575     0.4022    
2838.49993 2.1032     8.3624     19.0682    29.6928    15.6373    15.5988    6.3485     39.3614    8.2478     0.3974    
2838.69993 2.0573     7.837      17.8814    27.478     14.4219    15.5158    6.6259     41.0317    8.3719     0.4004    
2838.89993 2.0493     7.4514     16.9833    25.4265    13.3492    14.8881    7.1034     42.6548    8.5028     0.406     
2839.09993 2.1448     7.5079     16.506     24.0735    12.4696    13.9938    8.7906     43.5989    8.5758     0.4003    
2839.299929 2.2061     7.5047     15.9731    22.693     11.7957    13.2263    9.0395     45.0269    8.6664     0.3983    
2839.499929 2.1597     7.4863     15.4467    21.4393    11.2654    12.4909    8.2115     46.1825    8.7214     0.3999    
2839.699929 2.2648     7.8321     14.9498    20.5947    10.8307    11.7838    9.6585     46.1941    8.7092     0.3984    
2839.899929 2.3187     8.0608     14.4689    19.5201    10.5511    11.1391    9.9127     45.1349    8.6759     0.4109    
2840.099929 2.3187     8.0156     14.0312    18.6534    10.5014    10.7442    8.9449     43.6228    8.6163     0.4022    
2840.299929 2.3187     8.1179     13.8663    18.2568    10.7204    10.6153    8.7667     42.8474    8.4891     0.4956    
2840.499929 2.3124     8.2636     14.0465    18.0921    11.2442    10.5406    8.4155     41.8242    8.3559     0.4334    
2840.699929 2.3445     8.5533     14.5722    18.2899    11.7771    10.2488    9.2183     39.5422    8.1882     0.3996    
2840.899929 2.4589     8.8227     15.2797    18.6734    11.7542    9.7636     11.292     37.961     7.9429     0.4036    
2841.099929 2.5527     9.0147     15.6598    18.6818    11.9945    9.2432     10.9916    37.6386    7.6647     0.4099    
2841.299929 2.5794     8.9448     15.6598    18.5114    12.1773    8.9649     9.1959     36.3722    7.31       0.4993    
2841.499928 2.445      8.4843     15.2534    18.3814    11.9033    9.3193     6.6361     34.601     6.979      0.4012    
2841.699928 2.2497     7.9913     14.7556    18.5054    12.4724    10.2906    5.6158     34.6437    6.7309     0.3973    
2841.899928 2.0713     7.4113     14.4284    19.3155    14.2394    11.744     5.2876     35.168     6.5452     0.4007    
2842.099928 2.0347     7.2255     14.3671    20.1858    15.9924    12.7091    5.2308     34.0609    6.4675     0.4033    
2842.299928 1.9907     6.9703     14.7484    23.1324    18.67      14.9257    5.1834     33.0035    6.3859     0.4022    
2842.499928 1.946      6.8797     16.0028    28.0393    21.8147    17.8348    5.3084     33.1668    6.378      0.5624    
2842.699928 1.8945     7.2546     17.5589    32.4989    24.4537    20.2318    6.0087     32.5092    6.4231     0.4493    
2842.899928 2.0196     7.7236     18.2692    34.2925    26.1709    20.9539    9.4642     30.8878    6.59       0.3939    
2843.099928 2.0812     7.4629     17.7533    32.4446    26.3558    19.5268    9.6585     31.0804    6.8136     0.4009    
2843.299928 2.1927     7.4768     16.795     29.958     24.5558    17.7558    9.2003     33.1137    6.9106     0.4045    
