~Version
 VERS              .         2.0                           : CWLS LOG ASCII STANDARD - VERSION 2.0
 WRAP              .         NO                            : ONE LINE PER DEPTH STEP
 DLM               .         SPACE                         : DELIMITING CHARACTER(SPACE TAB OR COMMA)
~Well Information
#_______________________________________________________________________________
#
#PARAMETER_NAME    .UNIT     VALUE                         : DESCRIPTION
#_______________________________________________________________________________
STRT               .m        2698.3                        : First reference value
STOP               .m        2869.499914                   : Last reference value
STEP               .m        0.1999999                     : Step increment
NULL               .         -9999                         : Missing value
COMP               .                                       : Company
WELL               .         700                           : Well name
FLD                .                                       : Field
LOC                .                                       : Location
CNTY               .                                       : County
STAT               .                                       : State
CTRY               .                                       : Country
SRVC               .                                       : Service Company
DATE               .                                       : Date
API                .                                       : API number
EREF               .m        141.23                        : 
X                  .m        221071                        : 
Y                  .m        253934                        : 
group              .         Pad7                          : 
Интер-р            .         Зайцев                        : 
Куст               .         7                             : 
Статус             .         Не проверено                  : 
Тип                .         Нагнетательные                : 
~Parameter Information Block
#_______________________________________________________________________________
#
#PARAMETER_NAME    .UNIT     VALUE                         : DESCRIPTION
#_______________________________________________________________________________
SET                .         LAS1                          : 
REAL_CREATION_DATE .         Ср апр 11 2012-13_17_25       : 
TLFamily_DEPTH     .         Measured Depth                : 
TLFamily_GZ1       .         Extra Shallow Resistivity     : 
TLFamily_GZ2       .         Shallow Resistivity           : 
TLFamily_GZ3       .         Medium Resistivity            : 
TLFamily_GZ4       .         Deep Resistivity              : 
TLFamily_GZ5       .         Extra Deep Resistivity        : 
TLFamily_GZr       .         Medium Resistivity Inverted   : 
TLFamily_LLD       .         Lateral Log Resistivity       : 
TLFamily_PS        .         Spontaneous Potential         : 
TLFamily_PZ        .         Potential Resistivity         : 
TLFamily_RS        .         Mud Resistivity               : 
group              .         INI                           : 
~Curve Information
#_______________________________________________________________________________
#
#LOGNAME           .UNIT     LOG_ID                        : DESCRIPTION
#_______________________________________________________________________________
DEPTH              .m                                      : Measured Depth 
GZ1                .ohm.m                                  : Extra Shallow Resistivity 
GZ2                .ohm.m                                  : Shallow Resistivity 
GZ3                .ohm.m                                  : Medium Resistivity 
GZ4                .ohm.m                                  : Deep Resistivity 
GZ5                .ohm.m                                  : Extra Deep Resistivity 
GZr                .ohm.m                                  : Medium Resistivity Inverted 
LLD                .ohm.m                                  : Lateral Log Resistivity 
PS                 .mV                                     : Spontaneous Potential 
PZ                 .ohm.m                                  : Potential Resistivity 
RS                 .ohm.m                                  : Mud Resistivity 
~Ascii
# ...
2724.699987 2.1093     7.1011     10.7007    8.5868     5.0092     19.4715    5.9057     64.2441    7.6237     0.4202    
2724.899987 2.0493     6.9512     10.654     8.569      5.0768     20.5227    6.1952     63.1474    7.8004     0.4139    
2725.099987 2.0493     6.9001     10.654     8.6292     5.2198     21.6506    6.5854     63.2819    8.0775     0.4139    
2725.299987 1.9856     6.7151     10.7347    8.8157     5.4377     22.6502    6.9663     62.8896    8.46       0.4106    
2725.499986 2.028      6.8463     11.1402    9.2426     5.6314     22.8563    10.8822    61.2285    8.7134     0.5254    
2725.699986 2.2282     7.5992     11.8856    9.9174     5.8942     21.9008    13.6788    60.7087    8.9334     0.4193    
2725.899986 2.3726     7.9798     12.5986    10.5092    6.2134     20.8883    10.0141    61.7235    9.1415     0.4198    
2726.099986 2.3726     8.1916     12.9724    10.9686    6.4708     20.4925    8.4867     61.4231    9.252      0.4198    
2726.299986 2.3917     8.4999     13.4793    11.5457    6.7643     20.1852    9.3994     59.6414    9.2008     0.4211    
2726.499986 2.4498     8.9173     13.8844    12.0248    7.0763     19.9776    8.2394     59.3292    9.2577     0.4257    
2726.699986 2.3726     8.7064     13.8893    12.3238    7.478      20.2307    6.8424     60.5857    9.3837     0.4225    
2726.899986 2.2307     8.2286     13.717     12.5646    7.9673     20.957     6.5416     61.1011    9.5941     0.4101    
2727.099986 2.0652     7.7519     13.6653    13.075     8.6234     21.9317    7.2103     61.3864    9.9357     0.4032    
2727.299986 1.9493     7.5886     14.3939    14.1675    9.3534     22.076     12.9304    62.9073    10.3239    0.4852    
2727.499985 2.1962     8.5293     16.148     15.8173    10.0918    21.0706    40.1899    63.9518    10.7       0.4041    
2727.699985 2.5842     9.7074     18.3974    17.7691    10.6645    18.957     74.0343    63.2497    10.8489    0.4134    
2727.899985 2.9685     11.0225    20.5857    19.4988    10.9163    16.7138    45.2882    62.7829    10.7416    0.4876    
2728.099985 3.2622     11.9805    21.7685    20.4808    10.8633    15.0176    14.7595    62.9719    10.3759    0.5462    
2728.299985 0.4359     12.1482    21.8229    20.5379    10.5554    13.9986    9.0945     61.932     9.9052     0.4157    
2728.499985 3.0641     12.1644    21.3155    20.1151    10.0345    13.7924    6.7513     60.7333    9.4557     0.4158    
2728.699985 2.8609     11.5812    20.5475    19.5528    9.4935     13.9201    6.5445     61.6932    9.0792     0.4198    
2728.899985 2.6784     11.0762    19.8765    19.0936    9.0638     14.063     6.8927     63.1852    8.7904     0.4198    
2729.099985 2.5882     10.449     19.5473    18.9435    8.6711     14.2234    6.7273     63.2728    8.5923     0.4171    
2729.299985 2.5386     10.1644    19.6312    19.0709    8.4283     14.2713    7.6235     64.026     8.3847     0.417     
2729.499984 2.5882     9.8495     19.8629    19.1959    8.2487     14.3784    6.7192     66.3945    8.2892     0.4182    
2729.699984 2.4824     9.3511     20.0078    19.4074    8.0771     14.4652    6.8849     67.5052    8.1422     0.4198    
2729.899984 2.5343     9.4546     19.8332    19.4074    7.8816     14.5475    6.9        66.8613    8.0063     0.4198    
2730.099984 2.4607     9.0745     19.1423    18.9305    7.7107     14.3563    6.6118     67.1524    7.9207     0.415     
2730.299984 2.4187     8.7        18.1047    18.3559    7.5026     14.1447    6.4696     67.924     7.8654     0.4255    
2730.499984 2.3726     8.5894     17.1673    17.9423    7.2976     14.0313    6.624      66.8449    7.8155     0.4768    
2730.699984 2.3726     8.4987     16.4787    17.743     7.1712     14.0697    6.5667     65.3763    7.7599     0.4242    
2730.899984 2.3726     8.3874     15.9301    17.5289    7.0749     14.156     6.6927     65.7226    7.6855     0.4257    
2731.099984 2.3726     8.4045     15.5274    17.4081    6.9733     14.2903    6.6335     66.3       7.6477     0.4257    
2731.299984 2.3726     8.3274     15.1102    17.3252    6.92       14.5015    6.3687     65.8565    7.6044     0.4254    
2731.499983 2.3391     8.1115     14.6025    17.1463    6.8695     14.8844    5.6537     66.1816    7.6404     0.4205    
2731.699983 2.2104     7.824      14.2767    17.1976    6.8817     15.2523    6.6077     67.3555    7.6562     0.551     
2731.899983 2.2323     8.0603     14.2323    17.4284    6.9225     15.2417    8.1284     66.9772    7.6974     0.4239    
2732.099983 2.3082     8.1762     14.5492    17.6618    6.9808     15.0082    8.7808     65.2314    7.6551     0.4286    
2732.299983 2.4804     8.4155     14.7294    17.4737    7.0284     14.9942    7.1402     64.2083    7.6076     0.425     
2732.499983 2.4366     8.3749     14.5083    16.8412    7.0041     15.3898    6.2669     63.2719    7.4953     0.4166    
2732.699983 2.372      8.1908     14.1239    16.0429    6.952      15.9819    6.2973     61.1101    7.4432     0.4157    
2732.899983 2.2542     8.0951     13.7038    15.2307    6.9159     16.7586    6.0089     59.1947    7.4432     0.4206    
2733.099983 2.211      7.8005     13.2904    14.6424    6.8974     17.7968    5.6964     58.5243    7.4443     0.4223    
2733.299983 2.145      7.6452     13.0504    14.2428    6.9273     18.5606    6.1927     57.0497    7.4923     0.4148    
2733.499982 2.1032     7.5725     13.0504    14.1461    7.0019     18.6918    7.2701     53.5941    7.5804     0.4098    
2733.699982 2.1847     7.6987     13.0876    14.0238    7.0936     18.074     7.5949     49.9479    7.657      0.4063    
2733.899982 2.2362     7.6581     13.1997    13.8779    7.1729     17.1574    7.5477     46.1994    7.7554     0.4748    
2734.099982 2.3075     7.7847     13.1986    13.6498    7.2288     16.8297    6.6556     40.0209    7.8181     0.4562    
2734.299982 2.1997     7.5388     12.8111    13.2456    7.245      17.0901    5.5359     32.7752    7.9118     0.4146    
2734.499982 2.0386     7.0693     12.1422    12.6927    7.3448     17.8052    5.2597     28.5346    8.1531     0.4154    
2734.699982 1.8344     6.6095     11.6658    12.3424    7.496      17.5996    6.0011     27.0186    8.535      0.4086    
2734.899982 1.9071     6.7361     11.7913    12.574     7.7883     16.7779    9.9199     25.2315    9.0194     0.413     
2735.099982 2.0373     7.1642     12.4946    13.2242    8.2684     15.875     13.3517    23.4362    9.4989     0.4139    
2735.299982 2.2663     7.8508     13.5265    14.2305    8.821      15.2416    14.8026    22.8796    9.7681     0.4198    
2735.499981 2.5256     8.6214     15.0388    15.4672    9.5783     14.4093    18.1762    22.0491    9.7706     0.4209    
2735.699981 2.8579     9.8988     16.9083    16.9427    10.1553    13.3557    26.358     20.1622    9.4108     0.4255    
2735.899981 3.3634     11.7002    18.7746    18.2304    10.5729    12.5463    21.5613    18.8744    8.8493     0.4257    
2736.099981 3.2509     12.2974    19.4074    18.5198    10.6832    11.9411    9.8182     17.9406    8.3454     0.4278    
2736.299981 2.9654     11.3133    18.5679    17.5437    10.5327    11.7262    6.5777     15.7633    7.9606     0.4234    
2736.499981 2.7537     10.2732    17.4744    16.4582    10.0352    11.9102    5.2991     14.1945    7.634      0.5101    
2736.699981 2.4804     9.8101     16.9482    15.726     9.5297     12.4738    4.769      16.0629    7.3223     0.4423    
2736.899981 2.1748     8.0245     15.7507    14.2099    8.8552     14.1003    4.7812     21.0705    7.0723     0.4455    
2737.099981 2.0295     7.1171     14.6531    13.4084    8.4038     14.1647    4.2481     28.0002    7.2692     0.4237    
2737.299981 1.9845     6.8874     14.0622    13.226     8.2032     13.8621    5.0042     35.078     7.4595     0.4198    
2737.49998 2.1032     6.9129     14.0949    13.4484    8.0937     13.685     6.2619     39.2345    7.5862     0.4198    
2737.69998 2.1571     6.9749     13.8704    13.7557    8.2326     13.7419    6.8841     40.1937    7.6847     0.4198    
