~Version
 VERS              .         2.0                           : CWLS LOG ASCII STANDARD - VERSION 2.0
 WRAP              .         NO                            : ONE LINE PER DEPTH STEP
 DLM               .         SPACE                         : DELIMITING CHARACTER(SPACE TAB OR COMMA)
~Well Information
#_______________________________________________________________________________
#
#PARAMETER_NAME    .UNIT     VALUE                         : DESCRIPTION
#_______________________________________________________________________________
STRT               .m        2698.3                        : First reference value
STOP               .m        2869.499914                   : Last reference value
STEP               .m        0.1999999                     : Step increment
NULL               .         -9999                         : Missing value
COMP               .                                       : Company
WELL               .         700                           : Well name
FLD                .                                       : Field
LOC                .                                       : Location
CNTY               .                                       : County
STAT               .                                       : State
CTRY               .                                       : Country
SRVC               .                                       : Service Company
DATE               .                                       : Date
API                .                                       : API number
EREF               .m        141.23                        : 
X                  .m        221071                        : 
Y                  .m        253934                        : 
group              .         Pad7                          : 
Интер-р            .         Зайцев                        : 
Куст               .         7                             : 
Статус             .         Не проверено                  : 
Тип                .         Нагнетательные                : 
~Parameter Information Block
#_______________________________________________________________________________
#
#PARAMETER_NAME    .UNIT     VALUE                         : DESCRIPTION
#_______________________________________________________________________________
SET                .         LAS1                          : 
REAL_CREATION_DATE .         Ср апр 11 2012-13_17_25       : 
TLFamily_DEPTH     .         Measured Depth                : 
TLFamily_GZ1       .         Extra Shallow Resistivity     : 
TLFamily_GZ2       .         Shallow Resistivity           : 
TLFamily_GZ3       .         Medium Resistivity            : 
TLFamily_GZ4       .         Deep Resistivity              : 
TLFamily_GZ5       .         Extra Deep Resistivity        : 
TLFamily_GZr       .         Medium Resistivity Inverted   : 
TLFamily_LLD       .         Lateral Log Resistivity       : 
TLFamily_PS        .         Spontaneous Potential         : 
TLFamily_PZ        .         Potential Resistivity         : 
TLFamily_RS        .         Mud Resistivity               : 
group              .         INI                           : 
~Curve Information
#_______________________________________________________________________________
#
#LOGNAME           .UNIT     LOG_ID                        : DESCRIPTION
#_______________________________________________________________________________
DEPTH              .m                                      : Measured Depth 
GZ1                .ohm.m                                  : Extra Shallow Resistivity 
GZ2                .ohm.m                                  : Shallow Resistivity 
GZ3                .ohm.m                                  : Medium Resistivity 
GZ4                .ohm.m                                  : Deep Resistivity 
GZ5                .ohm.m                                  : Extra Deep Resistivity 
GZr                .ohm.m                                  : Medium Resistivity Inverted 
LLD                .ohm.m                                  : Lateral Log Resistivity 
PS                 .mV                                     : Spontaneous Potential 
PZ                 .ohm.m                                  : Potential Resistivity 
RS                 .ohm.m                                  : Mud Resistivity 
~Ascii
# ...
2764.299967 2.1849     7.6248     12.2911    11.4762    6.2492     20.3685    6.6161     85.8053    7.9554     0.4318    
2764.499967 2.3726     8.047      12.6636    11.8529    6.3398     20.6725    7.4942     84.7888    8.0759     0.418     
2764.699967 2.4189     8.2088     12.7687    11.8713    6.3398     20.6816    7.9303     85.2012    8.1576     0.4156    
2764.899967 2.3726     8.2015     12.6852    11.743     6.2629     20.8654    7.7445     85.1327    8.285      0.4198    
2765.099967 2.3726     8.1702     12.6243    11.6206    6.1378     21.265     7.0095     85.1831    8.3505     0.4198    
2765.299967 2.3726     8.2676     12.7043    11.6732    6.046      21.826     6.9816     86.8695    8.4367     0.4103    
2765.499966 2.3726     8.334      12.7841    11.6206    6.022      22.6765    7.0451     88.0283    8.5474     0.4081    
2765.699966 2.2906     8.0411     12.7841    11.568     6.041      23.5912    6.7008     86.8716    8.7159     0.4081    
2765.899966 2.2238     7.9686     12.8233    11.6074    6.1051     24.301     6.396      86.0039    8.9377     0.4123    
2766.099966 2.2158     8.0131     13.0647    11.7858    6.246      24.7445    7.5092     86.9601    9.2119     0.4139    
2766.299966 2.2272     7.9629     13.3166    11.9099    6.4469     25.0015    8.0527     86.8722    9.5178     0.4089    
2766.499966 2.2648     8.0006     13.6135    12.0803    6.6268     25.2267    8.3514     84.7619    9.811      0.4139    
2766.699966 2.2411     8.1515     14.0711    12.3503    6.8778     25.2764    9.0574     83.593     10.1154    0.4143    
2766.899966 2.3726     8.4271     14.6833    12.8235    7.173      25.1561    10.1482    83.9838    10.3741    0.4198    
2767.099966 2.4748     8.8681     15.2657    13.3062    7.4593     24.7974    11.0841    84.1801    10.6175    0.4198    
2767.299966 2.5419     9.2244     15.9628    13.9887    7.7654     24.391     12.4117    84.673     10.7867    0.4203    
2767.499965 2.659      9.8674     16.7385    14.716     8.1233     24.1251    12.5687    85.9699    10.8518    0.4251    
2767.699965 2.7498     10.3757    17.7696    15.8365    8.3894     24.0632    12.7974    86.4988    10.8518    0.4257    
2767.899965 2.7129     10.4231    18.2398    16.3471    8.5157     24.0787    11.5857    86.4676    10.8518    0.4211    
2768.099965 2.6959     10.4755    18.666     16.7747    8.5518     24.1593    10.6368    87.0947    10.8518    0.4164    
2768.299965 2.6703     10.402     18.896     17.1456    8.6        24.4118    10.3756    86.8023    10.8518    0.4215    
2768.499965 2.5971     10.1942    19.2006    17.5809    8.5645     24.8393    9.9707     84.9509    10.8701    0.4093    
2768.699965 2.5882     10.2659    19.4435    18.0424    8.5646     25.1239    9.5004     84.4176    10.9501    0.4081    
2768.899965 2.5882     10.1637    19.7654    18.4514    8.6194     24.9888    9.8139     86.1072    11.0205    0.4081    
2769.099965 2.5882     10.0651    19.9701    18.8327    8.7043     24.8086    10.6455    87.3596    11.0945    0.4081    
2769.299964 2.5882     10.1612    20.1787    19.2669    8.7913     24.8285    10.8983    87.3549    11.1735    0.4098    
2769.499964 2.5882     10.1177    20.4065    19.7635    8.9393     25.0078    11.0673    87.476     11.2609    0.4139    
2769.699964 2.5882     10.2175    20.4891    20.2817    9.0703     25.0381    10.8349    87.0835    11.3001    0.5104    
2769.899964 2.642      10.343     20.6762    20.9743    9.2496     24.8892    10.9574    85.329     11.396     0.4139    
2770.099964 2.642      10.3707    20.9293    21.8479    9.3899     24.6857    11.9299    84.3551    11.4679    0.4142    
2770.299964 2.6679     10.5245    21.1361    22.6696    9.5867     24.4488    11.9757    85.3417    11.4914    0.4198    
2770.499964 2.6959     10.6327    21.371     23.4305    9.7631     24.2318    12.1367    85.8427    11.5442    0.4198    
2770.699964 2.68       10.5803    21.4994    24.0953    9.9138     24.325     12.4781    85.0339    11.5817    0.4198    
2770.899964 2.642      10.7143    21.9351    24.8614    10.0763    24.6345    11.7418    85.4266    11.5319    0.4198    
2771.099964 2.7498     11.1042    22.4949    25.7746    10.2234    24.8936    11.5667    86.848     11.4909    0.4198    
2771.299964 2.8037     11.209     22.9328    26.4876    10.3917    24.9276    12.4016    86.0858    11.4711    0.4198    
2771.499963 2.8037     11.3138    23.1119    26.84      10.5293    24.7096    12.204     83.3912    11.4361    0.4199    
2771.699963 2.8037     11.2651    23.1417    26.9036    10.6248    24.5511    12.4023    82.1351    11.389     0.4235    
2771.899963 2.7872     11.1344    23.0129    26.8316    10.6917    24.3707    12.0605    82.5484    11.3801    0.4155    
2772.099963 2.8037     11.094     23.0088    26.7206    10.7767    24.3452    11.768     82.2072    11.3035    0.4083    
2772.299963 2.8037     11.1808    23.0998    26.8605    10.8442    24.3985    11.606     81.4702    11.2293    0.4081    
2772.499963 2.8037     11.2132    23.0575    26.8752    10.9433    24.5897    11.7092    82.262     11.1886    0.413     
2772.699963 2.7498     11.0448    22.7128    26.5205    11.0464    25.0023    11.03      83.2381    11.1181    0.4135    
2772.899963 2.663      10.6695    22.1473    26.0121    11.2037    25.7991    10.2848    82.4574    11.1248    0.4109    
2773.099963 2.5882     10.344     21.7081    25.8409    11.3382    26.6512    9.4223     81.6497    11.1714    0.414     
2773.299963 2.6264     10.4334    21.6775    26.0188    11.4537    27.1401    9.8435     82.2388    11.1962    0.5379    
2773.499962 2.642      10.5075    21.9111    26.2997    11.5568    26.905     12.6776    81.9695    11.2946    0.4349    
2773.699962 2.6959     10.5788    21.997     26.2997    11.6321    26.4424    13.0666    80.1254    11.3759    0.4198    
2773.899962 2.6959     10.4908    21.8845    26.148     11.6366    25.9975    13.1435    79.7494    11.4155    0.4198    
2774.099962 2.667      10.4019    21.5552    25.7917    11.6366    26.096     12.2857    81.2037    11.4377    0.4198    
2774.299962 2.642      10.3707    21.2243    25.4359    11.6975    26.4473    11.4468    81.271     11.4405    0.4183    
2774.499962 2.5964     10.2846    20.9962    25.2385    11.8169    27.0537    11.2655    80.1447    11.4933    0.4139    
2774.699962 2.5882     10.2621    20.7603    25.0627    12.0554    27.7252    11.1985    80.7361    11.5536    0.4247    
2774.899962 2.5343     10.032     20.5576    24.96      12.408     28.5504    11.2403    81.8744    11.7153    0.414     
2775.099962 2.4804     9.9516     20.5436    25.0209    12.8974    29.3049    11.2809    80.9614    11.8444    0.4115    
2775.299962 2.5065     10.069     20.9131    25.617     13.5138    29.9404    12.2558    79.6733    12.0182    0.4932    
2775.499961 2.5343     10.1954    21.5443    26.6303    14.1428    30.4721    13.624     79.7481    12.1636    0.4139    
2775.699961 2.601      10.5424    22.3627    27.7153    14.6984    30.8371    14.6623    79.4903    12.3136    0.4134    
2775.899961 2.6959     10.92      22.992     28.513     15.0892    30.5383    15.8041    78.5354    12.4067    0.411     
2776.099961 2.6959     10.8501    23.1314    28.6219    15.3394    29.8691    16.001     78.8387    12.5346    0.4817    
2776.299961 2.6959     10.8274    22.9185    28.3723    15.3604    29.3829    14.2204    79.8991    12.6551    0.418     
2776.499961 1.1124     10.947     22.8362    28.2676    15.1957    29.1956    14.1602    79.7243    12.7182    0.4229    
2776.699961 2.6959     10.9431    22.638     28.0126    15.1051    29.1846    14.0312    79.337     12.8144    0.4257    
2776.899961 2.6517     10.7013    22.3067    27.6121    15.0205    29.312     13.1061    80.2458    12.9976    0.4231    
2777.099961 2.5882     10.4755    22.1035    27.4353    15.001     29.2707    12.4507    80.6115    13.1558    0.4163    
2777.29996 2.6177     10.6146    22.3989    27.6491    15.1227    29.034     14.5472    79.222     13.3043    0.4106    
