~Version
 VERS              .         2.0                           : CWLS LOG ASCII STANDARD - VERSION 2.0
 WRAP              .         NO                            : ONE LINE PER DEPTH STEP
 DLM               .         SPACE                         : DELIMITING CHARACTER(SPACE TAB OR COMMA)
~Well Information
#_______________________________________________________________________________
#
#PARAMETER_NAME    .UNIT     VALUE                         : DESCRIPTION
#_______________________________________________________________________________
STRT               .m        2698.3                        : First reference value
STOP               .m        2869.499914                   : Last reference value
STEP               .m        0.1999999                     : Step increment
NULL               .         -9999                         : Missing value
COMP               .                                       : Company
WELL               .         700                           : Well name
FLD                .                                       : Field
LOC                .                                       : Location
CNTY               .                                       : County
STAT               .                                       : State
CTRY               .                                       : Country
SRVC               .                                       : Service Company
DATE               .                                       : Date
API                .                                       : API number
EREF               .m        141.23                        : 
X                  .m        221071                        : 
Y                  .m        253934                        : 
group              .         Pad7                          : 
Интер-р            .         Зайцев                        : 
Куст               .         7                             : 
Статус             .         Не проверено                  : 
Тип                .         Нагнетательные                : 
~Parameter Information Block
#_______________________________________________________________________________
#
#PARAMETER_NAME    .UNIT     VALUE                         : DESCRIPTION
#_______________________________________________________________________________
SET                .         LAS1                          : 
REAL_CREATION_DATE .         Ср апр 11 2012-13_17_25       : 
TLFamily_DEPTH     .         Measured Depth                : 
TLFamily_GZ1       .         Extra Shallow Resistivity     : 
TLFamily_GZ2       .         Shallow Resistivity           : 
TLFamily_GZ3       .         Medium Resistivity            : 
TLFamily_GZ4       .         Deep Resistivity              : 
TLFamily_GZ5       .         Extra Deep Resistivity        : 
TLFamily_GZr       .         Medium Resistivity Inverted   : 
TLFamily_LLD       .         Lateral Log Resistivity       : 
TLFamily_PS        .         Spontaneous Potential         : 
TLFamily_PZ        .         Potential Resistivity         : 
TLFamily_RS        .         Mud Resistivity               : 
group              .         INI                           : 
~Curve Information
#_______________________________________________________________________________
#
#LOGNAME           .UNIT     LOG_ID                        : DESCRIPTION
#_______________________________________________________________________________
DEPTH              .m                                      : Measured Depth 
GZ1                .ohm.m                                  : Extra Shallow Resistivity 
GZ2                .ohm.m                                  : Shallow Resistivity 
GZ3                .ohm.m                                  : Medium Resistivity 
GZ4                .ohm.m                                  : Deep Resistivity 
GZ5                .ohm.m                                  : Extra Deep Resistivity 
GZr                .ohm.m                                  : Medium Resistivity Inverted 
LLD                .ohm.m                                  : Lateral Log Resistivity 
PS                 .mV                                     : Spontaneous Potential 
PZ                 .ohm.m                                  : Potential Resistivity 
RS                 .ohm.m                                  : Mud Resistivity 
~Ascii
# ...
2751.099974 2.2095     7.2364     12.0312    14.0479    10.5223    10.9571    4.7186     76.6612    6.2428     0.4653    
2751.299974 2.1571     7.0598     11.6421    13.7095    10.407     11.1341    4.5446     77.6162    6.2446     0.4168    
2751.499973 2.1333     6.8766     11.3333    13.4589    10.319     11.3124    4.9068     78.4635    6.2714     0.4167    
2751.699973 2.211      7.1181     11.1522    13.2053    10.2261    11.3397    5.3137     80.2378    6.2714     0.4241    
2751.899973 2.1745     6.9143     11.0195    12.8568    10.2576    11.4806    4.7459     81.0242    6.2819     0.4222    
2752.099973 2.1032     6.785      10.7644    12.4545    10.6323    11.7033    4.6334     80.1009    6.368      0.4524    
2752.299973 2.0493     6.7417     10.9217    12.6482    10.9664    12.386     4.7524     79.3151    6.4299     0.4667    
2752.499973 2.1666     7.145      11.56      13.1124    10.983     12.4872    5.967      78.7529    6.378      0.4182    
2752.699973 2.4265     8.0649     12.0118    13.1149    10.8391    12.015     7.3584     77.8837    6.3786     0.4238    
2752.899973 2.3786     7.6086     11.6464    12.2959    10.4589    11.4041    6.6826     78.4607    6.4096     0.4165    
2753.099973 2.2465     7.221      11.0031    11.2795    9.7877     11.187     4.5506     80.5365    6.3364     0.421     
2753.299972 2.1702     7.099      10.5969    10.6101    9.1483     11.1953    4.3781     81.288     6.3229     0.4182    
2753.499972 2.1571     7.1691     10.5084    10.2361    8.7476     11.2331    4.5153     80.7129    6.2714     0.4139    
2753.699972 2.1571     7.2617     10.4942    10.0042    8.4902     11.2864    4.7763     81.1397    6.2729     0.4127    
2753.899972 2.1571     7.1748     10.5475    9.826      8.2477     11.2331    5.0808     81.5744    6.3229     0.4083    
2754.099972 2.211      7.1224     10.5475    9.6399     7.9907     11.2331    4.9267     80.1435    6.2747     0.4119    
2754.299972 2.211      7.1081     10.4942    9.4101     7.7371     11.1265    4.9935     78.9972    6.2714     0.4139    
2754.499972 2.1888     7.0139     10.4942    9.158      7.5172     11.096     4.9007     80.0292    6.3059     0.4139    
2754.699972 2.1571     6.9653     10.4942    8.9506     7.3179     11.136     4.7444     80.7154    6.3247     0.4139    
2754.899972 2.1571     6.9164     10.5656    8.8512     7.1878     11.3405    4.7063     79.7462    6.3247     0.4182    
2755.099972 2.1175     7.0541     10.7345    9.0098     7.0581     11.5529    4.7339     79.848     6.3076     0.5373    
2755.299972 2.2712     7.491      10.9363    9.1515     6.8876     11.4279    5.4494     81.3285    3.1242     0.529     
2755.499971 1.9338     7.4329     10.9925    9.0847     6.7505     11.2664    6.221      81.2752    6.2668     0.4198    
2755.699971 2.248      7.1012     10.6464    8.7449     6.5319     11.2992    4.7163     79.8792    6.2166     0.4198    
2755.899971 2.1075     6.9523     10.389     8.5462     6.1907     11.393     4.2583     79.3178    6.1612     0.42      
2756.099971 2.1571     6.9457     10.2848    8.3754     5.9128     11.393     4.6964     78.7088    6.154      0.4257    
2756.299971 2.1032     6.8605     10.1405    8.2502     5.6686     11.4281    4.8992     77.0198    6.1638     0.4227    
2756.499971 2.1032     6.7473     9.9826     8.1481     5.4779     11.6712    4.6665     76.4957    6.1205     0.4992    
2756.699971 2.1032     6.6249     9.8532     8.1481     5.2983     11.9942    4.5657     78.0375    6.1117     0.4174    
2756.899971 2.0493     6.5065     9.7628     8.2534     5.2331     12.1958    4.6404     79.2426    6.134      0.414     
2757.099971 1.9954     6.4813     9.6823     8.2534     5.2339     12.3018    4.6999     79.8431    6.2158     0.4157    
2757.299971 1.9954     6.4413     9.6755     8.2613     5.3366     12.5352    4.8101     81.6619    6.2209     0.425     
2757.49997 1.9954     6.4413     9.7304     8.4162     5.5407     12.9202    4.7673     83.3862    6.2764     0.4173    
2757.69997 1.9954     6.3978     9.8637     8.7456     5.8262     13.3973    4.6854     82.7632    6.3849     0.4078    
2757.89997 1.9991     6.44       10.1217    9.3286     6.1681     13.9742    4.7063     81.5433    6.4671     0.4027    
2758.09997 2.0493     6.7016     10.4748    9.8561     6.487      14.4315    5.1168     82.1963    6.5942     0.4081    
2758.29997 2.1017     6.7707     10.6413    10.1502    6.8128     14.5088    5.5637     83.3466    6.7419     0.4132    
2758.49997 2.0332     6.5534     10.6007    10.3691    7.0724     14.5378    5.3706     83.11      6.9908     0.4113    
2758.69997 2.0493     6.7961     10.7174    10.6814    7.2933     14.5528    5.5037     82.5543    7.1361     0.4118    
2758.89997 2.1571     7.0656     11.197     11.2704    7.464      14.4292    6.5341     82.7341    7.2612     0.4144    
2759.09997 2.3766     7.8136     11.7549    11.6726    7.5581     13.8228    7.4267     83.0026    7.2834     0.5076    
2759.29997 2.5057     8.1887     12.125     11.897     7.5187     13.1961    8.5287     83.5968    7.2806     0.4217    
2759.499969 2.5164     8.2286     12.1603    11.8491    7.3487     12.8127    6.6786     85.1698    7.1802     0.4257    
2759.699969 2.4804     8.3032     12.0881    11.5553    7.0961     12.5315    5.8462     86.1338    7.0513     0.4257    
2759.899969 2.4659     8.3552     12.009     11.173     6.8397     12.3252    5.6558     85.1785    6.9851     0.4221    
2760.099969 2.3662     8.1181     11.8818    10.7454    6.6172     12.3567    5.2247     84.2022    6.9055     0.4257    
2760.299969 2.2648     7.9083     11.8414    10.398     6.4481     12.5661    4.8036     84.5121    6.8557     0.4257    
2760.499969 2.2648     7.7754     12.0041    10.272     6.3548     12.7748    5.2138     84.3971    6.8087     0.4207    
2760.699969 2.2648     7.6987     12.1572    10.1441    6.3069     13.0421    5.2383     83.553     6.804      0.4198    
2760.899969 2.2648     7.5959     12.3334    10.0859    6.3104     13.3853    5.3881     84.1011    6.8252     0.4139    
2761.099969 2.2648     7.6244     12.4614    10.0435    6.3308     13.6436    5.3086     85.5782    6.8135     0.421     
2761.299968 2.2648     7.594      12.5711    9.9551     6.2668     13.7667    5.478      85.5688    6.8573     0.4253    
2761.499968 2.2648     7.5616     12.4745    9.8844     6.1516     13.8449    5.6618     84.96      6.8834     0.4155    
2761.699968 2.2888     7.5769     12.3438    9.8318     6.0177     13.9153    5.579      85.6855    6.8573     0.4123    
2761.899968 2.3187     7.6942     12.2452    9.8609     5.8425     14.0048    5.7996     86.0759    6.8548     0.4081    
2762.099968 2.3591     7.8009     12.1354    9.8844     5.6445     13.9553    5.8703     84.6178    6.804      0.4116    
2762.299968 2.3187     7.6869     11.8119    9.853      5.4444     14.0596    5.7269     83.4837    6.804      0.4139    
2762.499968 2.2514     7.4197     11.3345    9.691      5.2882     14.3688    5.3099     83.7785    6.7575     0.4139    
2762.699968 2.211      7.2142     10.9689    9.5101     5.1262     14.8467    4.8899     83.6166    6.8246     0.4139    
2762.899968 2.0876     6.9506     10.7066    9.4109     5.0686     15.5058    4.9692     83.3042    6.9087     0.4102    
2763.099968 2.0493     6.8735     10.6053    9.5377     5.0914     16.2188    4.7933     84.8727    7.0298     0.5211    
2763.299968 2.073      6.8674     10.7858    9.8316     5.2114     16.9077    5.2439     86.7311    7.1566     0.4185    
2763.499967 2.1302     6.9432     11.092     10.1278    5.3859     17.5584    5.7351     86.5534    7.3112     0.4198    
2763.699967 2.1813     7.1075     11.381     10.4388    5.6038     18.2121    6.2541     86.192     7.4697     0.4198    
2763.899967 2.211      7.1979     11.5858    10.722     5.8867     18.9128    6.5192     87.2664    7.6536     0.5197    
2764.099967 2.1967     7.2798     11.8478    11.0046    6.1225     19.6926    6.3697     87.4865    7.8295     0.5051    
