~Version
 VERS              .         2.0                           : CWLS LOG ASCII STANDARD - VERSION 2.0
 WRAP              .         NO                            : ONE LINE PER DEPTH STEP
 DLM               .         SPACE                         : DELIMITING CHARACTER(SPACE TAB OR COMMA)
~Well Information
#_______________________________________________________________________________
#
#PARAMETER_NAME    .UNIT     VALUE                         : DESCRIPTION
#_______________________________________________________________________________
STRT               .m        2698.3                        : First reference value
STOP               .m        2869.499914                   : Last reference value
STEP               .m        0.1999999                     : Step increment
NULL               .         -9999                         : Missing value
COMP               .                                       : Company
WELL               .         700                           : Well name
FLD                .                                       : Field
LOC                .                                       : Location
CNTY               .                                       : County
STAT               .                                       : State
CTRY               .                                       : Country
SRVC               .                                       : Service Company
DATE               .                                       : Date
API                .                                       : API number
EREF               .m        141.23                        : 
X                  .m        221071                        : 
Y                  .m        253934                        : 
group              .         Pad7                          : 
Интер-р            .         Зайцев                        : 
Куст               .         7                             : 
Статус             .         Не проверено                  : 
Тип                .         Нагнетательные                : 
~Parameter Information Block
#_______________________________________________________________________________
#
#PARAMETER_NAME    .UNIT     VALUE                         : DESCRIPTION
#_______________________________________________________________________________
SET                .         LAS1                          : 
REAL_CREATION_DATE .         Ср апр 11 2012-13_17_25       : 
TLFamily_DEPTH     .         Measured Depth                : 
TLFamily_GZ1       .         Extra Shallow Resistivity     : 
TLFamily_GZ2       .         Shallow Resistivity           : 
TLFamily_GZ3       .         Medium Resistivity            : 
TLFamily_GZ4       .         Deep Resistivity              : 
TLFamily_GZ5       .         Extra Deep Resistivity        : 
TLFamily_GZr       .         Medium Resistivity Inverted   : 
TLFamily_LLD       .         Lateral Log Resistivity       : 
TLFamily_PS        .         Spontaneous Potential         : 
TLFamily_PZ        .         Potential Resistivity         : 
TLFamily_RS        .         Mud Resistivity               : 
group              .         INI                           : 
~Curve Information
#_______________________________________________________________________________
#
#LOGNAME           .UNIT     LOG_ID                        : DESCRIPTION
#_______________________________________________________________________________
DEPTH              .m                                      : Measured Depth 
GZ1                .ohm.m                                  : Extra Shallow Resistivity 
GZ2                .ohm.m                                  : Shallow Resistivity 
GZ3                .ohm.m                                  : Medium Resistivity 
GZ4                .ohm.m                                  : Deep Resistivity 
GZ5                .ohm.m                                  : Extra Deep Resistivity 
GZr                .ohm.m                                  : Medium Resistivity Inverted 
LLD                .ohm.m                                  : Lateral Log Resistivity 
PS                 .mV                                     : Spontaneous Potential 
PZ                 .ohm.m                                  : Potential Resistivity 
RS                 .ohm.m                                  : Mud Resistivity 
~Ascii
# ...
2737.89998 2.1831     7.1012     13.5582    13.9576    8.3691     14.0197    7.056      40.3657    7.7333     0.4198    
2738.09998 2.211      7.4466     13.3889    14.188     8.5431     14.3066    6.8735     40.0021    7.8033     0.4159    
2738.29998 2.211      7.6604     13.3699    14.6176    8.7199     14.3779    6.8943     37.4746    7.7618     0.4139    
2738.49998 2.3726     8.1668     13.4232    15.1501    8.8458     14.4165    7.545      32.9837    7.7202     0.4918    
2738.69998 2.4563     8.4443     13.3735    15.5197    8.9112     14.5064    8.9071     29.1097    7.6006     0.4125    
2738.89998 2.4243     8.4293     13.2536    15.6718    8.9757     14.5638    6.8543     27.5087    7.4698     0.4138    
2739.09998 2.3403     8.2044     13.2101    15.6073    8.9908     14.3246    6.5587     27.0728    7.3745     0.4005    
2739.29998 2.34       8.1765     13.0936    15.0928    9.0664     14.4875    6.5122     25.606     7.3002     0.4022    
2739.499979 2.2536     7.703      12.7397    14.4654    9.347      15.0261    5.9065     22.3682    7.2301     0.4022    
2739.699979 2.1792     7.3739     12.2826    13.9723    9.7826     15.7861    5.2523     19.6189    7.2867     0.401     
2739.899979 2.1032     7.026      11.977     13.8304    10.6307    16.7388    5.6216     18.1911    7.3682     0.4034    
2740.099979 2.0795     6.7972     11.8676    14.1234    12.0782    18.1945    5.3112     16.2928    7.5437     0.4568    
2740.299979 1.9999     6.6294     12.1266    14.9487    13.8534    19.8649    5.3014     14.2185    7.8025     0.5068    
2740.499979 1.9829     6.6514     12.8423    16.4174    15.7001    21.6537    5.4605     13.1416    8.1474     0.407     
2740.699979 1.9415     6.959      13.7254    17.8427    17.431     22.0086    6.1113     12.3229    8.5359     0.4022    
2740.899979 2.2206     7.9312     15.01      19.2947    18.4643    20.8497    7.7608     11.2166    8.8418     0.4136    
2741.099979 2.6165     9.4694     16.2312    20.4482    18.6974    18.8247    25.9345    11.546     8.987      0.42      
2741.299979 3.0159     9.8018     16.939     20.6504    18.1926    17.0087    46.5168    13.6579    8.887      0.4277    
2741.499978 2.9742     9.9241     16.5585    19.5984    17.1634    16.0665    13.0919    15.673     8.635      0.4231    
2741.699978 2.8702     10.2108    15.6583    18.0859    15.784     15.5073    8.554      18.2627    8.4337     0.418     
2741.899978 2.4855     9.5031     14.6733    16.5539    14.2903    15.284     6.4557     22.1144    8.2624     0.4238    
2742.099978 2.4939     9.5163     14.1417    15.3813    12.924     15.0666    5.9755     25.1252    8.1621     0.4277    
2742.299978 2.4323     9.0932     13.9965    14.7088    11.8637    14.9642    6.7555     27.8671    8.1356     0.4282    
2742.499978 2.3832     8.5844     13.9887    13.9889    11.0886    14.7525    6.4026     31.5266    8.1373     0.4218    
2742.699978 2.3842     8.38       14.175     13.418     10.4675    14.6653    6.7255     34.357     8.1762     0.4253    
2742.899978 2.333      8.1703     14.5433    13.0517    10.0411    14.9819    6.7128     35.5314    8.1888     0.4257    
2743.099978 2.3187     8.2637     15.0607    12.9249    9.7189     14.9899    6.3913     34.9044    8.1873     0.4257    
2743.299978 2.3772     8.5145     15.4729    12.8833    9.4632     14.9002    7.1335     31.9435    8.1356     0.4222    
2743.499977 2.4804     8.537      15.6434    12.8833    9.258      15.1792    7.759      29.1262    8.13       0.4232    
2743.699977 2.4804     8.6666     15.5964    12.936     8.9784     15.4439    6.4887     29.435     8.0118     0.4198    
2743.899977 2.4804     8.7182     15.2208    12.8896    8.6924     15.5385    7.343      31.1061    7.9971     0.4233    
2744.099977 2.4082     8.4908     14.9075    12.8307    8.3655     15.523     7.2591     31.2435    7.97       0.4174    
2744.299977 2.4752     8.574      14.5739    12.7904    8.0662     15.9346    6.8132     31.0118    7.9225     0.4153    
2744.499977 2.3465     8.1967     14.4464    13.0864    7.728      15.9817    6.3884     31.9103    7.9227     0.4129    
2744.699977 2.3187     7.9785     14.0038    13.2021    7.4124     16.3154    6.694      32.0535    7.9616     0.4115    
2744.899977 2.2489     7.7835     13.6297    13.5692    7.1527     16.7963    6.102      30.8409    8.0726     0.4158    
2745.099977 2.1433     7.4606     13.4475    14.0803    6.9931     17.0962    7.3575     30.8339    8.1356     0.409     
2745.299977 2.2857     8.0816     13.5515    14.5832    6.9279     17.0613    8.4193     32.3134    8.173      0.4127    
2745.499976 2.3096     7.9511     13.7841    15.1172    6.9275     16.7764    6.8951     33.1082    8.243      0.4107    
2745.699976 2.2634     7.9462     13.6229    15.1031    6.9754     16.6841    7.165      33.7492    8.3087     0.5402    
2745.899976 2.3187     7.9709     13.7427    15.1983    6.9882     16.4425    7.5961     35.8683    8.3487     0.4711    
2746.099976 2.2748     7.9518     13.6869    15.1222    7.0698     16.0458    7.271      38.1225    8.4197     0.4902    
2746.299976 2.2648     7.8559     13.6362    15.1972    7.2184     15.8277    7.1194     39.8243    8.5272     0.411     
2746.499976 2.211      7.8636     13.8358    15.5327    7.4595     15.7637    7.0459     43.1061    8.6189     0.4116    
2746.699976 2.3138     8.1179     14.0749    15.9538    7.7629     15.7637    7.2286     47.3923    8.7514     0.416     
2746.899976 2.211      7.8969     14.2752    16.3096    8.1695     15.6263    7.4594     49.5571    8.9818     0.4223    
2747.099976 2.1571     7.896      14.5502    16.7705    8.5837     15.1971    10.4216    50.5849    9.202      0.4219    
2747.299976 2.345      8.5177     15.6296    17.7081    8.9263     14.1781    18.2401    53.7196    9.3073     0.4234    
2747.499975 2.6581     9.5023     16.9773    18.9128    9.1959     12.828     19.8071    58.0134    9.2448     0.428     
2747.699975 2.967      10.3771    17.9677    19.4994    9.3586     11.6316    12.1436    60.9142    9.0309     0.4313    
2747.899975 2.9654     10.4953    18.3126    19.5999    9.4594     10.9655    7.4397     63.171     8.6665     0.4264    
2748.099975 2.9115     10.6639    18.3642    19.4449    9.4105     10.7105    6.8914     65.8184    8.2298     0.4286    
2748.299975 2.783      10.731     18.1063    19.0678    9.359      10.6468    5.7015     67.3203    7.8655     0.4271    
2748.499975 2.6407     10.1275    17.5892    18.4934    9.3864     10.768     5.1315     67.6074    7.5751     0.4203    
2748.699975 2.4723     9.4602     17.0571    17.9928    9.4661     10.8067    5.5733     69.1201    7.3587     0.4148    
2748.899975 2.4265     9.2142     16.7875    17.5671    9.6225     10.7496    5.8088     71.6293    7.1707     0.4233    
2749.099975 2.3726     8.8219     16.5924    17.2094    9.9047     10.622     5.3597     72.8268    7.0776     0.4239    
2749.299975 2.3604     8.4165     16.2484    16.737     10.312     10.5935    5.3448     73.5059    6.9144     0.474     
2749.499974 2.3187     8.1624     15.9728    16.3599    10.5746    10.5935    5.2453     75.4333    6.838      0.4441    
2749.699974 2.3187     7.9607     15.4893    15.9899    10.8063    10.5935    5.2287     76.9526    6.71       0.4124    
2749.899974 2.3187     7.8845     14.894     15.6484    10.9951    10.65      5.1413     76.2804    6.6376     0.4085    
2750.099974 2.2648     7.7133     14.1895    15.3859    10.9771    10.8305    4.9682     75.1561    6.5515     0.4081    
2750.299974 2.2648     7.594      13.605     15.0683    10.9244    11.0082    4.9089     75.0974    6.4396     0.4154    
2750.499974 2.2204     7.4554     13.0183    14.7823    10.8317    11.0369    4.9186     74.8169    6.4165     0.4198    
2750.699974 2.211      7.3308     12.5857    14.4743    10.7263    10.873     4.9371     74.1034    6.3584     0.4139    
2750.899974 2.211      7.289      12.3029    14.2172    10.6266    10.8681    4.8673     74.8366    6.2714     0.5088    
