~Version
 VERS              .         2.0                           : CWLS LOG ASCII STANDARD - VERSION 2.0
 WRAP              .         NO                            : ONE LINE PER DEPTH STEP
 DLM               .         SPACE                         : DELIMITING CHARACTER(SPACE TAB OR COMMA)
~Well Information
#_______________________________________________________________________________
#
#PARAMETER_NAME    .UNIT     VALUE                         : DESCRIPTION
#_______________________________________________________________________________
STRT               .m        2698.3                        : First reference value
STOP               .m        2869.499914                   : Last reference value
STEP               .m        0.1999999                     : Step increment
NULL               .         -9999                         : Missing value
COMP               .                                       : Company
WELL               .         700                           : Well name
FLD                .                                       : Field
LOC                .                                       : Location
CNTY               .                                       : County
STAT               .                                       : State
CTRY               .                                       : Country
SRVC               .                                       : Service Company
DATE               .                                       : Date
API                .                                       : API number
EREF               .m        141.23                        : 
X                  .m        221071                        : 
Y                  .m        253934                        : 
group              .         Pad7                          : 
Интер-р            .         Зайцев                        : 
Куст               .         7                             : 
Статус             .         Не проверено                  : 
Тип                .         Нагнетательные                : 
~Parameter Information Block
#_______________________________________________________________________________
#
#PARAMETER_NAME    .UNIT     VALUE                         : DESCRIPTION
#_______________________________________________________________________________
SET                .         LAS3                          : 
REAL_CREATION_DATE .         Ср апр 11 2012-13_17_25       : 
TLFamily_DEPTH     .         Measured Depth                : 
TLFamily_GR        .         Gamma Ray                     : 
TLFamily_TNPH      .         Neutron Porosity              : 
group              .         INI                           : 
~Curve Information
#_______________________________________________________________________________
#
#LOGNAME           .UNIT     LOG_ID                        : DESCRIPTION
#_______________________________________________________________________________
DEPTH              .m                                      : Measured Depth 
GR                 .gAPI                                   :  
TNPH               .v/v                                    : Neutron Porosity 
~Ascii
2698.3000488 98.569     0.245316  
2698.5     101.888    0.221527  
2698.7     102.639    0.213854  
2698.9     103.218    0.223627  
2699.1     104.894    0.23469   
2699.3     104.175    0.235366  
2699.499999 101.842    0.233104  
2699.699999 98.383     0.229069  
2699.899999 96.982     0.243324  
2700.099999 96.36501   0.245634  
2700.299999 96.965     0.228185  
2700.499999 99.96899   0.217685  
2700.699999 99.566     0.217033  
2700.899999 98.097     0.214142  
2701.099999 99.791     0.215503  
2701.299999 99.63      0.220586  
2701.499998 98.376     0.22283   
2701.699998 100.14     0.240506  
2701.899998 99.394     0.255092  
2702.099998 98.816     0.243849  
2702.299998 100.117    0.223341  
2702.499998 100.644    0.218567  
2702.699998 100.514    0.223152  
2702.899998 100.04     0.233014  
2703.099998 101.564    0.241987  
2703.299998 100.694    0.246071  
2703.499997 98.835     0.253641  
2703.699997 98.908     0.250728  
2703.899997 98.52899   0.22989   
2704.099997 95.83701   0.226043  
2704.299997 95.76      0.22041   
2704.499997 100.23     0.217687  
2704.699997 104.517    0.23516   
2704.899997 107.909    0.244732  
2705.099997 109.975    0.24904   
2705.299997 105.387    0.256125  
2705.499996 103.117    0.25974   
2705.699996 102.703    0.255293  
2705.899996 100.476    0.249417  
2706.099996 97.66      0.248092  
2706.299996 97.846     0.248737  
2706.499996 97.457     0.253578  
2706.699996 96.24699   0.252032  
2706.899996 96.37801   0.241231  
2707.099996 94.301     0.231938  
2707.299996 93.882     0.228498  
2707.499995 98.969     0.239312  
2707.699995 103.936    0.24948   
2707.899995 103.108    0.235335  
2708.099995 96.756     0.223716  
2708.299995 91.659     0.231889  
2708.499995 89.82899   0.240304  
2708.699995 90.685     0.237927  
2708.899995 94.196     0.241779  
2709.099995 99.491     0.254894  
2709.299995 99.731     0.254089  
2709.499994 100.393    0.244815  
2709.699994 103.711    0.228937  
2709.899994 103.419    0.219363  
2710.099994 103.815    0.227714  
2710.299994 104.989    0.227475  
2710.499994 105.58     0.232587  
2710.699994 105.649    0.233351  
2710.899994 103.866    0.225621  
2711.099994 103.028    0.230076  
2711.299994 103.276    0.246751  
2711.499993 103.382    0.252226  
2711.699993 102.16     0.243994  
2711.899993 100.301    0.230234  
2712.099993 101.298    0.218777  
2712.299993 103.561    0.203793  
2712.499993 103.941    0.198818  
2712.699993 102.89     0.207141  
2712.899993 102.438    0.219865  
2713.099993 101.847    0.227988  
2713.299993 102.263    0.230898  
2713.499992 100.554    0.236482  
2713.699992 97.958     0.23871   
2713.899992 99.977     0.233824  
2714.099992 101.904    0.230854  
2714.299992 104.019    0.236184  
2714.499992 104.732    0.24809   
2714.699992 102.368    0.249895  
2714.899992 100.062    0.245522  
2715.099992 100.282    0.245466  
2715.299992 102.02     0.238042  
2715.499991 103.604    0.231615  
2715.699991 104.659    0.235536  
2715.899991 103.973    0.228985  
2716.099991 102.68     0.224099  
2716.299991 102.718    0.225377  
2716.499991 105.479    0.227804  
2716.699991 105.894    0.233738  
2716.899991 99.393     0.237531  
2717.099991 99.086     0.236608  
2717.299991 96.829     0.234338  
2717.49999 92.373     0.23206   
2717.69999 93.063     0.22095   
2717.89999 95.84      0.229912  
2718.09999 99.231     0.243523  
2718.29999 102.022    0.251335  
2718.49999 103.626    0.249534  
2718.69999 103.523    0.25249   
2718.89999 103.281    0.253294  
2719.09999 102.195    0.245665  
2719.29999 102.518    0.246793  
2719.499989 104.479    0.243811  
2719.699989 105.913    0.235425  
2719.899989 106.274    0.236662  
2720.099989 105.957    0.239872  
2720.299989 108.762    0.246342  
2720.499989 111.444    0.256527  
2720.699989 112.07     0.249251  
2720.899989 115.495    0.2494    
2721.099989 116.641    0.254682  
2721.299989 117.412    0.256021  
2721.499988 116.066    0.249265  
2721.699988 112.663    0.242144  
2721.899988 113.707    0.23889   
2722.099988 117.288    0.2289    
2722.299988 112.483    0.225293  
2722.499988 107.256    0.229404  
2722.699988 105.64     0.229633  
2722.899988 105.698    0.223568  
2723.099988 106.373    0.221704  
2723.299988 105.267    0.220462  
2723.499987 102.776    0.21595   
2723.699987 101.138    0.216951  
2723.899987 102.857    0.222808  
2724.099987 103.636    0.22025   
2724.299987 102.58     0.216575  
2724.499987 102.869    0.214954  
2724.699987 102.77     0.215883  
2724.899987 100.307    0.224225  
2725.099987 98.64101   0.232483  
2725.299987 98.664     0.220248  
2725.499986 93.84499   0.206062  
2725.699986 86.74      0.197906  
2725.899986 84.59601   0.199929  
2726.099986 88.073     0.207279  
2726.299986 91.765     0.219455  
2726.499986 93.30499   0.206468  
2726.699986 94.10201   0.197204  
2726.899986 93.52299   0.199094  
2727.099986 89.293     0.18456   
2727.299986 81.431     0.170452  
2727.499985 67.323     0.157754  
2727.699985 59.355     0.140852  
2727.899985 60.028     0.147103  
2728.099985 69.508     0.17682   
2728.299985 78.673     0.200117  
2728.499985 93.8       0.210562  
2728.699985 104.533    0.21674   
2728.899985 112.822    0.210653  
2729.099985 113.082    0.207644  
2729.299985 111.689    0.213776  
2729.499984 110.857    0.210014  
2729.699984 110.204    0.2126    
2729.899984 108.086    0.212573  
2730.099984 110.875    0.203908  
2730.299984 114.472    0.211038  
2730.499984 114.758    0.221934  
2730.699984 114.316    0.223112  
2730.899984 112.752    0.23494   
2731.099984 111.383    0.239763  
2731.299984 111.214    0.228152  
2731.499983 110.001    0.226554  
2731.699983 109.628    0.229295  
2731.899983 107.889    0.218082  
2732.099983 104.756    0.206225  
2732.299983 107.401    0.204085  
2732.499983 116.112    0.207051  
2732.699983 117.508    0.217139  
2732.899983 115.333    0.219404  
2733.099983 113.933    0.219711  
2733.299983 114.244    0.214158  
2733.499982 111.143    0.205697  
2733.699982 105.439    0.196534  
2733.899982 101.625    0.194817  
2734.099982 95.406     0.194779  
2734.299982 86.811     0.194248  
2734.499982 77.425     0.178716  
2734.699982 71.736     0.168731  
2734.899982 65.387     0.166627  
2735.099982 60.387     0.167024  
2735.299982 60.149     0.168786  
2735.499981 60.424     0.160437  
2735.699981 60.417     0.160445  
2735.899981 62.035     0.171918  
2736.099981 67.536     0.184866  
2736.299981 72.211     0.198294  
2736.499981 75.366     0.217313  
2736.699981 78.098     0.228007  
2736.899981 84.174     0.228019  
2737.099981 92.09601   0.226577  
2737.299981 99.349     0.231788  
2737.49998 108.591    0.232491  
2737.69998 111.745    0.236199  
2737.89998 110.087    0.234024  
2738.09998 104.979    0.225038  
2738.29998 102        0.211047  
2738.49998 94.607     0.205872  
2738.69998 86.75999   0.201562  
2738.89998 83.05801   0.19161   
2739.09998 86.89201   0.199431  
2739.29998 91.715     0.206462  
2739.499979 89.875     0.207451  
2739.699979 82.265     0.20465   
2739.899979 75.419     0.19744   
2740.099979 72.854     0.189009  
2740.299979 71.767     0.185015  
2740.499979 68.73399   0.171055  
2740.699979 65.707     0.156296  
2740.899979 60.373     0.153092  
2741.099979 52.955     0.150957  
2741.299979 53.607     0.141345  
2741.499978 61.971     0.152727  
2741.699978 69.998     0.172679  
2741.899978 76.908     0.192076  
2742.099978 81.75      0.204556  
2742.299978 84.607     0.20496   
2742.499978 88.462     0.193322  
2742.699978 92.39899   0.188627  
2742.899978 100.147    0.192795  
2743.099978 101.872    0.20107   
2743.299978 91.394     0.205249  
2743.499977 83.123     0.21393   
2743.699977 75.787     0.214316  
2743.899977 71.734     0.212685  
2744.099977 80.23      0.222805  
2744.299977 90.378     0.227883  
2744.499977 96.918     0.220708  
2744.699977 94.179     0.216945  
2744.899977 84.775     0.222673  
2745.099977 77.534     0.208981  
2745.299977 72.388     0.199932  
