~Version
 VERS              .         2.0                           : CWLS LOG ASCII STANDARD - VERSION 2.0
 WRAP              .         NO                            : ONE LINE PER DEPTH STEP
 DLM               .         SPACE                         : DELIMITING CHARACTER(SPACE TAB OR COMMA)
~Well Information
#_______________________________________________________________________________
#
#PARAMETER_NAME    .UNIT     VALUE                         : DESCRIPTION
#_______________________________________________________________________________
STRT               .m        2698.3                        : First reference value
STOP               .m        2869.499914                   : Last reference value
STEP               .m        0.1999999                     : Step increment
NULL               .         -9999                         : Missing value
COMP               .                                       : Company
WELL               .         700                           : Well name
FLD                .                                       : Field
LOC                .                                       : Location
CNTY               .                                       : County
STAT               .                                       : State
CTRY               .                                       : Country
SRVC               .                                       : Service Company
DATE               .                                       : Date
API                .                                       : API number
EREF               .m        141.23                        : 
X                  .m        221071                        : 
Y                  .m        253934                        : 
group              .         Pad7                          : 
Интер-р            .         Зайцев                        : 
Куст               .         7                             : 
Статус             .         Не проверено                  : 
Тип                .         Нагнетательные                : 
~Parameter Information Block
#_______________________________________________________________________________
#
#PARAMETER_NAME    .UNIT     VALUE                         : DESCRIPTION
#_______________________________________________________________________________
SET                .         LAS1                          : 
REAL_CREATION_DATE .         Ср апр 11 2012-13_17_25       : 
TLFamily_DEPTH     .         Measured Depth                : 
TLFamily_GZ1       .         Extra Shallow Resistivity     : 
TLFamily_GZ2       .         Shallow Resistivity           : 
TLFamily_GZ3       .         Medium Resistivity            : 
TLFamily_GZ4       .         Deep Resistivity              : 
TLFamily_GZ5       .         Extra Deep Resistivity        : 
TLFamily_GZr       .         Medium Resistivity Inverted   : 
TLFamily_LLD       .         Lateral Log Resistivity       : 
TLFamily_PS        .         Spontaneous Potential         : 
TLFamily_PZ        .         Potential Resistivity         : 
TLFamily_RS        .         Mud Resistivity               : 
group              .         INI                           : 
~Curve Information
#_______________________________________________________________________________
#
#LOGNAME           .UNIT     LOG_ID                        : DESCRIPTION
#_______________________________________________________________________________
DEPTH              .m                                      : Measured Depth 
GZ1                .ohm.m                                  : Extra Shallow Resistivity 
GZ2                .ohm.m                                  : Shallow Resistivity 
GZ3                .ohm.m                                  : Medium Resistivity 
GZ4                .ohm.m                                  : Deep Resistivity 
GZ5                .ohm.m                                  : Extra Deep Resistivity 
GZr                .ohm.m                                  : Medium Resistivity Inverted 
LLD                .ohm.m                                  : Lateral Log Resistivity 
PS                 .mV                                     : Spontaneous Potential 
PZ                 .ohm.m                                  : Potential Resistivity 
RS                 .ohm.m                                  : Mud Resistivity 
~Ascii
# ...
2711.499993 2.1571     6.9653     10.8714    10.0514    5.4789     11.5544    5.2902     69.8221    6.378      0.4207    
2711.699993 2.1571     6.9653     10.7446    9.974      5.4394     11.5724    5.1621     70.2838    6.378      0.4254    
2711.899993 2.1571     7.0177     10.672     9.8844     5.4084     11.6062    5.1669     69.8887    6.378      0.4257    
2712.099993 2.1571     7.0177     10.6506    9.8805     5.3864     11.6901    5.1337     70.1187    6.378      0.4305    
2712.299993 2.1571     7.0177     10.5753    9.8318     5.4267     11.7271    5.1601     69.768     6.378      0.426     
2712.499993 2.1571     7.0354     10.4475    9.7791     5.4394     11.7661    5.2151     68.6769    6.378      0.4257    
2712.699993 2.1571     6.9653     10.5475    9.7834     5.4865     11.8194    5.1988     68.6764    6.3938     0.4257    
2712.899993 2.1571     7.0177     10.6007    9.8256     5.4924     11.8632    5.2368     68.8901    6.4105     0.4306    
2713.099993 2.1571     7.0177     10.654     9.7791     5.5361     11.7871    5.1584     67.5705    6.4099     0.4277    
2713.299993 2.1571     6.9653     10.654     9.699      5.5718     11.7661    5.1305     66.9108    6.4312     0.425     
2713.499992 2.1571     6.9653     10.654     9.6739     5.6398     11.8187    5.2228     68.7717    6.4845     0.4153    
2713.699992 2.1571     6.9653     10.7072    9.6739     5.7142     11.8727    5.3301     70.3272    6.4861     0.4139    
2713.899992 2.1571     7.0177     10.7528    9.7265     5.797      11.8727    5.4031     69.7302    6.5326     0.4126    
2714.099992 2.2052     7.0849     10.8137    9.7825     5.8426     11.813     5.5662     69.2573    6.5377     0.4118    
2714.299992 2.211      7.1224     10.867     9.8066     5.8838     11.7393    5.4108     69.6075    6.556      0.4102    
2714.499992 2.211      7.1224     10.8192    9.7265     5.9609     11.6645    5.4004     68.8747    6.591      0.4139    
2714.699992 2.211      7.1224     10.8814    9.8068     6.0133     11.7313    5.4509     67.8871    6.5896     0.4139    
2714.899992 2.211      7.236      10.9558    9.9722     6.1198     11.8066    5.5214     68.8505    6.5439     0.4189    
2715.099992 2.211      7.3391     11.1984    10.2115    6.2023     11.9191    5.5408     70.173     6.502      0.4947    
2715.299992 2.2747     7.6889     11.3081    10.3343    6.2588     11.7386    5.6421     69.7492    6.4312     0.4198    
2715.499991 1.9666     7.3491     11.2898    10.2573    6.3184     11.6641    4.8096     69.4742    6.4312     0.495     
2715.699991 2.2102     7.1882     11.0586    10.0774    6.3398     11.6763    4.9584     70.6531    6.4067     0.4379    
2715.899991 2.1571     7.1129     11.0267    10.0872    6.3398     11.8029    5.0302     70.9185    6.378      0.4891    
2716.099991 2.1571     7.1667     11.0267    10.0948    6.3398     11.8226    5.2905     69.4799    6.378      0.4993    
2716.299991 2.1571     7.121      11.0649    10.0948    6.3798     11.8194    5.1487     68.801     6.382      0.4141    
2716.499991 2.1571     6.9967     10.976     9.995      6.4689     11.7698    5.0891     69.3015    6.4312     0.4164    
2716.699991 2.1571     6.9653     10.9735    10.0422    6.5333     11.7661    5.1937     69.0471    6.4339     0.4191    
2716.899991 2.1571     7.0177     10.9735    10.0948    6.6921     11.7661    5.3654     68.4816    6.4845     0.4257    
2717.099991 2.1571     6.9952     11.1212    10.3463    6.819      11.8727    5.4233     69.0136    6.4845     0.4257    
2717.299991 2.2176     7.3197     11.3913    10.613     6.9075     11.8089    6.1843     69.4453    6.4845     0.4257    
2717.49999 2.2948     7.5055     11.6125    10.7772    6.8982     11.5524    5.7774     69.027     6.4838     0.4257    
2717.69999 2.2648     7.4368     11.5699    10.6525    6.8371     11.1702    5.3173     69.625     6.4312     0.4257    
2717.89999 2.3014     7.4763     11.3689    10.4801    6.6733     10.9582    5.0962     71.2005    6.3917     0.4257    
2718.09999 2.211      7.2796     11.23      10.2965    6.495      10.799     5.099      70.9649    6.3185     0.4257    
2718.29999 2.2618     7.4313     11.217     10.2001    6.3683     10.6728    5.299      69.1781    6.2696     0.4257    
2718.49999 2.211      7.3657     11.293     10.1499    6.2405     10.4928    5.2483     68.8835    6.2159     0.4273    
2718.69999 2.2615     7.4742     11.293     10.0771    6.09       10.3078    5.1223     69.6652    6.1479     0.4275    
2718.89999 2.211      7.3724     11.2024    9.9045     5.9408     10.2737    4.6949     68.9771    6.0912     0.4257    
2719.09999 2.1935     7.1483     11.0137    9.6547     5.8211     10.327     4.6579     67.9544    6.0524     0.4207    
2719.29999 2.1544     7.0733     10.8373    9.4514     5.6779     10.327     4.9899     69.1019    6.0051     0.4198    
2719.499989 2.1032     6.9653     10.8137    9.3575     5.5484     10.2737    5.0344     71.4075    6.0046     0.4198    
2719.699989 2.1571     6.9992     10.8841    9.3056     5.4671     10.2737    5.1593     73.1071    5.9662     0.4198    
2719.899989 2.1948     7.0726     10.9202    9.347      5.3474     10.3118    5.143      74.7563    5.9029     0.4171    
2720.099989 2.211      7.1224     10.9141    9.296      5.251      10.3302    4.9384     75.9254    5.8282     0.4188    
2720.299989 2.2055     7.07       10.7597    9.1402     5.1445     10.5333    4.5312     74.6182    5.7347     0.4234    
2720.499989 2.1571     6.9599     10.5575    8.9931     4.9672     10.8392    4.3299     72.1186    5.629      0.4257    
2720.699989 2.1043     6.7976     10.2553    8.7994     4.8406     11.2367    4.2239     71.6872    5.5791     0.4257    
2720.899989 2.0493     6.635      9.9991     8.6373     4.7558     11.7073    4.2141     72.5235    5.5791     0.5095    
2721.099989 2.03       6.4632     9.7382     8.4574     4.6415     12.1567    4.2672     72.1679    5.581      0.5105    
2721.299989 2.042      6.2362     9.5027     8.3293     4.5625     12.5389    4.4822     71.9634    5.6364     0.4181    
2721.499988 1.9415     6.1624     9.3221     8.2534     4.4785     12.848     4.6103     73.3372    5.7425     0.4139    
2721.699988 1.9954     6.0894     9.1574     8.1481     4.4345     13.2118    4.5878     73.9695    5.8691     0.4139    
2721.899988 1.9415     6.0222     9.0137     8.0579     4.38       13.6001    4.7037     72.8825    5.9966     0.4139    
2722.099988 1.9415     5.9698     8.9444     7.9903     4.38       13.9054    5.0936     72.2359    6.1245     0.4165    
2722.299988 1.9954     6.1244     8.8966     7.9903     4.38       14.1711    5.4349     71.9667    6.252      0.4198    
2722.499988 2.0493     6.1964     8.8966     7.9903     4.4237     14.4701    5.542      70.3981    6.3839     0.4198    
2722.699988 2.0493     6.2842     8.9319     7.9903     4.4829     14.8675    5.578      69.0034    6.5571     0.4198    
2722.899988 2.1032     6.4477     8.9881     8.06       4.5276     15.252     5.7832     69.7017    6.6853     0.4193    
2723.099988 2.1032     6.5207     9.1705     8.1533     4.5691     15.8266    5.916      70.7159    6.8146     0.4171    
2723.299988 2.1081     6.6454     9.3826     8.2859     4.6439     16.4175    6.2964     70.5181    6.9028     0.4244    
2723.499987 2.1571     6.932      9.6901     8.4644     4.6819     16.7733    6.5435     70.8081    6.9917     0.4257    
2723.699987 2.211      7.07       9.979      8.5164     4.7461     16.9967    6.2852     71.8461    7.0929     0.4257    
2723.899987 2.1946     7.0225     10.1065    8.5164     4.7614     17.3775    6.014      71.0177    7.1793     0.4257    
2724.099987 2.195      7.1495     10.2941    8.5744     4.8038     17.8194    6.3307     68.1552    7.2427     0.4257    
2724.299987 2.211      7.2272     10.5749    8.6524     4.8612     18.269     6.2755     66.1553    7.3287     0.4955    
2724.499987 2.211      7.3161     10.7072    8.6228     4.9249     18.7803    6.1919     65.4584    7.4438     0.4249    
