~Version
 VERS              .         2.0                           : CWLS LOG ASCII STANDARD - VERSION 2.0
 WRAP              .         NO                            : ONE LINE PER DEPTH STEP
 DLM               .         SPACE                         : DELIMITING CHARACTER(SPACE TAB OR COMMA)
~Well Information
#_______________________________________________________________________________
#
#PARAMETER_NAME    .UNIT     VALUE                         : DESCRIPTION
#_______________________________________________________________________________
STRT               .m        2698.3                        : First reference value
STOP               .m        2869.499914                   : Last reference value
STEP               .m        0.1999999                     : Step increment
NULL               .         -9999                         : Missing value
COMP               .                                       : Company
WELL               .         700                           : Well name
FLD                .                                       : Field
LOC                .                                       : Location
CNTY               .                                       : County
STAT               .                                       : State
CTRY               .                                       : Country
SRVC               .                                       : Service Company
DATE               .                                       : Date
API                .                                       : API number
EREF               .m        141.23                        : 
X                  .m        221071                        : 
Y                  .m        253934                        : 
group              .         Pad7                          : 
Интер-р            .         Зайцев                        : 
Куст               .         7                             : 
Статус             .         Не проверено                  : 
Тип                .         Нагнетательные                : 
~Parameter Information Block
#_______________________________________________________________________________
#
#PARAMETER_NAME    .UNIT     VALUE                         : DESCRIPTION
#_______________________________________________________________________________
SET                .         LAS1                          : 
REAL_CREATION_DATE .         Ср апр 11 2012-13_17_25       : 
TLFamily_DEPTH     .         Measured Depth                : 
TLFamily_GZ1       .         Extra Shallow Resistivity     : 
TLFamily_GZ2       .         Shallow Resistivity           : 
TLFamily_GZ3       .         Medium Resistivity            : 
TLFamily_GZ4       .         Deep Resistivity              : 
TLFamily_GZ5       .         Extra Deep Resistivity        : 
TLFamily_GZr       .         Medium Resistivity Inverted   : 
TLFamily_LLD       .         Lateral Log Resistivity       : 
TLFamily_PS        .         Spontaneous Potential         : 
TLFamily_PZ        .         Potential Resistivity         : 
TLFamily_RS        .         Mud Resistivity               : 
group              .         INI                           : 
~Curve Information
#_______________________________________________________________________________
#
#LOGNAME           .UNIT     LOG_ID                        : DESCRIPTION
#_______________________________________________________________________________
DEPTH              .m                                      : Measured Depth 
GZ1                .ohm.m                                  : Extra Shallow Resistivity 
GZ2                .ohm.m                                  : Shallow Resistivity 
GZ3                .ohm.m                                  : Medium Resistivity 
GZ4                .ohm.m                                  : Deep Resistivity 
GZ5                .ohm.m                                  : Extra Deep Resistivity 
GZr                .ohm.m                                  : Medium Resistivity Inverted 
LLD                .ohm.m                                  : Lateral Log Resistivity 
PS                 .mV                                     : Spontaneous Potential 
PZ                 .ohm.m                                  : Potential Resistivity 
RS                 .ohm.m                                  : Mud Resistivity 
~Ascii
2698.3000488 0.5292     0          0          0          0          19.5912    2264.87    -9999      2.7741     0.503     
2698.5     0.9687     0          0          0          0          17.881     1865.127   -9999      3.5749     0.409     
2698.7     1.255      0          0          0          0          16.6758    2696.554   -9999      4.1828     0.4171    
2698.9     1.4672     1.6848     0          0          0          15.8212    1766.785   -9999      4.6023     0.5282    
2699.1     1.595      2.9905     0          0          0          15.1727    1333.024   -9999      4.964      0.3845    
2699.3     1.6721     3.876      0          0          0          14.704     1242.327   -9999      5.2258     0.388     
2699.499999 1.7799     4.5863     0          0          0          14.3922    1412.985   88.482     5.4732     0.3904    
2699.699999 1.8119     5.0113     0          0          0          14.0296    1283.543   86.7595    5.6468     0.3963    
2699.899999 1.8338     5.4014     0.0186     0          0          13.7056    1206.452   85.7318    5.8501     0.3963    
2700.099999 1.8876     5.7205     2.4698     0          0          13.4077    0          84.8171    5.9796     0.4052    
2700.299999 1.9668     5.9797     4.4434     0          0          13.2002    0          83.4015    6.0612     0.4081    
2700.499999 1.9954     6.131      5.8374     0          0          12.9529    0          81.6405    6.1582     0.4139    
2700.699999 1.9954     6.2837     6.9151     0          0          12.7731    0          80.2732    6.2182     0.4139    
2700.899999 2.0156     6.5183     7.7541     0          0          12.5733    0          79.5997    6.2714     0.4139    
2701.099999 1.9954     6.5963     8.4334     0          0          12.3967    3.5178     78.9973    6.2768     0.4139    
2701.299999 2.0493     6.6509     8.967      0          0          12.3344    4.5105     78.5011    6.3281     0.4479    
2701.499998 2.0493     6.7557     9.396      0          0          12.2714    4.7401     78.8716    6.378      0.4851    
2701.699998 2.0493     6.7557     9.7527     0          0          12.1736    4.9308     79.9093    6.4069     0.446     
2701.899998 2.0493     6.7704     10.0672    0          0          11.9612    5.082      80.4584    6.4312     0.4139    
2702.099998 2.0493     6.8605     10.3311    1.9925     0          11.7849    5.1481     80.0648    6.4494     0.5022    
2702.299998 2.0493     6.9129     10.543     3.7669     0          11.6781    5.2125     79.2073    6.4845     0.4139    
2702.499998 2.0676     6.9653     10.7989    5.1257     0          11.5715    5.2915     78.4028    6.4845     0.4866    
2702.699998 2.1032     7.07       10.9935    6.2431     0          11.5529    5.3028     77.7236    6.4723     0.416     
2702.899998 2.1571     7.1748     11.1711    7.1246     0          11.5529    5.2082     77.0395    6.4312     0.4198    
2703.099998 2.1571     7.1748     11.2398    7.8037     0          11.5262    5.1711     76.3246    6.4227     0.4246    
2703.299998 2.1032     7.1224     11.2398    8.3229     0          11.4841    5.1445     75.9965    6.378      0.4257    
2703.499997 2.1032     7.07       11.1865    8.7155     0          11.4502    5.1469     76.6222    6.378      0.4233    
2703.699997 2.1032     7.07       11.1865    9.0506     0          11.5732    4.9752     77.6031    6.3762     0.4239    
2703.899997 2.1032     6.9688     11.3672    9.4625     0          11.7661    4.9558     77.7919    6.3024     0.425     
2704.099997 2.1762     7.3336     11.5251    9.8284     0          11.7661    5.5222     76.9014    6.2318     0.4257    
2704.299997 2.1571     7.2045     11.5412    9.9874     0          11.7661    5.0321     75.4478    6.2182     0.4227    
2704.499997 2.1032     7.0168     11.226     9.8391     0          11.8025    4.6642     74.1954    6.2182     0.477     
2704.699997 2.1002     6.8943     11.0191    9.7791     0          11.9793    4.6376     73.7489    5.2901     0.4776    
2704.899997 2.0493     6.7557     10.867     9.7418     0          12.0131    4.6965     73.7861    6.2182     0.4878    
2705.099997 2.0039     6.7033     10.7605    9.7791     0          12.0859    4.8218     73.6365    6.2182     0.4257    
2705.299997 2.0493     6.7033     10.7334    9.7791     0          12.1255    4.9705     73.6026    6.2707     0.4257    
2705.499996 2.0493     6.6953     10.664     9.7791     0          12.1092    5.0797     74.1836    6.3103     0.4257    
2705.699996 2.0116     6.6068     10.6531    9.7791     0          12.1465    5.0858     74.775     6.3444     0.4224    
2705.899996 2.0493     6.7557     10.6196    9.8844     0          12.2287    5.1714     74.6186    6.3783     0.425     
2706.099996 2.0493     6.7557     10.6921    9.9559     0          12.4088    5.1572     73.88      6.4173     0.4257    
2706.299996 2.0493     6.8447     10.7605    10.0422    0.4465     12.3821    5.2031     72.833     6.4324     0.4257    
2706.499996 2.075      6.9653     10.8137    10.0948    1.494      12.2299    5.4038     71.9488    6.4999     0.4257    
2706.699996 2.0493     6.8187     10.8299    10.1024    2.3111     12.176     5.3797     71.7476    6.5373     0.4233    
2706.899996 2.1501     7.3128     11.0884    10.2611    2.9265     12.0087    5.7483     71.7892    6.4981     0.4269    
2707.099996 2.2263     7.4166     11.4062    10.4141    3.4187     11.8295    6.237      71.478     6.4845     0.4316    
2707.299996 2.211      7.2557     11.2413    10.2778    3.8093     11.6339    5.2775     71.3839    6.4811     0.4316    
2707.499995 2.1571     7.1748     11.096     10.062     4.0709     11.6062    5.0958     71.8455    6.4311     0.4286    
2707.699995 2.1032     7.0475     10.9735    9.8844     4.2852     11.674     5.0111     72.0215    6.378      0.4257    
2707.899995 2.0952     7.0177     10.9238    9.8131     4.4668     11.8471    4.9352     71.5118    6.4157     0.4257    
2708.099995 2.0493     6.9729     10.8292    9.6889     4.6985     11.8799    5.0185     70.7718    6.4305     0.4257    
2708.299995 1.9994     6.7648     11.1005    9.9353     4.8943     12.0615    5.2334     70.2819    6.3905     0.4216    
2708.499995 2.2084     7.6231     11.4845    10.2089    4.988      11.9855    6.2802     70.1265    6.3518     0.4316    
2708.699995 2.218      7.3829     11.7225    10.3419    5.0951     11.5889    5.6885     70.1846    6.3247     0.4301    
2708.899995 2.1527     7.0138     11.3307    9.973      5.1619     11.2583    5.0461     70.0985    6.3247     0.4257    
2709.099995 2.1095     6.9266     11.0332    9.7199     5.0951     11.1875    4.9006     69.6812    6.315      0.4232    
2709.299995 2.0983     6.8901     11.004     9.6739     5.0686     11.2331    4.9208     69.2119    6.2714     0.423     
2709.499994 2.0493     6.9086     10.8762    9.6739     5.1142     11.2331    5.0409     69.196     6.2714     0.4257    
2709.699994 2.0493     6.8667     10.798     9.6739     5.111      11.2696    5.0092     69.5873    6.2714     0.4278    
2709.899994 2.0332     6.8461     10.6352    9.5758     5.1755     11.1573    5.0208     69.5324    6.3085     0.427     
2710.099994 1.9597     6.5039     10.6618    9.7179     5.2761     11.2174    5.1184     69.1438    6.3247     0.4128    
2710.299994 2.1605     6.7746     10.957     10.0098    5.3696     11.5488    5.0423     68.6854    6.3088     0.4186    
2710.499994 2.1442     7.1592     11.2861    10.3579    5.4484     11.9567    5.1726     67.8974    6.2294     0.4257    
2710.699994 2.1032     7.07       11.3463    10.3579    5.5718     11.8552    5.243      67.617     6.2739     0.4257    
2710.899994 2.1571     7.07       11.3463    10.3579    5.5665     11.8194    5.324      67.7227    6.3247     0.4209    
2711.099994 2.1571     7.045      11.23      10.3085    5.5411     11.7546    5.2113     67.4075    6.3247     0.4198    
2711.299994 2.1571     6.9193     11.0522    10.2302    5.4924     11.6437    5.2819     68.0862    6.3565     0.4198    
