~Version
 VERS              .         2.0                           : CWLS LOG ASCII STANDARD - VERSION 2.0
 WRAP              .         NO                            : ONE LINE PER DEPTH STEP
 DLM               .         SPACE                         : DELIMITING CHARACTER(SPACE TAB OR COMMA)
~Well Information
#_______________________________________________________________________________
#
#PARAMETER_NAME    .UNIT     VALUE                         : DESCRIPTION
#_______________________________________________________________________________
STRT               .m        2698.3                        : First reference value
STOP               .m        2869.499914                   : Last reference value
STEP               .m        0.1999999                     : Step increment
NULL               .         -9999                         : Missing value
COMP               .                                       : Company
WELL               .         700                           : Well name
FLD                .                                       : Field
LOC                .                                       : Location
CNTY               .                                       : County
STAT               .                                       : State
CTRY               .                                       : Country
SRVC               .                                       : Service Company
DATE               .                                       : Date
API                .                                       : API number
EREF               .m        141.23                        : 
X                  .m        221071                        : 
Y                  .m        253934                        : 
group              .         Pad7                          : 
Интер-р            .         Зайцев                        : 
Куст               .         7                             : 
Статус             .         Не проверено                  : 
Тип                .         Нагнетательные                : 
~Parameter Information Block
#_______________________________________________________________________________
#
#PARAMETER_NAME    .UNIT     VALUE                         : DESCRIPTION
#_______________________________________________________________________________
SET                .         LAS1                          : 
REAL_CREATION_DATE .         Ср апр 11 2012-13_17_25       : 
TLFamily_DEPTH     .         Measured Depth                : 
TLFamily_GZ1       .         Extra Shallow Resistivity     : 
TLFamily_GZ2       .         Shallow Resistivity           : 
TLFamily_GZ3       .         Medium Resistivity            : 
TLFamily_GZ4       .         Deep Resistivity              : 
TLFamily_GZ5       .         Extra Deep Resistivity        : 
TLFamily_GZr       .         Medium Resistivity Inverted   : 
TLFamily_LLD       .         Lateral Log Resistivity       : 
TLFamily_PS        .         Spontaneous Potential         : 
TLFamily_PZ        .         Potential Resistivity         : 
TLFamily_RS        .         Mud Resistivity               : 
group              .         INI                           : 
~Curve Information
#_______________________________________________________________________________
#
#LOGNAME           .UNIT     LOG_ID                        : DESCRIPTION
#_______________________________________________________________________________
DEPTH              .m                                      : Measured Depth 
GZ1                .ohm.m                                  : Extra Shallow Resistivity 
GZ2                .ohm.m                                  : Shallow Resistivity 
GZ3                .ohm.m                                  : Medium Resistivity 
GZ4                .ohm.m                                  : Deep Resistivity 
GZ5                .ohm.m                                  : Extra Deep Resistivity 
GZr                .ohm.m                                  : Medium Resistivity Inverted 
LLD                .ohm.m                                  : Lateral Log Resistivity 
PS                 .mV                                     : Spontaneous Potential 
PZ                 .ohm.m                                  : Potential Resistivity 
RS                 .ohm.m                                  : Mud Resistivity 
~Ascii
# ...
2777.49996 2.642      10.8235    22.9127    28.2502    15.3125    28.6721    16.7482    78.2186    13.4312    0.4172    
2777.69996 2.6959     11.0172    23.5062    28.8895    15.579     28.3713    16.7732    78.1921    13.5147    0.5277    
2777.89996 2.7915     11.3998    24.2001    29.5852    15.8765    28.0272    17.6336    77.1119    13.5681    0.4081    
2778.09996 2.8092     11.5719    24.8003    30.2385    16.2074    27.6423    17.8238    75.5063    13.5681    0.4116    
2778.29996 2.8576     11.7505    25.1751    30.6952    16.4895    27.4369    17.0801    75.6874    13.5628    0.4139    
2778.49996 2.8033     11.7853    25.2871    30.8245    16.7865    27.639     15.8511    76.709     13.5148    0.5442    
2778.69996 2.7671     11.5596    25.2017    30.8589    17.0645    28.1251    14.0419    76.6724    13.5148    0.4139    
2778.89996 2.7077     11.4186    25.1389    31.1547    17.3469    28.6786    13.6506    76.9527    13.5298    0.4139    
2779.09996 2.7498     11.4175    25.3038    31.6616    17.6859    28.8758    14.4367    78.4261    13.6018    0.4139    
2779.29996 2.7498     11.4709    25.6066    32.3593    18.1286    28.8225    15.772     78.7653    13.6223    0.4172    
2779.499959 2.7498     11.4595    25.885     33.1749    18.6197    28.6201    15.7933    77.6799    13.6746    0.4198    
2779.699959 2.8037     11.5863    26.1799    34.1047    19.1536    28.4178    16.0201    78.0307    13.6746    0.4213    
2779.899959 2.8467     11.6805    26.4279    34.8952    19.6968    28.2695    16.6563    79.676     13.6746    0.4257    
2780.099959 2.8037     11.6805    26.5235    35.527     20.2544    28.0943    16.1154    79.6778    13.6746    0.4178    
2780.299959 2.8037     11.6281    26.4714    35.9995    20.7652    27.9632    15.1792    78.5636    13.6746    0.4139    
2780.499959 2.8037     11.6281    26.219     36.214     21.3327    27.8872    15.1879    78.8485    13.6988    0.4175    
2780.699959 2.7303     11.4075    25.9077    36.3826    21.9804    28.0178    14.3153    79.489     13.7812    0.4053    
2780.899959 2.6479     11.3086    26.034     36.8324    22.7449    27.9182    13.5889    78.78      13.8429    0.4035    
2781.099959 2.7068     11.5724    26.776     37.9285    23.5575    27.3231    15.2185    78.4622    13.9236    0.4307    
2781.299959 2.8358     12.0184    27.4787    39.2083    24.4412    26.4153    20.6391    79.4914    13.9926    0.4698    
2781.499958 2.9106     12.1987    28.1073    40.3312    25.2529    25.4768    22.1079    79.7484    13.9163    0.4139    
2781.699958 3.0192     12.5452    28.6215    41.0773    25.9407    24.7454    19.2986    78.9083    13.7879    0.4198    
2781.899958 3.0326     12.8119    28.8554    41.3782    26.5282    24.1927    19.6864    78.9622    13.6582    0.417     
2782.099958 2.9654     12.5241    28.5949    41.0606    26.98      24.0339    15.8109    79.4474    13.5639    0.4186    
2782.299958 2.9115     12.4319    28.3342    40.7684    27.4005    23.9361    13.547     78.5623    13.4557    0.4198    
2782.499958 2.9382     12.6369    28.605     41.1071    27.7786    23.5499    14.8156    77.6504    13.3276    0.532     
2782.699958 2.9862     12.9576    29.1341    41.7815    28.1926    22.732     17.8191    78.4005    13.1387    0.4238    
2782.899958 3.0683     13.1897    29.9214    42.494     28.4126    21.7827    19.8015    79.1089    12.8588    0.4198    
2783.099958 3.1759     13.403     30.0219    41.6026    28.1583    20.9926    18.0497    78.8752    12.3922    0.4198    
2783.299958 2.9706     12.6944    28.7465    39.8236    27.7621    21.4482    13.6825    79.2575    12.1402    0.4241    
2783.499957 2.7702     11.8392    26.9217    37.8406    27.2759    22.4023    9.7426     79.7451    12.0008    0.4147    
2783.699957 2.6223     11.0945    25.6824    36.1867    27.0173    23.594     8.584      79.0635    11.9712    0.4032    
2783.899957 2.5882     10.8473    25.3307    35.5691    27.0991    24.4542    9.0004     78.82      12.0125    0.4135    
2784.099957 2.5882     10.7375    25.2454    35.6011    27.4619    24.9487    10.6598    79.9764    12.0781    0.5348    
2784.299957 2.642      10.8283    25.3087    35.9238    28.0114    25.1826    12.5319    80.592     12.1491    0.4274    
2784.499957 2.7498     10.9022    25.4937    36.2511    28.4689    25.3046    14.437     80.2404    12.1786    0.4139    
2784.699957 2.7951     11.1485    25.5714    36.4539    28.751     25.3046    14.4152    80.6001    12.1283    0.4176    
2784.899957 2.8576     11.2614    25.565     36.6697    28.7043    25.3046    14.7119    80.9202    12.0422    0.5347    
2785.099957 2.9115     11.6058    25.0496    36.3441    28.3708    25.3559    13.8482    79.5135    11.9209    0.4257    
2785.299957 2.8625     11.24      24.0848    35.1621    27.9281    25.9752    13.6338    78.3835    11.8638    0.4225    
2785.499956 2.6799     10.7192    22.6912    33.0548    27.4979    27.4581    10.8836    79.656     11.8638    0.4173    
2785.699956 2.5132     10.1825    21.631     31.8349    27.0984    29.293     9.0391     80.9956    11.9301    0.5065    
2785.899956 2.4298     9.904      21.1941    31.4666    26.9002    30.9639    8.5592     80.6064    12.0621    0.4547    
2786.099956 2.4804     10.0719    21.1449    31.1198    26.9769    31.8705    9.9772     80.7449    12.2947    0.4022    
2786.299956 2.4308     9.6806     20.9394    30.6799    27.3372    32.8256    12.3607    81.9737    12.6222    0.4038    
2786.499956 2.3355     9.2867     20.7806    30.2287    27.7213    33.6285    10.8883    81.6991    12.9166    0.4683    
2786.699956 2.4112     9.6159     21.1164    30.5408    28.0735    33.5618    11.4257    80.276     13.2786    0.4576    
2786.899956 2.4881     9.9633     21.6558    31.0398    28.5625    32.5765    16.5335    80.4015    13.6198    0.4081    
2787.099956 2.6184     10.3707    22.0839    31.2912    29.0312    31.6326    18.1948    81.2784    13.8941    0.4133    
2787.299956 2.642      10.5357    22.3323    31.3161    29.4114    30.729     17.8642    80.8421    14.0943    0.4195    
2787.499955 2.678      10.73      22.4068    31.3173    29.7651    30.1894    16.0776    80.4373    14.306     0.4903    
2787.699955 2.6892     10.8717    22.6125    31.4864    30.1728    29.5297    15.5962    81.2966    14.4909    0.4198    
2787.899955 2.705      11.3004    23.2035    32.152     30.759     28.6016    15.6044    81.4183    14.6696    0.436     
2788.099955 2.8138     11.4884    24.1466    33.2045    31.4284    27.2557    18.4836    80.2117    14.8012    0.4644    
2788.299955 2.8566     11.9359    25.251     34.3952    32.2068    25.8899    18.9357    80.0735    14.9029    0.4171    
2788.499955 1.2938     12.4406    26.5322    35.6994    33.0583    24.4551    21.9213    80.9396    14.9277    0.5392    
2788.699955 3.0096     12.843     28.068     37.2703    33.7018    23.0783    22.3767    80.5025    14.8237    0.424     
2788.899955 3.1526     13.551     29.9547    38.7994    34.1036    21.4604    21.5966    79.7334    14.565     0.4088    
2789.099955 3.2791     14.371     31.4995    39.9454    34.2749    19.7665    28.3331    80.6773    14.2911    0.4139    
2789.299955 3.2899     14.4694    32.2392    40.3631    34.0762    18.3295    24.6314    81.8558    13.8944    0.5783    
2789.499954 3.3314     14.5097    32.5212    40.1851    33.4663    17.1047    16.4342    81.7582    13.4446    0.452     
2789.699954 3.2338     14.108     32.474     39.8037    32.1574    15.7616    14.955     81.4165    12.7818    0.4199    
2789.899954 3.205      14.1884    32.697     40.0414    31.153     14.8164    12.59      80.775     12.3042    0.4236    
2790.099954 3.2887     14.1405    32.8468    40.5232    30.297     13.9649    12.088     79.0329    11.8922    0.4218    
2790.299954 3.159      13.5123    32.3642    40.4504    29.5341    13.1577    13.4937    78.0043    11.4604    0.4171    
2790.499954 3.0939     13.2925    31.7354    40.2178    28.6019    12.5578    10.4576    78.9058    10.9859    0.4192    
