~Version
 VERS              .         2.0                           : CWLS LOG ASCII STANDARD - VERSION 2.0
 WRAP              .         NO                            : ONE LINE PER DEPTH STEP
 DLM               .         SPACE                         : DELIMITING CHARACTER(SPACE TAB OR COMMA)
~Well Information
#_______________________________________________________________________________
#
#PARAMETER_NAME    .UNIT     VALUE                         : DESCRIPTION
#_______________________________________________________________________________
STRT               .m        2319                          : First reference value
STOP               .m        2539                          : Last reference value
STEP               .m        0.2                           : Step increment
NULL               .         -9999                         : Missing value
COMP               .                                       : Company
WELL               .         701                           : Well name
FLD                .                                       : Field
LOC                .                                       : Location
CNTY               .                                       : County
STAT               .                                       : State
CTRY               .                                       : Country
SRVC               .                                       : Service Company
DATE               .                                       : Date
API                .                                       : API number
EREF               .m        141.23                        : 
X                  .m        221071                        : 
Y                  .m        253934                        : 
group              .         Pad7                          : 
Интер-р            .         Старостина                    : 
Куст               .         7                             : 
Статус             .         Не проверено                  : 
Тип                .         Эксплуатация                  : 
~Parameter Information Block
#_______________________________________________________________________________
#
#PARAMETER_NAME    .UNIT     VALUE                         : DESCRIPTION
#_______________________________________________________________________________
SET                .         LAS3                          : 
REAL_CREATION_DATE .         Ср апр 11 2012-13_17_25       : 
TLFamily_DEPTH     .         Measured Depth                : 
TLFamily_GR        .         Gamma Ray                     : 
TLFamily_TNPH      .         Neutron Porosity              : 
group              .         INI                           : 
~Curve Information
#_______________________________________________________________________________
#
#LOGNAME           .UNIT     LOG_ID                        : DESCRIPTION
#_______________________________________________________________________________
DEPTH              .m                                      : Measured Depth 
GR                 .gAPI                                   :  
TNPH               .v/v                                    : Neutron Porosity 
~Ascii
# ...
2464.8     140.86     0.26      
2465       140.94     0.287     
2465.2     138.99     0.276     
2465.4     137.91     0.282     
2465.6     134.4      0.297     
2465.8     136.05     0.3       
2466       137.87     0.299     
2466.2     139.11     0.298     
2466.4     141.76     0.288     
2466.6     140.45     0.287     
2466.8     137.66     0.297     
2467       134.51     0.305     
2467.2     132.88     0.312     
2467.4     133.6      0.306     
2467.6     136        0.296     
2467.8     137.7      0.287     
2468       140.27     0.281     
2468.2     142.75     0.278     
2468.4     145.55     0.267     
2468.6     145.62     0.27      
2468.8     140.71     0.278     
2469       136.61     0.274     
2469.2     132.46     0.27      
2469.4     130.84     0.266     
2469.6     125.5      0.266     
2469.8     114.7      0.255     
2470       94.56001   0.24      
2470.2     87.75      0.234     
2470.4     114.77     0.251     
2470.6     134.55     0.284     
2470.8     142.91     0.294     
2471       144.15     0.282     
2471.2     144.6      0.295     
2471.4     149.17     0.307     
2471.6     153.86     0.298     
2471.8     154.73     0.294     
2472       152.97     0.295     
2472.2     148.75     0.291     
2472.4     139.88     0.286     
2472.6     137.84     0.288     
2472.8     138.16     0.287     
2473       138.61     0.281     
2473.2     135.73     0.274     
2473.4     135.17     0.27      
2473.6     138.76     0.284     
2473.8     140.74     0.286     
2474       140.69     0.272     
2474.2     138.46     0.273     
2474.4     136.26     0.283     
2474.6     138.09     0.29      
2474.8     139.12     0.287     
2475       139.86     0.286     
2475.2     138.18     0.297     
2475.4     136.86     0.289     
2475.6     133.62     0.274     
2475.8     128.45     0.271     
2476       118.68     0.273     
2476.2     101.63     0.21      
2476.4     91.44      0.217     
2476.6     99.09      0.205     
2476.8     102.85     0.194     
2477       95.77      0.186     
2477.2     76.13      0.182     
2477.4     58.44      0.183     
2477.6     54.12      0.178     
2477.8     53.79      0.175     
2478       51.31      0.17      
2478.2     48.12      0.161     
2478.4     46.69      0.156     
2478.6     46.64      0.159     
2478.8     48.1       0.16      
2479       47.8       0.163     
2479.2     49.16      0.158     
2479.4     49.91      0.158     
2479.6     50.67      0.161     
2479.8     51.26      0.165     
2480       49.75      0.173     
2480.2     48.74      0.175     
2480.4     49.85      0.177     
2480.6     49.71      0.175     
2480.8     48.55      0.177     
2481       50.17      0.181     
2481.2     52.02      0.176     
2481.4     50.77      0.173     
2481.6     53.74      0.171     
2481.8     56.72      0.174     
2482       56.81      0.179     
2482.2     56.09      0.188     
2482.4     53.73      0.191     
2482.6     56.35      0.178     
2482.8     58.6       0.178     
2483       60.71      0.182     
2483.2     62.25      0.174     
2483.4     60.92      0.168     
2483.6     57.48      0.162     
2483.8     54.36      0.154     
2484       49.01      0.146     
2484.2     48.71      0.136     
2484.4     50.7       0.129     
2484.6     49.37      0.13      
2484.8     47         0.139     
2485       44.05      0.145     
2485.2     43.07      0.145     
2485.4     42.23      0.144     
2485.6     40.48      0.139     
2485.8     40.84      0.13      
2486       42.92      0.121     
2486.2     42.98      0.14      
2486.4     42.94      0.141     
2486.6     43.05      0.142     
2486.8     45.39      0.156     
2487       49.43      0.174     
2487.2     50.36      0.193     
2487.4     51.32      0.196     
2487.6     50.64      0.204     
2487.8     49.7       0.207     
2488       49.18      0.2       
2488.2     49.38      0.202     
2488.4     50.55      0.232     
2488.6     51.95      0.245     
2488.8     53.22      0.23      
2489       56.31      0.217     
2489.2     60.8       0.216     
2489.4     60.57      0.208     
2489.6     59.42      0.199     
2489.8     59.36      0.206     
2490       59.2       0.204     
2490.2     58.29      0.193     
2490.4     56.8       0.19      
2490.6     58.37      0.205     
2490.8     62.87      0.22      
2491       66.68      0.221     
2491.2     69.52      0.218     
2491.4     70.94      0.229     
2491.6     69.01      0.228     
2491.8     68.7       0.226     
2492       69.7       0.218     
2492.2     72.02      0.21      
2492.4     77.31      0.206     
2492.6     81.98      0.212     
2492.8     85.57      0.223     
2493       90.59      0.225     
2493.2     93.63      0.219     
2493.4     89.81      0.233     
2493.6     90.59      0.257     
2493.8     90.48      0.273     
2494       89.24      0.291     
2494.2     95.82      0.326     
2494.4     110.69     0.326     
2494.6     103.75     0.308     
2494.8     90.77      0.312     
2495       77.25      0.315     
2495.2     72.12      0.302     
2495.4     72.75      0.283     
2495.6     75.27      0.272     
2495.8     80.62      0.265     
2496       88.82      0.264     
2496.2     93.77      0.273     
2496.4     94.52      0.273     
2496.6     97.49      0.279     
2496.8     95.74001   0.285     
2497       88.04      0.26      
2497.2     80.24001   0.236     
2497.4     69.45      0.22      
2497.6     64.83      0.207     
2497.8     62.35      0.224     
2498       61.3       0.23      
2498.2     62.67      0.234     
2498.4     67.53      0.235     
2498.6     76.92001   0.234     
2498.8     83.45      0.245     
2499       92.35      0.252     
2499.2     104.92     0.271     
2499.4     110.45     0.268     
2499.6     107.98     0.262     
2499.8     105.78     0.276     
2500       104.82     0.294     
2500.2     103.43     0.295     
2500.4     103.66     0.294     
2500.6     104.4      0.282     
2500.8     105.83     0.272     
2501       106.23     0.271     
2501.2     105.37     0.269     
2501.4     99.53      0.285     
2501.6     86.42      0.295     
2501.8     66.44      0.299     
2502       37.28      0.307     
2502.2     14.11      0.339     
2502.4     -1.27      0.366     
2502.6     -3.04      0.356     
2502.8     -1.65      0.382     
2503       2.869999   0.39      
2503.2     9.41       0.369     
2503.4     22.89      0.357     
2503.6     43.94      0.349     
2503.8     68.68      0.328     
2504       91.67      0.292     
2504.2     100.42     0.271     
2504.4     100.68     0.275     
2504.6     98.45      0.3       
2504.8     98.02      0.3       
2505       99.79      0.279     
2505.2     98.69      0.273     
2505.4     96.34      0.259     
2505.6     97.75      0.247     
2505.8     101.83     0.263     
2506       101.91     0.269     
2506.2     98.02      0.263     
2506.4     91.46      0.27      
2506.6     84.64      0.272     
2506.8     80.69      0.269     
2507       75.94      0.267     
2507.2     71.78001   0.285     
2507.4     68.16      0.324     
2507.6     68.9       0.338     
2507.8     80.26      0.347     
2508       97.98      0.304     
2508.2     106.9      0.266     
2508.4     103.14     0.248     
2508.6     99.48      0.216     
2508.8     94.24      0.204     
2509       87.76      0.216     
2509.2     84.34      0.23      
2509.4     85.74001   0.237     
2509.6     86.96      0.241     
2509.8     91         0.259     
2510       98         0.272     
2510.2     101.28     0.27      
2510.4     91.38      0.26      
2510.6     77.13      0.246     
2510.8     71.19      0.232     
2511       70.79001   0.22      
2511.2     76.19      0.223     
2511.4     86.08      0.224     
2511.6     96.46      0.226     
2511.8     102.08     0.235     
2512       104.73     0.247     
2512.2     105.95     0.256     
2512.4     107.52     0.255     
2512.6     105.01     0.254     
2512.8     97.3       0.253     
2513       88.86      0.256     
2513.2     89.39      0.258     
