~Version
 VERS              .         2.0                           : CWLS LOG ASCII STANDARD - VERSION 2.0
 WRAP              .         NO                            : ONE LINE PER DEPTH STEP
 DLM               .         SPACE                         : DELIMITING CHARACTER(SPACE TAB OR COMMA)
~Well Information
#_______________________________________________________________________________
#
#PARAMETER_NAME    .UNIT     VALUE                         : DESCRIPTION
#_______________________________________________________________________________
STRT               .m        2319                          : First reference value
STOP               .m        2539                          : Last reference value
STEP               .m        0.2                           : Step increment
NULL               .         -9999                         : Missing value
COMP               .                                       : Company
WELL               .         701                           : Well name
FLD                .                                       : Field
LOC                .                                       : Location
CNTY               .                                       : County
STAT               .                                       : State
CTRY               .                                       : Country
SRVC               .                                       : Service Company
DATE               .                                       : Date
API                .                                       : API number
EREF               .m        141.23                        : 
X                  .m        221071                        : 
Y                  .m        253934                        : 
group              .         Pad7                          : 
Интер-р            .         Старостина                    : 
Куст               .         7                             : 
Статус             .         Не проверено                  : 
Тип                .         Эксплуатация                  : 
~Parameter Information Block
#_______________________________________________________________________________
#
#PARAMETER_NAME    .UNIT     VALUE                         : DESCRIPTION
#_______________________________________________________________________________
SET                .         LAS3                          : 
REAL_CREATION_DATE .         Ср апр 11 2012-13_17_25       : 
TLFamily_DEPTH     .         Measured Depth                : 
TLFamily_GR        .         Gamma Ray                     : 
TLFamily_TNPH      .         Neutron Porosity              : 
group              .         INI                           : 
~Curve Information
#_______________________________________________________________________________
#
#LOGNAME           .UNIT     LOG_ID                        : DESCRIPTION
#_______________________________________________________________________________
DEPTH              .m                                      : Measured Depth 
GR                 .gAPI                                   :  
TNPH               .v/v                                    : Neutron Porosity 
~Ascii
# ...
2367.6     93.16      0.237     
2367.8     89.03      0.222     
2368       87.57      0.237     
2368.2     88.32      0.248     
2368.4     89.52      0.256     
2368.6     89.6       0.259     
2368.8     87.64      0.262     
2369       89.3       0.261     
2369.2     92.79      0.255     
2369.4     93.03001   0.237     
2369.6     93.27      0.231     
2369.8     94.96001   0.226     
2370       95.63      0.216     
2370.2     93.13      0.229     
2370.4     96.94      0.251     
2370.6     97.75      0.254     
2370.8     98.35      0.257     
2371       100.83     0.263     
2371.2     101.53     0.267     
2371.4     102.89     0.257     
2371.6     98.63      0.253     
2371.8     94.11      0.26      
2372       96.24      0.255     
2372.2     95.93001   0.246     
2372.4     93.38      0.249     
2372.6     91.54      0.256     
2372.8     90.64999   0.247     
2373       91.4       0.246     
2373.2     90.89      0.249     
2373.4     89.32      0.245     
2373.6     89.56001   0.243     
2373.8     94.63      0.244     
2374       98.49      0.254     
2374.2     98.83      0.254     
2374.4     96.82      0.251     
2374.6     98.64999   0.261     
2374.8     103.78     0.261     
2375       104.85     0.249     
2375.2     103.2      0.248     
2375.4     102.92     0.261     
2375.6     105.93     0.263     
2375.8     106.32     0.252     
2376       105.17     0.266     
2376.2     104.31     0.277     
2376.4     102.11     0.287     
2376.6     99.46      0.293     
2376.8     100.83     0.289     
2377       102.27     0.28      
2377.2     102.27     0.267     
2377.4     100.7      0.259     
2377.6     99.01      0.259     
2377.8     99.67      0.255     
2378       99.5       0.255     
2378.2     97.34      0.251     
2378.4     95.48      0.238     
2378.6     95.57      0.244     
2378.8     95.33      0.244     
2379       94.36      0.237     
2379.2     89.58      0.221     
2379.4     92.60001   0.214     
2379.6     94.25999   0.221     
2379.8     90.29      0.242     
2380       89.8       0.259     
2380.2     95.75      0.25      
2380.4     94.75999   0.236     
2380.6     93.25      0.225     
2380.8     94.13      0.22      
2381       94.42001   0.219     
2381.2     92.76      0.217     
2381.4     91.65      0.224     
2381.6     92.33      0.235     
2381.8     92.83      0.236     
2382       93.89      0.23      
2382.2     98.96      0.232     
2382.4     99.68001   0.222     
2382.6     98.61      0.213     
2382.8     99.15      0.209     
2383       101.68     0.215     
2383.2     102.73     0.215     
2383.4     100.42     0.231     
2383.6     97.13      0.236     
2383.8     93.56      0.24      
2384       92.9       0.241     
2384.2     94.58      0.242     
2384.4     94.12      0.249     
2384.6     90.23      0.249     
2384.8     87.06001   0.251     
2385       86.68      0.24      
2385.2     84.37      0.24      
2385.4     84.44      0.247     
2385.6     90.06      0.252     
2385.8     95.96      0.255     
2386       98.57001   0.26      
2386.2     101.72     0.266     
2386.4     100.46     0.27      
2386.6     99.43      0.271     
2386.8     99.38      0.262     
2387       103.27     0.25      
2387.2     107.56     0.25      
2387.4     104.58     0.246     
2387.6     104.65     0.233     
2387.8     103.23     0.224     
2388       100.82     0.225     
2388.2     99.72      0.224     
2388.4     99.08      0.235     
2388.6     100.65     0.248     
2388.8     102.32     0.265     
2389       104.31     0.259     
2389.2     101.55     0.253     
2389.4     98.83      0.252     
2389.6     98.2       0.241     
2389.8     99.87      0.236     
2390       98.57001   0.246     
2390.2     96.32      0.247     
2390.4     95.26      0.235     
2390.6     95.64999   0.237     
2390.8     96.44      0.236     
2391       96.23      0.248     
2391.2     93.37      0.26      
2391.4     92.49      0.263     
2391.6     94.81      0.26      
2391.8     97.24      0.253     
2392       95.84      0.254     
2392.2     95.42      0.266     
2392.4     95.31999   0.26      
2392.6     94.61      0.25      
2392.8     92.55      0.257     
2393       91.89999   0.249     
2393.2     94.46      0.246     
2393.4     97.59      0.245     
2393.6     101.73     0.237     
2393.8     104.65     0.234     
2394       103.44     0.239     
2394.2     104.6      0.242     
2394.4     103.56     0.245     
2394.6     104.25     0.254     
2394.8     100.26     0.251     
2395       97.67      0.25      
2395.2     99.18      0.25      
2395.4     99.39999   0.247     
2395.6     98.63      0.24      
2395.8     92.8       0.238     
2396       91.33      0.226     
2396.2     96.84      0.222     
2396.4     99.84      0.233     
2396.6     98.45      0.233     
2396.8     96.82999   0.246     
2397       98.78999   0.266     
2397.2     107.44     0.27      
2397.4     111.01     0.267     
2397.6     113.02     0.262     
2397.8     114.9      0.255     
2398       114.23     0.248     
2398.2     113.5      0.244     
2398.4     117.4      0.248     
2398.6     118.52     0.252     
2398.8     115.88     0.238     
2399       113.6      0.232     
2399.2     106.36     0.229     
2399.4     105.84     0.224     
2399.6     106.31     0.23      
2399.8     105.77     0.234     
2400       102.4      0.238     
2400.2     98.14999   0.235     
2400.4     100.51     0.237     
2400.6     101.97     0.236     
2400.8     102.32     0.247     
2401       100.88     0.251     
2401.2     97.98      0.247     
2401.4     96.21001   0.242     
2401.6     94.86      0.236     
2401.8     94.43      0.223     
2402       95.17999   0.215     
2402.2     98.82      0.221     
2402.4     98.61      0.223     
2402.6     92.95999   0.211     
2402.8     82.81999   0.197     
2403       73.38      0.182     
2403.2     74.39999   0.182     
2403.4     85.16      0.184     
2403.6     88.71001   0.196     
2403.8     95.76      0.22      
2404       102.3      0.226     
2404.2     104.83     0.234     
2404.4     105.68     0.227     
2404.6     101.78     0.214     
2404.8     96.38      0.211     
2405       96.93      0.219     
2405.2     107.63     0.226     
2405.4     109.92     0.227     
2405.6     107.12     0.228     
2405.8     104.33     0.224     
2406       105.39     0.225     
2406.2     105.48     0.224     
2406.4     104.84     0.223     
2406.6     106.51     0.221     
2406.8     106.12     0.223     
2407       107.79     0.223     
2407.2     110.68     0.218     
2407.4     108.24     0.209     
2407.6     107.81     0.21      
2407.8     109.44     0.212     
2408       107.97     0.22      
2408.2     99.77      0.229     
2408.4     93.31001   0.226     
2408.6     87.23      0.216     
2408.8     78.33      0.196     
2409       72.39      0.183     
2409.2     71.05      0.175     
2409.4     76.25      0.179     
2409.6     96.3       0.202     
2409.8     101.96     0.225     
2410       91.93      0.222     
2410.2     73.38      0.201     
2410.4     62.47      0.183     
2410.6     59.6       0.186     
2410.8     56.44      0.189     
2411       52.85      0.195     
2411.2     48.47      0.192     
2411.4     47.77      0.187     
2411.6     48.23      0.186     
2411.8     48.22      0.179     
2412       48.5       0.179     
2412.2     49.29      0.176     
2412.4     52.35      0.181     
2412.6     61.51      0.188     
2412.8     68.06      0.183     
2413       71.26      0.188     
2413.2     74.49001   0.193     
2413.4     77.95      0.191     
2413.6     83.9       0.198     
2413.8     84.27      0.212     
2414       86.24      0.214     
2414.2     83.74      0.209     
2414.4     83.02      0.209     
2414.6     88.48      0.228     
2414.8     93.94      0.247     
2415       95.22      0.253     
2415.2     86.94      0.254     
2415.4     82.22      0.245     
2415.6     83.92      0.23      
2415.8     83.49      0.219     
2416       88.69      0.225     
