~Version
 VERS              .         2.0                           : CWLS LOG ASCII STANDARD - VERSION 2.0
 WRAP              .         NO                            : ONE LINE PER DEPTH STEP
 DLM               .         SPACE                         : DELIMITING CHARACTER(SPACE TAB OR COMMA)
~Well Information
#_______________________________________________________________________________
#
#PARAMETER_NAME    .UNIT     VALUE                         : DESCRIPTION
#_______________________________________________________________________________
STRT               .m        2319                          : First reference value
STOP               .m        2539                          : Last reference value
STEP               .m        0.2                           : Step increment
NULL               .         -9999                         : Missing value
COMP               .                                       : Company
WELL               .         701                           : Well name
FLD                .                                       : Field
LOC                .                                       : Location
CNTY               .                                       : County
STAT               .                                       : State
CTRY               .                                       : Country
SRVC               .                                       : Service Company
DATE               .                                       : Date
API                .                                       : API number
EREF               .m        141.23                        : 
X                  .m        221071                        : 
Y                  .m        253934                        : 
group              .         Pad7                          : 
Интер-р            .         Старостина                    : 
Куст               .         7                             : 
Статус             .         Не проверено                  : 
Тип                .         Эксплуатация                  : 
~Parameter Information Block
#_______________________________________________________________________________
#
#PARAMETER_NAME    .UNIT     VALUE                         : DESCRIPTION
#_______________________________________________________________________________
SET                .         LAS1                          : 
REAL_CREATION_DATE .         Ср апр 11 2012-13_17_25       : 
TLFamily_DEPTH     .         Measured Depth                : 
TLFamily_KS        .         Potential Resistivity         : 
TLFamily_KS1       .         Extra Shallow Resistivity     : 
TLFamily_KS2       .         Shallow Resistivity           : 
TLFamily_KS3       .         Medium Resistivity            : 
TLFamily_KS4       .         Deep Resistivity              : 
TLFamily_KS5       .         Extra Deep Resistivity        : 
TLFamily_LLD       .         Lateral Log Resistivity       : 
TLFamily_OKS3      .         Medium Resistivity Inverted   : 
TLFamily_RM        .         Mud Resistivity               : 
TLFamily_SP        .         Spontaneous Potential         : 
group              .         INI                           : 
~Curve Information
#_______________________________________________________________________________
#
#LOGNAME           .UNIT     LOG_ID                        : DESCRIPTION
#_______________________________________________________________________________
DEPTH              .m                                      : Measured Depth 
KS                 .ohm.m                                  : Potential Resistivity 
KS1                .ohm.m                                  : Extra Shallow Resistivity 
KS2                .ohm.m                                  : Shallow Resistivity 
KS3                .ohm.m                                  : Medium Resistivity 
KS4                .ohm.m                                  : Deep Resistivity 
KS5                .ohm.m                                  : Extra Deep Resistivity 
LLD                .ohm.m                                  : Lateral Log Resistivity 
OKS3               .ohm.m                                  : Medium Resistivity Inverted 
RM                 .ohm.m                                  : Mud Resistivity 
SP                 .mV                                     : Spontaneous Potential 
~Ascii
2319.0     0.04       0          0          0          0          0          -9999      0.0469     0.51       -10       
2319.2     0.04       0          0          0          0          0          -9999      6.6049     0.463      -10       
2319.4     0.04       0          0          0          0          0          -9999      22.5668    0.491      -10       
2319.6     0.3716     0          0          0          0          0          -9999      25.41      0.524      -10       
2319.8     2.4125     0.0917     0          0          0          0          -9999      21.3814    0.538      -10       
2320       3.992      0.9225     0          0          0          0          -9999      18.2307    0.539      -10       
2320.2     5.0297     1.6608     0          0          0          0          341.0991   15.877     0.552      -10       
2320.4     5.7166     2.0826     0.3104     0          0          0          497.5628   14.3174    0.555      -2.3444   
2320.6     6.1511     2.3581     2.7193     0          0          0          469.5398   13.2417    0.555      4.6161    
2320.8     6.4038     2.5726     4.8022     0          0          0          703.504    12.3015    0.555      11.5426   
2321       6.6436     2.672      6.0341     0          0          0          713.3062   11.4841    0.555      18.6686   
2321.2     6.8293     2.7175     6.7525     0          0          0          804.8877   10.8482    0.555      24.3188   
2321.4     7.0226     2.7714     7.2493     0          0          0          244.8507   10.3804    0.561      29.4506   
2321.6     7.0974     2.7732     7.5143     0.4333     0          0          0          10.0063    0.563      33.8657   
2321.8     7.062      2.9875     8.2657     3.5842     0          0          0          9.7206     0.57       36.7994   
2322       6.8546     3.1571     8.8406     6.424      0          0          0          9.2633     0.585      39.4286   
2322.2     6.6445     3.2905     9.4514     8.3827     0          0          0          8.8404     0.59       42.4047   
2322.4     6.3964     3.2545     9.4466     9.4654     0          0          0.5076     8.6763     0.597      46.4408   
2322.6     6.173      3.0385     8.9998     9.8255     0          0          3.0922     8.8085     0.608      47.3812   
2322.8     5.985      2.8969     8.5946     9.938      0          0          4.093      8.7813     0.618      42.2923   
2323       5.883      2.8734     8.4476     10.0362    0          0          3.7286     8.7151     0.614      37.7184   
2323.2     5.7721     2.8039     8.064      10.041     0          0          3.7215     8.6902     0.609      36.039    
2323.4     5.649      2.8037     7.8085     9.8814     0          0          3.5896     8.798      0.62       34.8564   
2323.6     5.5791     2.7365     7.4024     9.6807     0.243      0          3.3863     9.0439     0.62       35.8652   
2323.8     5.6077     2.5822     7.0162     9.254      2.0537     0          3.6904     9.2741     0.614      38.9627   
2324       5.7008     2.5343     6.8172     8.7495     3.45       0          3.837      9.3642     0.614      43.4893   
2324.2     5.8477     2.5343     6.6506     8.5157     4.3055     0          3.9878     9.4345     0.614      50.6497   
2324.4     5.9909     2.4988     6.5107     8.2766     4.9027     0          4.2868     9.4742     0.615      58.1917   
2324.6     6.101      2.5702     6.6182     8.1542     5.3367     0          4.9076     9.5028     0.62       62.9591   
2324.8     6.1383     2.7175     7.0306     8.2576     5.7534     0          5.143      9.2986     0.62       66.0174   
2325       6.1649     2.8576     7.3499     8.3638     6.053      0          4.6609     9.1516     0.614      68.1626   
2325.2     6.0885     2.9022     7.4582     8.3201     6.1844     0          4.2607     9.1011     0.614      66.6397   
2325.4     5.9785     2.8621     7.5374     8.1508     6.1634     0          4.0803     9.1685     0.615      60.8912   
2325.6     5.9092     2.7675     7.4682     8.0049     6.0674     0          4.0171     9.3853     0.62       56.7438   
2325.8     5.8526     2.7088     7.4134     7.938      6.0058     0          4.1025     9.6432     0.62       56.7947   
2326       5.8454     2.6891     7.348      7.9509     5.9235     0          4.1251     9.8053     0.62       55.4623   
2326.2     5.835      2.642      7.1711     8.0445     5.8945     0          4.0191     9.9164     0.614      51.6415   
2326.4     5.8454     2.642      7.0736     8.0445     5.8362     0          3.8931     10.071     0.614      48.9062   
2326.6     5.872      2.5882     6.8414     8.0445     5.7573     0          4.3264     10.4173    0.614      49.483    
2326.8     5.9758     2.5514     6.7239     8.0232     5.7038     0          4.4845     10.7424    0.617      52.4726   
2327       6.1748     2.492      6.5734     7.9913     5.6591     0          4.5499     10.86      0.614      52.4076   
2327.2     6.3887     2.491      6.5648     7.961      5.7116     0          5.0416     10.7687    0.614      48.8421   
2327.4     6.5927     2.5726     6.6574     7.9921     5.7644     0          5.2254     10.5473    0.614      46.4543   
2327.6     6.7071     2.6891     6.9376     8.1099     5.8768     0          5.2615     10.3262    0.615      45.9826   
2327.8     6.7912     2.7498     7.2088     8.2769     6.0329     0          5.3553     10.105     0.62       46.4925   
2328       6.804      2.8253     7.5637     8.4577     6.2171     0.2663     5.4121     9.8701     0.62       46.7529   
2328.2     6.7897     2.9005     7.8779     8.7132     6.4169     1.0398     5.2968     9.5663     0.62       46.9569   
2328.4     6.721      2.933      8.1393     8.9472     6.6086     1.6303     5.1189     9.336      0.614      49.6577   
2328.6     6.6222     2.9654     8.3123     9.1672     6.775      2.0705     4.6595     9.1337     0.614      55.6216   
2328.8     6.527      2.9115     8.2648     9.2792     6.8884     2.4641     4.4372     9.0457     0.619      62.9062   
2329       6.4845     2.8552     8.0677     9.3544     6.9959     2.7381     4.4647     8.9657     0.62       68.1625   
2329.2     6.4912     2.7659     7.8939     9.467      7.025      2.9649     4.752      8.8229     0.618      71.2609   
2329.4     6.5377     2.7498     7.827      9.6354     7.0611     3.184      4.8645     8.5983     0.614      74.6789   
2329.6     6.5377     2.7826     7.7511     9.8032     7.1511     3.3587     4.9702     8.3755     0.617      77.4757   
2329.8     6.4983     2.8132     7.838      9.9478     7.2477     3.5252     4.904      8.2018     0.62       77.5476   
2330       6.4273     2.8688     7.8718     10.0786    7.3482     3.6902     4.9793     8.0665     0.62       75.2873   
2330.2     6.3167     2.9115     8.0769     10.1846    7.4862     3.9447     4.6157     8.0351     0.622      71.0962   
2330.4     6.2068     2.9115     8.1179     10.2279    7.6003     4.117      4.4362     8.0928     0.615      65.8754   
2330.6     6.0507     2.8673     8.1179     10.1985    7.7301     4.2677     4.2746     8.2694     0.614      64.8341   
2330.8     5.9101     2.8576     8.1055     10.119     7.8185     4.3269     4.155      8.4238     0.62       74.4575   
2331       5.8192     2.8388     7.9417     9.9411     7.8553     4.38       4.0588     8.5339     0.62       88.4065   
2331.2     5.7098     2.7521     7.7024     9.7071     7.7992     4.433      3.9478     8.6443     0.62       91.6206   
2331.4     5.6289     2.6945     7.5243     9.4543     7.7319     4.3822     3.8545     8.7605     0.614      84.4404   
2331.6     5.5791     2.6393     7.2599     9.1915     7.6017     4.3623     3.7426     8.952      0.612      73.57     
2331.8     5.5791     2.5882     6.9831     8.8709     7.4364     4.3271     3.7708     9.1715     0.611      63.1331   
2332       5.5895     2.5819     6.8869     8.5818     7.213      4.2741     3.81       9.4081     0.62       59.0815   
2332.2     5.6447     2.5259     6.6527     8.2643     6.9942     4.2279     3.9272     9.5887     0.62       59.7912   
