~Version
 VERS              .         2.0                           : CWLS LOG ASCII STANDARD - VERSION 2.0
 WRAP              .         NO                            : ONE LINE PER DEPTH STEP
 DLM               .         SPACE                         : DELIMITING CHARACTER(SPACE TAB OR COMMA)
~Well Information
#_______________________________________________________________________________
#
#PARAMETER_NAME    .UNIT     VALUE                         : DESCRIPTION
#_______________________________________________________________________________
STRT               .m        2319                          : First reference value
STOP               .m        2539                          : Last reference value
STEP               .m        0.2                           : Step increment
NULL               .         -9999                         : Missing value
COMP               .                                       : Company
WELL               .         701                           : Well name
FLD                .                                       : Field
LOC                .                                       : Location
CNTY               .                                       : County
STAT               .                                       : State
CTRY               .                                       : Country
SRVC               .                                       : Service Company
DATE               .                                       : Date
API                .                                       : API number
EREF               .m        141.23                        : 
X                  .m        221071                        : 
Y                  .m        253934                        : 
group              .         Pad7                          : 
Интер-р            .         Старостина                    : 
Куст               .         7                             : 
Статус             .         Не проверено                  : 
Тип                .         Эксплуатация                  : 
~Parameter Information Block
#_______________________________________________________________________________
#
#PARAMETER_NAME    .UNIT     VALUE                         : DESCRIPTION
#_______________________________________________________________________________
SET                .         LAS1                          : 
REAL_CREATION_DATE .         Ср апр 11 2012-13_17_25       : 
TLFamily_DEPTH     .         Measured Depth                : 
TLFamily_KS        .         Potential Resistivity         : 
TLFamily_KS1       .         Extra Shallow Resistivity     : 
TLFamily_KS2       .         Shallow Resistivity           : 
TLFamily_KS3       .         Medium Resistivity            : 
TLFamily_KS4       .         Deep Resistivity              : 
TLFamily_KS5       .         Extra Deep Resistivity        : 
TLFamily_LLD       .         Lateral Log Resistivity       : 
TLFamily_OKS3      .         Medium Resistivity Inverted   : 
TLFamily_RM        .         Mud Resistivity               : 
TLFamily_SP        .         Spontaneous Potential         : 
group              .         INI                           : 
~Curve Information
#_______________________________________________________________________________
#
#LOGNAME           .UNIT     LOG_ID                        : DESCRIPTION
#_______________________________________________________________________________
DEPTH              .m                                      : Measured Depth 
KS                 .ohm.m                                  : Potential Resistivity 
KS1                .ohm.m                                  : Extra Shallow Resistivity 
KS2                .ohm.m                                  : Shallow Resistivity 
KS3                .ohm.m                                  : Medium Resistivity 
KS4                .ohm.m                                  : Deep Resistivity 
KS5                .ohm.m                                  : Extra Deep Resistivity 
LLD                .ohm.m                                  : Lateral Log Resistivity 
OKS3               .ohm.m                                  : Medium Resistivity Inverted 
RM                 .ohm.m                                  : Mud Resistivity 
SP                 .mV                                     : Spontaneous Potential 
~Ascii
# ...
2439.6     12.8224    3.7083     12.8588    18.5403    13.6772    7.2649     11.7647    26.3047    0.591      25.6254   
2439.8     12.7713    3.7736     13.3694    19.2979    14.4038    7.4648     10.8001    26.5304    0.587      26.7227   
2440       12.6768    3.7736     13.5801    19.9688    14.9426    7.6247     10.4849    26.6028    0.593      28.2027   
2440.2     12.6758    3.7266     13.561     20.5068    15.3656    7.664      10.0972    26.6879    0.591      30.4206   
2440.4     12.7159    3.6287     13.3318    20.8344    15.7638    7.6399     9.7624     26.9494    0.587      31.3818   
2440.6     12.7747    3.574      13.1623    21.1552    16.2046    7.6614     9.5598     27.169     0.591      30.4597   
2440.8     12.8412    3.4789     12.8184    21.4767    16.7263    7.664      10.6334    27.439     0.579      29.1085   
2441       12.9209    3.5542     12.9754    21.9597    17.1966    7.7147     10.8866    27.5644    0.578      28.2649   
2441.2     12.9926    3.612      13.1363    22.5037    17.6411    7.717      11.2095    27.6053    0.591      28.0589   
2441.4     13.1451    3.568      12.9909    22.6076    17.932     7.7952     11.0386    27.3371    0.585      26.8647   
2441.6     13.281     3.5293     12.83      22.5828    18.2856    7.8737     10.8789    27.0995    0.583      25.8883   
2441.8     13.4021    3.513      12.9474    22.7299    18.8481    8.0085     11.895     26.8292    0.575      28.9284   
2442       13.4558    3.5673     13.111     23.1152    19.7376    8.2032     11.9997    26.8742    0.567      32.4463   
2442.2     13.4616    3.6758     13.5458    23.7016    20.8047    8.3772     12.2552    26.8968    0.584      31.1351   
2442.4     13.4616    3.7198     13.8396    24.2205    21.8292    8.539      12.495     26.6798    0.585      27.6611   
2442.6     13.5363    3.7198     13.9187    24.3796    22.6045    8.6583     11.9386    26.367     0.579      26.0432   
2442.8     13.5681    3.6695     13.7057    24.444     23.2155    8.7659     11.3634    26.2491    0.579      26.163    
2443       13.5424    3.6659     13.8248    24.8402    24.0226    8.8206     12.1524    26.435     0.568      26.1836   
2443.2     13.4894    3.8242     14.2845    25.3685    24.9657    8.9261     12.153     26.6569    0.579      25.5256   
2443.4     13.4093    3.8275     14.426     25.9298    25.6421    8.9352     12.2877    26.8108    0.585      25.3942   
2443.6     13.355     3.8275     14.5419    26.1333    25.8926    8.9877     12.1244    26.6267    0.585      26.1801   
2443.8     13.2738    3.8273     14.449     26.0426    25.8151    8.9882     11.8745    26.4946    0.584      27.1676   
2444       13.1653    3.7743     14.2815    25.9742    25.7191    8.9882     11.4545    26.4456    0.579      28.0343   
2444.2     13.0054    3.8285     14.3706    26.0018    25.7851    8.9882     11.4781    26.683     0.573      29.0336   
2444.4     12.8448    3.8586     14.4674    26.0259    25.8523    8.9901     11.0598    27.2041    0.579      30.2369   
2444.6     12.7432    3.8017     14.3455    25.705     25.3876    9.0443     10.0557    28.0234    0.584      30.7444   
2444.8     12.7736    3.6575     13.7139    24.811     24.6159    9.0941     8.8716     29.2567    0.579      30.8575   
2445       12.8313    3.4232     12.9007    24.0321    24.1315    9.0874     9.112      30.2923    0.574      30.7401   
2445.2     12.9737    3.4738     13.0376    23.7053    23.9136    8.9928     12.0211    30.5699    0.573      30.3154   
2445.4     13.1788    3.481      12.8826    23.5761    23.8257    8.94       12.4308    29.9612    0.574      31.8655   
2445.6     13.3398    3.5797     12.9114    23.4236    23.5745    8.8393     12.3655    29.3381    0.58       34.8287   
2445.8     13.4479    3.554      12.807     23.1509    23.2762    8.8293     11.6602    29.1989    0.583      35.5146   
2446       13.5547    3.5042     12.7624    22.7277    22.9994    8.8896     11.8141    29.4723    0.579      35.5003   
2446.2     13.6627    3.5337     12.9443    22.6133    22.9613    9.0088     11.9046    30.0018    0.575      37.4007   
2446.4     13.7717    3.5457     12.999     22.5804    23.1485    9.2817     12.0362    30.6707    0.579      38.4512   
2446.6     13.9278    3.4819     12.9036    22.5363    23.3486    9.6422     12.4325    31.3684    0.581      37.4186   
2446.8     14.1066    3.4792     12.849     22.7833    23.7434    10.1782    12.4678    32.2229    0.585      36.2447   
2447       14.267     3.5042     13.073     23.391     24.5231    10.8703    13.5926    33.083     0.585      34.842    
2447.2     14.4181    3.5481     13.425     24.5569    25.8346    11.6204    14.4179    33.8605    0.585      33.4958   
2447.4     14.4891    3.6686     13.9556    25.9905    27.4079    12.1862    15.2864    34.5439    0.585      33.8417   
2447.6     14.6018    3.8135     14.5056    26.8407    28.313     12.6341    14.9416    34.3241    0.591      34.647    
2447.8     14.7626    3.7325     14.2384    26.7007    28.165     12.8198    13.7733    33.5608    0.591      33.7578   
2448       14.9063    3.6793     13.9762    26.2418    27.5292    12.7104    13.5267    32.9551    0.59       32.714    
2448.2     15.0138    3.6915     14.1028    26.115     27.3295    12.4972    14.0978    32.7179    0.591      33.4662   
2448.4     15.1861    3.6776     14.0904    25.9291    27.0665    12.3574    13.6112    32.7025    0.586      36.1949   
2448.6     15.3572    3.6356     13.8381    25.6422    26.7215    12.2748    13.3941    32.8716    0.591      38.7518   
2448.8     15.5641    3.6029     13.7656    25.5467    26.583     12.2216    14.8501    32.6749    0.595      38.2223   
2449       15.7309    3.6279     13.9515    25.898     26.9316    12.2528    16.8803    32.1354    0.592      36.2014   
2449.2     15.8722    3.7113     14.1897    26.3883    27.5952    12.4081    16.3279    31.5662    0.591      36.1447   
2449.4     15.9592    3.7822     14.4834    27.008     28.3353    12.5488    16.5961    31.4071    0.591      37.5351   
2449.6     15.9426    3.8746     14.7861    27.6963    28.9708    12.7782    16.5373    31.1404    0.596      37.8024   
2449.8     15.8891    3.8994     15.0421    28.3795    29.4834    12.9761    16.4745    30.8949    0.596      36.8794   
2450       15.8583    3.9353     15.3039    28.7361    29.7444    13.1543    15.9191    30.6186    0.596      36.9538   
2450.2     15.8583    3.8681     15.0684    28.663     29.721     13.4034    13.9713    30.3866    0.596      38.9487   
2450.4     15.8084    3.7477     14.7762    28.5873    29.8417    13.6707    13.4014    30.8317    0.602      41.3662   
2450.6     15.7796    3.7736     14.8713    28.8933    30.4063    13.9297    14.576     31.9218    0.602      42.9665   
2450.8     15.7776    3.7942     15.0072    29.3513    31.1643    14.3957    15.3468    32.8423    0.608      42.6342   
2451       15.8834    3.7748     14.9068    29.6561    31.7988    14.8376    15.489     33.0805    0.602      41.8693   
2451.2     15.9647    3.7736     14.7566    29.7187    32.3435    15.2628    15.5401    32.9509    0.602      43.0965   
2451.4     15.9926    3.7952     14.6889    29.7824    32.9819    15.7369    16.1109    32.6118    0.602      43.029    
2451.6     16.0181    3.8275     14.8324    29.8907    33.7676    16.2656    15.1577    32.2772    0.602      39.776    
2451.8     16.0181    3.8519     14.9153    30.0279    34.6815    16.8025    14.9877    32.3134    0.608      36.4599   
2452       16.0213    3.8814     15.0328    30.0019    35.3633    17.2853    15.4365    32.4089    0.608      34.9619   
2452.2     16.1046    3.856      14.8997    29.6767    35.5662    17.8227    14.5766    32.2315    0.602      34.1976   
2452.4     16.2474    3.7965     14.4852    28.9622    35.4724    18.5548    13.8012    31.8874    0.601      34.1189   
2452.6     16.4336    3.6362     14.0843    28.77      35.9598    19.3135    16.1869    31.7007    0.596      35.6474   
2452.8     16.589     3.5947     14.2286    29.5207    37.2482    20.1377    19.2249    31.4859    0.608      38.3073   
