~Version
 VERS              .         2.0                           : CWLS LOG ASCII STANDARD - VERSION 2.0
 WRAP              .         NO                            : ONE LINE PER DEPTH STEP
 DLM               .         SPACE                         : DELIMITING CHARACTER(SPACE TAB OR COMMA)
~Well Information
#_______________________________________________________________________________
#
#PARAMETER_NAME    .UNIT     VALUE                         : DESCRIPTION
#_______________________________________________________________________________
STRT               .m        2319                          : First reference value
STOP               .m        2539                          : Last reference value
STEP               .m        0.2                           : Step increment
NULL               .         -9999                         : Missing value
COMP               .                                       : Company
WELL               .         701                           : Well name
FLD                .                                       : Field
LOC                .                                       : Location
CNTY               .                                       : County
STAT               .                                       : State
CTRY               .                                       : Country
SRVC               .                                       : Service Company
DATE               .                                       : Date
API                .                                       : API number
EREF               .m        141.23                        : 
X                  .m        221071                        : 
Y                  .m        253934                        : 
group              .         Pad7                          : 
Интер-р            .         Старостина                    : 
Куст               .         7                             : 
Статус             .         Не проверено                  : 
Тип                .         Эксплуатация                  : 
~Parameter Information Block
#_______________________________________________________________________________
#
#PARAMETER_NAME    .UNIT     VALUE                         : DESCRIPTION
#_______________________________________________________________________________
SET                .         LAS1                          : 
REAL_CREATION_DATE .         Ср апр 11 2012-13_17_25       : 
TLFamily_DEPTH     .         Measured Depth                : 
TLFamily_KS        .         Potential Resistivity         : 
TLFamily_KS1       .         Extra Shallow Resistivity     : 
TLFamily_KS2       .         Shallow Resistivity           : 
TLFamily_KS3       .         Medium Resistivity            : 
TLFamily_KS4       .         Deep Resistivity              : 
TLFamily_KS5       .         Extra Deep Resistivity        : 
TLFamily_LLD       .         Lateral Log Resistivity       : 
TLFamily_OKS3      .         Medium Resistivity Inverted   : 
TLFamily_RM        .         Mud Resistivity               : 
TLFamily_SP        .         Spontaneous Potential         : 
group              .         INI                           : 
~Curve Information
#_______________________________________________________________________________
#
#LOGNAME           .UNIT     LOG_ID                        : DESCRIPTION
#_______________________________________________________________________________
DEPTH              .m                                      : Measured Depth 
KS                 .ohm.m                                  : Potential Resistivity 
KS1                .ohm.m                                  : Extra Shallow Resistivity 
KS2                .ohm.m                                  : Shallow Resistivity 
KS3                .ohm.m                                  : Medium Resistivity 
KS4                .ohm.m                                  : Deep Resistivity 
KS5                .ohm.m                                  : Extra Deep Resistivity 
LLD                .ohm.m                                  : Lateral Log Resistivity 
OKS3               .ohm.m                                  : Medium Resistivity Inverted 
RM                 .ohm.m                                  : Mud Resistivity 
SP                 .mV                                     : Spontaneous Potential 
~Ascii
# ...
2332.4     5.7523     2.4804     6.5202     7.9891     6.7757     4.2211     4.0364     9.7407     0.614      61.087    
2332.6     5.9013     2.4804     6.4655     7.7775     6.6108     4.2        4.1529     9.8681     0.61       63.5607   
2332.8     5.9946     2.5047     6.4502     7.6775     6.4973     4.2019     4.4474     10.0172    0.604      66.2345   
2333       6.0716     2.6024     6.7392     7.6927     6.4102     4.2211     4.6247     10.1269    0.62       71.4975   
2333.2     6.1352     2.6588     6.9074     7.7797     6.422      4.2248     4.618      10.1769    0.62       80.2667   
2333.4     6.1901     2.7149     7.0527     7.8315     6.3865     4.2741     4.586      10.0599    0.62       81.7405   
2333.6     6.2182     2.7498     7.1501     7.8578     6.3328     4.2741     4.5357     10.0072    0.62       72.2023   
2333.8     6.2464     2.7496     7.2109     7.8848     6.2533     4.2454     4.4506     10.0024    0.619      60.9451   
2334       6.2776     2.6959     7.2219     7.8931     6.186      4.2211     4.5443     9.9481     0.614      53.7394   
2334.2     6.3247     2.7009     7.2966     7.9829     6.1319     4.2211     4.667      9.8628     0.62       50.7057   
2334.4     6.3634     2.7498     7.332      8.129      6.1319     4.2688     4.6333     9.7521     0.62       50.7502   
2334.6     6.4313     2.7498     7.332      8.2547     6.1484     4.3218     4.5979     9.6874     0.617      52.87     
2334.8     6.5        2.7125     7.3368     8.406      6.2497     4.4019     4.6976     9.6874     0.614      55.6796   
2335       6.5993     2.6959     7.4153     8.5756     6.3811     4.5645     4.7491     9.6874     0.614      57.5639   
2335.2     6.6697     2.6959     7.4467     8.8489     6.642      4.7359     5.2876     9.7311     0.619      63.0295   
2335.4     6.6443     2.8243     7.7166     9.2649     6.9236     4.9017     6.0243     9.6107     0.631      72.9883   
2335.6     6.6681     3.0012     8.2365     9.6502     7.1561     5.0086     5.2062     9.3857     0.62       76.1637   
2335.8     6.6711     2.9654     8.1296     9.7787     7.211      5.0866     4.8185     9.1328     0.614      66.9834   
2336       6.5633     2.9654     8.1617     9.7804     7.2755     5.1216     4.8182     9.079      0.614      53.8586   
2336.2     6.477      2.9674     8.327      9.8956     7.3845     5.1216     4.8532     9.0747     0.616      45.1779   
2336.4     6.3593     3.0152     8.5528     10.0332    7.4816     5.0686     4.7192     9.0191     0.624      45.4746   
2336.6     6.2635     2.9599     8.4151     10.0094    7.4481     4.9595     4.5209     8.9315     0.62       54.0555   
2336.8     6.1732     2.905      8.2566     9.8059     7.2989     4.862      4.3297     8.8538     0.62       62.8342   
2337       6.0993     2.8576     8.0362     9.625      7.1752     4.7373     4.2603     8.8448     0.614      66.0124   
2337.2     6.0033     2.8226     7.9046     9.5192     7.0358     4.5732     4.1757     8.9371     0.614      66.2616   
2337.4     5.9094     2.8037     7.8138     9.3996     6.9555     4.3807     4.1106     9.0624     0.62       69.8009   
2337.6     5.8543     2.7629     7.6287     9.2548     6.7948     4.2615     3.9946     9.2576     0.62       78.8085   
2337.8     5.8454     2.7067     7.4443     9.1225     6.6318     4.152      4.0363     9.4611     0.62       86.8499   
2338       5.8454     2.6504     7.2309     8.8472     6.4944     4.0423     4.0807     9.7372     0.62       85.1576   
2338.2     5.872      2.642      7.0822     8.628      6.3635     3.9588     4.1229     9.998      0.614      74.3467   
2338.4     5.9268     2.642      6.9758     8.49       6.2968     3.9055     4.1789     10.2815    0.614      62.9666   
2338.6     5.982      2.642      6.9486     8.4109     6.237      3.8521     4.2718     10.5819    0.619      56.924    
2338.8     6.0429     2.642      6.9319     8.3324     6.1987     3.8146     4.4378     10.797     0.614      57.2747   
2339       6.1201     2.642      7.0163     8.2762     6.1844     3.7974     4.4862     10.9529    0.614      58.8081   
2339.2     6.2118     2.6489     6.9903     8.2199     6.1844     3.7451     4.5856     11.0199    0.614      56.5401   
2339.4     6.2835     2.6959     7.0734     8.1639     6.1844     3.6968     4.6002     11.0314    0.611      55.1854   
2339.6     6.3641     2.6959     7.1542     8.1085     6.1844     3.6389     4.65       11.1134    0.618      58.1773   
2339.8     6.435      2.6959     7.2272     8.0978     6.1636     3.5781     4.6817     11.1541    0.614      62.9895   
2340       6.5469     2.6959     7.1949     8.0491     6.1096     3.5326     4.8221     11.0806    0.614      67.1673   
2340.2     6.6587     2.6685     7.1938     8.0968     6.0833     3.5157     5.1012     11.0059    0.614      66.7395   
2340.4     6.7465     2.6959     7.3368     8.202      6.1372     3.4796     5.2663     10.9152    0.614      60.2283   
2340.6     6.8016     2.7932     7.5256     8.4219     6.2204     3.5028     5.2573     10.8352    0.615      54.3728   
2340.8     6.8573     2.8037     7.6644     8.6415     6.2972     3.5326     5.1586     10.7283    0.62       52.8225   
2341       6.8573     2.8576     7.8288     8.8935     6.3957     3.5832     5.1343     10.7001    0.62       52.6379   
2341.2     6.8573     2.8576     7.9739     9.172      6.5485     3.6197     5.2018     10.7231    0.616      54.044    
2341.4     6.8573     2.8576     8.1317     9.437      6.6578     3.678      5.1511     10.6692    0.618      57.0043   
2341.6     6.8677     2.8576     8.1441     9.6196     6.7245     3.7438     5.058      10.6032    0.614      58.5248   
2341.8     6.8853     2.8576     8.0917     9.7469     6.8234     3.7911     5.1287     10.5035    0.623      58.3236   
2342       6.9106     2.8576     8.0949     9.9155     6.9537     3.8451     5.1299     10.4869    0.626      57.815    
2342.2     6.9106     2.8576     8.1486     10.0939    7.1186     3.8987     5.1718     10.4318    0.62       57.9681   
2342.4     6.9106     2.8576     8.1703     10.1933    7.2603     3.9522     5.1455     10.3198    0.62       56.2063   
2342.6     6.9106     2.8576     8.1703     10.2982    7.3973     4.0062     5.1845     10.2265    0.614      50.283    
2342.8     6.8602     2.8758     8.2453     10.4382    7.6092     4.0595     5.3717     10.132     0.62       44.436    
2343       6.8319     2.9618     8.4744     10.5475    7.7442     4.0884     5.1675     9.9186     0.625      43.9417   
2343.2     6.8284     2.8898     8.2406     10.4828    7.8131     4.1452     4.7948     9.7216     0.62       47.3645   
2343.4     6.7737     2.882      8.2344     10.3877    7.857      4.1682     4.8029     9.6874     0.62       48.465    
2343.6     6.719      2.908      8.3043     10.4204    7.9903     4.2199     4.8082     9.7093     0.618      46.5267   
2343.8     6.6642     2.8576     8.2751     10.4761    8.0998     4.2732     4.8791     9.6815     0.62       46.432    
2344       6.6336     2.8809     8.3175     10.4557    8.1697     4.3265     4.8521     9.5957     0.62       49.2282   
2344.2     6.591      2.8576     8.2209     10.4119    8.1808     4.38       4.7182     9.476      0.62       50.4082   
2344.4     6.5507     2.8576     8.0909     10.3181    8.1151     4.3868     4.7119     9.3563     0.62       48.8036   
2344.6     6.4957     2.8576     8.0592     10.2631    8.0758     4.433      4.7007     9.3007     0.62       47.5153   
2344.8     6.4656     2.8576     7.9895     10.1782    8.0232     4.433      4.6241     9.2181     0.614      44.9135   
2345       6.4096     2.8576     8.003      10.1214    7.9969     4.4485     4.5473     9.2259     0.62       40.4075   
2345.2     6.3284     2.8576     7.9978     10.0948    7.9418     4.486      4.4544     9.261      0.625      39.9831   
2345.4     6.2739     2.8082     7.8955     9.9789     7.8803     4.486      4.4169     9.261      0.62       44.2153   
2345.6     6.2457     2.8037     7.8559     9.7745     7.8049     4.486      4.4126     9.261      0.62       47.464    
