~Version
 VERS              .         2.0                           : CWLS LOG ASCII STANDARD - VERSION 2.0
 WRAP              .         NO                            : ONE LINE PER DEPTH STEP
 DLM               .         SPACE                         : DELIMITING CHARACTER(SPACE TAB OR COMMA)
~Well Information
#_______________________________________________________________________________
#
#PARAMETER_NAME    .UNIT     VALUE                         : DESCRIPTION
#_______________________________________________________________________________
STRT               .m        2319                          : First reference value
STOP               .m        2539                          : Last reference value
STEP               .m        0.2                           : Step increment
NULL               .         -9999                         : Missing value
COMP               .                                       : Company
WELL               .         701                           : Well name
FLD                .                                       : Field
LOC                .                                       : Location
CNTY               .                                       : County
STAT               .                                       : State
CTRY               .                                       : Country
SRVC               .                                       : Service Company
DATE               .                                       : Date
API                .                                       : API number
EREF               .m        141.23                        : 
X                  .m        221071                        : 
Y                  .m        253934                        : 
group              .         Pad7                          : 
Интер-р            .         Старостина                    : 
Куст               .         7                             : 
Статус             .         Не проверено                  : 
Тип                .         Эксплуатация                  : 
~Parameter Information Block
#_______________________________________________________________________________
#
#PARAMETER_NAME    .UNIT     VALUE                         : DESCRIPTION
#_______________________________________________________________________________
SET                .         LAS3                          : 
REAL_CREATION_DATE .         Ср апр 11 2012-13_17_25       : 
TLFamily_DEPTH     .         Measured Depth                : 
TLFamily_GR        .         Gamma Ray                     : 
TLFamily_TNPH      .         Neutron Porosity              : 
group              .         INI                           : 
~Curve Information
#_______________________________________________________________________________
#
#LOGNAME           .UNIT     LOG_ID                        : DESCRIPTION
#_______________________________________________________________________________
DEPTH              .m                                      : Measured Depth 
GR                 .gAPI                                   :  
TNPH               .v/v                                    : Neutron Porosity 
~Ascii
# ...
2416.2     98.74      0.226     
2416.4     99.1       0.213     
2416.6     91.22      0.207     
2416.8     87.52      0.207     
2417       86.85001   0.197     
2417.2     85.03      0.192     
2417.4     74.38      0.199     
2417.6     68.69      0.203     
2417.8     67.35      0.189     
2418       60.87      0.174     
2418.2     51.94      0.171     
2418.4     52.33      0.178     
2418.6     62.83      0.18      
2418.8     72.39      0.179     
2419       81.5       0.189     
2419.2     94.65      0.214     
2419.4     106.85     0.232     
2419.6     100.29     0.229     
2419.8     94.95      0.227     
2420       97.81      0.222     
2420.2     104.1      0.22      
2420.4     112.77     0.209     
2420.6     118.59     0.2       
2420.8     121.71     0.209     
2421       117.51     0.22      
2421.2     113.11     0.229     
2421.4     115.86     0.233     
2421.6     119.41     0.233     
2421.8     123.51     0.235     
2422       128.88     0.243     
2422.2     132.97     0.251     
2422.4     135.2      0.239     
2422.6     136.26     0.245     
2422.8     132.74     0.264     
2423       123.1      0.271     
2423.2     111.87     0.25      
2423.4     103.69     0.251     
2423.6     104.94     0.26      
2423.8     108.23     0.242     
2424       113.32     0.237     
2424.2     115.52     0.243     
2424.4     116.8      0.231     
2424.6     122.06     0.228     
2424.8     128.6      0.242     
2425       139.53     0.254     
2425.2     148.86     0.258     
2425.4     157.86     0.262     
2425.6     156.69     0.268     
2425.8     153.21     0.252     
2426       151.29     0.255     
2426.2     151.53     0.261     
2426.4     144.56     0.244     
2426.6     140.48     0.232     
2426.8     133.13     0.242     
2427       123.67     0.251     
2427.2     115.9      0.248     
2427.4     97.91      0.235     
2427.6     102.23     0.23      
2427.8     120.83     0.235     
2428       123.07     0.249     
2428.2     125.75     0.244     
2428.4     130.72     0.24      
2428.6     130.35     0.235     
2428.8     132.62     0.241     
2429       135.82     0.236     
2429.2     139.05     0.229     
2429.4     148.44     0.236     
2429.6     167.24     0.254     
2429.8     201.96     0.262     
2430       221.85     0.268     
2430.2     218.42     0.27      
2430.4     204.16     0.276     
2430.6     194.68     0.28      
2430.8     197.53     0.288     
2431       214.48     0.292     
2431.2     231.5      0.299     
2431.4     240.42     0.306     
2431.6     230.2      0.304     
2431.8     209.11     0.307     
2432       198.6      0.312     
2432.2     208.01     0.32      
2432.4     228.72     0.308     
2432.6     247.8      0.31      
2432.8     260.61     0.313     
2433       264.52     0.333     
2433.2     264.39     0.331     
2433.4     253.76     0.315     
2433.6     239.07     0.309     
2433.8     220.53     0.31      
2434       204.2      0.3       
2434.2     191.95     0.306     
2434.4     184.28     0.303     
2434.6     184.82     0.29      
2434.8     191.82     0.282     
2435       208.08     0.281     
2435.2     227.21     0.297     
2435.4     253.29     0.3       
2435.6     270.27     0.3       
2435.8     295.74     0.318     
2436       327.45     0.326     
2436.2     358.77     0.316     
2436.4     372.25     0.303     
2436.6     363.61     0.302     
2436.8     361.09     0.315     
2437       372.32     0.336     
2437.2     380.51     0.33      
2437.4     389.37     0.303     
2437.6     402.51     0.292     
2437.8     411.3      0.294     
2438       408.35     0.311     
2438.2     405.44     0.332     
2438.4     416.07     0.332     
2438.6     442.66     0.333     
2438.8     451.6      0.32      
2439       450.67     0.327     
2439.2     437.58     0.326     
2439.4     406.12     0.314     
2439.6     381.04     0.314     
2439.8     350.07     0.327     
2440       332.35     0.335     
2440.2     332.4      0.318     
2440.4     345.7      0.308     
2440.6     356.31     0.302     
2440.8     369.19     0.306     
2441       388.87     0.314     
2441.2     398.95     0.322     
2441.4     402.08     0.315     
2441.6     401.46     0.313     
2441.8     380.35     0.327     
2442       351.36     0.328     
2442.2     344.53     0.324     
2442.4     336.84     0.316     
2442.6     325.84     0.309     
2442.8     324.05     0.317     
2443       322.67     0.334     
2443.2     318.2      0.343     
2443.4     301.98     0.341     
2443.6     270.5      0.338     
2443.8     249.98     0.346     
2444       249.59     0.331     
2444.2     252.03     0.312     
2444.4     252.21     0.32      
2444.6     248.83     0.319     
2444.8     237.53     0.315     
2445       217.59     0.329     
2445.2     199.61     0.321     
2445.4     182.63     0.325     
2445.6     167.81     0.325     
2445.8     156.07     0.323     
2446       150.51     0.297     
2446.2     154.52     0.279     
2446.4     161.74     0.289     
2446.6     165.21     0.289     
2446.8     167.51     0.289     
2447       177.55     0.297     
2447.2     185.61     0.289     
2447.4     185.87     0.298     
2447.6     183.91     0.299     
2447.8     169.59     0.306     
2448       150.93     0.307     
2448.2     146.59     0.302     
2448.4     139.1      0.317     
2448.6     134.98     0.316     
2448.8     130.74     0.294     
2449       122.9      0.268     
2449.2     121.01     0.256     
2449.4     119.9      0.259     
2449.6     121.07     0.269     
2449.8     121.72     0.276     
2450       122.89     0.275     
2450.2     124.19     0.267     
2450.4     123.06     0.274     
2450.6     122.03     0.264     
2450.8     127.23     0.266     
2451       136.07     0.268     
2451.2     139.66     0.284     
2451.4     133.28     0.291     
2451.6     127.55     0.289     
2451.8     125.36     0.291     
2452       129.56     0.299     
2452.2     137.12     0.294     
2452.4     138.36     0.296     
2452.6     139.54     0.299     
2452.8     143.46     0.295     
2453       148.96     0.289     
2453.2     144.23     0.287     
2453.4     136.3      0.283     
2453.6     131.78     0.278     
2453.8     129.73     0.285     
2454       129.52     0.308     
2454.2     133.42     0.319     
2454.4     144.91     0.322     
2454.6     145.4      0.302     
2454.8     132.33     0.277     
2455       117        0.263     
2455.2     110.97     0.256     
2455.4     113.81     0.265     
2455.6     120.19     0.281     
2455.8     129.28     0.297     
2456       146.03     0.3       
2456.2     160.78     0.319     
2456.4     168.8      0.329     
2456.6     166.74     0.32      
2456.8     157.81     0.307     
2457       142.66     0.286     
2457.2     128.39     0.284     
2457.4     121.03     0.275     
2457.6     132.57     0.292     
2457.8     143.96     0.311     
2458       160.41     0.317     
2458.2     178.39     0.317     
2458.4     208.28     0.333     
2458.6     227.86     0.354     
2458.8     231.69     0.353     
2459       220.98     0.337     
2459.2     215.3      0.326     
2459.4     224.93     0.33      
2459.6     243.62     0.319     
2459.8     256.84     0.326     
2460       252.44     0.335     
2460.2     221.21     0.341     
2460.4     187.46     0.319     
2460.6     183.15     0.315     
2460.8     173.49     0.31      
2461       156.64     0.306     
2461.2     142.53     0.312     
2461.4     129.46     0.302     
2461.6     123.1      0.289     
2461.8     125.01     0.265     
2462       128.28     0.253     
2462.2     125.38     0.27      
2462.4     120.82     0.279     
2462.6     117.59     0.281     
2462.8     115.05     0.282     
2463       112.11     0.272     
2463.2     113.07     0.261     
2463.4     110.3      0.253     
2463.6     107.54     0.248     
2463.8     121.21     0.255     
2464       150.84     0.268     
2464.2     151.08     0.269     
2464.4     148.77     0.265     
2464.6     142.34     0.259     
