~Version
 VERS              .         2.0                           : CWLS LOG ASCII STANDARD - VERSION 2.0
 WRAP              .         NO                            : ONE LINE PER DEPTH STEP
 DLM               .         SPACE                         : DELIMITING CHARACTER(SPACE TAB OR COMMA)
~Well Information
#_______________________________________________________________________________
#
#PARAMETER_NAME    .UNIT     VALUE                         : DESCRIPTION
#_______________________________________________________________________________
STRT               .m        2319                          : First reference value
STOP               .m        2539                          : Last reference value
STEP               .m        0.2                           : Step increment
NULL               .         -9999                         : Missing value
COMP               .                                       : Company
WELL               .         701                           : Well name
FLD                .                                       : Field
LOC                .                                       : Location
CNTY               .                                       : County
STAT               .                                       : State
CTRY               .                                       : Country
SRVC               .                                       : Service Company
DATE               .                                       : Date
API                .                                       : API number
EREF               .m        141.23                        : 
X                  .m        221071                        : 
Y                  .m        253934                        : 
group              .         Pad7                          : 
Интер-р            .         Старостина                    : 
Куст               .         7                             : 
Статус             .         Не проверено                  : 
Тип                .         Эксплуатация                  : 
~Parameter Information Block
#_______________________________________________________________________________
#
#PARAMETER_NAME    .UNIT     VALUE                         : DESCRIPTION
#_______________________________________________________________________________
SET                .         LAS1                          : 
REAL_CREATION_DATE .         Ср апр 11 2012-13_17_25       : 
TLFamily_DEPTH     .         Measured Depth                : 
TLFamily_KS        .         Potential Resistivity         : 
TLFamily_KS1       .         Extra Shallow Resistivity     : 
TLFamily_KS2       .         Shallow Resistivity           : 
TLFamily_KS3       .         Medium Resistivity            : 
TLFamily_KS4       .         Deep Resistivity              : 
TLFamily_KS5       .         Extra Deep Resistivity        : 
TLFamily_LLD       .         Lateral Log Resistivity       : 
TLFamily_OKS3      .         Medium Resistivity Inverted   : 
TLFamily_RM        .         Mud Resistivity               : 
TLFamily_SP        .         Spontaneous Potential         : 
group              .         INI                           : 
~Curve Information
#_______________________________________________________________________________
#
#LOGNAME           .UNIT     LOG_ID                        : DESCRIPTION
#_______________________________________________________________________________
DEPTH              .m                                      : Measured Depth 
KS                 .ohm.m                                  : Potential Resistivity 
KS1                .ohm.m                                  : Extra Shallow Resistivity 
KS2                .ohm.m                                  : Shallow Resistivity 
KS3                .ohm.m                                  : Medium Resistivity 
KS4                .ohm.m                                  : Deep Resistivity 
KS5                .ohm.m                                  : Extra Deep Resistivity 
LLD                .ohm.m                                  : Lateral Log Resistivity 
OKS3               .ohm.m                                  : Medium Resistivity Inverted 
RM                 .ohm.m                                  : Mud Resistivity 
SP                 .mV                                     : Spontaneous Potential 
~Ascii
# ...
2493.2     6.3798     2.2967     5.6275     6.8197     6.0815     4.9234     4.8397     12.3628    0.59       31.1881   
2493.4     6.513      2.3105     5.7563     6.8682     6.2443     5.6062     5.0192     13.472     0.591      35.8015   
2493.6     6.6208     2.5243     6.4163     6.9294     6.5964     6.757      4.4459     15.3974    0.591      41.1332   
2493.8     6.7574     2.4878     6.4537     7.2577     7.2908     8.3724     5.3289     18.0832    0.596      43.0518   
2494       6.9204     2.4748     6.7825     8.4168     8.4416     10.4219    5.6144     20.7616    0.597      44.6531   
2494.2     7.1801     2.5852     7.3007     10.4082    9.961      13.2341    3.9459     24.4693    0.59       49.0813   
2494.4     7.549      2.561      7.6157     11.3985    11.6471    17.3298    6.4408     28.2837    0.575      52.4144   
2494.6     7.9228     2.4411     7.5275     12.1003    14.1392    21.1291    8.9834     30.4396    0.579      52.338    
2494.8     8.4069     2.7339     8.3012     12.3257    16.36      24.4263    9.3361     29.8171    0.58       52.1653   
2495       8.5692     3.0834     9.1395     12.8368    17.7449    27.4021    10.3115    27.876     0.585      53.5103   
2495.2     8.6989     3.4499     10.1645    12.6688    17.801     28.9064    6.8715     24.3757    0.583      55.2379   
2495.4     8.9398     3.099      9.2042     11.6626    17.6709    27.5935    5.4988     20.9034    0.561      55.2255   
2495.6     9.0858     2.8114     8.7962     10.3552    16.2702    25.1774    5.7649     18.8622    0.565      52.6531   
2495.8     9.2515     2.6959     8.7874     9.6788     13.6504    22.129     6.2795     18.6377    0.577      49.4731   
2496       9.5172     2.6202     8.3764     9.405      10.0985    18.4059    6.0119     19.6205    0.573      48.055    
2496.2     9.7716     2.5423     8.0757     9.5356     7.5965     14.9391    8.5872     21.2132    0.567      47.7854   
2496.4     10.0111    2.6777     8.5671     10.4373    7.5041     12.7429    9.8682     22.8371    0.577      48.6272   
2496.6     10.1427    2.9393     9.3513     12.236     7.9479     11.4692    9.9316     24.832     0.57       50.7099   
2496.8     10.1001    3.1567     10.4894    15.4324    8.9745     10.8547    14.1205    27.7123    0.57       52.1049   
2497       9.9007     3.428      12.195     19.406     10.4174    11.0244    8.5881     30.5699    0.567      52.4643   
2497.2     9.7866     3.744      13.6278    22.1195    11.1861    11.3121    7.2832     30.3838    0.573      51.8556   
2497.4     9.7985     3.5149     12.5066    22.3276    10.8633    11.2076    6.7836     27.2446    0.57       50.7451   
2497.6     9.8917     3.3224     11.616     20.3115    9.8497     10.6823    6.476      23.5584    0.567      48.4174   
2497.8     10.0141    3.0228     10.3754    17.8834    9.0303     9.6432     7.001      21.3423    0.57       46.8511   
2498       10.213     2.8084     9.429      15.6952    8.3462     7.9962     7.2822     20.2772    0.582      49.6193   
2498.2     10.3843    2.7011     8.8153     14.1571    8.1513     6.3301     7.7324     20.1721    0.585      52.0857   
2498.4     10.6236    2.642      8.4357     13.2168    8.1088     5.0327     7.8503     20.6094    0.585      51.5465   
2498.6     10.8926    2.6686     8.1902     12.8162    8.4033     4.0639     8.2237     21.4641    0.585      51.9638   
2498.8     11.1216    2.7177     8.1652     12.7309    9.1175     3.3674     8.5118     22.8318    0.585      52.7219   
2499       11.3688    2.7498     8.2227     12.7658    9.7178     2.8697     8.3263     24.1834    0.585      52.745    
2499.2     11.7887    2.7252     8.1092     12.8466    10.1342    2.5256     9.4683     25.6985    0.587      53.0978   
2499.4     12.2731    2.602      7.9083     13.1952    10.6085    2.2912     13.8059    27.2402    0.579      53.3386   
2499.6     12.7821    2.6141     8.1261     13.8077    11.2506    2.1165     14.6161    28.2881    0.587      53.8814   
2499.8     13.3959    2.7663     8.6348     14.4604    11.9268    2.0084     16.069     28.4714    0.595      52.1737   
2500       13.8755    2.916      9.092      15.059     12.6331    1.9442     16.4362    28.594     0.599      47.3142   
2500.2     14.2637    3.0683     9.753      15.6757    13.5387    1.9862     16.6791    29.0904    0.596      45.6417   
2500.4     14.5562    3.2294     10.4771    16.363     14.6556    2.1463     16.7973    30.1054    0.601      49.4316   
2500.6     14.796     3.3182     11.1596    17.1533    16.0214    2.3044     16.8076    31.2253    0.608      53.8402   
2500.8     14.9584    3.4559     11.8955    17.8974    17.5039    2.5097     16.4333    32.3134    0.608      54.9575   
2501       15.0288    3.5203     12.3937    18.7343    19.0531    2.7196     15.0906    33.6247    0.608      52.7338   
2501.2     15.0594    3.6068     12.774     19.654     20.9091    3.0428     14.4891    35.1118    0.602      51.5022   
2501.4     15.0825    3.6611     13.2251    20.7691    23.5594    3.5611     13.9975    37.0518    0.596      53.0572   
2501.6     15.137     3.6472     13.3542    21.9684    26.5117    4.2498     13.8385    38.585     0.585      53.3399   
2501.8     15.2684    3.5616     13.2817    23.0199    29.0423    5.3599     12.4982    39.4585    0.584      52.6987   
2502       15.481     3.5375     13.115     23.964     31.8019    7.0655     10.004     40.4687    0.579      54.1745   
2502.2     15.8691    3.472      12.9807    24.895     35.9104    9.1961     10.8026    43.8708    0.562      57.6369   
2502.4     16.5751    3.0723     11.9784    25.5772    40.6642    11.8067    80.7147    47.858     0.556      60.869    
2502.6     17.5652    2.7117     11.2362    26.2447    44.1901    14.9497    156.4162   47.3803    0.567      60.9115   
2502.8     18.8341    3.0222     12.2994    27.5945    45.7573    18.1593    122.8973   42.5666    0.579      58.6131   
2503       19.7504    3.4478     13.3996    29.1946    46.2148    21.543     47.6576    37.2071    0.591      57.9661   
2503.2     20.1726    3.7854     14.3537    30.5702    46.3076    24.4414    39.9807    32.99      0.584      60.5113   
2503.4     20.4163    4.1301     15.956     30.7949    44.7683    28.148     89.9592    28.8337    0.596      65.0475   
2503.6     19.9585    3.8268     15.4979    33.3592    47.0927    31.5676    99.6143    27.1114    0.557      70.3291   
2503.8     19.0347    5.0198     21.7273    38.0391    52.0634    34.8002    45.9008    25.7362    0.619      73.2364   
2504       17.6792    5.4694     23.8905    43.7751    57.4724    36.2727    11.2999    25.0631    0.617      70.3433   
2504.2     16.624     5.564      24.8274    44.3352    56.2077    37.0004    9.3396     23.7481    0.613      63.5216   
2504.4     15.6727    4.928      21.8918    42.4672    51.5554    35.3261    10.0828    23.2794    0.596      60.6316   
2504.6     14.7857    4.3958     19.908     40.6748    46.9188    32.2762    8.6433     23.4887    0.585      65.0165   
2504.8     14.1136    4.2096     18.9239    40.5711    43.6253    29.2961    9.3203     24.5502    0.58       70.6966   
2505       13.6829    3.8888     17.3203    39.9521    40.866     27.2071    10.7678    25.521     0.568      71.5771   
2505.2     13.3497    3.7298     16.1698    37.8426    37.6322    25.3799    10.7918    25.1126    0.558      68.9013   
2505.4     13.3551    3.5298     14.5335    35.6747    35.3076    23.6485    10.6377    23.0736    0.569      68.4903   
2505.6     13.3882    3.4423     13.2835    32.3054    32.4078    22.4865    10.8058    21.1822    0.585      70.4161   
2505.8     13.3741    3.3426     12.3473    29.6317    30.2606    21.0194    11.0291    19.8385    0.591      69.9207   
2506       13.3282    3.3426     12.0058    27.1694    28.7999    19.3132    10.7549    18.5863    0.591      65.8607   
2506.2     13.3551    3.3111     11.7204    25.4449    27.9376    17.8205    11.2566    17.8193    0.591      61.9525   
2506.4     13.3131    3.2887     11.6557    24.1329    27.9115    16.5747    13.1541    17.5072    0.592      62.1037   
