~Version
 VERS              .         2.0                           : CWLS LOG ASCII STANDARD - VERSION 2.0
 WRAP              .         NO                            : ONE LINE PER DEPTH STEP
 DLM               .         SPACE                         : DELIMITING CHARACTER(SPACE TAB OR COMMA)
~Well Information
#_______________________________________________________________________________
#
#PARAMETER_NAME    .UNIT     VALUE                         : DESCRIPTION
#_______________________________________________________________________________
STRT               .m        2319                          : First reference value
STOP               .m        2539                          : Last reference value
STEP               .m        0.2                           : Step increment
NULL               .         -9999                         : Missing value
COMP               .                                       : Company
WELL               .         701                           : Well name
FLD                .                                       : Field
LOC                .                                       : Location
CNTY               .                                       : County
STAT               .                                       : State
CTRY               .                                       : Country
SRVC               .                                       : Service Company
DATE               .                                       : Date
API                .                                       : API number
EREF               .m        141.23                        : 
X                  .m        221071                        : 
Y                  .m        253934                        : 
group              .         Pad7                          : 
Интер-р            .         Старостина                    : 
Куст               .         7                             : 
Статус             .         Не проверено                  : 
Тип                .         Эксплуатация                  : 
~Parameter Information Block
#_______________________________________________________________________________
#
#PARAMETER_NAME    .UNIT     VALUE                         : DESCRIPTION
#_______________________________________________________________________________
SET                .         LAS1                          : 
REAL_CREATION_DATE .         Ср апр 11 2012-13_17_25       : 
TLFamily_DEPTH     .         Measured Depth                : 
TLFamily_KS        .         Potential Resistivity         : 
TLFamily_KS1       .         Extra Shallow Resistivity     : 
TLFamily_KS2       .         Shallow Resistivity           : 
TLFamily_KS3       .         Medium Resistivity            : 
TLFamily_KS4       .         Deep Resistivity              : 
TLFamily_KS5       .         Extra Deep Resistivity        : 
TLFamily_LLD       .         Lateral Log Resistivity       : 
TLFamily_OKS3      .         Medium Resistivity Inverted   : 
TLFamily_RM        .         Mud Resistivity               : 
TLFamily_SP        .         Spontaneous Potential         : 
group              .         INI                           : 
~Curve Information
#_______________________________________________________________________________
#
#LOGNAME           .UNIT     LOG_ID                        : DESCRIPTION
#_______________________________________________________________________________
DEPTH              .m                                      : Measured Depth 
KS                 .ohm.m                                  : Potential Resistivity 
KS1                .ohm.m                                  : Extra Shallow Resistivity 
KS2                .ohm.m                                  : Shallow Resistivity 
KS3                .ohm.m                                  : Medium Resistivity 
KS4                .ohm.m                                  : Deep Resistivity 
KS5                .ohm.m                                  : Extra Deep Resistivity 
LLD                .ohm.m                                  : Lateral Log Resistivity 
OKS3               .ohm.m                                  : Medium Resistivity Inverted 
RM                 .ohm.m                                  : Mud Resistivity 
SP                 .mV                                     : Spontaneous Potential 
~Ascii
# ...
2399.4     7.2618     2.6338     7.1459     8.7631     6.9508     3.8504     5.2956     14.8792    0.614      44.3133   
2399.6     7.4326     2.689      7.2944     8.8233     7.1122     3.8982     5.5929     15.2898    0.614      44.4697   
2399.8     7.6498     2.7149     7.4999     8.9112     7.2757     3.9541     5.8759     15.781     0.614      43.4514   
2400       7.8162     2.7498     7.7306     9.095      7.4691     4.0642     6.2086     16.2744    0.614      42.4978   
2400.2     7.9803     2.8574     8.0725     9.3931     7.7064     4.2125     5.9919     16.7486    0.614      41.9821   
2400.4     8.1199     2.9115     8.3308     9.6654     7.8686     4.3347     5.9738     17.3485    0.62       42.2797   
2400.6     8.2293     2.9115     8.4199     9.9395     8.0027     4.4971     6.233      18.1645    0.62       43.9273   
2400.8     8.3401     2.9409     8.6209     10.2722    8.2181     4.681      6.2896     18.8593    0.62       45.3307   
2401       8.4631     2.9654     8.8662     10.6603    8.4384     4.9039     5.9593     19.1456    0.62       44.3173   
2401.2     8.6272     2.9305     8.902      10.9977    8.6851     5.1769     6.4071     19.6548    0.614      42.4614   
2401.4     8.7505     2.9115     8.892      11.3878    9.0542     5.3984     6.9139     20.1608    0.614      43.1593   
2401.6     8.9451     2.9766     9.2496     11.7787    9.3248     5.6145     7.0974     20.2851    0.616      46.4518   
2401.8     9.1681     2.9386     9.0981     12.0845    9.4639     5.8301     7.2234     20.0322    0.614      48.4729   
2402       9.4107     2.9654     9.2015     12.1881    9.5155     6.0599     6.9109     19.7406    0.614      47.0565   
2402.2     9.6833     2.9945     9.2181     12.3842    9.6964     6.3851     6.5626     19.8351    0.614      45.1156   
2402.4     9.9568     2.9474     9.1529     12.5821    10.0568    6.9174     7.1593     20.6105    0.614      46.0391   
2402.6     10.334     2.8429     9.076      12.9237    10.7025    7.5689     15.3251    21.5829    0.614      48.8109   
2402.8     10.6398    2.8448     9.4578     13.9322    11.8475    8.1583     21.7762    21.7211    0.615      49.5501   
2403       10.8324    3.2592     11.014     15.6317    13.1326    8.6185     12.0189    20.3877    0.621      48.7786   
2403.2     10.9846    3.7694     12.3643    16.9535    13.8706    8.9654     10.1079    18.6125    0.619      49.3105   
2403.4     10.8514    3.7042     11.9868    17.6609    14.0938    8.9985     10.1037    17.0574    0.621      49.8263   
2403.6     10.5283    3.9276     13.0706    18.055     14.1125    8.742      7.0875     15.8717    0.626      49.3084   
2403.8     10.2682    3.7936     13.0344    18.3192    13.8666    8.3402     6.6956     15.029     0.624      48.4811   
2404       9.9219     3.6505     12.824     18.0121    13.3509    7.902      6.3361     14.6921    0.623      47.5546   
2404.2     9.6721     3.4488     12.4013    17.66      12.9703    7.4182     5.5672     14.5741    0.617      46.9944   
2404.4     9.6268     3.3101     11.7665    17.1208    12.5967    7.1229     7.0887     15.1403    0.611      46.6497   
2404.6     9.5571     3.0298     10.7279    17.0521    12.6747    6.904      10.2843    15.6022    0.62       44.8324   
2404.8     9.4502     3.2236     11.4257    17.8906    13.1722    6.7254     8.4771     15.1388    0.63       42.3955   
2405       9.4138     3.5047     11.8879    19.0243    13.7033    6.5615     6.5669     14.3569    0.626      43.8607   
2405.2     9.2629     3.5042     11.4965    19.2424    13.7097    6.347      6.4397     13.869     0.626      48.1332   
2405.4     9.0598     3.4274     11.0919    18.7496    13.5057    6.0314     6.4836     13.7483    0.62       49.6051   
2405.6     8.8948     3.2969     10.8821    18.1068    13.4345    5.7563     6.1336     13.8005    0.614      49.6494   
2405.8     8.7015     3.2887     11.0143    17.5799    13.4615    5.4853     5.7493     13.9449    0.626      52.1561   
2406       8.6415     3.1971     10.7092    16.7552    13.3565    5.2603     5.9459     14.3086    0.62       54.4907   
2406.2     8.5867     3.0518     10.088     15.8886    13.1488    5.058      6.1966     14.5932    0.619      53.0718   
2406.4     8.5913     3.0192     9.8587     15.3235    13.0855    4.9455     6.2582     14.9973    0.614      50.4935   
2406.6     8.5837     3.0223     9.6635     15.0281    13.2095    4.8597     6.3297     15.5688    0.612      51.2291   
2406.8     8.5616     3.0959     9.7932     15.0081    13.4987    4.8567     6.2163     16.2667    0.62       53.0509   
2407       8.5616     3.0964     9.7141     15.1017    13.847     4.8567     6.3037     16.9128    0.62       52.8221   
2407.2     8.5749     3.0731     9.5599     14.9065    14.0931    4.8567     6.2972     17.1926    0.62       53.2086   
2407.4     8.6291     3.0731     9.6066     14.5164    14.1625    4.8567     5.9724     17.0962    0.616      55.1842   
2407.6     8.7259     3.0616     9.4515     14.1511    13.9709    4.8567     6.189      17.1444    0.618      56.5578   
2407.8     8.8368     2.9664     9.1434     13.6545    13.7138    4.9087     6.5729     17.2993    0.62       57.2548   
2408       9.0134     2.8967     8.9887     13.2954    13.4132    4.9621     7.6626     17.3628    0.62       59.7074   
2408.2     9.2107     2.9189     9.101      13.2101    13.2758    5.0154     7.5804     17.3119    0.62       64.618    
2408.4     9.3965     3.0122     9.2958     13.2072    13.0693    5.1186     7.0817     17.1738    0.62       69.5694   
2408.6     9.6406     3.0492     9.2765     13.0947    12.7998    5.28       7.4497     17.1646    0.614      73.1227   
2408.8     9.8635     2.9493     9.1133     12.933     12.6865    5.4544     8.3775     17.4586    0.62       75.0608   
2409       10.0269    2.9115     9.2434     13.3143    13.1614    5.7382     14.4629    17.9277    0.615      76.6122   
2409.2     10.0195    3.1663     10.211     14.4378    14.0065    6.051      12.9482    17.6629    0.621      78.3674   
2409.4     9.8276     3.6058     11.7518    15.7887    14.7124    6.3454     7.2678     16.7122    0.626      78.3106   
2409.6     9.5972     3.8511     12.284     16.4701    14.8345    6.5962     6.1945     16.1278    0.624      76.9338   
2409.8     9.199      3.6578     11.6759    16.3276    14.329     6.6576     6.0086     16.0004    0.62       78.5516   
2410       8.8646     3.463      11.4634    15.8806    13.6726    6.6895     5.3501     16.0595    0.616      82.9963   
2410.2     8.8279     3.1866     10.8823    15.2444    12.949     6.7983     5.5032     16.004     0.614      85.7769   
2410.4     8.89       2.8356     9.5571     14.322     12.283     7.0878     6.2246     16.0058    0.608      86.5139   
2410.6     9.0418     2.7145     8.8667     13.8265    12.1166    7.641      6.5312     16.1616    0.608      87.3523   
2410.8     9.1859     2.7711     8.7287     14.1092    12.7373    8.5763     6.5379     16.7929    0.6        88.3493   
2411       9.4135     2.8037     8.9122     14.8542    14.0895    9.8238     7.7925     17.8755    0.612      88.5915   
2411.2     9.6606     2.8037     9.1161     15.7836    15.6895    11.1902    11.4714    18.8258    0.61       88.2797   
2411.4     10.0064    2.9677     9.7284     16.7306    16.9547    12.4998    10.9964    18.5498    0.624      88.5246   
2411.6     10.3942    3.0895     9.9907     17.5307    17.815     13.4922    11.3864    17.367     0.614      90.2817   
2411.8     10.5533    3.3689     10.6616    17.8656    18.2921    13.9601    9.764      15.9772    0.62       93.0838   
2412       10.5592    3.6035     11.245     18.1478    18.6853    14.1321    10.9307    14.8929    0.62       94.2617   
2412.2     10.2059    3.6546     11.8221    18.6851    19.2031    13.9919    10.4305    13.9949    0.62       92.9344   
2412.4     9.6351     4.0678     13.7439    19.4466    19.894     13.3647    6.3456     13.2169    0.62       91.8937   
2412.6     9.1185     4.2047     14.2422    19.3261    19.6625    12.5902    5.2769     12.6886    0.62       91.6658   
