~Version
 VERS              .         2.0                           : CWLS LOG ASCII STANDARD - VERSION 2.0
 WRAP              .         NO                            : ONE LINE PER DEPTH STEP
 DLM               .         SPACE                         : DELIMITING CHARACTER(SPACE TAB OR COMMA)
~Well Information
#_______________________________________________________________________________
#
#PARAMETER_NAME    .UNIT     VALUE                         : DESCRIPTION
#_______________________________________________________________________________
STRT               .m        2319                          : First reference value
STOP               .m        2539                          : Last reference value
STEP               .m        0.2                           : Step increment
NULL               .         -9999                         : Missing value
COMP               .                                       : Company
WELL               .         701                           : Well name
FLD                .                                       : Field
LOC                .                                       : Location
CNTY               .                                       : County
STAT               .                                       : State
CTRY               .                                       : Country
SRVC               .                                       : Service Company
DATE               .                                       : Date
API                .                                       : API number
EREF               .m        141.23                        : 
X                  .m        221071                        : 
Y                  .m        253934                        : 
group              .         Pad7                          : 
Интер-р            .         Старостина                    : 
Куст               .         7                             : 
Статус             .         Не проверено                  : 
Тип                .         Эксплуатация                  : 
~Parameter Information Block
#_______________________________________________________________________________
#
#PARAMETER_NAME    .UNIT     VALUE                         : DESCRIPTION
#_______________________________________________________________________________
SET                .         LAS1                          : 
REAL_CREATION_DATE .         Ср апр 11 2012-13_17_25       : 
TLFamily_DEPTH     .         Measured Depth                : 
TLFamily_KS        .         Potential Resistivity         : 
TLFamily_KS1       .         Extra Shallow Resistivity     : 
TLFamily_KS2       .         Shallow Resistivity           : 
TLFamily_KS3       .         Medium Resistivity            : 
TLFamily_KS4       .         Deep Resistivity              : 
TLFamily_KS5       .         Extra Deep Resistivity        : 
TLFamily_LLD       .         Lateral Log Resistivity       : 
TLFamily_OKS3      .         Medium Resistivity Inverted   : 
TLFamily_RM        .         Mud Resistivity               : 
TLFamily_SP        .         Spontaneous Potential         : 
group              .         INI                           : 
~Curve Information
#_______________________________________________________________________________
#
#LOGNAME           .UNIT     LOG_ID                        : DESCRIPTION
#_______________________________________________________________________________
DEPTH              .m                                      : Measured Depth 
KS                 .ohm.m                                  : Potential Resistivity 
KS1                .ohm.m                                  : Extra Shallow Resistivity 
KS2                .ohm.m                                  : Shallow Resistivity 
KS3                .ohm.m                                  : Medium Resistivity 
KS4                .ohm.m                                  : Deep Resistivity 
KS5                .ohm.m                                  : Extra Deep Resistivity 
LLD                .ohm.m                                  : Lateral Log Resistivity 
OKS3               .ohm.m                                  : Medium Resistivity Inverted 
RM                 .ohm.m                                  : Mud Resistivity 
SP                 .mV                                     : Spontaneous Potential 
~Ascii
# ...
2386       7.3553     3.1027     9.3477     11.8909    9.6709     6.2408     4.8405     11.393     0.626      47.192    
2386.2     7.2514     3.0155     9.2213     11.6314    9.2365     5.9047     4.8428     11.3662    0.626      47.5625   
2386.4     7.1966     2.9604     9.126      11.3983    8.8764     5.6236     4.8312     11.3397    0.626      45.4749   
2386.6     7.1416     2.9115     8.8802     11.2364    8.5714     5.365      4.862      11.3397    0.626      45.6331   
2386.8     7.1236     2.9115     8.7454     11.1421    8.3706     5.1966     4.8366     11.3397    0.626      48.3976   
2387       7.085      2.9023     8.6097     11.1156    8.2349     5.0509     4.7863     11.3736    0.626      49.3609   
2387.2     7.0872     2.8576     8.4727     11.08      8.0464     4.9396     4.8378     11.4287    0.622      47.9516   
2387.4     7.1236     2.8576     8.3174     11.08      7.9434     4.8589     4.9034     11.4463    0.624      47.1748   
2387.6     7.1236     2.8576     8.2996     11.1316    7.9182     4.8056     4.8959     11.4876    0.619      48.1112   
2387.8     7.1464     2.8576     8.2751     11.0577    7.9592     4.7523     4.9873     11.601     0.62       48.6362   
2388       7.1769     2.8576     8.2883     11.0013    8.059      4.7905     5.1855     11.6761    0.626      47.4941   
2388.2     7.2035     2.8882     8.382      10.9686    8.1141     4.8038     5.0092     11.7128    0.626      46.9881   
2388.4     7.256      2.8576     8.3116     10.9264    8.2077     4.8566     5.004      11.8044    0.62       49.6203   
2388.6     7.2301     2.8609     8.3469     11.0129    8.423      4.8567     5.3021     11.9786    0.616      52.077    
2388.8     7.237      2.9654     8.6929     11.1139    8.6244     4.8567     5.2112     11.9558    0.626      50.6376   
2389       7.3179     2.9366     8.5684     11.0748    8.7524     4.8567     5.0937     11.7726    0.626      47.7813   
2389.2     7.3272     2.9115     8.5071     10.9735    8.8251     4.8567     5.1821     11.6839    0.626      47.7093   
2389.4     7.2834     2.9441     8.5905     10.9735    8.9325     4.7871     5.1828     11.6856    0.626      49.4737   
2389.6     7.2834     2.9569     8.6104     10.9735    9.0707     4.7279     5.019      11.6527    0.62       48.8758   
2389.8     7.2834     2.9115     8.5908     10.9082    8.9994     4.6728     5.0458     11.5738    0.624      47.3252   
2390       7.2834     2.9115     8.5819     10.867     8.9402     4.6164     5.0208     11.5529    0.626      48.4621   
2390.2     7.2834     2.898      8.5205     10.8457    8.859      4.5564     5.0632     11.5647    0.626      49.6995   
2390.4     7.2834     2.8576     8.4417     10.8137    8.7821     4.5389     5.0706     11.6062    0.621      47.8716   
2390.6     7.2834     2.8576     8.4481     10.8174    8.7275     4.5389     5.0206     11.6648    0.609      45.8087   
2390.8     7.2834     2.8576     8.4453     10.8781    8.7151     4.5389     5.1388     11.7578    0.62       47.2391   
2391       7.2834     2.9074     8.4989     11.011     8.7587     4.5389     5.0457     11.7661    0.626      50.1864   
2391.2     7.2834     2.9115     8.5215     11.08      8.7587     4.5919     4.9742     11.7867    0.626      50.4136   
2391.4     7.2846     2.8576     8.4393     11.0467    8.7587     4.6402     5.0448     11.8194    0.625      47.7042   
2391.6     7.3366     2.8576     8.413      11.0017    8.7587     4.6935     5.1486     11.8216    0.62       45.8453   
2391.8     7.3366     2.8576     8.3798     11.0639    8.8231     4.7103     5.3316     11.8441    0.62       46.7811   
2392       7.3366     2.8837     8.5577     11.0933    8.8837     4.7508     5.3413     11.735     0.626      48.5342   
2392.2     7.3718     2.9115     8.5571     11.1042    8.895      4.8007     5.1525     11.5823    0.626      49.6418   
2392.4     7.3899     2.8796     8.4182     10.967     8.8097     4.8299     5.0872     11.3607    0.62       50.9895   
2392.6     7.3899     2.8576     8.4228     10.8742    8.7624     4.8854     5.1266     11.2702    0.618      53.1454   
2392.8     7.3899     2.8576     8.4367     10.9357    8.8837     4.9917     5.1899     11.2331    0.616      54.5171   
2393       7.3278     2.8705     8.5667     11.1714    9.1716     5.1526     5.5475     11.1355    0.616      55.0865   
2393.2     7.2377     3.0241     9.0582     11.3684    9.3234     5.3541     4.9244     10.968     0.626      56.3301   
2393.4     7.2301     2.9586     8.8096     11.406     9.3481     5.5721     4.6777     10.8715    0.621      56.1571   
2393.6     7.2058     2.8655     8.5386     11.2166    9.2936     5.7886     4.8076     10.9631    0.62       52.9859   
2393.8     7.2035     2.8302     8.4308     11.2202    9.4327     6.1034     5.0285     11.0531    0.609      48.9419   
2394       7.1769     2.836      8.4411     11.4101    9.6519     6.4343     5.1036     11.1737    0.614      46.4744   
2394.2     7.2062     2.879      8.5949     11.5524    9.869      6.7673     4.96       11.2196    0.62       46.8517   
2394.4     7.2301     2.8576     8.5436     11.6658    10.0416    7.1554     4.9207     11.416     0.62       49.4981   
2394.6     7.2367     2.884      8.558      11.7474    10.2845    7.6278     5.0034     11.6887    0.62       51.8758   
2394.8     7.2489     2.9115     8.6401     12.032     10.8469    7.9486     5.3383     12.1631    0.617      51.6895   
2395       7.1931     3.012      9.1455     12.4633    11.3376    8.134      5.7477     12.2892    0.623      49.8944   
2395.2     7.1769     3.0929     9.347      12.6371    11.4544    8.1192     5.1433     11.9432    0.623      48.0119   
2395.4     7.1769     3.099      9.1974     12.2788    10.85      7.9213     4.8868     11.2211    0.626      45.8768   
2395.6     7.1213     3.0358     8.9035     11.781     10.3156    7.4432     4.718      10.7834    0.626      43.5199   
2395.8     7.0533     2.9926     8.7974     11.3924    9.801      6.953      4.9323     10.4924    0.62       42.7702   
2396       6.9725     3.0055     8.8687     11.1396    9.4374     6.5094     4.767      10.2307    0.62       43.9805   
2396.2     6.898      2.9805     8.8514     10.9475    9.0255     6.1589     4.4856     10.0354    0.626      44.2331   
2396.4     6.81       2.9581     8.7527     10.701     8.6257     5.8283     4.3194     10.0218    0.626      42.5076   
2396.6     6.7806     2.8648     8.4561     10.4811    8.2545     5.5565     4.4684     10.0764    0.62       41.8825   
2396.8     6.7508     2.8277     8.3422     10.3344    7.9355     5.3312     4.7017     10.1762    0.62       43.0992   
2397       6.7508     2.8576     8.2923     10.3682    7.7428     5.1198     4.7098     10.2855    0.62       42.2412   
2397.2     6.7213     2.8592     8.2751     10.4789    7.5964     4.9565     4.7366     10.3962    0.62       38.3922   
2397.4     6.6619     2.9115     8.3041     10.6268    7.4895     4.8278     4.6688     10.5585    0.621      36.4736   
2397.6     6.5588     2.9115     8.2751     10.5769    7.3342     4.6834     4.3545     10.7905    0.626      39.0383   
2397.8     6.4941     2.9062     8.2277     10.3862    7.164      4.5254     4.1172     11.1852    0.624      42.4379   
2398       6.4312     2.8191     8.0141     10.1506    7.0313     4.3887     4.1324     11.6618    0.617      43.6213   
2398.2     6.4312     2.7498     7.8711     9.8782     6.893      4.2486     4.1273     12.1408    0.62       43.9673   
2398.4     6.4443     2.7049     7.6058     9.5586     6.7855     4.1389     4.1961     12.6878    0.62       44.3867   
2398.6     6.5399     2.642      7.3993     9.2952     6.7046     4.0301     4.3831     13.2099    0.62       42.6131   
2398.8     6.6683     2.642      7.2826     9.0718     6.6645     3.9207     4.4515     13.6651    0.62       39.2984   
2399       6.8599     2.6009     7.0968     8.9242     6.7186     3.8617     4.6905     14.0638    0.616      38.767    
2399.2     7.044      2.5882     7.0383     8.7874     6.8073     3.8504     5.1454     14.4932    0.614      41.7432   
