~Version
 VERS              .         2.0                           : CWLS LOG ASCII STANDARD - VERSION 2.0
 WRAP              .         NO                            : ONE LINE PER DEPTH STEP
 DLM               .         SPACE                         : DELIMITING CHARACTER(SPACE TAB OR COMMA)
~Well Information
#_______________________________________________________________________________
#
#PARAMETER_NAME    .UNIT     VALUE                         : DESCRIPTION
#_______________________________________________________________________________
STRT               .m        2319                          : First reference value
STOP               .m        2539                          : Last reference value
STEP               .m        0.2                           : Step increment
NULL               .         -9999                         : Missing value
COMP               .                                       : Company
WELL               .         701                           : Well name
FLD                .                                       : Field
LOC                .                                       : Location
CNTY               .                                       : County
STAT               .                                       : State
CTRY               .                                       : Country
SRVC               .                                       : Service Company
DATE               .                                       : Date
API                .                                       : API number
EREF               .m        141.23                        : 
X                  .m        221071                        : 
Y                  .m        253934                        : 
group              .         Pad7                          : 
Интер-р            .         Старостина                    : 
Куст               .         7                             : 
Статус             .         Не проверено                  : 
Тип                .         Эксплуатация                  : 
~Parameter Information Block
#_______________________________________________________________________________
#
#PARAMETER_NAME    .UNIT     VALUE                         : DESCRIPTION
#_______________________________________________________________________________
SET                .         LAS1                          : 
REAL_CREATION_DATE .         Ср апр 11 2012-13_17_25       : 
TLFamily_DEPTH     .         Measured Depth                : 
TLFamily_KS        .         Potential Resistivity         : 
TLFamily_KS1       .         Extra Shallow Resistivity     : 
TLFamily_KS2       .         Shallow Resistivity           : 
TLFamily_KS3       .         Medium Resistivity            : 
TLFamily_KS4       .         Deep Resistivity              : 
TLFamily_KS5       .         Extra Deep Resistivity        : 
TLFamily_LLD       .         Lateral Log Resistivity       : 
TLFamily_OKS3      .         Medium Resistivity Inverted   : 
TLFamily_RM        .         Mud Resistivity               : 
TLFamily_SP        .         Spontaneous Potential         : 
group              .         INI                           : 
~Curve Information
#_______________________________________________________________________________
#
#LOGNAME           .UNIT     LOG_ID                        : DESCRIPTION
#_______________________________________________________________________________
DEPTH              .m                                      : Measured Depth 
KS                 .ohm.m                                  : Potential Resistivity 
KS1                .ohm.m                                  : Extra Shallow Resistivity 
KS2                .ohm.m                                  : Shallow Resistivity 
KS3                .ohm.m                                  : Medium Resistivity 
KS4                .ohm.m                                  : Deep Resistivity 
KS5                .ohm.m                                  : Extra Deep Resistivity 
LLD                .ohm.m                                  : Lateral Log Resistivity 
OKS3               .ohm.m                                  : Medium Resistivity Inverted 
RM                 .ohm.m                                  : Mud Resistivity 
SP                 .mV                                     : Spontaneous Potential 
~Ascii
# ...
2372.6     7.4432     2.9908     8.8636     11.9206    9.862      5.4924     5.2781     10.8456    0.626      56.3583   
2372.8     7.4098     3.0147     8.8822     11.8256    9.8144     5.4924     5.1536     10.6248    0.626      56.9001   
2373       7.3793     2.9654     8.7693     11.714     9.7379     5.4924     5.2735     10.3997    0.62       56.0498   
2373.2     7.3245     2.9654     8.8423     11.6825    9.7058     5.4924     5.2307     10.0926    0.617      55.087    
2373.4     7.2702     2.9752     8.8387     11.766     9.7589     5.4924     5.2143     9.8326     0.605      55.8501   
2373.6     7.1753     3.0455     9.0085     11.8385    9.8342     5.4924     5.1074     9.5985     0.612      57.2725   
2373.8     7.063      3.0192     9.0002     11.8095    9.8308     5.5431     4.908      9.4209     0.619      58.0006   
2374       6.9956     2.9788     8.8677     11.6985    9.7569     5.5453     4.7115     9.3143     0.615      56.6134   
2374.2     6.8911     2.9654     8.7362     11.5876    9.7569     5.4937     4.543      9.3459     0.62       54.2519   
2374.4     6.8062     2.9164     8.62       11.4777    9.7819     5.4924     4.5624     9.4855     0.608      54.0263   
2374.6     6.7515     2.8911     8.5211     11.3681    9.7456     5.5381     4.6006     9.597      0.608      55.4541   
2374.8     6.7508     2.8573     8.3252     11.2405    9.7176     5.6458     4.635      9.7074     0.596      56.3382   
2375       6.708      2.8271     8.2645     11.289     9.8569     5.6513     5.2614     9.9431     0.602      56.8532   
2375.2     6.5496     2.9435     8.6455     11.4445    10.0048    5.6513     4.696      9.952      0.616      57.7363   
2375.4     6.4493     3.0432     8.7057     11.4274    9.9215     5.6389     4.2184     9.8456     0.62       57.963    
2375.6     6.3745     2.98       8.4438     11.0425    9.5483     5.531      4.0282     9.7741     0.62       57.5051   
2375.8     6.2337     2.9031     8.2258     10.5551    9.135      5.3735     3.7977     9.9509     0.62       58.4575   
2376       6.1782     2.7776     7.8381     10.0825    8.782      5.2106     3.8439     10.2648    0.607      59.318    
2376.2     6.1807     2.6467     7.5913     9.6102     8.4468     5.1241     4.2746     10.6168    0.61       57.5562   
2376.4     6.2611     2.5754     7.3561     9.2902     8.2331     5.0396     4.472      10.9038    0.614      55.7864   
2376.6     6.3347     2.5896     7.2805     9.1637     8.1239     5.0157     4.6332     11.0734    0.609      55.6863   
2376.8     6.399      2.6572     7.3589     9.1629     8.0695     4.9785     4.4607     11.1838    0.614      56.2205   
2377       6.4803     2.6959     7.3457     9.1315     7.951      4.9627     4.469      11.2938    0.62       56.1354   
2377.2     6.5359     2.6959     7.332      9.0268     7.7865     4.9627     4.6373     11.4042    0.62       54.0037   
2377.4     6.6173     2.6959     7.4163     9.0103     7.6616     4.915      4.7207     11.5351    0.62       49.7361   
2377.6     6.6718     2.7175     7.5308     9.0564     7.5657     4.9136     4.7432     11.6591    0.62       46.4802   
2377.8     6.7266     2.7498     7.6567     9.0564     7.5359     4.9627     4.6176     11.7901    0.618      45.7629   
2378       6.7821     2.7498     7.6944     9.0564     7.4809     4.9627     4.7279     11.9807    0.618      44.7598   
2378.2     6.8448     2.7498     7.7508     9.069      7.4267     5.0115     4.8632     12.2008    0.616      43.5966   
2378.4     6.9194     2.7498     7.7303     9.1234     7.3428     5.065      4.9276     12.3368    0.62       45.1492   
2378.6     7.0106     2.7498     7.7778     9.2635     7.3402     5.1184     5.0237     12.4816    0.62       49.1884   
2378.8     7.1217     2.7498     7.8559     9.4294     7.3653     5.1962     5.2966     12.6117    0.623      52.2642   
2379       7.1925     2.7856     7.9253     9.6356     7.4763     5.2551     5.4014     12.7208    0.62       52.5692   
2379.2     7.2735     2.8554     8.1946     9.8918     7.5858     5.2805     5.3416     12.7789    0.618      52.0986   
2379.4     7.3285     2.9115     8.344      10.089     7.6938     5.332      5.3279     12.6128    0.62       52.0176   
2379.6     7.3834     2.9115     8.3832     10.1971    7.7605     5.2952     5.3506     12.5018    0.615      51.5457   
2379.8     7.4133     2.9404     8.4702     10.255     7.7167     5.2406     5.3665     12.357     0.626      52.03     
2380       7.4692     2.9115     8.4846     10.3344    7.6442     5.1753     5.3321     12.0904    0.62       54.2427   
2380.2     7.4964     2.9115     8.4571     10.3697    7.6154     5.1746     5.2437     11.9072    0.615      55.2907   
2380.4     7.4964     2.8794     8.5178     10.5101    7.6827     5.1216     5.2482     11.8492    0.615      54.6519   
2380.6     7.4964     2.9115     8.6365     10.6748    7.8323     5.1274     5.362      11.7599    0.616      54.2481   
2380.8     7.5041     2.884      8.6418     10.8416    7.9792     5.1746     5.4109     11.6283    0.62       54.712    
2381       7.5497     2.8576     8.6942     10.9838    8.0895     5.1746     5.4089     11.5242    0.623      56.3416   
2381.2     7.5497     2.89       8.6956     11.1768    8.1989     5.1746     5.529      11.4534    0.617      58.824    
2381.4     7.5497     2.9212     8.7954     11.3577    8.359      5.1746     5.5686     11.2606    0.614      60.6895   
2381.6     7.5497     2.9283     8.799      11.5605    8.4877     5.1746     5.3881     11.1187    0.62       60.8725   
2381.8     7.5126     2.95       8.854      11.6312    8.5781     5.199      5.2206     11.0981    0.62       59.3412   
2382       7.3759     2.9545     8.821      11.8089    8.7903     5.2275     5.3318     11.2883    0.614      56.1564   
2382.2     7.2659     3.0192     9.1109     11.9761    8.9918     5.2275     5.0668     11.4568    0.626      52.624    
2382.4     7.2071     3.0013     9.1806     12.1437    9.186      5.2795     4.893      11.6156    0.626      50.7807   
2382.6     7.1263     2.9654     9.0506     12.0331    9.2233     5.2367     4.8223     11.7256    0.626      50.0443   
2382.8     7.0708     2.9452     8.7903     11.8613    9.179      5.181      4.6914     11.9031    0.626      49.2469   
2383       7.0419     2.8899     8.5657     11.6389    9.141      5.1719     4.6606     12.1011    0.626      48.7718   
2383.2     7.0476     2.8552     8.3714     11.4175    9.0718     5.1216     4.759      12.0548    0.626      49.8354   
2383.4     7.1023     2.8037     8.2094     11.1983    9.0214     5.1339     4.8652     12.0859    0.626      52.4307   
2383.6     7.1316     2.8037     8.1703     11.0299    9.0663     5.1746     5.0421     12.0859    0.626      54.2304   
2383.8     7.2241     2.8037     8.1448     10.916     9.074      5.2411     5.0849     12.0573    0.626      53.0752   
2384       7.2971     2.8037     8.0655     10.7069    9.0945     5.3501     5.1356     12.0326    0.626      50.3218   
2384.2     7.3779     2.8148     8.0976     10.654     9.1477     5.4842     5.1333     12.074     0.626      48.8961   
2384.4     7.4492     2.8183     8.1703     10.6724    9.2252     5.7003     5.1315     12.2379    0.626      48.6523   
2384.6     7.5146     2.8172     8.2373     10.867     9.4348     5.9972     5.2887     12.5597    0.626      47.187    
2384.8     7.6158     2.8723     8.5715     11.1757    9.8379     6.3246     5.3937     12.8504    0.62       44.9956   
2385       7.7041     2.8502     8.6079     11.5053    10.2067    6.6529     5.7329     13.1364    0.62       44.0169   
2385.2     7.6861     2.9404     8.9996     12.0274    10.6919    6.8948     6.8463     12.9546    0.62       43.937    
2385.4     7.6562     3.3049     9.9425     12.5499    11.0062    6.9305     5.8776     12.37      0.632      44.1977   
2385.6     7.6299     3.2381     9.5355     12.5335    10.9887    6.8225     5.0541     11.7664    0.632      44.4049   
2385.8     7.4669     3.1826     9.4164     12.1357    10.3376    6.6156     4.9343     11.5291    0.631      45.1529   
