~Version
 VERS              .         2.0                           : CWLS LOG ASCII STANDARD - VERSION 2.0
 WRAP              .         NO                            : ONE LINE PER DEPTH STEP
 DLM               .         SPACE                         : DELIMITING CHARACTER(SPACE TAB OR COMMA)
~Well Information
#_______________________________________________________________________________
#
#PARAMETER_NAME    .UNIT     VALUE                         : DESCRIPTION
#_______________________________________________________________________________
STRT               .m        2319                          : First reference value
STOP               .m        2539                          : Last reference value
STEP               .m        0.2                           : Step increment
NULL               .         -9999                         : Missing value
COMP               .                                       : Company
WELL               .         701                           : Well name
FLD                .                                       : Field
LOC                .                                       : Location
CNTY               .                                       : County
STAT               .                                       : State
CTRY               .                                       : Country
SRVC               .                                       : Service Company
DATE               .                                       : Date
API                .                                       : API number
EREF               .m        141.23                        : 
X                  .m        221071                        : 
Y                  .m        253934                        : 
group              .         Pad7                          : 
Интер-р            .         Старостина                    : 
Куст               .         7                             : 
Статус             .         Не проверено                  : 
Тип                .         Эксплуатация                  : 
~Parameter Information Block
#_______________________________________________________________________________
#
#PARAMETER_NAME    .UNIT     VALUE                         : DESCRIPTION
#_______________________________________________________________________________
SET                .         LAS1                          : 
REAL_CREATION_DATE .         Ср апр 11 2012-13_17_25       : 
TLFamily_DEPTH     .         Measured Depth                : 
TLFamily_KS        .         Potential Resistivity         : 
TLFamily_KS1       .         Extra Shallow Resistivity     : 
TLFamily_KS2       .         Shallow Resistivity           : 
TLFamily_KS3       .         Medium Resistivity            : 
TLFamily_KS4       .         Deep Resistivity              : 
TLFamily_KS5       .         Extra Deep Resistivity        : 
TLFamily_LLD       .         Lateral Log Resistivity       : 
TLFamily_OKS3      .         Medium Resistivity Inverted   : 
TLFamily_RM        .         Mud Resistivity               : 
TLFamily_SP        .         Spontaneous Potential         : 
group              .         INI                           : 
~Curve Information
#_______________________________________________________________________________
#
#LOGNAME           .UNIT     LOG_ID                        : DESCRIPTION
#_______________________________________________________________________________
DEPTH              .m                                      : Measured Depth 
KS                 .ohm.m                                  : Potential Resistivity 
KS1                .ohm.m                                  : Extra Shallow Resistivity 
KS2                .ohm.m                                  : Shallow Resistivity 
KS3                .ohm.m                                  : Medium Resistivity 
KS4                .ohm.m                                  : Deep Resistivity 
KS5                .ohm.m                                  : Extra Deep Resistivity 
LLD                .ohm.m                                  : Lateral Log Resistivity 
OKS3               .ohm.m                                  : Medium Resistivity Inverted 
RM                 .ohm.m                                  : Mud Resistivity 
SP                 .mV                                     : Spontaneous Potential 
~Ascii
# ...
2426.2     7.2156     2.8576     8.2751     10.8208    9.1783     7.63       5.0006     12.2717    0.591      38.2207   
2426.4     7.2879     2.8576     8.2688     10.6639    8.9566     7.4836     4.9371     12.114     0.591      35.6525   
2426.6     7.375      2.8576     8.1924     10.4088    8.6534     7.3612     4.8007     12.0892    0.591      35.1141   
2426.8     7.5303     2.831      8.135      10.2379    8.3609     7.3462     4.7526     12.2039    0.589      35.4356   
2427       7.6687     2.7776     8.0566     10.1406    8.2992     7.3917     4.9312     12.6055    0.585      35.9313   
2427.2     7.8876     2.7266     8.0251     10.177     8.4696     7.6024     7.1518     13.1875    0.58       36.785    
2427.4     8.1107     2.7529     8.334      10.7219    9.0775     7.7617     11.7143    13.6352    0.585      37.0189   
2427.6     8.077      3.0021     9.3311     11.7353    9.75       7.7179     11.1354    13.1396    0.597      35.9885   
2427.8     7.9907     3.6402     10.7146    12.7542    9.8436     7.333      4.4717     11.7082    0.596      34.6679   
2428       7.6742     3.3946     9.8844     12.2901    9.1576     6.7836     4.9088     11.232     0.591      34.8525   
2428.2     7.4395     3.2925     9.9988     11.8638    8.5371     6.0947     4.7448     11.0257    0.591      35.7597   
2428.4     7.3075     3.103      9.6865     11.5157    8.0206     5.5712     4.496      10.9212    0.596      35.9888   
2428.6     7.1731     2.9724     9.2792     11.0469    7.5474     5.1792     4.3741     11.0971    0.591      35.9992   
2428.8     7.0901     2.8576     8.86       10.7599    7.2977     4.8988     4.4892     11.5097    0.59       34.838    
2429       7.0171     2.8321     8.5435     10.6517    7.1942     4.7274     4.5671     11.9705    0.585      34.4382   
2429.2     7.021      2.8004     8.3833     10.6007    7.098      4.6745     4.6593     12.2598    0.592      36.4737   
2429.4     7.0749     2.7498     8.0696     10.6278    7.115      4.7253     4.6041     12.6369    0.582      37.5542   
2429.6     7.1296     2.7498     7.977      10.7858    7.262      4.9349     4.5693     13.1207    0.586      37.3503   
2429.8     7.2177     2.722      7.808      11.0528    7.6013     5.252      4.6343     13.7764    0.585      37.8253   
2430       7.3256     2.7019     7.8671     11.1592    8.1763     5.6232     4.9932     14.5038    0.585      37.62     
2430.2     7.4404     2.7626     8.1805     11.3634    8.7873     5.996      5.3977     14.9485    0.585      36.0902   
2430.4     7.6442     2.8576     8.4022     11.5581    9.2646     6.3646     5.3866     15.0573    0.587      33.5913   
2430.6     7.949      2.8508     8.3044     11.4531    9.4985     6.6552     5.2124     15.1105    0.588      31.2969   
2430.8     8.2274     2.7717     8.1002     11.2145    9.7076     6.8701     5.9921     15.0039    0.588      31.8676   
2431       8.4315     2.8745     8.4736     11.3097    9.9954     7.0035     6.9393     14.7446    0.586      34.4721   
2431.2     8.5447     3.0185     8.9998     11.8649    10.5551    7.0795     8.0618     14.0002    0.589      35.9231   
2431.4     8.5616     3.3629     10.0338    12.3905    11.0134    7.053      7.4649     13.2998    0.591      35.3542   
2431.6     8.5017     3.4503     10.3183    12.6196    11.1735    6.9252     6.0161     12.7981    0.591      34.7763   
2431.8     8.2048     3.4412     10.4239    12.5062    11.0421    6.6434     5.6635     12.4698    0.591      37.3295   
2432       8.0958     3.2855     10.5054    12.3376    10.5806    6.3261     5.2176     12.3221    0.591      39.7575   
2432.2     7.9884     3.0685     10.1039    12.1675    10.0845    6.0861     5.2226     12.4031    0.578      36.1234   
2432.4     7.9083     3.1598     9.8803     12.1961    9.7404     5.8784     5.8289     12.5163    0.593      31.3211   
2432.6     7.8692     3.1424     9.8469     12.5625    9.541      5.7405     5.2806     12.778     0.591      31.7513   
2432.8     7.8274     3.1149     9.7061     12.8246    9.3337     5.6851     5.2234     13.1964    0.593      34.1165   
2433       7.816      3.0607     9.4894     12.9569    9.1246     5.5816     5.2304     13.5272    0.591      34.4705   
2433.2     7.816      3.0594     9.3603     13.0705    8.967      5.5269     5.4927     13.7586    0.588      35.448    
2433.4     7.816      3.1134     9.4281     13.165     8.8602     5.426      5.5702     13.9201    0.595      39.2009   
2433.6     7.816      3.0861     9.3096     13.1669    8.757      5.2724     5.4892     13.9738    0.591      41.6497   
2433.8     7.7709     3.1155     9.4011     12.8875    8.6771     5.1006     5.741      14.0249    0.596      40.1757   
2434       7.7141     3.1441     9.4645     12.6675    8.6173     4.8896     5.6742     13.9032    0.591      36.6353   
2434.2     7.6601     3.1628     9.4274     12.26      8.5119     4.7298     5.04       13.8765    0.591      33.152    
2434.4     7.6063     3.0288     9.042      11.7383    8.3757     4.5267     4.7689     14.1193    0.579      31.3273   
2434.6     7.6029     2.9504     8.9161     11.2882    8.2475     4.3277     4.8669     14.5968    0.591      30.3576   
2434.8     7.7042     2.8212     8.4942     10.8848    8.1485     4.2256     4.6798     15.343     0.591      28.7944   
2435       7.8625     2.7498     8.2319     10.6675    8.1361     4.2275     4.9647     16.1362    0.585      27.7653   
2435.2     8.0728     2.7302     8.1855     10.771     8.2758     4.3277     5.5698     16.9177    0.585      28.9478   
2435.4     8.2625     2.7862     8.2935     11.1074    8.6661     4.4918     5.9606     17.6081    0.579      31.4573   
2435.6     8.4522     2.9289     8.6219     11.5568    9.1483     4.7535     6.4192     18.4146    0.585      33.6217   
2435.8     8.6698     2.9969     8.7753     11.8396    9.7105     5.0717     6.2484     19.2874    0.591      35.4613   
2436       8.9101     2.9658     8.8039     12.1466    10.1132    5.4863     6.2626     20.2394    0.59       37.152    
2436.2     9.0977     3.0422     9.2506     12.6394    10.6262    5.8023     7.346      21.153     0.591      36.1406   
2436.4     9.2598     3.1509     9.7969     13.0907    11.0477    5.9665     7.7268     21.5702    0.585      32.3675   
2436.6     9.3938     3.2603     10.1004    13.3106    11.1518    6.0201     7.7517     21.5673    0.585      29.6865   
2436.8     9.5013     3.3397     10.3989    13.2657    10.968     5.9177     7.4583     21.6976    0.591      29.8362   
2437       9.5765     3.2656     10.1865    13.1931    10.7577    5.7551     6.7187     22.0928    0.591      32.5562   
2437.2     9.6299     3.2887     10.3744    13.1763    10.5985    5.5406     6.8956     22.7501    0.591      35.4451   
2437.4     9.718      3.2611     10.4644    13.2607    10.5051    5.3839     6.8221     23.555     0.589      35.5343   
2437.6     9.913      3.1296     10.1582    13.2634    10.4511    5.3335     6.1895     24.8207    0.583      34.2085   
2437.8     10.1373    3.0502     9.9539     13.3392    10.4399    5.3427     6.8482     26.0285    0.586      33.3977   
2438       10.4728    3.0731     9.9991     13.5757    10.5516    5.3986     7.7613     26.8464    0.589      32.0372   
2438.2     10.857     3.0491     9.8774     13.8668    10.6157    5.5162     8.3085     27.189     0.587      30.8272   
2438.4     11.2943    3.0731     9.8992     14.2202    10.7358    5.676      8.8017     27.4381    0.585      32.0754   
2438.6     11.7329    3.0955     10.0514    14.7955    10.9645    5.8993     9.4206     27.5877    0.579      34.0176   
2438.8     12.1154    3.2685     10.6466    15.5654    11.4202    6.167      10.9114    27.7169    0.585      32.3864   
2439       12.4227    3.3322     11.1697    16.2549    11.8731    6.4371     11.4762    27.3957    0.591      28.6948   
2439.2     12.6497    3.4739     11.7217    16.9466    12.3604    6.7359     12.2909    26.846     0.587      26.0305   
2439.4     12.8059    3.6001     12.2966    17.7486    12.9784    7          12.2149    26.4119    0.591      24.9677   
