~Version
 VERS              .         2.0                           : CWLS LOG ASCII STANDARD - VERSION 2.0
 WRAP              .         NO                            : ONE LINE PER DEPTH STEP
 DLM               .         SPACE                         : DELIMITING CHARACTER(SPACE TAB OR COMMA)
~Well Information
#_______________________________________________________________________________
#
#PARAMETER_NAME    .UNIT     VALUE                         : DESCRIPTION
#_______________________________________________________________________________
STRT               .m        2319                          : First reference value
STOP               .m        2539                          : Last reference value
STEP               .m        0.2                           : Step increment
NULL               .         -9999                         : Missing value
COMP               .                                       : Company
WELL               .         701                           : Well name
FLD                .                                       : Field
LOC                .                                       : Location
CNTY               .                                       : County
STAT               .                                       : State
CTRY               .                                       : Country
SRVC               .                                       : Service Company
DATE               .                                       : Date
API                .                                       : API number
EREF               .m        141.23                        : 
X                  .m        221071                        : 
Y                  .m        253934                        : 
group              .         Pad7                          : 
Интер-р            .         Старостина                    : 
Куст               .         7                             : 
Статус             .         Не проверено                  : 
Тип                .         Эксплуатация                  : 
~Parameter Information Block
#_______________________________________________________________________________
#
#PARAMETER_NAME    .UNIT     VALUE                         : DESCRIPTION
#_______________________________________________________________________________
SET                .         LAS1                          : 
REAL_CREATION_DATE .         Ср апр 11 2012-13_17_25       : 
TLFamily_DEPTH     .         Measured Depth                : 
TLFamily_KS        .         Potential Resistivity         : 
TLFamily_KS1       .         Extra Shallow Resistivity     : 
TLFamily_KS2       .         Shallow Resistivity           : 
TLFamily_KS3       .         Medium Resistivity            : 
TLFamily_KS4       .         Deep Resistivity              : 
TLFamily_KS5       .         Extra Deep Resistivity        : 
TLFamily_LLD       .         Lateral Log Resistivity       : 
TLFamily_OKS3      .         Medium Resistivity Inverted   : 
TLFamily_RM        .         Mud Resistivity               : 
TLFamily_SP        .         Spontaneous Potential         : 
group              .         INI                           : 
~Curve Information
#_______________________________________________________________________________
#
#LOGNAME           .UNIT     LOG_ID                        : DESCRIPTION
#_______________________________________________________________________________
DEPTH              .m                                      : Measured Depth 
KS                 .ohm.m                                  : Potential Resistivity 
KS1                .ohm.m                                  : Extra Shallow Resistivity 
KS2                .ohm.m                                  : Shallow Resistivity 
KS3                .ohm.m                                  : Medium Resistivity 
KS4                .ohm.m                                  : Deep Resistivity 
KS5                .ohm.m                                  : Extra Deep Resistivity 
LLD                .ohm.m                                  : Lateral Log Resistivity 
OKS3               .ohm.m                                  : Medium Resistivity Inverted 
RM                 .ohm.m                                  : Mud Resistivity 
SP                 .mV                                     : Spontaneous Potential 
~Ascii
# ...
2345.8     6.2182     2.7516     7.7655     9.7129     7.7504     4.486      4.3982     9.2574     0.615      48.7609   
2346       6.2182     2.7498     7.6845     9.601      7.6956     4.4346     4.4246     9.2028     0.62       49.8348   
2346.2     6.2119     2.753      7.5969     9.5001     7.6143     4.433      4.4472     9.1481     0.62       50.5885   
2346.4     6.1989     2.7758     7.5737     9.4331     7.5428     4.433      4.4221     9.0521     0.62       50.2133   
2346.6     6.2182     2.7498     7.4892     9.2962     7.4801     4.433      4.3974     8.9308     0.617      47.7195   
2346.8     6.2182     2.7498     7.4892     9.2119     7.4256     4.433      4.4063     8.8379     0.62       44.0749   
2347       6.2025     2.7498     7.4621     9.1169     7.3928     4.433      4.4372     8.7414     0.614      41.825    
2347.2     6.1649     2.7625     7.4793     9.1096     7.3928     4.4819     4.4165     8.7142     0.62       42.1335   
2347.4     6.1649     2.7891     7.6177     9.1096     7.3928     4.486      4.3747     8.6747     0.62       44.4373   
2347.6     6.1649     2.7498     7.5596     9.1096     7.3657     4.5358     4.462      8.5641     0.62       45.997    
2347.8     6.1138     2.7498     7.5662     9.1096     7.3402     4.5389     4.6226     8.4277     0.62       45.5209   
2348       6.1101     2.8011     7.6873     9.1343     7.3318     4.4886     4.4471     8.2841     0.62       44.884    
2348.2     6.0292     2.8576     7.6987     9.1578     7.2425     4.4552     4.2464     8.2479     0.625      43.9498   
2348.4     5.9687     2.8329     7.6509     9.103      7.134      4.3973     4.1608     8.2212     0.62       42.3383   
2348.6     5.8917     2.7766     7.5765     8.984      6.986      4.3282     4.0937     8.3334     0.62       41.6275   
2348.8     5.8108     2.7498     7.519      8.8516     6.8781     4.2316     4.1274     8.4513     0.62       42.2803   
2349       5.755      2.7498     7.434      8.7394     6.7597     4.1645     4.0652     8.616      0.62       42.7605   
2349.2     5.6993     2.7155     7.3498     8.6276     6.6243     4.1072     3.9368     8.8142     0.62       41.6754   
2349.4     5.6701     2.6846     7.1653     8.5126     6.5328     4.0503     3.8813     9.1044     0.616      39.8646   
2349.6     5.5897     2.642      7.0932     8.4517     6.4286     4.0093     3.7675     9.6027     0.618      39.3506   
2349.8     5.5352     2.642      7.0608     8.3969     6.3934     3.9923     3.749      10.1826    0.62       40.3684   
2350       5.5467     2.5996     6.9484     8.265      6.3389     3.9854     3.7251     10.7299    0.619      40.7189   
2350.2     5.6022     2.5427     6.7069     8.0434     6.2574     3.9563     3.8443     11.2631    0.62       40.6451   
2350.4     5.7315     2.4859     6.5059     7.8229     6.1483     3.9563     4.0178     11.7466    0.614      43.0239   
2350.6     5.87       2.4804     6.4001     7.6375     6.0476     3.9215     4.223      12.091     0.62       45.6276   
2350.8     6.0611     2.5015     6.4054     7.5345     5.9924     3.9033     4.3818     12.3682    0.614      45.1171   
2351       6.234      2.5343     6.4595     7.4781     5.9619     3.9033     4.4808     12.6159    0.614      43.2092   
2351.2     6.4578     2.5343     6.5129     7.4219     5.9217     3.9033     4.8624     12.7771    0.614      42.2783   
2351.4     6.6787     2.5632     6.6379     7.4055     5.9217     3.9075     5.0805     12.826     0.614      42.7228   
2351.6     6.898      2.5955     6.8031     7.4592     5.9403     3.9563     5.5243     12.7013    0.614      43.3797   
2351.8     7.08       2.684      7.1031     7.6253     6.0444     3.9563     5.8125     12.5251    0.614      45.1882   
2352       7.2321     2.7953     7.4616     7.9099     6.1545     4.0051     5.7444     12.3059    0.618      48.0139   
2352.2     7.3435     2.8957     7.7742     8.2435     6.2638     4.0261     5.6655     12.1388    0.616      48.155    
2352.4     7.3899     2.9115     8.0308     8.6217     6.3726     4.0834     5.6316     12.043     0.614      46.411    
2352.6     7.4359     2.9266     8.3111     9.0266     6.4809     4.1397     5.713      11.9868    0.619      47.0967   
2352.8     7.4432     2.9817     8.5668     9.4474     6.6129     4.1958     5.5842     11.9311    0.62       49.8761   
2353       7.4432     2.9717     8.7077     9.8607     6.7334     4.2211     5.515      11.8758    0.62       51.2742   
2353.2     7.4432     3.016      8.7613     10.2246    6.8622     4.3093     5.4961     11.8727    0.62       50.2897   
2353.4     7.415      2.9657     8.7711     10.556     6.9707     4.3271     5.5519     11.8749    0.615      48.0519   
2353.6     7.3899     2.9888     8.8346     10.8849    7.1179     4.3703     5.4965     11.9218    0.62       47.7847   
2353.8     7.3899     3.0192     8.864      11.1599    7.1971     4.38       5.3439     11.8727    0.616      50.366    
2354       7.3556     2.9967     8.799      11.2893    7.296      4.38       5.3263     11.8727    0.617      51.3793   
2354.2     7.3242     2.9884     8.7972     11.3871    7.4239     4.38       5.2899     11.8811    0.62       49.5352   
2354.4     7.2834     2.9654     8.7466     11.3995    7.5855     4.38       5.2677     11.926     0.618      48.4447   
2354.6     7.2834     2.9654     8.7155     11.3833    7.7475     4.38       5.2113     11.926     0.614      48.9466   
2354.8     7.2834     2.9526     8.6334     11.2993    7.8901     4.38       5.3229     11.926     0.616      50.9548   
2355       7.2834     2.9261     8.5992     11.293     8.0555     4.4094     5.3746     11.9115    0.62       55.625    
2355.2     7.2834     2.9654     8.6418     11.2924    8.2205     4.38       5.2756     11.829     0.62       59.1685   
2355.4     7.3074     2.9654     8.6294     11.2148    8.3456     4.38       5.2091     11.7554    0.62       59.1988   
2355.6     7.3366     2.8962     8.4793     11.1086    8.4319     4.4313     5.2226     11.6438    0.614      58.237    
2355.8     7.3366     2.8784     8.428      11.0847    8.5404     4.433      5.3809     11.5855    0.615      55.4436   
2356       7.3366     2.933      8.6009     11.1638    8.6872     4.433      5.4284     11.5314    0.62       50.5935   
2356.2     7.3366     2.9405     8.6229     11.1865    8.8126     4.5334     5.3733     11.4224    0.62       48.0902   
2356.4     7.3366     2.9165     8.6194     11.1865    8.8786     4.5389     5.4153     11.3107    0.622      49.5097   
2356.6     7.3366     2.9654     8.6416     11.2255    8.9323     4.547      5.4828     11.1707    0.626      51.2381   
2356.8     7.3366     2.9654     8.6627     11.2813    8.9689     4.5919     5.3425     11.0283    0.626      51.6524   
2357       7.3226     2.9654     8.6467     11.3374    9.0183     4.606      5.354      10.8727    0.626      53.2573   
2357.2     7.2834     2.9654     8.7173     11.3642    9.0736     4.6449     5.2322     10.7633    0.626      55.1067   
2357.4     7.24       2.9654     8.7319     11.4188    9.0968     4.6449     5.2195     10.6888    0.626      53.6478   
2357.6     7.1854     2.9654     8.799      11.4528    9.1294     4.6953     5.218      10.6468    0.626      50.9596   
2357.8     7.1306     2.9654     8.799      11.5058    9.1836     4.6978     5.1738     10.6468    0.626      49.6747   
2358       7.075      2.9822     8.799      11.506     9.2316     4.7287     5.0669     10.6024    0.626      47.5956   
2358.2     7.0191     3.0003     8.7445     11.4734    9.2217     4.7508     4.9389     10.5935    0.62       44.0789   
2358.4     6.9906     2.9449     8.5948     11.3587    9.1312     4.7508     4.924      10.6149    0.62       42.8724   
2358.6     6.9902     2.9115     8.4764     11.1779    9.0355     4.8031     4.9587     10.679     0.62       46.4067   
2358.8     6.9605     2.8903     8.4139     11.1332    9.0214     4.8489     5.0039     10.7001    0.617      49.8155   
2359       6.9106     2.9142     8.4798     11.122     9.0652     4.9044     5.0507     10.6956    0.62       50.3039   
