~Version
 VERS              .         2.0                           : CWLS LOG ASCII STANDARD - VERSION 2.0
 WRAP              .         NO                            : ONE LINE PER DEPTH STEP
 DLM               .         SPACE                         : DELIMITING CHARACTER(SPACE TAB OR COMMA)
~Well Information
#_______________________________________________________________________________
#
#PARAMETER_NAME    .UNIT     VALUE                         : DESCRIPTION
#_______________________________________________________________________________
STRT               .m        2319                          : First reference value
STOP               .m        2539                          : Last reference value
STEP               .m        0.2                           : Step increment
NULL               .         -9999                         : Missing value
COMP               .                                       : Company
WELL               .         701                           : Well name
FLD                .                                       : Field
LOC                .                                       : Location
CNTY               .                                       : County
STAT               .                                       : State
CTRY               .                                       : Country
SRVC               .                                       : Service Company
DATE               .                                       : Date
API                .                                       : API number
EREF               .m        141.23                        : 
X                  .m        221071                        : 
Y                  .m        253934                        : 
group              .         Pad7                          : 
Интер-р            .         Старостина                    : 
Куст               .         7                             : 
Статус             .         Не проверено                  : 
Тип                .         Эксплуатация                  : 
~Parameter Information Block
#_______________________________________________________________________________
#
#PARAMETER_NAME    .UNIT     VALUE                         : DESCRIPTION
#_______________________________________________________________________________
SET                .         LAS3                          : 
REAL_CREATION_DATE .         Ср апр 11 2012-13_17_25       : 
TLFamily_DEPTH     .         Measured Depth                : 
TLFamily_GR        .         Gamma Ray                     : 
TLFamily_TNPH      .         Neutron Porosity              : 
group              .         INI                           : 
~Curve Information
#_______________________________________________________________________________
#
#LOGNAME           .UNIT     LOG_ID                        : DESCRIPTION
#_______________________________________________________________________________
DEPTH              .m                                      : Measured Depth 
GR                 .gAPI                                   :  
TNPH               .v/v                                    : Neutron Porosity 
~Ascii
# ...
2513.4     98.49      0.262     
2513.6     104.72     0.261     
2513.8     105.72     0.255     
2514       105.03     0.257     
2514.2     105.85     0.253     
2514.4     106.16     0.255     
2514.6     107.46     0.265     
2514.8     101.07     0.263     
2515       95.42      0.261     
2515.2     90.39      0.247     
2515.4     82.81999   0.232     
2515.6     76.93      0.231     
2515.8     77.25999   0.243     
2516       77.79      0.227     
2516.2     77.98      0.209     
2516.4     79.02      0.222     
2516.6     79.43      0.237     
2516.8     80.64      0.236     
2517       87.24      0.248     
2517.2     97.16      0.257     
2517.4     103.27     0.268     
2517.6     106.94     0.271     
2517.8     106.76     0.267     
2518       99.61      0.273     
2518.2     85.97      0.269     
2518.4     71.56999   0.261     
2518.6     78.23      0.264     
2518.8     85.07      0.27      
2519       87.63      0.271     
2519.2     87.25999   0.273     
2519.4     81.68999   0.288     
2519.6     74.06      0.292     
2519.8     64.56001   0.244     
2520       54.65      0.212     
2520.2     53.09      0.202     
2520.4     61.7       0.205     
2520.6     67.76      0.215     
2520.8     71.68      0.227     
2521       75.83      0.236     
2521.2     81.48      0.246     
2521.4     93.92999   0.258     
2521.6     105.57     0.259     
2521.8     108.25     0.256     
2522       104.26     0.242     
2522.2     96.22      0.238     
2522.4     85.71999   0.238     
2522.6     78.57001   0.236     
2522.8     74.78      0.24      
2523       73.88      0.257     
2523.2     74.08      0.303     
2523.4     80.83      0.349     
2523.6     92.9       0.357     
2523.8     97.22      0.338     
2524       91.38      0.347     
2524.2     80.86      0.328     
2524.4     80.96      0.282     
2524.6     82.67999   0.256     
2524.8     80.19      0.237     
2525       78.05      0.226     
2525.2     83.24001   0.23      
2525.4     89.18999   0.24      
2525.6     89.14      0.267     
2525.8     88.52      0.281     
2526       90.38      0.29      
2526.2     93.76      0.296     
2526.4     92.14      0.294     
2526.6     80.83      0.31      
2526.8     69.84      0.348     
2527       58.34      0.371     
2527.2     64.18999   0.355     
2527.4     88.78999   0.319     
2527.6     98.04      0.294     
2527.8     96         0.261     
2528       88.54      0.244     
2528.2     83.44      0.233     
2528.4     78.61      0.227     
2528.6     76.3       0.224     
2528.8     79.86      0.228     
2529       87.83      0.236     
2529.2     96.16      0.249     
2529.4     109.91     0.249     
2529.6     115.57     0.262     
2529.8     116.56     0.271     
2530       114.15     0.265     
2530.2     107.96     0.271     
2530.4     101.89     0.269     
2530.6     90.91      0.244     
2530.8     84.20999   0.23      
2531       82.47      0.235     
2531.2     83.92999   0.239     
2531.4     83.95      0.232     
2531.6     91.42      0.248     
2531.8     91.58      0.261     
2532       91.75      0.25      
2532.2     98.42      0.24      
2532.4     103.25     0.234     
2532.6     99.24      0.233     
2532.8     95.60001   0.24      
2533       98.38      0.25      
2533.2     102.9      0.255     
2533.4     100.92     0.257     
2533.6     99.35001   0.249     
2533.8     96.18      0.247     
2534       97.65      0.252     
2534.2     99.89999   0.256     
2534.4     101.26     0.261     
2534.6     100.13     0.256     
2534.8     99.63      0.244     
2535       99.66      0.254     
2535.2     103.04     0.262     
2535.4     104.51     0.253     
2535.6     101.32     0.257     
2535.8     101.82     0.269     
2536       99.61      0.283     
2536.2     98.95      0.289     
2536.4     103.46     0.275     
2536.6     104.86     0.269     
2536.8     105.29     0.268     
2537       104.43     0.275     
2537.2     104.34     0.28      
2537.4     102.87     0.275     
2537.6     102.24     0.267     
2537.8     101.7      0.264     
2538       104.69     0.265     
2538.2     102.71     0.272     
2538.4     98.63      0.282     
2538.6     97.88      0.276     
2538.8     99.65      0.27      
2539       104.61     0.257     
