~Version
 VERS              .         2.0                           : CWLS LOG ASCII STANDARD - VERSION 2.0
 WRAP              .         NO                            : ONE LINE PER DEPTH STEP
 DLM               .         SPACE                         : DELIMITING CHARACTER(SPACE TAB OR COMMA)
~Well Information
#_______________________________________________________________________________
#
#PARAMETER_NAME    .UNIT     VALUE                         : DESCRIPTION
#_______________________________________________________________________________
STRT               .m        2319                          : First reference value
STOP               .m        2539                          : Last reference value
STEP               .m        0.2                           : Step increment
NULL               .         -9999                         : Missing value
COMP               .                                       : Company
WELL               .         701                           : Well name
FLD                .                                       : Field
LOC                .                                       : Location
CNTY               .                                       : County
STAT               .                                       : State
CTRY               .                                       : Country
SRVC               .                                       : Service Company
DATE               .                                       : Date
API                .                                       : API number
EREF               .m        141.23                        : 
X                  .m        221071                        : 
Y                  .m        253934                        : 
group              .         Pad7                          : 
Интер-р            .         Старостина                    : 
Куст               .         7                             : 
Статус             .         Не проверено                  : 
Тип                .         Эксплуатация                  : 
~Parameter Information Block
#_______________________________________________________________________________
#
#PARAMETER_NAME    .UNIT     VALUE                         : DESCRIPTION
#_______________________________________________________________________________
SET                .         LAS1                          : 
REAL_CREATION_DATE .         Ср апр 11 2012-13_17_25       : 
TLFamily_DEPTH     .         Measured Depth                : 
TLFamily_KS        .         Potential Resistivity         : 
TLFamily_KS1       .         Extra Shallow Resistivity     : 
TLFamily_KS2       .         Shallow Resistivity           : 
TLFamily_KS3       .         Medium Resistivity            : 
TLFamily_KS4       .         Deep Resistivity              : 
TLFamily_KS5       .         Extra Deep Resistivity        : 
TLFamily_LLD       .         Lateral Log Resistivity       : 
TLFamily_OKS3      .         Medium Resistivity Inverted   : 
TLFamily_RM        .         Mud Resistivity               : 
TLFamily_SP        .         Spontaneous Potential         : 
group              .         INI                           : 
~Curve Information
#_______________________________________________________________________________
#
#LOGNAME           .UNIT     LOG_ID                        : DESCRIPTION
#_______________________________________________________________________________
DEPTH              .m                                      : Measured Depth 
KS                 .ohm.m                                  : Potential Resistivity 
KS1                .ohm.m                                  : Extra Shallow Resistivity 
KS2                .ohm.m                                  : Shallow Resistivity 
KS3                .ohm.m                                  : Medium Resistivity 
KS4                .ohm.m                                  : Deep Resistivity 
KS5                .ohm.m                                  : Extra Deep Resistivity 
LLD                .ohm.m                                  : Lateral Log Resistivity 
OKS3               .ohm.m                                  : Medium Resistivity Inverted 
RM                 .ohm.m                                  : Mud Resistivity 
SP                 .mV                                     : Spontaneous Potential 
~Ascii
# ...
2520       7.8692     3.4617     11.3359    20.0994    27.5628    26.3481    5.4054     21.6889    0.589      51.2145   
2520.2     8.0177     2.9814     9.5139     17.6066    22.3088    23.4846    6.0465     18.5929    0.559      49.4613   
2520.4     8.2206     2.6031     8.3875     14.5801    17.6466    19.0035    6.2397     16.6237    0.572      44.8941   
2520.6     8.4281     2.559      7.9718     12.6184    14.8175    15.551     6.1575     16.5001    0.58       40.9376   
2520.8     8.6687     2.5175     7.4094     10.9843    12.6824    13.6934    6.7149     16.4953    0.568      41.3497   
2521       8.86       2.4804     7.0305     9.7924     11.4294    12.7912    7.0588     16.1885    0.572      45.6735   
2521.2     9.0358     2.5019     7.0792     9.4065     10.852     12.8287    7.3577     16.0392    0.596      48.4641   
2521.4     9.2375     2.5585     7.3889     9.7506     10.805     13.3275    8.5847     16.0238    0.565      47.5126   
2521.6     9.4417     2.6101     7.8686     10.6883    11.3969    13.8579    9.3957     16.0302    0.577      47.606    
2521.8     9.6925     2.7965     8.8509     11.7291    11.7214    14.4676    9.7322     16.0302    0.584      52.2405   
2522       9.9846     2.781      8.7086     12.3059    11.4408    15.1675    10.2475    16.0145    0.577      57.0671   
2522.2     10.2588    2.7508     8.4015     12.2433    10.8222    15.9094    10.3335    16.0118    0.577      57.0579   
2522.4     10.5231    2.8692     8.693      12.4891    10.7236    17.1407    9.6131     16.0302    0.585      53.8765   
2522.6     10.6742    2.933      8.9629     12.7641    10.8484    19.293     8.3689     16.0058    0.604      50.9667   
2522.8     10.7008    3.0192     9.0619     12.9326    11.1798    22.9063    6.8451     15.9982    0.563      50.0744   
2523       10.692     2.99       9.1914     13.1971    12.1009    28.877     6.5702     15.9858    0.532      50.7364   
2523.2     10.692     2.8576     9.3121     13.9326    14.3179    35.8174    8.5292     15.9769    0.526      50.8205   
2523.4     10.692     2.8576     8.8724     15.5376    18.3468    41.5395    26.5969    15.9959    0.534      49.6001   
2523.6     10.7729    2.8205     9.8193     18.0611    22.9817    45.02      32.4544    15.9769    0.549      49.1928   
2523.8     10.7986    2.6804     10.5279    20.3509    26.431     46.7119    17.9077    15.9769    0.549      52.0828   
2524       10.7986    2.6429     10.5069    21.241     27.7794    46.0014    20.2844    15.9965    0.555      55.1434   
2524.2     10.7794    2.6715     10.646     21.9413    28.7526    42.6156    23.0089    16.0118    0.55       56.3533   
2524.4     10.7986    2.6722     11.1857    22.9543    30.2528    37.8011    10.9902    16.0302    0.549      58.2921   
2524.6     10.7986    2.6431     11.3138    23.5212    29.7338    33.2717    10.2276    16.0302    0.555      59.8177   
2524.8     10.7986    2.663      11.3138    21.0561    26.6367    28.5572    10.7448    16.0302    0.555      58.3697   
2525       10.7986    2.671      11.3138    19.7603    22.9929    23.6628    10.7973    16.0302    0.552      56.2639   
2525.2     10.7986    2.642      11.3138    19.8349    20.4661    20.0474    12.3533    16.0302    0.551      57.3387   
2525.4     10.7986    2.6556     11.3138    19.6279    18.6134    17.6638    13.5799    16.0302    0.549      61.9704   
2525.6     10.7986    2.6576     11.3138    18.9615    17.5429    16.0548    14.6846    16.0029    0.549      65.9512   
2525.8     10.7986    2.6438     11.3138    18.9615    17.2697    14.9321    17.3183    16.0152    0.549      66.6692   
2526       10.7986    2.6591     11.3138    18.9615    17.4567    14.2353    17.0736    16.0302    0.549      65.5339   
2526.2     10.7986    2.6803     11.3138    18.9615    18.3025    14.1169    14.4497    16.0302    0.553      63.9548   
2526.4     10.7986    2.683      11.3138    18.9615    19.6435    14.4158    13.7696    16.0119    0.551      63.7871   
2526.6     10.7986    2.6551     11.3138    18.9615    22.0366    15.154     14.9806    15.9769    0.549      65.6644   
2526.8     10.7986    2.6793     11.3138    18.9615    25.5988    16.3906    25.2187    15.9999    0.549      67.7737   
2527       10.7986    2.6924     11.3138    18.9615    27.6781    17.752     39.8959    15.9845    0.551      68.5532   
2527.2     10.7986    2.653      11.3138    18.9615    27.8103    18.8859    54.2878    15.9769    0.554      67.0764   
2527.4     10.7986    2.687      11.3138    18.9615    28.4668    19.4877    12.2008    15.9976    0.552      65.7006   
2527.6     10.7986    2.6744     11.3138    18.9615    30.1776    19.4186    8.2774     15.9883    0.555      67.4469   
2527.8     10.7986    2.6906     11.3138    18.9615    30.332     18.4349    6.4662     15.9769    0.554      70.494    
2528       10.7986    2.6684     11.3138    18.9615    30.3276    16.6837    5.6533     9.5862     0.552      74.3631   
2528.2     10.7986    2.6452     11.296     18.9615    30.307     14.5908    4.9944     0          0.55       78.2845   
2528.4     10.7986    2.6959     11.3138    18.9615    30.3188    12.6498    4.976      0          0.554      79.3958   
2528.6     10.7986    2.6959     11.3138    18.9615    30.2989    10.8595    5.0164     0          0.552      78.8401   
2528.8     10.7986    2.6782     11.2959    18.9615    30.3232    8.9798     4.9054     0          0.55       78.8855   
2529       10.7986    2.6959     11.3138    18.9615    30.3514    7.4384     4.7048     0          0.551      79.7173   
2529.2     10.7986    2.6649     11.2958    18.9615    30.3514    6.2047     4.7771     0          0.551      79.9545   
2529.4     10.7986    2.6804     11.3138    18.9615    30.3514    5.3064     6.0793     0          0.549      78.6568   
2529.6     10.7986    2.6509     11.3007    18.9615    30.3514    4.6024     7.2291     0          0.553      76.5917   
2529.8     10.7986    2.6628     11.3037    18.9615    30.3514    4.0806     7.1894     0          0.549      75.2907   
2530       10.7986    2.642      11.3138    18.9615    30.3514    3.8573     7.0848     0          0.555      76.0835   
2530.2     10.7986    2.6959     11.3138    18.9615    30.3514    3.7789     6.8414     0          0.551      78.7163   
2530.4     10.7986    2.6851     11.3138    18.9615    30.3514    3.7444     7.1184     0          0          80.8678   
2530.6     0          2.6657     11.3138    18.9615    30.3514    3.6441     7.4685     0          0          80.471    
2530.8     0          0          11.3138    18.9615    30.348     3.4077     7.2259     0          0          78.0834   
2531       0          0          11.3138    18.9615    30.3462    3.1561     6.604      0          0          76.7752   
2531.2     0          0          11.3138    18.9615    30.3245    3.0097     6.7755     0          0          76.8328   
2531.4     0          0          0          18.9615    30.2989    3.0559     6.7438     0          0          76.2403   
2531.6     0          0          0          18.9615    30.3091    3.0559     6.7842     0          0          75.7981   
2531.8     0          0          0          18.9615    30.3514    3.1001     7.0992     0          0          75.9917   
2532       0          0          0          18.9615    30.3304    3.1088     6.8303     0          0          76.5633   
2532.2     0          0          0          18.9615    30.2989    3.1088     6.9579     0          0          77.8136   
2532.4     0          0          0          18.9615    30.3334    3.1088     6.8455     0          0          78.5004   
2532.6     0          0          0          0          30.3372    3.1088     7.4253     0          0          78.3346   
2532.8     0          0          0          0          30.3219    3.1088     7.2211     0          0          76.7675   
2533       0          0          0          0          30.3514    3.1088     7.2051     0          0          73.4489   
2533.2     0          0          0          0          30.3514    3.1088     7.3336     0          0          72.4393   
