~Version
 VERS              .         2.0                           : CWLS LOG ASCII STANDARD - VERSION 2.0
 WRAP              .         NO                            : ONE LINE PER DEPTH STEP
 DLM               .         SPACE                         : DELIMITING CHARACTER(SPACE TAB OR COMMA)
~Well Information
#_______________________________________________________________________________
#
#PARAMETER_NAME    .UNIT     VALUE                         : DESCRIPTION
#_______________________________________________________________________________
STRT               .m        2319                          : First reference value
STOP               .m        2539                          : Last reference value
STEP               .m        0.2                           : Step increment
NULL               .         -9999                         : Missing value
COMP               .                                       : Company
WELL               .         701                           : Well name
FLD                .                                       : Field
LOC                .                                       : Location
CNTY               .                                       : County
STAT               .                                       : State
CTRY               .                                       : Country
SRVC               .                                       : Service Company
DATE               .                                       : Date
API                .                                       : API number
EREF               .m        141.23                        : 
X                  .m        221071                        : 
Y                  .m        253934                        : 
group              .         Pad7                          : 
Интер-р            .         Старостина                    : 
Куст               .         7                             : 
Статус             .         Не проверено                  : 
Тип                .         Эксплуатация                  : 
~Parameter Information Block
#_______________________________________________________________________________
#
#PARAMETER_NAME    .UNIT     VALUE                         : DESCRIPTION
#_______________________________________________________________________________
SET                .         LAS1                          : 
REAL_CREATION_DATE .         Ср апр 11 2012-13_17_25       : 
TLFamily_DEPTH     .         Measured Depth                : 
TLFamily_KS        .         Potential Resistivity         : 
TLFamily_KS1       .         Extra Shallow Resistivity     : 
TLFamily_KS2       .         Shallow Resistivity           : 
TLFamily_KS3       .         Medium Resistivity            : 
TLFamily_KS4       .         Deep Resistivity              : 
TLFamily_KS5       .         Extra Deep Resistivity        : 
TLFamily_LLD       .         Lateral Log Resistivity       : 
TLFamily_OKS3      .         Medium Resistivity Inverted   : 
TLFamily_RM        .         Mud Resistivity               : 
TLFamily_SP        .         Spontaneous Potential         : 
group              .         INI                           : 
~Curve Information
#_______________________________________________________________________________
#
#LOGNAME           .UNIT     LOG_ID                        : DESCRIPTION
#_______________________________________________________________________________
DEPTH              .m                                      : Measured Depth 
KS                 .ohm.m                                  : Potential Resistivity 
KS1                .ohm.m                                  : Extra Shallow Resistivity 
KS2                .ohm.m                                  : Shallow Resistivity 
KS3                .ohm.m                                  : Medium Resistivity 
KS4                .ohm.m                                  : Deep Resistivity 
KS5                .ohm.m                                  : Extra Deep Resistivity 
LLD                .ohm.m                                  : Lateral Log Resistivity 
OKS3               .ohm.m                                  : Medium Resistivity Inverted 
RM                 .ohm.m                                  : Mud Resistivity 
SP                 .mV                                     : Spontaneous Potential 
~Ascii
# ...
2412.8     8.7133     3.7951     12.8445    17.9796    17.9356    11.6764    5.4574     12.4907    0.616      91.2588   
2413       8.3995     3.3561     11.5775    16.5821    16.1585    10.4548    5.4445     12.4069    0.614      90.8907   
2413.2     8.2172     3.1683     10.9173    15.8588    15.0771    9.4382     5.5815     12.4833    0.614      90.2175   
2413.4     8.0911     3.0416     10.2621    15.5826    14.4285    8.7363     5.5362     12.5976    0.608      89.3438   
2413.6     8.029      2.9797     9.6789     15.4711    13.8433    8.2332     5.8747     12.7964    0.611      88.4859   
2413.8     7.947      2.921      9.2071     15.4117    13.4201    7.7432     5.7666     13.0399    0.614      87.8391   
2414       7.94       2.9919     9.2525     15.1523    12.8767    7.3268     5.4079     13.1924    0.614      88.3709   
2414.2     7.9758     2.8954     8.7952     14.5445    12.3027    7.046      5.5128     13.3224    0.608      87.9695   
2414.4     7.9954     2.8188     8.5495     13.8868    11.8508    6.8718     5.3615     13.7726    0.608      84.5761   
2414.6     8.0977     2.7969     8.4147     13.4729    11.8126    6.8165     6.8168     14.5207    0.609      81.2226   
2414.8     8.1596     2.7386     8.3475     13.289     12.081     6.8247     7.2039     15.1874    0.614      79.938    
2415       8.3178     2.8728     8.8405     13.3292    12.5024    6.8811     7.1166     15.3774    0.614      80.5749   
2415.2     8.4281     2.9842     8.9561     13.3853    12.8459    6.94       6.8628     15.3661    0.608      81.1477   
2415.4     8.4544     3.0192     8.9732     13.2776    13.1949    6.9253     6.9613     15.4598    0.615      78.6062   
2415.6     8.4043     3.1479     9.3169     13.1677    13.502     6.8722     6.067      15.7367    0.62       74.6946   
2415.8     8.4597     3.0478     9.1932     12.9123    13.5728    6.92       5.6682     16.4344    0.619      72.2406   
2416       8.5084     2.9395     8.9571     12.6346    13.5604    7.0042     6.0246     17.5998    0.614      71.3082   
2416.2     8.551      2.9115     9.1253     12.687     13.7106    7.0974     6.8797     18.5083    0.614      71.9004   
2416.4     8.6594     2.9115     9.2013     12.8883    13.93      7.2606     7.3053     18.8105    0.618      74.1736   
2416.6     8.8059     2.9756     9.3407     12.9612    13.9319    7.476      6.9367     18.5422    0.626      76.5396   
2416.8     8.9719     3.0192     9.2426     12.9971    13.7307    7.5995     6.5026     18.4323    0.62       76.9196   
2417       9.0816     3.0086     9.1882     13.069     13.3867    7.7161     6.6879     18.6113    0.62       75.2994   
2417.2     9.2238     2.9654     9.1729     13.0823    13.1123    7.8663     6.6354     18.8004    0.616      74.3855   
2417.4     9.4772     2.9131     9.0933     12.9965    12.8321    8.0352     7.179      18.7993    0.614      76.0898   
2417.6     9.7546     2.8706     9.0304     12.9228    12.7177    8.3637     7.3182     18.7606    0.62       78.4329   
2417.8     10.1476    2.8559     9.0076     13.0097    12.9915    8.9377     7.4773     18.9932    0.615      79.5567   
2418       10.4791    2.7603     8.9202     13.5383    13.7663    9.4366     15.3184    19.2389    0.609      81.2539   
2418.2     10.6708    3.0611     10.1984    14.6576    14.6799    9.8501     16.4757    18.168     0.624      85.2723   
2418.4     10.7937    3.4826     11.3283    16.0384    15.2658    10.0584    11.547     16.2013    0.608      90.0979   
2418.6     10.6752    3.756      12.0111    16.8966    15.166     10.0103    9.1962     14.3552    0.626      93.3471   
2418.8     10.2717    3.7736     12.253     17.3397    14.9137    9.7942     6.568      13.4618    0.626      91.4972   
2419       9.9148     3.6785     12.443     17.4055    14.7296    9.6011     5.8976     13.4288    0.62       83.6157   
2419.2     9.5921     3.4366     12.2209    17.3639    14.6954    9.5709     6.3786     13.7368    0.62       75.6347   
2419.4     9.3849     3.2872     12.0315    17.3767    14.7169    9.6557     6.3708     13.9388    0.614      70.5102   
2419.6     9.3567     3.2084     11.5737    17.4721    14.748     9.8499     7.1729     13.8043    0.615      66.2467   
2419.8     9.3073     3.1555     11.021     17.6246    14.7443    10.105     7.8159     13.2993    0.622      62.7401   
2420       9.3004     3.2348     10.9154    17.7778    14.7234    10.3405    7.5567     12.5795    0.624      61.2137   
2420.2     9.1771     3.2751     10.7713    18.0881    14.7779    10.5161    6.8665     11.9633    0.621      59.3604   
2420.4     8.9967     3.3658     10.9777    18.525     14.9546    10.6248    6.6492     11.5477    0.614      55.2509   
2420.6     8.739      3.3864     11.0845    18.6174    15.2712    10.6302    5.8169     11.3798    0.615      52.5074   
2420.8     8.5197     3.3673     11.1733    18.0753    15.3827    10.6245    5.1843     11.4046    0.62       53.227    
2421       8.3983     3.1887     10.6227    17.1076    15.1868    10.5772    5.9321     11.5272    0.62       54.5672   
2421.2     8.3066     3.0855     10.2988    16.3689    15.089     10.4541    6.1367     11.4013    0.618      54.7512   
2421.4     8.2799     3.1548     10.3266    16.0065    15.1806    10.2868    5.9077     11.1782    0.613      54.3226   
2421.6     8.1264     3.1921     10.1392    15.8758    15.2733    10.0765    6.1799     10.9356    0.612      53.3143   
2421.8     7.928      3.2887     10.2943    15.8108    15.3156    9.8609     5.2933     10.815     0.62       51.8436   
2422       7.767      3.2348     10.0723    15.5758    15.2045    9.6312     5.1458     10.762     0.62       50.0442   
2422.2     7.6076     3.1396     9.8735     15.1011    14.9897    9.3594     5.0475     10.8155    0.617      47.8946   
2422.4     7.4487     3.0857     9.7043     14.5379    14.7942    9.1713     4.9406     10.8685    0.614      47.4692   
2422.6     7.3312     3.0603     9.4928     14.0267    14.5237    9.0102     4.8237     10.9133    0.608      48.877    
2422.8     7.2234     3.0062     9.3085     13.5451    14.0716    8.8122     4.6519     10.9601    0.612      49.0485   
2423       7.1769     2.9518     9.0476     13.0596    13.5094    8.683      4.5733     11.1427    0.608      48.3505   
2423.2     7.1769     2.8557     8.7073     12.5763    12.8718    8.5733     4.8971     11.301     0.608      49.7479   
2423.4     7.2188     2.8037     8.4845     12.2664    12.4159    8.5117     5.1502     11.4236    0.608      52.0284   
2423.6     7.2709     2.8275     8.4306     12.1333    12.2231    8.4101     5.6048     11.3717    0.602      52.8452   
2423.8     7.2834     2.9502     8.6562     11.9982    12.0024    8.3048     5.1677     11.1155    0.605      50.9543   
2424       7.3104     2.9654     8.5769     11.7825    11.6759    8.2515     5.0032     10.9399    0.602      45.8297   
2424.2     7.2834     2.9654     8.5601     11.4925    11.3348    8.1981     4.8324     10.9481    0.605      41.8187   
2424.4     7.2453     2.9458     8.609      11.3186    11.1327    8.1801     5.0842     11.206     0.602      41.0081   
2424.6     7.1821     2.9109     8.7104     11.3867    11.035     8.1407     5.6606     11.342     0.599      39.6646   
2424.8     7.086      3.0538     9.1347     11.4407    10.909     8.1227     4.6755     11.3987    0.596      37.596    
2425       7.06       3.0293     9.0199     11.3425    10.5402    8.0878     4.3832     11.5853    0.596      38.0836   
2425.2     7.0078     2.957      8.6782     11.0911    10.1286    8.0125     4.4718     12.1057    0.596      39.3557   
2425.4     6.9638     2.8704     8.495      10.9339    9.9036     7.9043     4.5954     12.6366    0.596      39.8632   
2425.6     6.9986     2.8037     8.4235     10.8931    9.733      7.8252     4.7788     12.6475    0.596      41.1294   
2425.8     7.0593     2.8101     8.3544     10.8822    9.5342     7.8229     4.9553     12.5197    0.586      42.2688   
2426       7.1577     2.8576     8.3146     10.894     9.3755     7.7397     4.9482     12.4127    0.589      41.3117   
