~Version
 VERS              .         2.0                           : CWLS LOG ASCII STANDARD - VERSION 2.0
 WRAP              .         NO                            : ONE LINE PER DEPTH STEP
 DLM               .         SPACE                         : DELIMITING CHARACTER(SPACE TAB OR COMMA)
~Well Information
#_______________________________________________________________________________
#
#PARAMETER_NAME    .UNIT     VALUE                         : DESCRIPTION
#_______________________________________________________________________________
STRT               .m        2319                          : First reference value
STOP               .m        2539                          : Last reference value
STEP               .m        0.2                           : Step increment
NULL               .         -9999                         : Missing value
COMP               .                                       : Company
WELL               .         701                           : Well name
FLD                .                                       : Field
LOC                .                                       : Location
CNTY               .                                       : County
STAT               .                                       : State
CTRY               .                                       : Country
SRVC               .                                       : Service Company
DATE               .                                       : Date
API                .                                       : API number
EREF               .m        141.23                        : 
X                  .m        221071                        : 
Y                  .m        253934                        : 
group              .         Pad7                          : 
Интер-р            .         Старостина                    : 
Куст               .         7                             : 
Статус             .         Не проверено                  : 
Тип                .         Эксплуатация                  : 
~Parameter Information Block
#_______________________________________________________________________________
#
#PARAMETER_NAME    .UNIT     VALUE                         : DESCRIPTION
#_______________________________________________________________________________
SET                .         LAS1                          : 
REAL_CREATION_DATE .         Ср апр 11 2012-13_17_25       : 
TLFamily_DEPTH     .         Measured Depth                : 
TLFamily_KS        .         Potential Resistivity         : 
TLFamily_KS1       .         Extra Shallow Resistivity     : 
TLFamily_KS2       .         Shallow Resistivity           : 
TLFamily_KS3       .         Medium Resistivity            : 
TLFamily_KS4       .         Deep Resistivity              : 
TLFamily_KS5       .         Extra Deep Resistivity        : 
TLFamily_LLD       .         Lateral Log Resistivity       : 
TLFamily_OKS3      .         Medium Resistivity Inverted   : 
TLFamily_RM        .         Mud Resistivity               : 
TLFamily_SP        .         Spontaneous Potential         : 
group              .         INI                           : 
~Curve Information
#_______________________________________________________________________________
#
#LOGNAME           .UNIT     LOG_ID                        : DESCRIPTION
#_______________________________________________________________________________
DEPTH              .m                                      : Measured Depth 
KS                 .ohm.m                                  : Potential Resistivity 
KS1                .ohm.m                                  : Extra Shallow Resistivity 
KS2                .ohm.m                                  : Shallow Resistivity 
KS3                .ohm.m                                  : Medium Resistivity 
KS4                .ohm.m                                  : Deep Resistivity 
KS5                .ohm.m                                  : Extra Deep Resistivity 
LLD                .ohm.m                                  : Lateral Log Resistivity 
OKS3               .ohm.m                                  : Medium Resistivity Inverted 
RM                 .ohm.m                                  : Mud Resistivity 
SP                 .mV                                     : Spontaneous Potential 
~Ascii
# ...
2466.4     7.0442     2.7283     7.5522     10.2762    13.5418    8.4504     4.9743     10.152     0.602      49.8491   
2466.6     7.0719     2.7949     7.8379     10.0463    13.3306    8.6023     6.0123     9.9637     0.614      50.5283   
2466.8     7.0943     2.914      8.1892     9.9799     13.0018    8.5702     6.0186     9.4962     0.602      49.3307   
2467       6.9606     3.0445     8.4831     9.997      12.4109    8.4624     5.6895     8.9954     0.608      50.4965   
2467.2     6.7965     3.1328     8.665      9.8641     11.5467    8.2561     3.9892     8.8551     0.608      55.3269   
2467.4     6.5275     2.9115     8.265      9.7452     10.6875    7.9445     3.9552     9.1521     0.601      59.3896   
2467.6     6.3474     2.8583     8.3674     9.5387     9.9524     7.6771     3.8534     9.821      0.607      61.0261   
2467.8     6.3247     2.6643     7.9872     9.3896     9.3089     7.563      3.8924     10.6434    0.604      58.7143   
2468       6.3247     2.564      7.5893     9.3226     8.7827     7.5097     4.5929     11.3626    0.602      52.3887   
2468.2     6.3662     2.6481     7.5492     9.217      8.3558     7.5051     4.486      11.5806    0.606      49.2116   
2468.4     6.4748     2.6413     7.1352     9.224      7.9088     7.5619     4.402      11.2241    0.599      50.0178   
2468.6     6.5377     2.6662     7.0299     9.0576     7.4811     7.6213     4.5865     11.0062    0.6        49.6256   
2468.8     6.5377     2.6498     6.9696     9.0856     7.2608     7.7002     4.9233     10.9547    0.599      49.5492   
2469       6.5832     2.747      7.2564     8.9328     7.0694     8.024      4.189      11.2317    0.608      52.2975   
2469.2     6.6909     2.6223     6.9106     8.6085     7.025      8.6594     4.3021     12.915     0.6        54.8094   
2469.4     6.7622     2.5678     6.8518     8.2336     7.2722     9.8701     3.9013     14.5196    0.6        55.9786   
2469.6     6.8674     2.5352     6.7854     8.2774     8.0752     11.7444    4.2282     16.0306    0.602      58.5139   
2469.8     7.0819     2.3544     6.5908     8.7454     9.4416     14.5994    5.5489     16.8604    0.596      61.9022   
2470       7.4154     2.393      7.0719     9.7439     11.5458    17.8544    7.036      16.1416    0.599      61.6375   
2470.2     7.8444     2.4479     7.5125     11.4462    14.1063    20.6912    19.9644    14.096     0.6        57.187    
2470.4     7.9911     2.8783     8.8366     13.4819    16.4902    21.9819    8.9517     12.0001    0.614      53.8961   
2470.6     8.156      3.5747     10.4512    14.5575    16.8062    22.0172    5.1822     10.5721    0.613      53.547    
2470.8     8.1422     3.5852     9.997      14.216     15.4279    20.3221    5.2514     9.8347     0.602      53.087    
2471       7.9148     3.479      9.9881     12.9986    13.3282    17.5093    4.6212     9.3791     0.605      51.4605   
2471.2     7.7432     3.2917     9.8756     12.2208    11.7141    14.5623    4.6717     9.1718     0.599      51.3818   
2471.4     7.5713     3.1283     9.9257     11.4344    10.3145    12.3395    4.9214     8.9166     0.598      54.6702   
2471.6     7.256      3.0598     9.8357     10.9177    9.2577     10.5438    5.404      8.539      0.602      59.6044   
2471.8     7.0301     3.1995     9.5337     10.7814    8.5622     9.2641     5.8311     8.0618     0.607      62.9591   
2472       6.7113     3.3479     9.5969     11.089     8.1639     8.2554     5.7782     7.6104     0.602      63.1062   
2472.2     6.3199     3.3348     9.702      11.8302    7.9519     7.3966     4.5779     7.3179     0.608      61.0868   
2472.4     5.9822     3.1624     9.376      12.6076    7.731      6.5381     3.6109     7.3399     0.602      59.4719   
2472.6     5.7645     2.9167     8.7076     13.145     7.3842     5.762      3.3501     7.5083     0.601      58.4416   
2472.8     5.6177     2.7326     8.1613     12.8965    6.8772     5.0037     3.3412     7.7735     0.598      55.7844   
2473       5.5791     2.5325     7.4876     12.0518    6.3616     4.3404     3.3136     7.9879     0.596      53.0263   
2473.2     5.6508     2.4804     6.9976     11.1561    5.9492     3.7991     3.5074     8.2558     0.596      53.8054   
2473.4     5.6856     2.4317     6.6076     10.346     5.5925     3.372      4.3304     8.4935     0.596      56.3748   
2473.6     5.7359     2.5951     6.9018     9.4969     5.4138     3.1289     4.398      8.5681     0.602      57.6242   
2473.8     5.7899     2.6923     7.0177     9.5054     5.4997     2.9583     4.0872     8.5799     0.597      58.0482   
2474       5.7132     2.7471     7.0063     9.291      5.8208     2.851      3.786      8.8256     0.597      57.4188   
2474.2     5.6563     2.7792     7.1785     8.9757     6.271      2.7911     3.7007     9.4071     0.597      56.3721   
2474.4     5.6027     2.6936     7.0736     8.5772     6.7003     2.6911     3.9105     10.2017    0.602      56.0971   
2474.6     5.5791     2.6147     7.0203     8.1788     7.1677     2.5837     3.8979     11.1455    0.596      55.4551   
2474.8     5.5791     2.559      6.9647     7.9362     7.4722     2.4751     3.8877     12.0813    0.596      54.0073   
2475       5.6086     2.5657     6.8888     7.838      7.5249     2.4176     4.0046     13.1604    0.596      54.4824   
2475.2     5.6323     2.5909     6.8849     7.8017     7.4857     2.3673     3.9629     14.155     0.591      56.6649   
2475.4     5.663      2.639      6.8869     7.8127     7.4323     2.3194     3.8665     14.969     0.596      56.7881   
2475.6     5.721      2.5848     6.7803     7.74       7.003      2.3103     3.7276     15.7532    0.596      55.7071   
2475.8     5.8334     2.5307     6.6211     7.5814     6.6793     2.2543     3.4668     16.598     0.586      57.8497   
2476       6.1142     2.4369     6.3185     7.1866     6.2592     2.1962     3.6645     17.7855    0.585      61.1886   
2476.2     6.6759     2.1146     5.5608     6.5842     5.8042     2.143      4.5938     19.3022    0.573      61.7856   
2476.4     7.3334     1.8933     5.0812     6.3187     5.6298     2.0894     9.5762     20.3774    0.569      62.1517   
2476.6     8.1069     2.0874     5.7194     6.6605     5.736      2.0495     13.7616    19.7705    0.589      64.1665   
2476.8     8.8454     2.5501     6.6803     7.3217     5.8907     2.0495     9.5047     17.8711    0.583      64.1619   
2477       9.4589     2.9067     7.3595     7.8002     5.823      2.0667     11.5116    16.1422    0.579      60.459    
2477.2     9.6439     2.9413     7.6183     8.2414     5.8483     2.0956     14.2502    15.0677    0.571      56.4546   
2477.4     9.5135     3.2554     9.035      9.0553     6.0896     2.1137     8.5136     14.1578    0.572      52.1768   
2477.6     9.2969     3.6529     10.8576    10.0544    6.3995     2.1538     5.8744     13.6386    0.58       48.3524   
2477.8     8.9846     3.7195     11.6328    10.8446    6.6026     2.1554     5.92       13.5915    0.586      47.7458   
2478       8.696      3.5971     11.616     11.2045    6.6378     2.176      6.1509     13.7551    0.596      49.2806   
2478.2     8.5358     3.3411     11.0904    11.5093    6.605      2.2658     6.2471     13.9026    0.596      49.2415   
2478.4     8.5143     3.1927     10.7044    11.8072    6.6067     2.3953     6.3157     13.8664    0.592      45.6246   
2478.6     8.5526     3.1025     10.1574    12.2474    6.6859     2.5416     6.7018     13.7965    0.58       43.2849   
2478.8     8.5616     3.0306     9.6404     12.9784    6.898      2.7301     6.7871     13.8286    0.579      45.5175   
2479       8.5275     3.1656     9.7987     14.0223    7.2574     3.0524     6.7851     13.9512    0.581      48.0784   
2479.2     8.5153     3.2296     9.8894     14.8107    7.6498     3.3868     6.8016     13.7215    0.582      47.5207   
2479.4     8.5766     3.1343     9.6242     14.8961    7.9091     3.6964     6.819      12.92      0.573      46.4077   
2479.6     8.6149     3.0736     9.433      14.6875    8.1742     3.9313     6.7917     12.9619    0.574      46.388    
