~Version
 VERS              .         2.0                           : CWLS LOG ASCII STANDARD - VERSION 2.0
 WRAP              .         NO                            : ONE LINE PER DEPTH STEP
 DLM               .         SPACE                         : DELIMITING CHARACTER(SPACE TAB OR COMMA)
~Well Information
#_______________________________________________________________________________
#
#PARAMETER_NAME    .UNIT     VALUE                         : DESCRIPTION
#_______________________________________________________________________________
STRT               .m        2319                          : First reference value
STOP               .m        2539                          : Last reference value
STEP               .m        0.2                           : Step increment
NULL               .         -9999                         : Missing value
COMP               .                                       : Company
WELL               .         701                           : Well name
FLD                .                                       : Field
LOC                .                                       : Location
CNTY               .                                       : County
STAT               .                                       : State
CTRY               .                                       : Country
SRVC               .                                       : Service Company
DATE               .                                       : Date
API                .                                       : API number
EREF               .m        141.23                        : 
X                  .m        221071                        : 
Y                  .m        253934                        : 
group              .         Pad7                          : 
Интер-р            .         Старостина                    : 
Куст               .         7                             : 
Статус             .         Не проверено                  : 
Тип                .         Эксплуатация                  : 
~Parameter Information Block
#_______________________________________________________________________________
#
#PARAMETER_NAME    .UNIT     VALUE                         : DESCRIPTION
#_______________________________________________________________________________
SET                .         LAS1                          : 
REAL_CREATION_DATE .         Ср апр 11 2012-13_17_25       : 
TLFamily_DEPTH     .         Measured Depth                : 
TLFamily_KS        .         Potential Resistivity         : 
TLFamily_KS1       .         Extra Shallow Resistivity     : 
TLFamily_KS2       .         Shallow Resistivity           : 
TLFamily_KS3       .         Medium Resistivity            : 
TLFamily_KS4       .         Deep Resistivity              : 
TLFamily_KS5       .         Extra Deep Resistivity        : 
TLFamily_LLD       .         Lateral Log Resistivity       : 
TLFamily_OKS3      .         Medium Resistivity Inverted   : 
TLFamily_RM        .         Mud Resistivity               : 
TLFamily_SP        .         Spontaneous Potential         : 
group              .         INI                           : 
~Curve Information
#_______________________________________________________________________________
#
#LOGNAME           .UNIT     LOG_ID                        : DESCRIPTION
#_______________________________________________________________________________
DEPTH              .m                                      : Measured Depth 
KS                 .ohm.m                                  : Potential Resistivity 
KS1                .ohm.m                                  : Extra Shallow Resistivity 
KS2                .ohm.m                                  : Shallow Resistivity 
KS3                .ohm.m                                  : Medium Resistivity 
KS4                .ohm.m                                  : Deep Resistivity 
KS5                .ohm.m                                  : Extra Deep Resistivity 
LLD                .ohm.m                                  : Lateral Log Resistivity 
OKS3               .ohm.m                                  : Medium Resistivity Inverted 
RM                 .ohm.m                                  : Mud Resistivity 
SP                 .mV                                     : Spontaneous Potential 
~Ascii
# ...
2479.8     8.5674     3.1685     9.668      14.6369    8.5873     4.1434     6.5292     13.0391    0.579      44.4373   
2480       8.475      3.2135     9.7293     14.7208    9.1848     4.3172     6.3716     13.0055    0.577      41.695    
2480.2     8.355      3.2708     9.9794     14.6387    9.7827     4.6262     6.2347     12.899     0.583      41.3947   
2480.4     8.2503     3.2885     10.1767    14.4948    10.3384    4.6985     6.0437     12.5401    0.591      42.5886   
2480.6     8.2155     3.2405     10.023     14.3194    10.7772    4.7466     6.2036     12.3251    0.591      43.5812   
2480.8     8.2391     3.1772     9.7848     14.0184    11.1236    4.7723     6.1112     12.372     0.591      42.914    
2481       8.27       3.1077     9.4189     13.7678    11.5461    4.8031     6.1124     12.6421    0.574      40.3116   
2481.2     8.2654     3.0876     9.3134     13.6555    12.2968    4.8465     6.2478     12.9602    0.579      38.218    
2481.4     8.2202     3.131      9.4652     13.7351    12.9007    4.9084     6.4075     13.1228    0.59       38.1604   
2481.6     8.1668     3.1632     9.5951     14.0168    13.5506    4.9987     6.2261     13.2312    0.596      39.7405   
2481.8     8.1578     3.1753     9.711      14.0917    13.7102    5.0548     6.196      13.4032    0.567      43.8737   
2482       8.165      3.1449     9.5997     13.8563    13.5891    5.1095     6.195      14.0387    0.556      49.7241   
2482.2     8.0594     3.13       9.2072     13.5205    13.2958    5.1216     6.202      14.8227    0.567      51.7291   
2482.4     7.8995     3.1862     9.3399     13.5168    13.2303    5.1645     5.987      15.6173    0.55       48.8154   
2482.6     7.8436     3.2539     9.8158     13.6252    13.2346    5.219      5.8513     16.2158    0.567      47.2446   
2482.8     7.816      3.1946     9.5375     13.7568    13.208     5.2803     5.3202     16.8358    0.567      47.1843   
2483       7.8426     2.9999     8.8823     13.5327    12.8771    5.2272     5.0762     17.9628    0.556      43.8126   
2483.2     7.8995     2.9756     8.7701     13.1081    12.324     5.1263     5.0432     19.7047    0.561      38.0738   
2483.4     8.1174     2.8109     8.3877     12.4028    11.6445    5.069      5.2877     21.8285    0.561      33.0661   
2483.6     8.464      2.6959     7.9446     11.8534    11.171     4.9675     5.7511     23.6535    0.561      30.3699   
2483.8     8.8647     2.6959     7.8878     11.4382    10.7252    4.9627     6.3318     25.4217    0.555      29.8545   
2484       9.3506     2.6959     7.8871     10.949     10.3033    4.9695     6.6583     26.9015    0.56       29.2166   
2484.2     9.8711     2.6977     7.9139     10.7473    9.9967     5.0715     7.6316     27.9493    0.567      27.475    
2484.4     10.3995    2.8043     8.3579     11.0909    9.8749     5.2346     10.9644    27.931     0.571      25.2707   
2484.6     10.7616    3.076      9.2622     11.8       9.9171     5.4972     13.6647    26.9047    0.566      23.2172   
2484.8     11.0226    3.3935     10.2265    12.4572    10.1505    5.7798     9.1304     25.9853    0.565      22.382    
2485       11.1889    3.4214     10.5235    12.8582    10.5457    6.164      7.2971     25.8451    0.551      24.6409   
2485.2     11.4917    3.2478     10.437     12.7912    10.8435    6.5893     6.8938     25.502     0.555      28.8918   
2485.4     12.099     2.8776     9.803      12.7304    10.9582    7.1247     8.4129     23.9278    0.555      30.6796   
2485.6     12.7815    2.8211     9.8399     13.3471    11.0472    7.7228     13.4822    21.4004    0.561      29.8269   
2485.8     13.4107    3.1173     10.7665    14.8133    11.3351    8.3826     20.9919    18.5592    0.564      28.6078   
2486       13.8847    3.4145     11.6856    16.6682    12.6789    9.0656     20.294     16.1679    0.569      27.235    
2486.2     14.0278    3.7281     12.7332    18.4848    14.7648    9.6602     17.7466    14.4193    0.579      25.5702   
2486.4     13.9627    3.8875     13.6913    20.3488    15.796     10.2921    14.8989    13.121     0.579      22.777    
2486.6     13.6981    4.0038     14.652     22.4009    17.0442    10.9385    16.8682    12.0084    0.575      19.8553   
2486.8     13.158     4.2482     16.2324    24.9576    18.5328    11.593     16.5245    10.8264    0.571      19.2654   
2487       12.2982    4.6502     18.11      27.8687    20.3355    12.2413    10.4645    9.6568     0.566      20.6939   
2487.2     11.0199    5.0341     19.7409    30.9152    22.1752    12.8268    3.9349     8.626      0.575      21.3069   
2487.4     9.5292     5.4193     21.271     33.1999    23.1915    13.3134    3.7576     7.9312     0.584      18.916    
2487.6     8.2944     5.1157     20.1011    32.9434    22.5039    13.285     3.9847     7.5976     0.599      15.3033   
2487.8     7.3951     4.2868     16.8526    29.7895    20.0103    12.6854    3.8198     7.4423     0.593      15.3866   
2488       6.8512     3.5185     13.832     25.9621    17.5704    11.658     3.7814     7.2903     0.568      19.2178   
2488.2     6.5311     3.1194     11.8315    22.6203    15.7838    10.264     3.9837     7.1752     0.572      22.3027   
2488.4     6.3323     2.9402     10.1815    20.2738    14.8197    8.6255     4.1142     7.236      0.555      22.6386   
2488.6     6.1999     2.8992     9.1013     18.2858    14.0828    7.2747     3.9787     7.4466     0.57       22.5288   
2488.8     6.0701     2.8177     8.3951     16.6482    13.4442    6.3235     4.0343     7.6164     0.573      24.2772   
2489       6.0323     2.8161     7.9782     15.1072    12.5648    5.7114     3.9124     7.7109     0.563      25.8771   
2489.2     6.1019     2.7497     7.4351     13.4316    11.6155    5.2141     4.1776     7.7153     0.559      25.2666   
2489.4     6.156      2.6561     7.033      11.9383    10.9789    4.8399     4.1816     7.7842     0.567      23.8155   
2489.6     6.147      2.6529     6.9001     10.9209    10.8354    4.5231     4.3435     8.2764     0.567      21.8816   
2489.8     6.0936     2.729      7.0842     10.2072    10.883     4.303      4.3341     7.881      0.585      19.6371   
2490       6.077      2.7352     7.1475     9.6122     10.7566    4.1424     4.2529     7.6663     0.586      19.6797   
2490.2     6.1572     2.637      6.9438     9.0256     10.3517    4.0754     3.9914     7.735      0.566      20.7452   
2490.4     6.1649     2.6327     6.8503     8.5679     9.9323     3.8601     3.663      7.9934     0.577      20.7366   
2490.6     6.0993     2.7028     6.8889     8.3541     9.6243     3.7522     4.0153     8.2936     0.577      22.4215   
2490.8     6.0122     2.7341     6.9933     8.1544     9.3293     3.6987     4.2346     8.4615     0.585      25.6063   
2491       6.0051     2.6183     6.8203     7.9379     8.9691     3.6451     4.3886     8.4637     0.58       26.5204   
2491.2     6.0759     2.4706     6.6659     7.7208     8.5713     3.5909     4.7372     8.6168     0.572      26.7122   
2491.4     6.2069     2.4265     6.4427     7.5615     8.2172     3.6385     5.1056     8.7521     0.563      29.2559   
2491.6     6.2949     2.4265     6.3606     7.5693     8.0321     3.6411     4.3156     8.8093     0.566      33.002    
2491.8     6.2744     2.5453     6.6485     7.7329     7.9707     3.7417     3.6515     8.901      0.595      35.4458   
2492       5.9841     2.6768     6.9836     8.0645     7.9594     3.7992     3.0406     9.2161     0.58       36.4146   
2492.2     5.7921     2.5864     7.5698     8.3896     7.7932     3.8983     3.9667     9.4686     0.579      37.9201   
2492.4     5.8417     2.2648     7.473      8.2058     7.3237     3.9514     4.0334     9.7924     0.584      39.7489   
2492.6     5.9761     2.2849     6.2723     7.5243     6.6299     4.0105     3.9114     10.2142    0.591      39.2075   
2492.8     6.0318     2.3709     5.9779     6.9973     6.1612     4.1705     4.0631     10.9752    0.579      35.5011   
2493       6.1408     2.3726     5.7129     6.8633     6.0396     4.4456     4.1922     11.6286    0.579      31.5464   
