~Version
 VERS              .         2.0                           : CWLS LOG ASCII STANDARD - VERSION 2.0
 WRAP              .         NO                            : ONE LINE PER DEPTH STEP
 DLM               .         SPACE                         : DELIMITING CHARACTER(SPACE TAB OR COMMA)
~Well Information
#_______________________________________________________________________________
#
#PARAMETER_NAME    .UNIT     VALUE                         : DESCRIPTION
#_______________________________________________________________________________
STRT               .m        2319                          : First reference value
STOP               .m        2539                          : Last reference value
STEP               .m        0.2                           : Step increment
NULL               .         -9999                         : Missing value
COMP               .                                       : Company
WELL               .         701                           : Well name
FLD                .                                       : Field
LOC                .                                       : Location
CNTY               .                                       : County
STAT               .                                       : State
CTRY               .                                       : Country
SRVC               .                                       : Service Company
DATE               .                                       : Date
API                .                                       : API number
EREF               .m        141.23                        : 
X                  .m        221071                        : 
Y                  .m        253934                        : 
group              .         Pad7                          : 
Интер-р            .         Старостина                    : 
Куст               .         7                             : 
Статус             .         Не проверено                  : 
Тип                .         Эксплуатация                  : 
~Parameter Information Block
#_______________________________________________________________________________
#
#PARAMETER_NAME    .UNIT     VALUE                         : DESCRIPTION
#_______________________________________________________________________________
SET                .         LAS1                          : 
REAL_CREATION_DATE .         Ср апр 11 2012-13_17_25       : 
TLFamily_DEPTH     .         Measured Depth                : 
TLFamily_KS        .         Potential Resistivity         : 
TLFamily_KS1       .         Extra Shallow Resistivity     : 
TLFamily_KS2       .         Shallow Resistivity           : 
TLFamily_KS3       .         Medium Resistivity            : 
TLFamily_KS4       .         Deep Resistivity              : 
TLFamily_KS5       .         Extra Deep Resistivity        : 
TLFamily_LLD       .         Lateral Log Resistivity       : 
TLFamily_OKS3      .         Medium Resistivity Inverted   : 
TLFamily_RM        .         Mud Resistivity               : 
TLFamily_SP        .         Spontaneous Potential         : 
group              .         INI                           : 
~Curve Information
#_______________________________________________________________________________
#
#LOGNAME           .UNIT     LOG_ID                        : DESCRIPTION
#_______________________________________________________________________________
DEPTH              .m                                      : Measured Depth 
KS                 .ohm.m                                  : Potential Resistivity 
KS1                .ohm.m                                  : Extra Shallow Resistivity 
KS2                .ohm.m                                  : Shallow Resistivity 
KS3                .ohm.m                                  : Medium Resistivity 
KS4                .ohm.m                                  : Deep Resistivity 
KS5                .ohm.m                                  : Extra Deep Resistivity 
LLD                .ohm.m                                  : Lateral Log Resistivity 
OKS3               .ohm.m                                  : Medium Resistivity Inverted 
RM                 .ohm.m                                  : Mud Resistivity 
SP                 .mV                                     : Spontaneous Potential 
~Ascii
# ...
2453       16.6954    3.7816     14.9636    30.9455    38.9761    21.047     22.5724    30.8086    0.613      39.7012   
2453.2     16.7698    3.9433     15.6708    32.0422    40.1909    21.9326    21.1359    29.5344    0.607      38.295    
2453.4     16.7769    4.0766     16.0733    32.9182    41.0649    22.6233    20.7963    28.0507    0.602      36.8743   
2453.6     16.6257    4.1915     16.4853    33.3882    41.4903    23.2575    14.4118    26.8479    0.606      38.9322   
2453.8     16.4098    4.2685     16.8367    33.4275    41.4532    23.7405    13.4805    26.2359    0.602      45.5509   
2454       16.1881    4.119      16.4728    33.1612    41.023     24.1558    16.255     26.2955    0.614      57.0178   
2454.2     15.9227    4.0718     16.4932    33.1151    41.1496    24.4405    18.3156    26.4363    0.611      69.614    
2454.4     15.6649    4.1394     16.8095    33.7615    41.6697    24.7116    19.0549    25.937     0.605      77.7623   
2454.6     15.3649    4.2506     17.2666    34.6647    42.2396    24.6261    16.9668    24.7442    0.605      81.5625   
2454.8     14.9069    4.3986     17.6131    35.4292    41.9011    24.2895    12.2031    23.284     0.605      80.2906   
2455       14.5227    4.4287     17.4865    35.0101    40.2244    23.8422    10.1347    22.1676    0.608      75.6467   
2455.2     14.175     4.109      16.0793    33.4216    37.7667    23.3126    8.4584     22.2785    0.608      73.8043   
2455.4     13.9069    3.8614     15.1837    31.384     35.9237    22.8407    8.6364     23.875     0.61       75.5665   
2455.6     13.7653    3.6148     14.3648    29.9284    34.8851    22.8136    10.7605    25.8738    0.608      76.4848   
2455.8     13.8432    3.4905     13.8442    28.9453    34.5606    23.1324    12.0287    27.3077    0.602      71.8707   
2456       13.9949    3.5221     13.6418    28.5971    34.6913    23.6664    14.3741    27.9911    0.606      67.8357   
2456.2     14.1552    3.6699     13.7485    28.6516    35.1095    24.2226    14.5091    28.3096    0.608      73.4199   
2456.4     14.233     3.7781     13.7881    28.841     35.5306    24.5927    14.7949    28.2456    0.614      81.2585   
2456.6     14.1865    3.9034     14.1178    28.9308    35.7233    24.6854    14.6012    28.108     0.609      79.9043   
2456.8     14.0637    3.9892     14.4794    28.9507    35.8816    24.4608    13.571     28.0543    0.609      71.8439   
2457       13.8564    4.1009     14.9404    28.412     35.4985    24.0549    12.6639    28.0752    0.608      67.1742   
2457.2     13.7333    4.0051     14.6806    27.1493    34.416     23.6662    9.3072     28.9556    0.608      66.922    
2457.4     13.6794    3.7524     13.9291    25.2031    32.573     23.3966    8.756      30.9865    0.608      64.0925   
2457.6     13.7715    3.4857     13.007     23.6987    31.1382    23.1871    9.2992     33.5712    0.608      59.0577   
2457.8     13.9341    3.3469     12.6697    23.2361    30.5004    23.3015    12.0216    35.4475    0.608      54.7505   
2458       14.3202    3.4642     12.8909    23.3179    30.178     23.7904    11.983     36.6014    0.608      51.8086   
2458.2     14.8298    3.3309     12.191     23.2707    29.8069    24.3743    12.0754    37.8566    0.602      52.5909   
2458.4     15.2612    3.2778     11.9535    23.3155    29.7447    24.8668    14.9615    38.6377    0.608      54.0306   
2458.6     15.7477    3.4357     12.4958    24.055     30.4407    25.4423    18.0449    38.2943    0.608      51.4685   
2458.8     16.2068    3.6214     13.1779    24.8924    31.0822    25.9018    18.6595    37.0135    0.608      46.189    
2459       16.5255    3.7739     13.7406    25.5568    31.5       26.2339    16.7826    35.7426    0.608      42.3052   
2459.2     16.7909    3.8494     14.163     25.8121    31.4615    26.6058    15.7825    34.5013    0.614      40.2642   
2459.4     17.086     3.8275     14.2799    25.9023    31.2597    26.9273    15.7768    33.4796    0.614      37.6321   
2459.6     17.25      3.8297     14.7145    26.3036    31.3804    27.1549    18.0645    32.3875    0.61       36.5086   
2459.8     17.4133    3.9836     15.5399    27.1583    31.9198    27.3707    19.0254    30.9222    0.614      38.0288   
2460       17.54      4.0008     15.6205    28.2337    32.6099    27.6289    17.2687    29.3618    0.609      39.3874   
2460.2     17.5316    4.1234     16.1628    29.4691    33.3722    27.6867    20.5245    27.8169    0.614      41.1452   
2460.4     17.4663    4.2119     16.795     31.2179    34.7376    27.7444    22.4384    25.9582    0.62       43.6246   
2460.6     17.2635    4.4033     17.6137    33.0989    36.0126    27.8335    21.714     23.9718    0.62       44.4432   
2460.8     16.9517    4.528      18.1247    34.5945    36.6277    27.7738    18.3838    22.1       0.62       43.4352   
2461       16.4815    4.5584     18.2587    35.6235    36.9324    27.5086    16.6882    20.6565    0.62       42.4622   
2461.2     15.9287    4.5819     18.5602    36.4408    37.1954    27.0717    16.103     19.4632    0.62       42.8955   
2461.4     15.3456    4.5819     18.7774    37.0044    37.2043    26.6608    14.3287    18.0394    0.62       43.0016   
2461.6     14.8017    4.4932     18.4525    37.0188    37.0508    26.3164    12.2699    16.9172    0.617      42.4559   
2461.8     14.2084    4.3767     18.0089    37.1717    37.3712    25.7066    12.5175    15.7555    0.62       41.4321   
2462       13.6587    4.4469     18.221     37.1881    37.8563    24.9574    13.266     14.5377    0.62       39.7411   
2462.2     13.1499    4.3333     17.3779    36.6787    38.0405    24.147     10.3736    13.3965    0.614      39.9779   
2462.4     12.6506    4.2473     16.8908    35.5875    37.5728    23.1711    10.5327    12.5236    0.614      41.0227   
2462.6     12.1927    4.1539     16.1932    34.654     37.4238    22.0734    9.5441     11.8475    0.614      39.8815   
2462.8     11.6936    4.097      15.7873    33.6492    37.3164    21.1138    9.406      11.2676    0.616      38.5003   
2463       11.3154    4.084      15.6002    32.4376    36.9783    20.426     9.4342     10.7412    0.614      39.9297   
2463.2     10.9023    3.8816     14.6347    31.2077    36.6985    19.792     7.8112     10.3564    0.61       43.6914   
2463.4     10.2292    3.9503     14.8684    30.9874    37.2443    18.9507    11.1802    9.688      0.622      47.5182   
2463.6     9.3244     4.3564     15.6989    30.5117    37.2377    17.3642    14.9678    8.3219     0.618      48.5439   
2463.8     8.5414     4.1744     14.7463    28.2611    34.5948    16.0245    6.9787     7.7576     0.614      46.4963   
2464       7.8468     3.9164     13.8686    25.8009    31.5432    14.2803    5.9356     7.5072     0.614      44.1874   
2464.2     7.3117     3.59       12.6894    23.1458    28.2749    12.7961    5.1951     7.3688     0.609      41.8923   
2464.4     6.8917     3.3077     11.5529    20.3966    25.0373    11.4578    4.3908     7.6749     0.608      41.7292   
2464.6     6.5577     2.973      10.1039    18.0916    22.2977    10.3844    3.713      8.3074     0.608      47.4866   
2464.8     6.4351     2.74       8.9728     16.1379    20.0581    9.6218     3.4692     9.1865     0.603      54.0425   
2465       6.4312     2.4774     8.0181     14.8865    18.505     9.1063     3.6278     9.6615     0.607      54.487    
2465.2     6.5044     2.6014     7.9329     14.1092    17.524     8.8618     4.4773     9.9003     0.608      51.9408   
2465.4     6.6397     2.5927     7.4117     13.5099    16.7044    8.6874     4.4477     9.9006     0.603      52.3379   
2465.6     6.6698     2.7104     7.3933     12.9189    15.9303    8.4865     4.8779     9.865      0.608      55.192    
2465.8     6.7759     2.8021     7.4368     12.1711    15.1196    8.364      4.7194     9.8309     0.608      55.5847   
2466       6.8567     2.7088     7.1597     11.2509    14.3169    8.3526     4.4095     9.9401     0.602      52.2      
2466.2     6.9368     2.684      7.3662     10.5805    13.7492    8.3962     5.0464     10.0555    0.608      49.3152   
