~Version
 VERS              .         2.0                           : CWLS LOG ASCII STANDARD - VERSION 2.0
 WRAP              .         NO                            : ONE LINE PER DEPTH STEP
 DLM               .         SPACE                         : DELIMITING CHARACTER(SPACE TAB OR COMMA)
~Well Information
#_______________________________________________________________________________
#
#PARAMETER_NAME    .UNIT     VALUE                         : DESCRIPTION
#_______________________________________________________________________________
STRT               .m        2319                          : First reference value
STOP               .m        2539                          : Last reference value
STEP               .m        0.2                           : Step increment
NULL               .         -9999                         : Missing value
COMP               .                                       : Company
WELL               .         701                           : Well name
FLD                .                                       : Field
LOC                .                                       : Location
CNTY               .                                       : County
STAT               .                                       : State
CTRY               .                                       : Country
SRVC               .                                       : Service Company
DATE               .                                       : Date
API                .                                       : API number
EREF               .m        141.23                        : 
X                  .m        221071                        : 
Y                  .m        253934                        : 
group              .         Pad7                          : 
Интер-р            .         Старостина                    : 
Куст               .         7                             : 
Статус             .         Не проверено                  : 
Тип                .         Эксплуатация                  : 
~Parameter Information Block
#_______________________________________________________________________________
#
#PARAMETER_NAME    .UNIT     VALUE                         : DESCRIPTION
#_______________________________________________________________________________
SET                .         LAS1                          : 
REAL_CREATION_DATE .         Ср апр 11 2012-13_17_25       : 
TLFamily_DEPTH     .         Measured Depth                : 
TLFamily_KS        .         Potential Resistivity         : 
TLFamily_KS1       .         Extra Shallow Resistivity     : 
TLFamily_KS2       .         Shallow Resistivity           : 
TLFamily_KS3       .         Medium Resistivity            : 
TLFamily_KS4       .         Deep Resistivity              : 
TLFamily_KS5       .         Extra Deep Resistivity        : 
TLFamily_LLD       .         Lateral Log Resistivity       : 
TLFamily_OKS3      .         Medium Resistivity Inverted   : 
TLFamily_RM        .         Mud Resistivity               : 
TLFamily_SP        .         Spontaneous Potential         : 
group              .         INI                           : 
~Curve Information
#_______________________________________________________________________________
#
#LOGNAME           .UNIT     LOG_ID                        : DESCRIPTION
#_______________________________________________________________________________
DEPTH              .m                                      : Measured Depth 
KS                 .ohm.m                                  : Potential Resistivity 
KS1                .ohm.m                                  : Extra Shallow Resistivity 
KS2                .ohm.m                                  : Shallow Resistivity 
KS3                .ohm.m                                  : Medium Resistivity 
KS4                .ohm.m                                  : Deep Resistivity 
KS5                .ohm.m                                  : Extra Deep Resistivity 
LLD                .ohm.m                                  : Lateral Log Resistivity 
OKS3               .ohm.m                                  : Medium Resistivity Inverted 
RM                 .ohm.m                                  : Mud Resistivity 
SP                 .mV                                     : Spontaneous Potential 
~Ascii
# ...
2359.2     6.8769     2.9606     8.5153     11.0671    9.074      4.9578     4.9287     10.6408    0.624      50.7746   
2359.4     6.8478     2.9179     8.4322     10.9714    9.055      5.0004     4.877      10.554     0.622      52.24     
2359.6     6.804      2.9332     8.427      10.8473    8.9508     5.0118     4.6769     10.4427    0.62       52.2161   
2359.8     6.804      2.9029     8.2607     10.6373    8.8209     5.0157     4.7113     10.3059    0.62       49.1837   
2360       6.7885     2.8219     8.0718     10.4624    8.6819     5.0157     4.7668     10.286     0.62       46.2377   
2360.2     6.7941     2.8424     8.1492     10.3675    8.6215     4.9655     4.8172     10.327     0.62       45.7647   
2360.4     6.8232     2.8157     8.0639     10.2609    8.5372     5.0133     4.8449     10.3118    0.61       47.4996   
2360.6     6.8573     2.7882     7.916      10.1214    8.413      5.0157     4.9129     10.2452    0.608      49.6783   
2360.8     6.8573     2.7872     7.9546     10.1504    8.4335     5.0157     5.1499     10.3686    0.609      49.6479   
2361       6.8306     2.9087     8.2249     10.3349    8.5323     5.029      5.2144     10.4293    0.619      49.5437   
2361.2     6.8003     2.9115     8.2902     10.4174    8.5096     5.0678     5.0484     10.3422    0.614      51.704    
2361.4     6.7146     2.9362     8.39       10.441     8.4414     5.0686     4.9111     10.1988    0.619      53.0345   
2361.6     6.6053     2.9654     8.4322     10.441     8.3762     5.0208     4.5404     10.1948    0.618      52.2444   
2361.8     6.495      2.9654     8.3798     10.4205    8.2777     5.0106     4.1022     10.3442    0.614      50.3095   
2362       6.3948     2.9207     8.2718     10.2332    8.1024     4.9543     3.9964     10.6968    0.611      48.9408   
2362.2     6.378      2.7369     7.882      9.9547     7.8831     4.9097     4.3063     11.027     0.611      49.9674   
2362.4     6.4333     2.6852     7.7377     9.6991     7.7406     4.8599     4.3318     11.3616    0.614      51.6328   
2362.6     6.5424     2.6302     7.4909     9.5786     7.6341     4.833      4.5849     11.6258    0.614      52.2231   
2362.8     6.6523     2.6011     7.2995     9.4647     7.5795     4.8542     5.2285     11.6477    0.608      53.2562   
2363       6.8085     2.684      7.3606     9.4519     7.5769     4.8567     5.1523     11.5532    0.608      55.1195   
2363.2     6.9048     2.7566     7.535      9.5846     7.6386     4.8567     5.1638     11.401     0.614      54.1057   
2363.4     6.9336     2.8506     7.776      9.6729     7.7394     4.9085     5.0377     11.2947    0.631      52.6533   
2363.6     6.9638     2.8576     7.9108     9.7487     7.7605     4.9097     5.0886     11.2193    0.632      56.2902   
2363.8     6.9384     2.908      8.1219     9.7418     7.7953     4.9622     4.7707     11.1798    0.626      61.9707   
2364       6.9919     2.8897     8.16       9.6536     7.8131     5.0101     4.7767     11.2011    0.625      63.8599   
2364.2     7.0477     2.8037     8.0048     9.5889     7.8131     5.0206     5.3097     11.2092    0.62       61.2942   
2364.4     7.1085     2.8074     8.0097     9.6887     7.8713     5.078      5.5364     11.0668    0.62       58.3673   
2364.6     7.1769     2.8576     8.1662     9.9068     7.9808     5.1824     5.4488     10.7992    0.62       57.0108   
2364.8     7.1769     2.894      8.2947     10.1822    8.1134     5.291      5.1104     10.7081    0.623      55.268    
2365       7.1643     2.9654     8.5103     10.5142    8.3308     5.383      4.9794     10.8806    0.626      52.8641   
2365.2     7.1094     2.9401     8.5567     10.8103    8.499      5.4364     5.342      11.1087    0.626      51.8278   
2365.4     7.0703     2.9539     8.7219     10.9337    8.5486     5.4394     5.2382     11.1265    0.626      52.2809   
2365.6     7.0532     2.9636     8.6945     10.9539    8.4931     5.4094     5.0547     11.0996    0.621      52.8013   
2365.8     6.9522     3.0192     8.7645     10.9719    8.4068     5.3028     4.7776     11.2442    0.626      52.6494   
2366       6.8882     2.9753     8.6505     10.8951    8.2646     5.2291     4.7298     11.4636    0.631      52.9694   
2366.2     6.7826     2.9182     8.5108     10.7876    8.1454     5.1363     4.7723     11.6653    0.632      54.1751   
2366.4     6.7248     2.9115     8.5637     10.7655    8.1167     5.0252     4.669      11.8326    0.632      53.3387   
2366.6     6.6177     2.9115     8.5215     10.7715    8.0632     4.9166     4.3034     12.0451    0.626      50.0214   
2366.8     6.5939     2.8885     8.2766     10.5251    7.9541     4.8616     4.0292     12.4785    0.625      46.8231   
2367       6.6548     2.7211     7.8262     10.0556    7.7039     4.7559     4.1673     13.0219    0.62       46.0078   
2367.2     6.8032     2.5615     7.3806     9.6022     7.5229     4.6942     4.9627     13.5824    0.62       47.2401   
2367.4     7.0043     2.5343     7.2273     9.3901     7.4159     4.6449     5.3737     13.826     0.62       48.5934   
2367.6     7.2595     2.5762     7.2528     9.3759     7.4453     4.6449     5.8023     13.8117    0.617      49.914    
2367.8     7.4965     2.6516     7.3445     9.4351     7.5176     4.6449     6.0533     13.5249    0.62       51.992    
2368       7.6609     2.7555     7.6354     9.6114     7.6524     4.7155     6.052      13.1688    0.618      54.9529   
2368.2     7.7535     2.8974     8.0307     9.8534     7.8717     4.7761     6.0489     12.8903    0.62       59.2021   
2368.4     7.7627     2.9264     8.3609     10.1072    8.0555     4.8545     6.021      12.6528    0.62       63.9366   
2368.6     7.7627     3.0103     8.7194     10.2925    8.1931     4.9414     5.6573     12.4354    0.621      64.726    
2368.8     7.8118     3.0018     8.8901     10.4669    8.3256     4.9982     5.4946     12.2889    0.62       60.6717   
2369       7.816      2.9462     8.8333     10.578     8.4009     5.0593     5.5348     12.2637    0.626      56.5805   
2369.2     7.8692     2.8902     8.7309     10.7063    8.5287     5.1695     5.8681     12.318     0.62       55.839    
2369.4     7.8981     2.8801     8.819      11.0079    8.7535     5.3859     5.7592     12.3525    0.626      57.813    
2369.6     7.9225     2.9135     8.9698     11.521     9.1722     5.6536     5.651      12.5812    0.62       58.6153   
2369.8     7.9165     2.9684     9.1006     12.2241    9.7399     5.8262     7.0574     12.926     0.622      56.3906   
2370       7.8353     3.0833     9.5577     12.9394    10.2565    5.9786     6.6504     12.8988    0.619      54.9717   
2370.2     7.7796     3.2348     9.9799     13.3366    10.4659    6.0714     5.2731     12.4797    0.626      56.7901   
2370.4     7.7113     3.2014     9.684      13.1443    10.2246    6.0034     5.0301     12.0394    0.626      57.9727   
2370.6     7.6159     3.0985     9.3649     12.8068    9.9245     5.8433     5.1445     11.926     0.622      55.8407   
2370.8     7.5442     3.0192     9.1953     12.495     9.7862     5.6816     5.2935     11.926     0.618      51.836    
2371       7.4964     3.0057     9.2096     12.3177    9.7268     5.6004     5.2592     11.9041    0.625      49.4529   
2371.2     7.4704     2.9933     9.0902     12.0977    9.6152     5.5132     5.1769     11.7682    0.624      50.7444   
2371.4     7.4703     2.9191     8.8071     11.8822    9.5468     5.4924     5.1793     11.6965    0.625      53.1007   
2371.6     7.4475     2.9292     8.7333     11.7693    9.5899     5.4521     5.1834     11.5943    0.62       53.7247   
2371.8     7.4432     2.9167     8.7194     11.719     9.688      5.4394     5.2957     11.5334    0.614      53.1272   
2372       7.4435     2.9115     8.6852     11.7259    9.7433     5.4849     5.417      11.4065    0.625      53.81     
2372.2     7.4964     2.9118     8.659      11.8139    9.7985     5.4924     5.5828     11.2406    0.62       55.5117   
2372.4     7.4666     2.9654     8.712      11.9144    9.8533     5.4924     5.5686     11.02      0.626      56.0647   
