~Version
 VERS              .         2.0                           : CWLS LOG ASCII STANDARD - VERSION 2.0
 WRAP              .         NO                            : ONE LINE PER DEPTH STEP
 DLM               .         SPACE                         : DELIMITING CHARACTER(SPACE TAB OR COMMA)
~Well Information
#_______________________________________________________________________________
#
#PARAMETER_NAME    .UNIT     VALUE                         : DESCRIPTION
#_______________________________________________________________________________
STRT               .m        2319                          : First reference value
STOP               .m        2539                          : Last reference value
STEP               .m        0.2                           : Step increment
NULL               .         -9999                         : Missing value
COMP               .                                       : Company
WELL               .         701                           : Well name
FLD                .                                       : Field
LOC                .                                       : Location
CNTY               .                                       : County
STAT               .                                       : State
CTRY               .                                       : Country
SRVC               .                                       : Service Company
DATE               .                                       : Date
API                .                                       : API number
EREF               .m        141.23                        : 
X                  .m        221071                        : 
Y                  .m        253934                        : 
group              .         Pad7                          : 
Интер-р            .         Старостина                    : 
Куст               .         7                             : 
Статус             .         Не проверено                  : 
Тип                .         Эксплуатация                  : 
~Parameter Information Block
#_______________________________________________________________________________
#
#PARAMETER_NAME    .UNIT     VALUE                         : DESCRIPTION
#_______________________________________________________________________________
SET                .         LAS1                          : 
REAL_CREATION_DATE .         Ср апр 11 2012-13_17_25       : 
TLFamily_DEPTH     .         Measured Depth                : 
TLFamily_KS        .         Potential Resistivity         : 
TLFamily_KS1       .         Extra Shallow Resistivity     : 
TLFamily_KS2       .         Shallow Resistivity           : 
TLFamily_KS3       .         Medium Resistivity            : 
TLFamily_KS4       .         Deep Resistivity              : 
TLFamily_KS5       .         Extra Deep Resistivity        : 
TLFamily_LLD       .         Lateral Log Resistivity       : 
TLFamily_OKS3      .         Medium Resistivity Inverted   : 
TLFamily_RM        .         Mud Resistivity               : 
TLFamily_SP        .         Spontaneous Potential         : 
group              .         INI                           : 
~Curve Information
#_______________________________________________________________________________
#
#LOGNAME           .UNIT     LOG_ID                        : DESCRIPTION
#_______________________________________________________________________________
DEPTH              .m                                      : Measured Depth 
KS                 .ohm.m                                  : Potential Resistivity 
KS1                .ohm.m                                  : Extra Shallow Resistivity 
KS2                .ohm.m                                  : Shallow Resistivity 
KS3                .ohm.m                                  : Medium Resistivity 
KS4                .ohm.m                                  : Deep Resistivity 
KS5                .ohm.m                                  : Extra Deep Resistivity 
LLD                .ohm.m                                  : Lateral Log Resistivity 
OKS3               .ohm.m                                  : Medium Resistivity Inverted 
RM                 .ohm.m                                  : Mud Resistivity 
SP                 .mV                                     : Spontaneous Potential 
~Ascii
# ...
2506.6     13.2139    3.3935     12.1611    23.8232    29.3924    15.7783    13.1805    17.1438    0.602      65.191    
2506.8     13.1425    3.5515     12.6144    24.3505    32.4857    15.5086    12.4597    17.0545    0.606      65.4927   
2507       12.9464    3.5751     12.9216    25.2602    35.6487    15.603     14.085     17.1835    0.596      64.0117   
2507.2     12.7253    3.6984     13.495     26.6989    39.0266    16.1556    16.2874    17.6779    0.595      66.5326   
2507.4     12.4148    3.7339     14.0378    29.417     43.5825    17.08      15.1548    18.4449    0.583      71.4156   
2507.6     12.0113    3.9061     15.25      32.4129    48.8349    18.3315    16.5915    19.1694    0.576      73.1427   
2507.8     11.5829    4.018      15.9071    35.1941    54.3187    19.4       22.3981    19.6944    0.567      70.6233   
2508       10.832     4.2554     17.0773    37.2838    58.0154    19.7352    9.5339     19.3721    0.57       66.6227   
2508.2     10.1252    4.7224     18.408     36.9888    57.2827    19.2519    6.1585     18.008     0.591      64.7624   
2508.4     9.5659     4.2165     16.0087    33.371     50.3774    18.0483    6.3452     16.0122    0.588      65.6861   
2508.6     9.0547     3.6917     14.1182    28.3252    41.2939    15.9522    6.6573     14.1386    0.585      67.597    
2508.8     8.7317     3.3645     12.8196    24.9249    35.111     13.5542    6.6934     12.7549    0.591      71.6045   
2509       8.5045     3.239      12.0348    22.4509    30.5028    11.6699    6.5269     11.7336    0.596      77.1637   
2509.2     8.3052     3.1693     11.0621    20.2671    26.6471    10.2606    6.0298     11.033     0.596      80.4119   
2509.4     8.1863     3.037      10.0007    18.3156    23.3234    9.1324     6.4698     10.6932    0.596      80.8752   
2509.6     8.0367     2.9263     9.3724     16.8402    20.5513    8.1898     6.9176     10.4955    0.596      79.4785   
2509.8     7.9172     2.9115     9.2215     16.0665    18.592     7.4147     6.3939     10.4336    0.587      77.2099   
2510       7.811      2.9245     9.1924     15.5576    17.0487    6.8607     6.0299     10.5603    0.57       75.8211   
2510.2     7.7054     2.9117     8.9526     15.0892    15.7001    6.4677     6.5768     10.9166    0.572      74.3904   
2510.4     7.5991     2.8453     8.7747     14.5367    14.5042    6.1531     7.4706     11.1607    0.565      72.6765   
2510.6     7.5339     2.8437     8.7338     13.983     13.6054    5.8293     7.3884     10.9767    0.582      72.1187   
2510.8     7.4377     2.9236     8.7987     13.4213    12.6961    5.5624     5.8302     10.4639    0.579      72.7924   
2511       7.3152     2.9373     8.5292     12.6403    11.6814    5.4458     5.6329     10.1765    0.586      71.6624   
2511.2     7.156      2.8574     8.0445     11.7547    10.7245    5.236      6.1117     10.2286    0.588      66.4731   
2511.4     7.0279     2.7629     7.8704     11.0055    10.0664    4.9253     5.5838     10.4607    0.593      62.0356   
2511.6     7.0171     2.6683     7.6062     10.3435    9.6066     4.7078     5.3627     10.7788    0.581      62.1826   
2511.8     7.1233     2.5728     7.2163     9.7749     9.4095     4.5493     6.3542     11.3881    0.565      62.6677   
2512       7.2557     2.3802     6.6894     9.4954     9.664      4.5436     7.182      12.3722    0.553      59.5365   
2512.2     7.4756     2.3616     6.6777     9.5453     10.4036    4.7062     8.2584     13.1821    0.569      55.2956   
2512.4     7.7687     2.4427     6.838      9.9148     11.5266    5.0742     9.3884     13.6726    0.581      54.0673   
2512.6     7.9941     2.6046     7.2404     10.543     12.7394    5.5494     9.6686     14.0603    0.583      56.2072   
2512.8     8.0823     2.7682     7.6855     11.2938    14.0423    6.1965     8.8859     14.3994    0.574      59.137    
2513       8.0639     3.0195     8.357      11.9863    15.3079    7.1003     7.6021     14.7465    0.587      60.9205   
2513.2     7.9842     3.0973     8.8699     12.542     16.9344    8.6374     6.4333     15.5827    0.586      62.3269   
2513.4     7.912      2.9897     9.0016     13.4057    19.8618    10.4369    7.0209     17.4246    0.563      65.3991   
2513.6     7.8494     2.8239     9.2651     15.1426    24.2835    11.8438    9.1016     20.5702    0.561      67.5362   
2513.8     7.8776     3.0003     10.4324    16.237     26.4714    12.7142    7.4509     22.1195    0.577      67.4849   
2514       8.2184     2.9177     9.9227     15.7072    24.5114    12.8399    7.2205     21.096     0.564      68.6609   
2514.2     8.6483     2.7948     8.9162     13.9425    20.3179    11.8664    7.8033     18.8746    0.583      68.1397   
2514.4     8.9539     2.72       8.2894     12.8597    17.2614    10.3057    8.567      17.6241    0.571      61.0064   
2514.6     9.1572     2.8116     8.3973     12.4291    15.3851    9.231      9.1223     17.0568    0.562      52.4894   
2514.8     9.2742     2.9036     8.7898     12.4734    14.2488    8.4808     10.3163    16.8128    0.541      50.4127   
2515       9.3802     3.061      9.5421     12.4499    13.1301    8.106      10.868     16.4195    0.536      53.4795   
2515.2     9.4138     3.0108     9.4309     12.5408    12.1907    7.769      10.6025    15.5288    0.555      56.5955   
2515.4     9.2461     3.312      10.32      12.6877    11.3736    7.3499     6.6941     14.6655    0.583      56.5837   
2515.6     9.0216     3.5157     10.7658    12.781     10.5855    7.0079     5.8431     14.1991    0.585      54.3729   
2515.8     8.8551     3.1574     9.7878     12.3375    9.3743     6.8234     6.1948     14.2934    0.566      52.4903   
2516       8.7777     2.9223     9.3394     12.148     8.4637     6.5918     7.1941     14.8825    0.554      51.0435   
2516.2     8.8703     2.6485     8.7734     12.3287    8.0959     6.598      8.7769     15.2423    0.561      49.3119   
2516.4     9.1073     2.6465     8.7105     12.6104    8.1055     6.9001     8.4189     14.6112    0.582      48.504    
2516.6     9.3584     2.8105     8.8172     13.0203    8.3744     7.3936     9.1205     14.0389    0.588      47.3762   
2516.8     9.5534     2.8808     8.6403     13.3916    8.7065     7.9265     8.4062     13.8648    0.583      43.4801   
2517       9.7882     2.9483     8.7595     13.5625    8.9982     8.388      8.8151     13.9651    0.561      40.7892   
2517.2     10.0436    2.8384     8.6177     13.7695    9.4639     8.8658     11.2214    14.0335    0.556      41.7481   
2517.4     10.3119    2.8462     9.0494     14.2019    10.1944    9.3704     13.2804    13.8203    0.573      44.857    
2517.6     10.4935    3.0077     9.8054     14.9239    11.3537    9.8999     13.9048    13.1739    0.567      47.1741   
2517.8     10.5596    3.2806     10.6779    15.7751    12.977     10.4085    13.836     12.109     0.585      46.6719   
2518       10.3357    3.5673     11.5921    16.6892    15.0218    10.8913    12.9245    11.0702    0.573      46.2165   
2518.2     9.917      3.8132     12.4592    17.7014    17.1395    11.2967    8.7642     10.3378    0.58       47.0499   
2518.4     9.2871     4.0466     13.5079    18.5434    18.143     12.0335    4.4253     9.7809     0.594      48.3729   
2518.6     8.7546     4.1448     13.4454    17.8977    17.8313    13.3648    4.2813     9.9134     0.585      48.5998   
2518.8     8.4182     3.3854     10.9233    15.9614    17.159     15.1753    6.6781     11.4817    0.554      47.1133   
2519       8.2687     2.7306     9.4007     14.89      17.7024    17.707     7.6756     14.2315    0.567      47.1972   
2519.2     8.3021     2.5558     9.0295     15.116     19.5182    21.2141    8.6509     16.656     0.585      49.8191   
2519.4     8.4019     2.6982     9.1591     16.1242    22.2228    25.3279    8.6611     18.1816    0.578      51.497    
2519.6     8.2785     2.9933     9.6321     18.0757    26.0247    27.5773    7.349      19.3473    0.562      51.2772   
2519.8     8.0207     3.2724     10.5312    20.3622    29.0155    27.6873    5.4402     20.9577    0.585      51.0101   
