~Version
 VERS              .         2.0                           : CWLS LOG ASCII STANDARD - VERSION 2.0
 WRAP              .         NO                            : ONE LINE PER DEPTH STEP
 DLM               .         SPACE                         : DELIMITING CHARACTER(SPACE TAB OR COMMA)
~Well Information
#_______________________________________________________________________________
#
#PARAMETER_NAME    .UNIT     VALUE                         : DESCRIPTION
#_______________________________________________________________________________
STRT               .m        2469                          : First reference value
STOP               .m        2690                          : Last reference value
STEP               .m        0.2                           : Step increment
NULL               .         -9999                         : Missing value
COMP               .                                       : Company
WELL               .         101                           : Well name
FLD                .                                       : Field
LOC                .                                       : Location
CNTY               .                                       : County
STAT               .                                       : State
CTRY               .                                       : Country
SRVC               .                                       : Service Company
DATE               .                                       : Date
API                .                                       : API number
LONG               .dega     2.0616605265                  : 
HZCS               .GCS_WGS_1984 World_Mercator                : 
Cartographic_reference_system .         GCS_WGS_1984                  : 
Куст               .         1                             : 
EREF               .m        137.7                         : 
group              .         Pad1                          : 
Тип                .         Разведка                      : 
Статус             .         Не проверено                  : 
LATI               .dega     2.1710182041                  : 
Интер-р            .         Пузин                         : 
Pad                .         1                             : 
~Parameter Information Block
#_______________________________________________________________________________
#
#PARAMETER_NAME    .UNIT     VALUE                         : DESCRIPTION
#_______________________________________________________________________________
SET                .         LAS4                          : 
REAL_CREATION_DATE .         Wed Apr 11 2012-13_17_06      : 
TLFamily_RK20      .         Resistivity 20                : 
TLFamily_RK10      .         Resistivity 10                : 
group              .         INI                           : 
TLFamily_DF20      .         Phase difference 20           : 
TLFamily_DF10      .         Phase difference 10           : 
TLFamily_RK05      .         Resistivity 05                : 
TLFamily_DF05      .         Phase difference 05           : 
TLFamily_RK07      .         Resistivity 07                : 
TLFamily_RK14      .         Resistivity 14                : 
TLFamily_DF07      .         Phase difference 07           : 
TLFamily_DF14      .         Phase difference 14           : 
TLFamily_MD        .         Measured Depth                : 
~Curve Information
#_______________________________________________________________________________
#
#LOGNAME           .UNIT     LOG_ID                        : DESCRIPTION
#_______________________________________________________________________________
MD                 .m                                      : 1 Depth 
DF05               .Ohmm                                   : 2 Induction Log, shift 
DF07               .Ohmm                                   : 3 Induction Log, shift 
DF10               .Ohmm                                   : 4 Induction Log, shift 
DF14               .Ohmm                                   : 5 Induction Log, shift 
DF20               .mS/m                                   : 6 Induction Log, shift 
RK05               .Ohmm                                   : 7 Induction Log, Resistivity 
RK07               .Ohmm                                   : 8 Induction Log, Resistivity 
RK10               .Ohmm                                   : 9 Induction Log, Resistivity 
RK14               .Ohmm                                   : 10 Induction Log, Resistivity 
RK20               .Ohmm                                   : 11 Induction Log, Resistivity 
~Ascii
2469.0     27.0513    8.6891     27.1313    0          0          2.8249     60000004   1.9502     60004708   100000000 
2469.2     24.3834    21.5307    14.8095    0          0          2.7141     3.4244     8.7743     100000000  100000000 
2469.4     24.5322    22.4763    7.0058     0          0          2.6508     3.1875     35.8495    100000000  100000000 
2469.6     24.0129    22.2229    20.9036    0          0          3.0542     3.3241     3.6973     40151336   100000000 
2469.8     21.7606    20.6079    19.823     8.8769     0          3.4817     3.8074     4.0946     102.5868   100000000 
2470       21.4813    20.1101    18.8509    19.1868    0          3.5183     3.9499     4.4424     4.2837     100000000 
2470.2     21.3837    20.0436    18.3979    18.9737    0          3.4695     3.9577     4.5966     4.3666     100000000 
2470.4     21.9134    20.27      18.5625    18.3878    7.4932     3.3417     3.8852     4.5434     4.6031     60000004  
2470.6     22.0009    20.1973    18.2384    18.1198    18.5307    3.3249     3.918      4.6657     4.7162     4.5444    
2470.8     22.2801    20.6532    18.0545    17.7923    17.9411    3.2829     3.7481     4.7478     4.8588     4.7934    
2471       22.167     20.5474    18.2002    17.4748    17.6324    3.551      3.8266     4.7055     5.002      4.9306    
2471.2     20.101     20.7135    17.9462    17.0954    17.3365    3.7722     3.6775     4.8212     5.1796     5.0659    
2471.4     21.0962    22.9877    18.6469    17.4433    17.2437    3.5356     3.0474     4.4108     5.0172     5.1093    
2471.6     22.0912    23.9661    20.7898    17.7411    17.6006    3.2401     2.7976     3.6852     4.8834     4.9448    
2471.8     22.5303    24.1992    21.12      18.8689    17.9035    3.1991     2.7522     3.6113     4.4078     4.8105    
2472       22.1665    23.9747    21.0213    18.9398    18.087     3.3168     2.8177     3.6502     4.3797     4.7303    
2472.2     22.0606    23.6724    20.862     18.6581    18.2783    3.3884     2.8975     3.7078     4.4922     4.6491    
2472.4     21.9159    23.4304    20.7694    18.6691    18.1205    3.2804     2.9238     3.7131     4.4877     4.7158    
2472.6     22.5387    24.0956    21.1426    18.937     18.0706    3.1137     2.7614     3.5899     4.3808     4.7372    
2472.8     22.6319    24.1179    21.1194    18.8651    18.0617    3.1989     2.7939     3.6389     4.4093     4.7411    
2473       22.1455    23.2147    20.0258    18.0689    17.6495    3.7358     3.0819     4.0602     4.7404     4.9231    
2473.2     15.7769    18.4466    16.834     16.0849    16.5305    6.1632     4.7554     5.4038     5.6984     5.4599    
2473.4     20.0141    22.1891    18.8777    17.0054    16.6984    3.373      3.1542     4.2209     5.2459     5.3776    
2473.6     23.6982    25.7435    22.2028    19.8817    18.7149    2.8497     2.4078     3.2657     4.0275     4.4739    
2473.8     24.0189    25.8912    22.4518    20.3989    19.7392    2.8544     2.3846     3.2152     3.8451     4.0775    
2474       23.6783    25.2785    22.248     20.2814    19.7955    2.8935     2.4981     3.2565     3.8854     4.057     
2474.2     23.4887    25.3167    22.5387    20.3288    19.783     2.9326     2.4867     3.1893     3.8691     4.0615    
2474.4     23.0592    25.0132    22.4709    20.42      19.8974    3.0988     2.5822     3.234      3.8379     4.0203    
2474.6     23.1177    24.7937    22.2491    20.3157    19.7264    2.9612     2.595      3.25       3.8737     4.0821    
2474.8     23.2996    24.9779    22.2878    20.4156    19.7636    3.0175     2.5766     3.2737     3.8395     4.0685    
2475       22.8027    24.7385    21.9026    20.1122    19.7377    3.1454     2.6351     3.372      3.9443     4.078     
2475.2     22.8079    24.736     21.8064    19.9144    19.367     3.0885     2.6254     3.3929     4.0143     4.2152    
2475.4     22.9265    24.7854    21.8281    19.8236    19.2678    3.077      2.6179     3.3921     4.0469     4.2528    
2475.6     22.9099    24.7726    21.7382    19.7235    19.2505    3.1299     2.6253     3.4151     4.0831     4.2593    
2475.8     22.644     24.3967    21.6738    19.7448    19.2343    3.1016     2.6998     3.4327     4.0754     4.2655    
2476       23.2868    24.7714    21.9547    19.8253    19.3319    3.1203     2.6346     3.3716     4.0462     4.2284    
2476.2     21.9914    23.6608    21.1422    19.4423    19.2887    3.269      2.8598     3.6005     4.1872     4.2448    
2476.4     22.4213    24.2183    21.4383    19.4063    19.1112    3.2244     2.748      3.5042     4.2004     4.3128    
2476.6     21.9122    23.725     21.2327    19.4109    19.1025    3.4596     2.8954     3.589      4.1987     4.3162    
2476.8     22.2717    23.92      21.3073    19.4399    19.1246    3.1041     2.7766     3.5057     4.1882     4.3076    
2477       22.727     24.6462    21.9014    19.8553    19.3469    3.1168     2.6463     3.3642     4.0355     4.2228    
2477.2     22.602     24.6958    21.8662    19.8876    19.4518    3.2463     2.6584     3.3862     4.0239     4.1834    
2477.4     22.5512    24.5121    21.8246    19.8564    19.4565    3.1243     2.6662     3.374      4.0351     4.1816    
2477.6     22.9451    24.6902    22.1231    19.9938    19.525     3.1032     2.6374     3.3041     3.9861     4.1561    
2477.8     22.5811    24.6021    21.951     19.9905    19.5326    3.1477     2.6495     3.3495     3.9872     4.1532    
2478       22.8895    24.8696    22.1347    20.1007    19.5897    3.0576     2.5908     3.2935     3.9483     4.1321    
2478.2     23.0304    24.9359    22.177     20.2064    19.6298    3.071      2.5893     3.2933     3.9114     4.1174    
2478.4     22.768     24.6666    21.8655    20.0178    19.5555    3.1187     2.6457     3.3789     3.9776     4.1448    
2478.6     23.0485    24.9205    21.9543    19.9538    19.4809    3.0365     2.5747     3.3482     4.0002     4.1725    
2478.8     23.0561    24.9802    22.0427    20.0478    19.5199    3.0445     2.5666     3.3217     3.967      4.158     
2479       22.7153    24.6586    21.7521    19.8105    19.4405    3.1914     2.6527     3.4227     4.0516     4.1876    
2479.2     22.7649    24.7037    21.8749    19.9234    19.4315    3.011      2.6103     3.3629     4.0112     4.1909    
2479.4     23.0877    25.0855    22.1278    20.1305    19.5779    3.0588     2.5589     3.3043     3.9378     4.1365    
2479.6     23.454     25.4449    22.3067    20.3051    19.7526    2.9124     2.4601     3.2339     3.8776     4.0726    
2479.8     23.6277    25.5248    22.6518    20.5211    19.9896    2.8946     2.4471     3.1523     3.8037     3.9876    
2480       23.5132    25.437     22.5894    20.582     20.0493    2.9037     2.4647     3.1727     3.7832     3.9664    
2480.2     23.5335    25.5035    22.5391    20.5621    20.0423    2.9958     2.4716     3.195      3.7899     3.9688    
2480.4     23.3037    25.1508    22.3629    20.4843    20.0258    2.8835     2.5046     3.2161     3.8161     3.9747    
2480.6     23.7065    25.6379    22.7705    20.708     20.0366    2.8904     2.4328     3.1277     3.7412     3.9709    
2480.8     23.6835    25.5407    22.6176    20.6735    20.1488    2.901      2.4546     3.1707     3.7527     3.9314    
2481       23.329     25.1334    22.2622    20.4341    19.9538    3.0245     2.5479     3.2705     3.8332     4.0002    
2481.2     23.0004    24.8151    22.0059    20.2769    19.9167    3.0226     2.6013     3.3325     3.887      4.0134    
2481.4     23.2318    25.0618    22.149     20.3737    19.8191    3.0513     2.5595     3.2941     3.8537     4.0485    
2481.6     22.9155    24.8021    22.0269    20.2714    19.8148    3.0051     2.5957     3.3173     3.8889     4.05      
2481.8     23.3176    25.2596    22.2532    20.2847    19.8441    2.9837     2.5175     3.2676     3.8843     4.0395    
2482       23.4674    25.4597    22.2645    20.3747    19.9182    2.924      2.4647     3.253      3.8534     4.0129    
2482.2     23.4519    25.3856    22.3288    20.3178    19.9034    2.9331     2.4849     3.2428     3.8729     4.0182    
