~Version
 VERS              .         2.0                           : CWLS LOG ASCII STANDARD - VERSION 2.0
 WRAP              .         NO                            : ONE LINE PER DEPTH STEP
 DLM               .         SPACE                         : DELIMITING CHARACTER(SPACE TAB OR COMMA)
~Well Information
#_______________________________________________________________________________
#
#PARAMETER_NAME    .UNIT     VALUE                         : DESCRIPTION
#_______________________________________________________________________________
STRT               .m        2469                          : First reference value
STOP               .m        2690                          : Last reference value
STEP               .m        0.2                           : Step increment
NULL               .         -9999                         : Missing value
COMP               .                                       : Company
WELL               .         101                           : Well name
FLD                .                                       : Field
LOC                .                                       : Location
CNTY               .                                       : County
STAT               .                                       : State
CTRY               .                                       : Country
SRVC               .                                       : Service Company
DATE               .                                       : Date
API                .                                       : API number
LONG               .dega     2.0616605265                  : 
HZCS               .GCS_WGS_1984 World_Mercator                : 
Cartographic_reference_system .         GCS_WGS_1984                  : 
Куст               .         1                             : 
EREF               .m        137.7                         : 
group              .         Pad1                          : 
Тип                .         Разведка                      : 
Статус             .         Не проверено                  : 
LATI               .dega     2.1710182041                  : 
Интер-р            .         Пузин                         : 
Pad                .         1                             : 
~Parameter Information Block
#_______________________________________________________________________________
#
#PARAMETER_NAME    .UNIT     VALUE                         : DESCRIPTION
#_______________________________________________________________________________
SET                .         LAS4                          : 
REAL_CREATION_DATE .         Wed Apr 11 2012-13_17_06      : 
TLFamily_RK20      .         Resistivity 20                : 
TLFamily_RK10      .         Resistivity 10                : 
group              .         INI                           : 
TLFamily_DF20      .         Phase difference 20           : 
TLFamily_DF10      .         Phase difference 10           : 
TLFamily_RK05      .         Resistivity 05                : 
TLFamily_DF05      .         Phase difference 05           : 
TLFamily_RK07      .         Resistivity 07                : 
TLFamily_RK14      .         Resistivity 14                : 
TLFamily_DF07      .         Phase difference 07           : 
TLFamily_DF14      .         Phase difference 14           : 
TLFamily_MD        .         Measured Depth                : 
~Curve Information
#_______________________________________________________________________________
#
#LOGNAME           .UNIT     LOG_ID                        : DESCRIPTION
#_______________________________________________________________________________
MD                 .m                                      : 1 Depth 
DF05               .Ohmm                                   : 2 Induction Log, shift 
DF07               .Ohmm                                   : 3 Induction Log, shift 
DF10               .Ohmm                                   : 4 Induction Log, shift 
DF14               .Ohmm                                   : 5 Induction Log, shift 
DF20               .mS/m                                   : 6 Induction Log, shift 
RK05               .Ohmm                                   : 7 Induction Log, Resistivity 
RK07               .Ohmm                                   : 8 Induction Log, Resistivity 
RK10               .Ohmm                                   : 9 Induction Log, Resistivity 
RK14               .Ohmm                                   : 10 Induction Log, Resistivity 
RK20               .Ohmm                                   : 11 Induction Log, Resistivity 
~Ascii
# ...
2641.6     20.9267    24.9532    25.4763    21.5216    19.0554    2.5382     2.3797     2.3373     3.4856     4.3345    
2641.8     33.8441    37.6856    29.4624    22.3483    18.9274    2.2918     1.3547     2.1222     3.2563     4.3886    
2642       21.3792    21.7775    18.1491    17.8531    17.5804    3.4212     3.3445     4.5487     4.8503     4.9552    
2642.2     22.6912    24.6414    20.6095    18.7205    17.112     3.1624     2.6204     3.7528     4.4673     5.1776    
2642.4     21.5919    24.8644    20.4109    18.6809    17.8195    3.5725     2.5851     3.8329     4.4838     4.8468    
2642.6     21.4324    23.8872    20.9829    18.3679    17.7059    3.5553     2.8578     3.6346     4.6114     4.8972    
2642.8     20.9376    22.8636    21.5618    18.3177    17.535     3.6402     3.085      3.4962     4.6323     4.9746    
2643       20.9646    22.5311    20.2478    17.8489    17.1167    3.6656     3.2033     3.9438     4.8341     5.1696    
2643.2     20.3991    22.0445    19.5523    17.655     16.7134    4.0002     3.3617     4.1746     4.92       5.367     
2643.4     19.9268    21.6965    19.2865    17.5979    16.5083    3.9809     3.417      4.2197     4.9458     5.4701    
2643.6     20.1742    22.2764    20.0784    17.9817    16.8223    3.8371     3.2155     3.9254     4.7762     5.3133    
2643.8     20.7833    23.0001    20.4697    18.4076    17.4635    3.7601     3.0712     3.844      4.5948     5.0074    
2644       20.5029    22.7804    20.2711    18.291     17.3724    3.8109     3.0762     3.8546     4.6436     5.0491    
2644.2     21.0751    24.4051    21.2762    18.621     17.1755    3.4518     2.6571     3.5608     4.5071     5.1414    
2644.4     20.8577    23.7576    21.4087    18.5583    17.1012    3.9226     2.9089     3.6099     4.533      5.177     
2644.6     19.9843    23.3688    20.6956    17.7918    16.6551    3.8799     2.9428     3.752      4.8603     5.396     
2644.8     21.6904    24.9034    20.5778    17.4104    16.1404    3.2614     2.5903     3.811      5.0316     5.6628    
2645       22.0009    24.0621    19.3035    16.8838    15.8029    3.3497     2.7939     4.2412     5.2835     5.8472    
2645.2     21.8858    24.5117    19.7385    16.7476    15.7387    3.3604     2.6875     4.064      5.3495     5.8831    
2645.4     22.8491    24.5765    19.8471    16.7618    15.8433    2.9061     2.658      4.0341     5.3429     5.8246    
2645.6     25.5987    24.5733    19.8696    16.2477    15.5583    2.4011     2.6781     4.0357     5.6063     5.986     
2645.8     25.01      22.6681    19.5794    16.3807    15.6362    2.9        3.1305     4.1501     5.5383     5.9412    
2646       21.3755    20.1935    18.237     16.4076    15.4384    3.6898     4.0105     4.7854     5.5259     6.0559    
2646.2     20.8044    18.7093    16.668     15.0313    14.824     3.4365     4.3896     5.3612     6.2998     6.43      
2646.4     22.2881    20.6443    17.5572    15.5405    14.8725    3.3475     3.7386     4.957      5.9977     6.3991    
2646.6     20.8152    21.2355    17.3856    15.5769    15.0254    3.9401     3.5679     5.0612     5.9756     6.3035    
2646.8     20.2992    21.3648    17.465     15.2661    14.9087    3.9601     3.5196     4.9829     6.1571     6.3762    
2647       19.4583    20.9468    17.9449    15.4196    14.8818    4.096      3.6476     4.7653     6.0664     6.3931    
2647.2     19.3307    20.7019    18.3475    15.7023    15.0069    4.4276     3.8007     4.6469     5.9036     6.315     
2647.4     18.9265    20.208     18.3375    16.2073    15.2379    4.327      3.8579     4.5697     5.6285     6.1747    
2647.6     19.0871    20.9575    19.1493    16.9501    15.5564    4.1844     3.6313     4.3035     5.2499     5.9869    
2647.8     20.0702    21.7797    19.1468    16.6958    15.4784    4.0277     3.4338     4.3315     5.3763     6.0328    
2648       19.6582    20.4308    17.8296    15.6174    14.6442    4.3986     3.8738     4.9062     5.955      6.5469    
2648.2     13.7738    16.1073    15.192     13.9164    13.6994    8.2961     5.9925     6.4052     7.0523     7.2081    
2648.4     17.5841    19.3428    16.9874    14.8016    13.9947    4.0551     4.0542     5.0317     6.4665     6.9932    
2648.6     19.8198    20.9195    18.7032    16.5537    15.2556    4.7265     3.8067     4.5764     5.4474     6.1675    
2648.8     16.172     18.0808    17.0577    15.8913    15.4915    5.4254     4.6686     5.1609     5.798      6.0245    
2649       18.0868    20.4858    18.3169    16.4368    15.4787    4.5245     3.7836     4.601      5.5078     6.0319    
2649.2     19.3631    21.3402    18.6042    16.3543    15.5877    4.0984     3.5512     4.5428     5.5509     5.9691    
2649.4     19.6093    21.0199    18.0769    15.5847    15.1289    4.3093     3.6769     4.7507     5.9708     6.2408    
2649.6     18.2935    20.1198    17.7714    15.4252    14.8404    4.8148     3.9551     4.8608     6.063      6.4193    
2649.8     17.9174    20.0756    18.0095    15.8534    15.1214    4.5845     3.9391     4.752      5.8196     6.2456    
2650       20.2241    21.5789    18.6405    16.4702    15.4996    3.7512     3.4161     4.4749     5.49       6.0198    
2650.2     19.8718    20.8161    18.1458    16.3342    15.5057    4.1432     3.7309     4.7678     5.5611     6.0161    
2650.4     19.539     20.9116    17.93      16.2869    15.7133    4.0463     3.6375     4.7525     5.5858     5.8982    
2650.6     19.9419    21.4716    18.9567    17.4045    16.7209    4.1701     3.4877     4.3421     5.0363     5.3667    
2650.8     18.4095    20.3708    18.8633    17.9656    17.8343    4.4818     3.8376     4.424      4.7829     4.8407    
2651       20.1762    22.0182    19.8038    18.3743    18.4398    4.2824     3.354      4.0426     4.6101     4.5817    
2651.2     18.3633    20.9685    19.8266    18.9926    18.9685    4.0978     3.5331     3.9751     4.3595     4.3692    
2651.4     22.1251    25.5792    23.0453    20.6602    19.6777    2.9926     2.3797     2.9772     3.761      4.1007    
2651.6     24.2373    27.25      24.4017    21.6313    20.0772    2.689      2.1093     2.7265     3.4484     3.9568    
2651.8     22.9995    25.6393    22.6095    20.0547    18.8073    3.5126     2.5615     3.2776     3.9727     4.4377    
2652       19.6116    21.6109    19.3403    17.4822    16.74      4.2695     3.5404     4.287      5.0044     5.3586    
2652.2     18.6586    20.2988    18.0148    16.2483    15.4706    4.7953     3.9095     4.792      5.6065     6.0376    
2652.4     18.231     19.4477    17.425     15.8731    15.0498    4.4356     4.1821     5.0329     5.8081     6.2884    
2652.6     19.8775    20.1621    17.3796    15.8317    15.1566    3.8671     3.8919     5.0314     5.831      6.2231    
2652.8     19.41      19.9333    16.936     15.409     15.0517    4.5869     4.1056     5.3482     6.0767     6.2874    
2653       17.6462    18.3172    15.4752    14.1845    14.7421    4.8429     4.6239     6.0337     6.8567     6.4829    
2653.2     18.7071    19.2815    16.0698    14.236     14.4534    4.2576     4.1971     5.6492     6.8204     6.6717    
2653.4     19.6535    20.4437    17.0586    14.7777    14.4753    4.0937     3.8146     5.1742     6.4597     6.6578    
2653.6     20.2882    21.2569    17.6695    15.282     14.8276    3.6938     3.5186     4.8616     6.1486     6.4276    
2653.8     21.4171    22.3382    18.6638    15.8928    15.1161    3.8962     3.2637     4.4914     5.7973     6.248     
2654       17.0603    18.8283    17.0597    15.4109    14.8952    5.1127     4.3405     5.2042     6.0725     6.3851    
2654.2     19.289     21.578     18.3688    15.4884    14.6073    4.2149     3.5669     4.6575     6.0278     6.5698    
2654.4     19.6401    20.7742    17.6054    15.5597    14.5962    4.0823     3.7077     4.9123     5.9849     6.5768    
2654.6     19.2389    20.322     17.6778    15.7206    14.6159    4.4508     3.9227     4.9245     5.8932     6.564     
2654.8     19.8035    20.1439    17.7822    15.7601    14.6928    4.021      3.8604     4.8205     5.8713     6.5139    
