~Version
 VERS              .         2.0                           : CWLS LOG ASCII STANDARD - VERSION 2.0
 WRAP              .         NO                            : ONE LINE PER DEPTH STEP
 DLM               .         SPACE                         : DELIMITING CHARACTER(SPACE TAB OR COMMA)
~Well Information
#_______________________________________________________________________________
#
#PARAMETER_NAME    .UNIT     VALUE                         : DESCRIPTION
#_______________________________________________________________________________
STRT               .m        2469                          : First reference value
STOP               .m        2690                          : Last reference value
STEP               .m        0.2                           : Step increment
NULL               .         -9999                         : Missing value
COMP               .                                       : Company
WELL               .         101                           : Well name
FLD                .                                       : Field
LOC                .                                       : Location
CNTY               .                                       : County
STAT               .                                       : State
CTRY               .                                       : Country
SRVC               .                                       : Service Company
DATE               .                                       : Date
API                .                                       : API number
LONG               .dega     2.0616605265                  : 
HZCS               .GCS_WGS_1984 World_Mercator                : 
Cartographic_reference_system .         GCS_WGS_1984                  : 
Куст               .         1                             : 
EREF               .m        137.7                         : 
group              .         Pad1                          : 
Тип                .         Разведка                      : 
Статус             .         Не проверено                  : 
LATI               .dega     2.1710182041                  : 
Интер-р            .         Пузин                         : 
Pad                .         1                             : 
~Parameter Information Block
#_______________________________________________________________________________
#
#PARAMETER_NAME    .UNIT     VALUE                         : DESCRIPTION
#_______________________________________________________________________________
SET                .         LAS3                          : 
TLFamily_GR        .         Russian Gamma Ray             : 
REAL_CREATION_DATE .         Wed Apr 11 2012-13_17_06      : 
TLFamily_NKT       .         Neutron Far                   : 
group              .         INI                           : 
TLFamily_TNPH      .         Neutron Porosity              : 
TLFamily_NKM       .         Neutron Near                  : 
TLFamily_MD        .         Measured Depth                : 
~Curve Information
#_______________________________________________________________________________
#
#LOGNAME           .UNIT     LOG_ID                        : DESCRIPTION
#_______________________________________________________________________________
MD                 .m                                      : 1 Depth 
GR                 .uR/h                                   : 4 Gamma-Ray 
NKM                .UE                                     : 3 Near Thermal Neutron Logging 
NKT                .UE                                     : 2 Far Thermal Neutron Logging 
TNPH               .v/v                                    : 5 Hydrogen Content 
~Ascii
# ...
2644.2     11.705     1.782      3.677      0.284     
2644.4     11.774     1.713      3.567      0.279     
2644.6     12.209     1.68       3.482      0.275     
2644.8     12.542     1.681      3.557      0.258     
2645       12.361     1.688      3.755      0.241     
2645.2     11.685     1.698      3.856      0.242     
2645.4     11.026     1.71       3.786      0.252     
2645.6     10.257     1.706      3.762      0.252     
2645.8     9.783      1.642      3.666      0.263     
2646       9.7        1.521      3.279      0.274     
2646.2     10.396     1.555      3.243      0.25      
2646.4     11.446     1.749      3.81       0.226     
2646.6     11.498     1.836      4.443      0.207     
2646.8     11.365     1.843      4.595      0.206     
2647       11.114     1.898      4.708      0.203     
2647.2     10.603     1.919      4.85       0.202     
2647.4     10.003     1.915      4.861      0.198     
2647.6     9.964      1.927      4.913      0.195     
2647.8     9.577      1.978      5.061      0.194     
2648       8.944      2.039      5.192      0.201     
2648.2     8.873      2.055      5.133      0.209     
2648.4     9.261      2.061      5.021      0.211     
2648.6     9.25       2.02       5.093      0.207     
2648.8     10.03      1.906      4.902      0.207     
2649       11.617     1.785      4.595      0.2       
2649.2     11.929     1.807      4.599      0.194     
2649.4     11.666     1.897      4.816      0.193     
2649.6     11.391     1.944      5.041      0.191     
2649.8     11.276     1.966      5.115      0.191     
2650       10.626     1.993      5.16       0.196     
2650.2     10.089     2.027      5.054      0.212     
2650.4     10.175     2.024      4.908      0.219     
2650.6     10.619     1.98       4.826      0.221     
2650.8     10.139     1.93       4.6        0.228     
2651       8.935      1.953      4.638      0.21      
2651.2     8.414      2.092      5.148      0.194     
2651.4     8.388      2.188      5.745      0.179     
2651.6     8.532      2.21       6.068      0.176     
2651.8     8.975      2.176      5.982      0.182     
2652       10.496     2.059      5.655      0.187     
2652.2     11.977     1.893      5.139      0.198     
2652.4     12.68      1.783      4.551      0.215     
2652.6     13.239     1.717      4.184      0.219     
2652.8     13.359     1.674      4.15       0.208     
2653       13.683     1.685      4.137      0.218     
2653.2     13.421     1.707      3.952      0.24      
2653.4     13.349     1.735      3.851      0.251     
2653.6     13.482     1.752      3.801      0.257     
2653.8     13.354     1.757      3.915      0.236     
2654       12.618     1.771      4.186      0.214     
2654.2     11.859     1.819      4.532      0.196     
2654.4     11.54      1.883      4.826      0.193     
2654.6     11.511     1.893      4.918      0.194     
2654.8     11.576     1.895      4.9        0.195     
2655       11.353     1.931      4.961      0.189     
2655.2     10.321     2.005      5.318      0.176     
2655.4     9.796      2.08       5.645      0.177     
2655.6     9.676      2.107      5.64       0.19      
2655.8     10.744     1.954      5.068      0.211     
2656       10.703     1.854      4.582      0.22      
2656.2     9.866      1.829      4.447      0.211     
2656.4     8.185      1.854      4.571      0.209     
2656.6     7.127      1.867      4.583      0.219     
2656.8     6.69       1.742      4.185      0.257     
2657       5.448      1.429      3.217      0.304     
2657.2     3.43       1.178      2.376      0.326     
2657.4     2.511      1.099      2.056      0.336     
2657.6     2.579      1.095      1.931      0.347     
2657.8     3.482      1.103      1.925      0.345     
2658       4.576      1.103      1.948      0.348     
2658.2     5.548      1.115      1.958      0.342     
2658.4     7.103      1.149      2.033      0.339     
2658.6     8.416      1.204      2.1        0.341     
2658.8     9.128      1.294      2.291      0.315     
2659       9.789      1.427      2.642      0.302     
2659.2     10.012     1.51       2.935      0.285     
2659.4     10.667     1.528      3.218      0.251     
2659.6     11.856     1.684      3.788      0.23      
2659.8     12.465     1.838      4.312      0.21      
2660       12.754     1.875      4.633      0.214     
2660.2     12.647     1.89       4.531      0.221     
2660.4     12.26      1.892      4.586      0.21      
2660.6     11.747     1.923      4.738      0.207     
2660.8     10.778     1.982      4.888      0.207     
2661       9.977      2.025      4.964      0.211     
2661.2     9.994      2.018      5.037      0.206     
2661.4     10.92      1.958      4.993      0.205     
2661.6     11.852     1.894      4.833      0.202     
2661.8     11.473     1.894      4.779      0.204     
2662       9.989      1.97       4.754      0.216     
2662.2     9.505      2.032      4.896      0.213     
2662.4     9.476      2.073      5.052      0.213     
2662.6     9.683      2.064      5.09       0.211     
2662.8     9.143      2.095      5.196      0.197     
2663       8.285      2.2        5.683      0.183     
2663.2     8.214      2.233      6.097      0.174     
2663.4     8.733      2.137      6.031      0.184     
2663.6     9.555      1.992      5.253      0.208     
2663.8     10.563     1.915      4.785      0.209     
2664       12.204     1.894      4.742      0.207     
2664.2     13.352     1.889      4.654      0.217     
2664.4     14.077     1.869      4.482      0.228     
2664.6     13.96      1.822      4.249      0.243     
2664.8     12.842     1.774      3.954      0.252     
2665       12.171     1.811      3.997      0.238     
2665.2     11.898     1.95       4.34       0.237     
2665.4     11.397     1.972      4.541      0.236     
2665.6     10.917     1.948      4.525      0.23      
2665.8     10.309     1.985      4.643      0.221     
2666       10.409     2.049      4.885      0.214     
2666.2     10.669     2.072      5.166      0.2       
2666.4     10.97      2.083      5.318      0.199     
2666.6     11.306     2.087      5.334      0.2       
2666.8     11.991     2.051      5.229      0.207     
2667       12.415     1.968      4.918      0.219     
2667.2     12.405     1.933      4.622      0.221     
2667.4     12.193     1.955      4.748      0.208     
2667.6     11.629     2.022      5.021      0.199     
2667.8     10.709     2.11       5.367      0.191     
2668       10.439     2.144      5.641      0.187     
2668.2     10.107     2.156      5.708      0.185     
2668.4     9.046      2.172      5.905      0.166     
2668.6     8.116      2.332      6.713      0.137     
2668.8     7.442      2.601      8.156      0.118     
2669       7.73       2.76       9.314      0.116     
2669.2     8.239      2.691      9.117      0.131     
2669.4     9.158      2.405      7.905      0.151     
2669.6     10.144     2.125      6.293      0.185     
2669.8     11.204     1.981      5.202      0.202     
2670       11.622     1.903      4.906      0.201     
2670.2     11.654     1.879      4.733      0.211     
2670.4     12.069     1.849      4.452      0.234     
2670.6     12.657     1.782      4.042      0.256     
2670.8     12.526     1.743      3.784      0.258     
2671       11.084     1.795      3.923      0.233     
2671.2     9.578      1.941      4.562      0.203     
2671.4     8.192      2.063      5.23       0.19      
2671.6     7.833      2.095      5.494      0.191     
2671.8     7.992      2.083      5.426      0.195     
2672       8.106      2.06       5.36       0.195     
2672.2     7.961      2.062      5.264      0.203     
2672.4     7.824      2.071      5.122      0.214     
2672.6     8.01       2.08       5.082      0.209     
2672.8     7.795      2.086      5.29       0.197     
2673       7.818      2.126      5.431      0.196     
2673.2     8.128      2.178      5.537      0.199     
