~Version
 VERS              .         2.0                           : CWLS LOG ASCII STANDARD - VERSION 2.0
 WRAP              .         NO                            : ONE LINE PER DEPTH STEP
 DLM               .         SPACE                         : DELIMITING CHARACTER(SPACE TAB OR COMMA)
~Well Information
#_______________________________________________________________________________
#
#PARAMETER_NAME    .UNIT     VALUE                         : DESCRIPTION
#_______________________________________________________________________________
STRT               .m        2469                          : First reference value
STOP               .m        2690                          : Last reference value
STEP               .m        0.2                           : Step increment
NULL               .         -9999                         : Missing value
COMP               .                                       : Company
WELL               .         101                           : Well name
FLD                .                                       : Field
LOC                .                                       : Location
CNTY               .                                       : County
STAT               .                                       : State
CTRY               .                                       : Country
SRVC               .                                       : Service Company
DATE               .                                       : Date
API                .                                       : API number
LONG               .dega     2.0616605265                  : 
HZCS               .GCS_WGS_1984 World_Mercator                : 
Cartographic_reference_system .         GCS_WGS_1984                  : 
Куст               .         1                             : 
EREF               .m        137.7                         : 
group              .         Pad1                          : 
Тип                .         Разведка                      : 
Статус             .         Не проверено                  : 
LATI               .dega     2.1710182041                  : 
Интер-р            .         Пузин                         : 
Pad                .         1                             : 
~Parameter Information Block
#_______________________________________________________________________________
#
#PARAMETER_NAME    .UNIT     VALUE                         : DESCRIPTION
#_______________________________________________________________________________
SET                .         LAS3                          : 
TLFamily_GR        .         Russian Gamma Ray             : 
REAL_CREATION_DATE .         Wed Apr 11 2012-13_17_06      : 
TLFamily_NKT       .         Neutron Far                   : 
group              .         INI                           : 
TLFamily_TNPH      .         Neutron Porosity              : 
TLFamily_NKM       .         Neutron Near                  : 
TLFamily_MD        .         Measured Depth                : 
~Curve Information
#_______________________________________________________________________________
#
#LOGNAME           .UNIT     LOG_ID                        : DESCRIPTION
#_______________________________________________________________________________
MD                 .m                                      : 1 Depth 
GR                 .uR/h                                   : 4 Gamma-Ray 
NKM                .UE                                     : 3 Near Thermal Neutron Logging 
NKT                .UE                                     : 2 Far Thermal Neutron Logging 
TNPH               .v/v                                    : 5 Hydrogen Content 
~Ascii
# ...
2498.2     12.517     1.964      4.442      0.236     
2498.4     11.784     1.992      4.615      0.229     
2498.6     11.756     1.984      4.675      0.228     
2498.8     12.085     1.972      4.671      0.223     
2499       12.372     1.98       4.702      0.227     
2499.2     12.444     1.968      4.577      0.237     
2499.4     12.75      1.941      4.495      0.232     
2499.6     12.745     1.953      4.518      0.235     
2499.8     12.753     1.967      4.447      0.248     
2500       12.34      1.979      4.341      0.252     
2500.2     12.092     1.983      4.408      0.248     
2500.4     12.433     1.927      4.415      0.236     
2500.6     13.226     1.887      4.426      0.231     
2500.8     13.126     1.861      4.318      0.239     
2501       12.529     1.855      4.163      0.248     
2501.2     12.073     1.901      4.146      0.251     
2501.4     11.599     1.954      4.312      0.242     
2501.6     11.036     2.002      4.562      0.229     
2501.8     10.208     2.081      4.88       0.217     
2502       10.209     2.144      5.195      0.211     
2502.2     10.508     2.13       5.316      0.209     
2502.4     10.457     2.107      5.247      0.207     
2502.6     10.127     2.174      5.319      0.207     
2502.8     9.329      2.28       5.661      0.193     
2503       8.686      2.362      6.248      0.179     
2503.2     8.438      2.382      6.518      0.173     
2503.4     8.297      2.363      6.85       0.144     
2503.6     8.021      2.471      7.974      0.11      
2503.8     8.044      2.683      9.441      0.093     
2504       7.898      2.833      10.669     0.086     
2504.2     7.775      2.849      11.179     0.084     
2504.4     7.855      2.792      10.838     0.095     
2504.6     7.864      2.688      9.727      0.116     
2504.8     8.639      2.523      8.415      0.144     
2505       9.084      2.321      6.782      0.194     
2505.2     9.461      2.117      5.287      0.237     
2505.4     10.166     2.015      4.577      0.247     
2505.6     10.602     1.987      4.507      0.239     
2505.8     11.29      1.946      4.494      0.24      
2506       11.559     1.901      4.334      0.245     
2506.2     11.806     1.857      4.208      0.243     
2506.4     11.959     1.848      4.21       0.235     
2506.6     12.206     1.871      4.322      0.228     
2506.8     12.466     1.928      4.479      0.228     
2507       12.449     1.965      4.537      0.237     
2507.2     12.685     1.965      4.496      0.236     
2507.4     12.495     1.948      4.526      0.233     
2507.6     11.78      1.96       4.503      0.236     
2507.8     11.388     1.968      4.499      0.237     
2508       11.151     1.976      4.539      0.234     
2508.2     11.097     1.992      4.603      0.231     
2508.4     10.965     2          4.685      0.227     
2508.6     10.842     2.003      4.725      0.227     
2508.8     10.894     2.003      4.716      0.227     
2509       10.848     1.989      4.732      0.224     
2509.2     10.765     1.98       4.66       0.23      
2509.4     10.958     1.983      4.666      0.222     
2509.6     11.167     1.975      4.817      0.213     
2509.8     11.236     1.973      4.813      0.218     
2510       11.324     1.984      4.739      0.222     
2510.2     11.331     1.98       4.739      0.224     
2510.4     11.414     1.989      4.655      0.231     
2510.6     11.214     1.99       4.652      0.227     
2510.8     10.859     1.965      4.722      0.22      
2511       10.769     1.947      4.666      0.226     
2511.2     10.894     1.97       4.554      0.233     
2511.4     11.537     1.989      4.616      0.232     
2511.6     12.468     1.982      4.549      0.244     
2511.8     13.085     1.992      4.344      0.264     
2512       12.888     1.975      4.167      0.272     
2512.2     12.555     1.943      4.186      0.254     
2512.4     12.084     1.959      4.353      0.241     
2512.6     11.178     1.98       4.594      0.221     
2512.8     10.113     2.051      4.938      0.209     
2513       9.852      2.133      5.224      0.208     
2513.2     9.837      2.136      5.313      0.211     
2513.4     9.474      2.079      5.096      0.224     
2513.6     9.193      2.011      4.813      0.227     
2513.8     9.1        1.985      4.684      0.228     
2514       9.138      1.997      4.636      0.234     
2514.2     9.1        1.987      4.602      0.235     
2514.4     8.918      1.979      4.473      0.254     
2514.6     9.091      1.963      4.218      0.265     
2514.8     9.745      1.901      4.173      0.255     
2515       10.116     1.847      4.136      0.244     
2515.2     10.618     1.841      4.188      0.237     
2515.4     11.229     1.854      4.238      0.239     
2515.6     11.226     1.883      4.182      0.25      
2515.8     10.313     1.919      4.221      0.244     
2516       9.78       1.963      4.431      0.235     
2516.2     9.802      2.005      4.602      0.232     
2516.4     10.082     2.012      4.66       0.237     
2516.6     10.325     2.009      4.573      0.238     
2516.8     11.369     2.022      4.727      0.218     
2517       11.698     2.053      5.092      0.199     
2517.2     11.116     2.107      5.469      0.181     
2517.4     9.775      2.204      6.064      0.158     
2517.6     8.459      2.378      6.992      0.135     
2517.8     7.78       2.543      8.136      0.121     
2518       8.029      2.599      8.602      0.128     
2518.2     8.106      2.541      8.077      0.148     
2518.4     8.426      2.38       7.071      0.177     
2518.6     8.937      2.221      5.839      0.217     
2518.8     9.2        2.082      5.064      0.223     
2519       9.673      2.059      4.899      0.23      
2519.2     10.104     2.063      4.666      0.251     
2519.4     10.624     2.018      4.461      0.257     
2519.6     11.583     1.935      4.307      0.254     
2519.8     12.682     1.845      4.141      0.255     
2520       12.939     1.812      3.911      0.264     
2520.2     12.94      1.814      3.876      0.262     
2520.4     12.639     1.829      3.919      0.259     
2520.6     12.123     1.838      4.004      0.254     
2520.8     10.745     1.861      4.064      0.252     
2521       9.84       1.912      4.147      0.255     
2521.2     9.563      1.953      4.241      0.25      
2521.4     9.168      1.956      4.397      0.244     
2521.6     8.894      1.967      4.331      0.257     
2521.8     8.618      1.981      4.338      0.242     
2522       9.144      2.012      4.659      0.224     
2522.2     9.675      2.035      4.899      0.214     
2522.4     10.317     2.012      4.979      0.217     
2522.6     11.097     1.93       4.626      0.237     
2522.8     11.176     1.854      4.247      0.245     
2523       10.7       1.854      4.1        0.25      
2523.2     10.636     1.88       4.177      0.24      
2523.4     10.774     1.885      4.368      0.23      
2523.6     11.231     1.884      4.422      0.227     
2523.8     12.496     1.848      4.477      0.216     
2524       13.298     1.8        4.479      0.208     
2524.2     13.585     1.785      4.472      0.207     
2524.4     13.625     1.787      4.446      0.207     
2524.6     13.533     1.806      4.47       0.21      
2524.8     13.251     1.837      4.469      0.215     
2525       12.999     1.847      4.459      0.221     
2525.2     12.953     1.848      4.388      0.226     
2525.4     12.941     1.875      4.359      0.233     
2525.6     12.807     1.889      4.326      0.238     
2525.8     12.182     1.901      4.353      0.232     
2526       11.307     1.942      4.514      0.223     
2526.2     10.775     2.022      4.795      0.215     
2526.4     10.546     2.087      5.036      0.217     
2526.6     11.273     2.032      4.973      0.222     
2526.8     12.064     1.957      4.707      0.225     
2527       11.922     1.934      4.617      0.221     
2527.2     11.889     1.933      4.667      0.216     
