~Version
 VERS              .         2.0                           : CWLS LOG ASCII STANDARD - VERSION 2.0
 WRAP              .         NO                            : ONE LINE PER DEPTH STEP
 DLM               .         SPACE                         : DELIMITING CHARACTER(SPACE TAB OR COMMA)
~Well Information
#_______________________________________________________________________________
#
#PARAMETER_NAME    .UNIT     VALUE                         : DESCRIPTION
#_______________________________________________________________________________
STRT               .m        2469                          : First reference value
STOP               .m        2690                          : Last reference value
STEP               .m        0.2                           : Step increment
NULL               .         -9999                         : Missing value
COMP               .                                       : Company
WELL               .         101                           : Well name
FLD                .                                       : Field
LOC                .                                       : Location
CNTY               .                                       : County
STAT               .                                       : State
CTRY               .                                       : Country
SRVC               .                                       : Service Company
DATE               .                                       : Date
API                .                                       : API number
LONG               .dega     2.0616605265                  : 
HZCS               .GCS_WGS_1984 World_Mercator                : 
Cartographic_reference_system .         GCS_WGS_1984                  : 
Куст               .         1                             : 
EREF               .m        137.7                         : 
group              .         Pad1                          : 
Тип                .         Разведка                      : 
Статус             .         Не проверено                  : 
LATI               .dega     2.1710182041                  : 
Интер-р            .         Пузин                         : 
Pad                .         1                             : 
~Parameter Information Block
#_______________________________________________________________________________
#
#PARAMETER_NAME    .UNIT     VALUE                         : DESCRIPTION
#_______________________________________________________________________________
SET                .         LAS2                          : 
REAL_CREATION_DATE .         Wed Apr 11 2012-13_17_06      : 
TLFamily_GGR1      .         Density Large                 : 
TLFamily_GGR2      .         Density Small                 : 
group              .         INI                           : 
TLFamily_RHOB      .         Bulk Density                  : 
TLFamily_MD        .         Measured Depth                : 
~Curve Information
#_______________________________________________________________________________
#
#LOGNAME           .UNIT     LOG_ID                        : DESCRIPTION
#_______________________________________________________________________________
MD                 .m                                      : 1 Depth 
GGR1               .imp/min                                : 3 Density GGL Log by Large Zonde 
GGR2               .imp/min                                : 2 Density GGL Log by Small Zonde 
RHOB               .g/cm3                                  : 4 Standart Resolution Formation Densitu 
~Ascii
# ...
2614.6     2962.166   826.887    2.4639    
2614.8     2952.809   849.64     2.4647    
2615       3032.93    837.506    2.4903    
2615.2     3031.685   818.703    2.502     
2615.4     3025.618   844.786    2.454     
2615.6     3093.371   860.562    2.4712    
2615.8     3022.584   841.955    2.4719    
2616       2992.424   875.528    2.4018    
2616.2     3014.494   853.888    2.4508    
2616.4     3013.108   837.693    2.4828    
2616.6     3039.775   810.607    2.5367    
2616.8     2990.225   763.63     2.5933    
2617       2850.674   733.976    2.5775    
2617.2     2992.247   754.18     2.5637    
2617.4     3125.492   795.548    2.5657    
2617.6     3073.146   770.966    2.6204    
2617.8     2885.056   689.726    2.6957    
2618       2647.416   633.843    2.6541    
2618.2     2764.719   666.327    2.6257    
2618.4     2970       700.382    2.696     
2618.6     2992.247   704.831    2.6755    
2618.8     2893.146   706.524    2.6516    
2619       2720.225   653.663    2.6611    
2619.2     2679.775   604.497    2.7712    
2619.4     2672.697   598.909    2.8304    
2619.6     2898.202   641.141    2.7458    
2619.8     3114.607   739.138    2.6284    
2620       3186.404   825.371    2.5325    
2620.2     3233.837   874.874    2.4922    
2620.4     3295.618   908.494    2.458     
2620.6     3209.022   899.694    2.4565    
2620.8     3200.562   892.112    2.4626    
2621       3251.124   886.854    2.489     
2621.2     3287.802   885.034    2.5038    
2621.4     3354.269   905.461    2.4852    
2621.6     3320.899   913.28     2.4979    
2621.8     3265.281   863.191    2.5466    
2622       3298.372   840.167    2.5898    
2622.2     3324.944   829.011    2.6018    
2622.4     3351.127   833.22     2.6138    
2622.6     3335.056   867.008    2.5589    
2622.8     3379.55    868.854    2.5546    
2623       3432.259   894.219    2.5553    
2623.2     3495.842   899.106    2.564     
2623.4     3432.135   897.168    2.5633    
2623.6     3388.651   861.173    2.5927    
2623.8     3334.045   836.899    2.607     
2624       3390.426   847.789    2.5975    
2624.2     3499.887   819.506    2.7028    
2624.4     3569.185   820.718    2.7198    
2624.6     3601.011   857.523    2.6493    
2624.8     3524.157   885.236    2.5716    
2625       3326.027   910.668    2.4776    
2625.2     3266.292   943.784    2.4338    
2625.4     3294.699   950.727    2.4322    
2625.6     3353.258   911.933    2.4965    
2625.8     3406.458   931.301    2.4943    
2626       3476.629   947.588    2.4811    
2626.2     3511.011   939.236    2.5244    
2626.4     3507.977   929.129    2.5172    
2626.6     3565.618   962.292    2.5018    
2626.8     3679.286   996.063    2.4987    
2627       3889.213   1039.596   2.5095    
2627.2     3840.674   1032.876   2.5121    
2627.4     3506.303   996.447    2.4298    
2627.6     3457.416   982.921    2.4461    
2627.8     3574.397   1010.213   2.4391    
2628       3723.37    1035.151   2.4662    
2628.2     3901.348   1044       2.5205    
2628.4     3611.123   990.133    2.4827    
2628.6     3503.932   997.281    2.4485    
2628.8     3445.281   1000.315   2.4304    
2629       3438.202   998.948    2.4291    
2629.2     3442.247   1015.281   2.3916    
2629.4     3416.772   1006.48    2.428     
2629.6     3414.944   997.281    2.4102    
2629.8     3408.268   1030.862   2.365     
2630       3448.314   1050.881   2.3744    
2630.2     3500.899   1057.55    2.3835    
2630.4     3505.955   1031.865   2.4077    
2630.6     3473.785   1043.671   2.3803    
2630.8     3462.472   1030.766   2.4007    
2631       3439.213   986.562    2.4591    
2631.2     3482.696   933.371    2.5237    
2631.4     3669.775   883.743    2.6961    
2631.6     3790.112   864.607    2.7252    
2631.8     3457.416   860.764    2.62      
2632       3368.427   813.64     2.6551    
2632.2     3285.505   780.172    2.7079    
2632.4     3348.202   724.045    2.8216    
2632.6     3321.715   709.179    2.8293    
2632.8     3436.18    740.81     2.7905    
2633       3483.708   806.966    2.6825    
2633.2     3548.006   897.599    2.5522    
2633.4     3490.786   960.82     2.4752    
2633.6     3504.944   952.584    2.5066    
2633.8     3609.101   910.252    2.6044    
2634       3504.944   885.843    2.5718    
2634.2     3514.03    911.425    2.5415    
2634.4     3708.202   936        2.5953    
2634.6     3661.685   882.227    2.6752    
2634.8     3363.371   750.742    2.8266    
2635       2984.232   598.477    2.9873    
2635.2     2521.011   490.524    2.9864    
2635.4     2462.359   500.764    2.9661    
2635.6     2555.416   499.972    2.9672    
2635.8     2620.112   527.202    2.8747    
2636       2630.225   566.292    2.7923    
2636.2     2769.426   608.794    2.757     
2636.4     3037.753   699.775    2.7216    
2636.6     3217.752   785.961    2.6191    
2636.8     3279.438   784.315    2.676     
2637       3092.359   753.371    2.6669    
2637.2     2953.82    706.786    2.6659    
2637.4     3053.933   738.809    2.6361    
2637.6     3192.703   805.377    2.578     
2637.8     3209.663   851.531    2.5118    
2638       3188.427   830.629    2.5637    
2638.2     3219.175   794.28     2.6205    
2638.4     3225.843   806.157    2.576     
2638.6     3204.606   834.96     2.5449    
2638.8     3251.124   868.854    2.5069    
2639       3060.884   845.173    2.5013    
2639.2     2988.202   769.201    2.582     
2639.4     3005.393   789.977    2.5434    
2639.6     3037.753   822.358    2.4926    
2639.8     3131.797   809.393    2.5489    
2640       3170.225   807.775    2.5898    
2640.2     3251.124   810.451    2.5948    
2640.4     3224.831   847.874    2.5223    
2640.6     3233.932   888.032    2.4678    
2640.8     3331.011   921.64     2.4807    
2641       3095.032   870.636    2.4718    
2641.2     3222.809   1004.448   2.2943    
2641.4     3413.932   1245.034   2.2023    
2641.6     3921.573   1659.692   2.0316    
2641.8     4288.651   2204.917   1.9029    
2642       4516.18    2479.955   1.8905    
2642.2     3820.449   1551.502   2.2637    
2642.4     2972.022   861.573    2.506     
2642.6     2982.135   775.364    2.5579    
2642.8     2916.404   760.652    2.5648    
2643       2915.595   727.807    2.5994    
2643.2     2867.865   752.36     2.5354    
2643.4     2874.472   749.676    2.5512    
2643.6     2931.573   748.316    2.5765    
2643.8     2915.393   760.045    2.5264    
2644       2966.657   781.161    2.5398    
2644.2     2939.663   809.595    2.4825    
2644.4     2918.932   783.791    2.504     
2644.6     2816.292   783.064    2.4536    
2644.8     3052.921   855.101    2.4411    
2645       3122.534   948.843    2.3601    
2645.2     3130.786   1007.191   2.2927    
2645.4     3278.188   1120.195   2.2446    
2645.6     3451.348   1242.343   2.1826    
2645.8     3776.966   1614.944   2.015     
2646       4443.883   1997.722   2.0056    
2646.2     3673.82    1481.461   2.2475    
2646.4     2921.46    823.348    2.5269    
2646.6     2860.786   760.282    2.5165    
2646.8     2859.775   754.989    2.5369    
2647       2878.887   757.811    2.5553    
2647.2     2820.337   702        2.6504    
2647.4     2873.697   703.524    2.6395    
2647.6     2990.225   737.813    2.6235    
2647.8     3009.438   765.91     2.581     
2648       2994.8     760.731    2.5901    
2648.2     3008.427   753.169    2.61      
2648.4     3042.226   737.751    2.6307    
2648.6     3041.798   775.416    2.5502    
2648.8     3299.663   871.888    2.5013    
2649       3312.809   967.491    2.4135    
2649.2     2974.045   873.303    2.4545    
2649.4     2967.978   785.251    2.547     
2649.6     2955.843   748.517    2.6101    
2649.8     2956.854   753.573    2.5806    
2650       3014.699   780.894    2.5518    
2650.2     3028.652   794.831    2.5448    
2650.4     3035.622   751.377    2.6311    
2650.6     3012.472   752.562    2.61      
2650.8     3041.798   760.449    2.5796    
