~Version
 VERS              .         2.0                           : CWLS LOG ASCII STANDARD - VERSION 2.0
 WRAP              .         NO                            : ONE LINE PER DEPTH STEP
 DLM               .         SPACE                         : DELIMITING CHARACTER(SPACE TAB OR COMMA)
~Well Information
#_______________________________________________________________________________
#
#PARAMETER_NAME    .UNIT     VALUE                         : DESCRIPTION
#_______________________________________________________________________________
STRT               .m        2469                          : First reference value
STOP               .m        2690                          : Last reference value
STEP               .m        0.2                           : Step increment
NULL               .         -9999                         : Missing value
COMP               .                                       : Company
WELL               .         101                           : Well name
FLD                .                                       : Field
LOC                .                                       : Location
CNTY               .                                       : County
STAT               .                                       : State
CTRY               .                                       : Country
SRVC               .                                       : Service Company
DATE               .                                       : Date
API                .                                       : API number
LONG               .dega     2.0616605265                  : 
HZCS               .GCS_WGS_1984 World_Mercator                : 
Cartographic_reference_system .         GCS_WGS_1984                  : 
Куст               .         1                             : 
EREF               .m        137.7                         : 
group              .         Pad1                          : 
Тип                .         Разведка                      : 
Статус             .         Не проверено                  : 
LATI               .dega     2.1710182041                  : 
Интер-р            .         Пузин                         : 
Pad                .         1                             : 
~Parameter Information Block
#_______________________________________________________________________________
#
#PARAMETER_NAME    .UNIT     VALUE                         : DESCRIPTION
#_______________________________________________________________________________
SET                .         LAS3                          : 
TLFamily_GR        .         Russian Gamma Ray             : 
REAL_CREATION_DATE .         Wed Apr 11 2012-13_17_06      : 
TLFamily_NKT       .         Neutron Far                   : 
group              .         INI                           : 
TLFamily_TNPH      .         Neutron Porosity              : 
TLFamily_NKM       .         Neutron Near                  : 
TLFamily_MD        .         Measured Depth                : 
~Curve Information
#_______________________________________________________________________________
#
#LOGNAME           .UNIT     LOG_ID                        : DESCRIPTION
#_______________________________________________________________________________
MD                 .m                                      : 1 Depth 
GR                 .uR/h                                   : 4 Gamma-Ray 
NKM                .UE                                     : 3 Near Thermal Neutron Logging 
NKT                .UE                                     : 2 Far Thermal Neutron Logging 
TNPH               .v/v                                    : 5 Hydrogen Content 
~Ascii
# ...
2673.4     8.394      2.156      5.556      0.199     
2673.6     8.523      2.137      5.466      0.2       
2673.8     8.902      2.106      5.447      0.195     
2674       9.201      2.036      5.365      0.196     
2674.2     9.712      1.988      5.064      0.212     
2674.4     10.721     1.944      4.617      0.241     
2674.6     11.446     1.88       4.251      0.244     
2674.8     12.605     1.862      4.268      0.232     
2675       13.069     1.864      4.391      0.226     
2675.2     12.96      1.855      4.374      0.229     
2675.4     12.927     1.866      4.355      0.227     
2675.6     12.844     1.9        4.465      0.224     
2675.8     13.257     1.94       4.465      0.246     
2676       13.645     1.943      4.165      0.274     
2676.2     13.946     1.884      3.933      0.285     
2676.4     13.772     1.81       3.701      0.288     
2676.6     13.228     1.791      3.639      0.281     
2676.8     12.118     1.805      3.759      0.263     
2677       10.894     1.857      4.045      0.243     
2677.2     9.992      1.884      4.321      0.23      
2677.4     9.588      1.88       4.497      0.217     
2677.6     9.636      1.884      4.505      0.228     
2677.8     9.687      1.894      4.394      0.228     
2678       9.457      1.878      4.494      0.225     
2678.2     9.591      1.859      4.305      0.245     
2678.4     9.83       1.843      4.149      0.238     
2678.6     9.589      1.826      4.246      0.228     
2678.8     9.47       1.819      4.285      0.228     
2679       9.448      1.843      4.27       0.234     
2679.2     9.733      1.868      4.166      0.249     
2679.4     10.457     1.871      4.072      0.257     
2679.6     10.893     1.836      4.052      0.255     
2679.8     11.044     1.777      3.89       0.26      
2680       11.119     1.742      3.687      0.27      
2680.2     11.014     1.72       3.507      0.285     
2680.4     10.98      1.687      3.471      0.284     
2680.6     10.745     1.699      3.715      0.253     
2680.8     10.687     1.759      3.997      0.234     
2681       10.836     1.796      4.028      0.242     
2681.2     11.061     1.787      3.996      0.248     
2681.4     11.168     1.762      4.078      0.236     
2681.6     10.851     1.731      4.054      0.232     
2681.8     9.254      1.679      3.853      0.242     
2682       7.862      1.557      3.407      0.268     
2682.2     6.623      1.366      2.824      0.303     
2682.4     5.48       1.219      2.259      0.342     
2682.6     5.641      1.264      2.3        0.321     
2682.8     7.802      1.452      2.919      0.263     
2683       9.687      1.745      3.903      0.217     
2683.2     9.667      1.986      4.77       0.205     
2683.4     8.724      2.087      5.356      0.193     
2683.6     7.952      2.148      5.876      0.174     
2683.8     8.189      2.193      6.201      0.165     
2684       9.096      2.181      6.054      0.174     
2684.2     9.928      2.055      5.388      0.2       
2684.4     11         1.926      4.591      0.23      
2684.6     11.792     1.877      4.237      0.247     
2684.8     12.382     1.844      4.268      0.236     
2685       12.746     1.821      4.22       0.235     
2685.2     12.81      1.808      4.132      0.238     
2685.4     12.81      1.814      4.035      0.247     
2685.6     12.565     1.825      3.915      0.261     
2685.8     13.016     1.826      3.831      0.271     
2686       13.577     1.808      3.814      0.271     
2686.2     13.805     1.797      3.661      0.283     
2686.4     13.823     1.777      3.471      0.304     
2686.6     13.965     1.743      3.382      0.307     
2686.8     14.163     1.75       3.362      0.306     
2687       13.962     1.765      3.441      0.301     
2687.2     13.551     1.813      3.709      0.277     
2687.4     12.84      1.902      4.151      0.248     
2687.6     12.397     2.052      4.855      0.214     
2687.8     12.34      2.143      5.337      0.203     
2688       12.318     2.116      5.289      0.209     
2688.2     12.23      2.04       4.919      0.225     
2688.4     12.04      1.92       4.505      0.238     
2688.6     12.277     1.82       3.974      0.263     
2688.8     11.921     1.747      3.723      0.272     
2689       11.908     1.703      3.634      0.267     
2689.2     11.855     1.69       3.418      0.287     
2689.4     11.75      1.66       3.325      0.294     
2689.6     11.898     1.628      3.264      0.293     
2689.8     12.46      1.617      3.2        0.296     
2690       12.453     1.609      3.185      0.297     
