~Version
 VERS              .         2.0                           : CWLS LOG ASCII STANDARD - VERSION 2.0
 WRAP              .         NO                            : ONE LINE PER DEPTH STEP
 DLM               .         SPACE                         : DELIMITING CHARACTER(SPACE TAB OR COMMA)
~Well Information
#_______________________________________________________________________________
#
#PARAMETER_NAME    .UNIT     VALUE                         : DESCRIPTION
#_______________________________________________________________________________
STRT               .m        2469                          : First reference value
STOP               .m        2690                          : Last reference value
STEP               .m        0.2                           : Step increment
NULL               .         -9999                         : Missing value
COMP               .                                       : Company
WELL               .         101                           : Well name
FLD                .                                       : Field
LOC                .                                       : Location
CNTY               .                                       : County
STAT               .                                       : State
CTRY               .                                       : Country
SRVC               .                                       : Service Company
DATE               .                                       : Date
API                .                                       : API number
LONG               .dega     2.0616605265                  : 
HZCS               .GCS_WGS_1984 World_Mercator                : 
Cartographic_reference_system .         GCS_WGS_1984                  : 
Куст               .         1                             : 
EREF               .m        137.7                         : 
group              .         Pad1                          : 
Тип                .         Разведка                      : 
Статус             .         Не проверено                  : 
LATI               .dega     2.1710182041                  : 
Интер-р            .         Пузин                         : 
Pad                .         1                             : 
~Parameter Information Block
#_______________________________________________________________________________
#
#PARAMETER_NAME    .UNIT     VALUE                         : DESCRIPTION
#_______________________________________________________________________________
SET                .         LAS2                          : 
REAL_CREATION_DATE .         Wed Apr 11 2012-13_17_06      : 
TLFamily_GGR1      .         Density Large                 : 
TLFamily_GGR2      .         Density Small                 : 
group              .         INI                           : 
TLFamily_RHOB      .         Bulk Density                  : 
TLFamily_MD        .         Measured Depth                : 
~Curve Information
#_______________________________________________________________________________
#
#LOGNAME           .UNIT     LOG_ID                        : DESCRIPTION
#_______________________________________________________________________________
MD                 .m                                      : 1 Depth 
GGR1               .imp/min                                : 3 Density GGL Log by Large Zonde 
GGR2               .imp/min                                : 2 Density GGL Log by Small Zonde 
RHOB               .g/cm3                                  : 4 Standart Resolution Formation Densitu 
~Ascii
2469.0     -9999      -9999      -9999     
2469.2     -9999      -9999      -9999     
2469.4     -9999      -9999      -9999     
2469.6     -9999      -9999      -9999     
2469.8     -9999      -9999      -9999     
2470       -9999      -9999      -9999     
2470.2     -9999      -9999      -9999     
2470.4     -9999      -9999      -9999     
2470.6     -9999      -9999      -9999     
2470.8     -9999      -9999      -9999     
2471       -9999      -9999      -9999     
2471.2     -9999      -9999      -9999     
2471.4     -9999      -9999      -9999     
2471.6     -9999      -9999      -9999     
2471.8     -9999      -9999      -9999     
2472       -9999      -9999      -9999     
2472.2     -9999      -9999      -9999     
2472.4     -9999      -9999      -9999     
2472.6     -9999      -9999      -9999     
2472.8     -9999      -9999      -9999     
2473       -9999      -9999      -9999     
2473.2     -9999      -9999      -9999     
2473.4     -9999      -9999      -9999     
2473.6     -9999      -9999      -9999     
2473.8     -9999      -9999      -9999     
2474       -9999      -9999      -9999     
2474.2     -9999      -9999      -9999     
2474.4     -9999      -9999      -9999     
2474.6     -9999      -9999      -9999     
2474.8     -9999      -9999      -9999     
2475       -9999      -9999      -9999     
2475.2     -9999      -9999      -9999     
2475.4     -9999      -9999      -9999     
2475.6     -9999      -9999      -9999     
2475.8     -9999      -9999      -9999     
2476       -9999      -9999      -9999     
2476.2     -9999      -9999      -9999     
2476.4     -9999      -9999      -9999     
2476.6     -9999      -9999      -9999     
2476.8     -9999      -9999      -9999     
2477       -9999      -9999      -9999     
2477.2     -9999      -9999      -9999     
2477.4     -9999      -9999      -9999     
2477.6     -9999      -9999      -9999     
2477.8     -9999      -9999      -9999     
2478       -9999      -9999      -9999     
2478.2     -9999      -9999      -9999     
2478.4     -9999      -9999      -9999     
2478.6     -9999      -9999      -9999     
2478.8     -9999      -9999      -9999     
2479       -9999      -9999      -9999     
2479.2     -9999      -9999      -9999     
2479.4     -9999      -9999      -9999     
2479.6     -9999      -9999      -9999     
2479.8     -9999      -9999      -9999     
2480       -9999      -9999      -9999     
2480.2     -9999      -9999      -9999     
2480.4     -9999      -9999      -9999     
2480.6     -9999      -9999      -9999     
2480.8     -9999      -9999      -9999     
2481       -9999      -9999      -9999     
2481.2     -9999      -9999      -9999     
2481.4     -9999      -9999      -9999     
2481.6     -9999      -9999      -9999     
2481.8     -9999      -9999      -9999     
2482       -9999      -9999      -9999     
2482.2     -9999      -9999      -9999     
2482.4     -9999      -9999      -9999     
2482.6     -9999      -9999      -9999     
2482.8     -9999      -9999      -9999     
2483       -9999      -9999      -9999     
2483.2     -9999      -9999      -9999     
2483.4     -9999      -9999      -9999     
2483.6     -9999      -9999      -9999     
2483.8     -9999      -9999      -9999     
2484       -9999      -9999      -9999     
2484.2     -9999      -9999      -9999     
2484.4     -9999      -9999      -9999     
2484.6     -9999      -9999      -9999     
2484.8     -9999      -9999      -9999     
2485       -9999      -9999      -9999     
2485.2     -9999      -9999      -9999     
2485.4     -9999      -9999      -9999     
2485.6     -9999      -9999      -9999     
2485.8     -9999      -9999      -9999     
2486       -9999      -9999      -9999     
2486.2     0          0          0         
2486.4     0          0          0         
2486.6     0          0          0         
2486.8     0          0          0         
2487       2888.457   882.404    2.3758    
2487.2     2881.396   844.075    2.4224    
2487.4     2874.335   805.747    2.4735    
2487.6     2867.275   767.418    2.5297    
2487.8     2860.215   723.988    2.5983    
2488       2842.143   691.965    2.6649    
2488.2     2859.409   702.677    2.622     
2488.4     2834.645   705.438    2.6162    
2488.6     2863.82    700.382    2.6278    
2488.8     2885.056   711.506    2.6421    
2489       2920.449   726.895    2.6058    
2489.2     2880       714.944    2.6201    
2489.4     2799.101   717.775    2.5721    
2489.6     2810.224   709.079    2.5863    
2489.8     2803.146   709.723    2.5914    
2490       2812.247   713.73     2.5927    
2490.2     2788.989   713.326    2.5569    
2490.4     2875.955   718.45     2.6183    
2490.6     2829.501   722.225    2.586     
2490.8     2888.897   720.404    2.5883    
2491       2890.65    738.844    2.5777    
2491.2     2961.355   784.112    2.5033    
2491.4     2990.225   784.812    2.5478    
2491.6     2883.033   742.238    2.5554    
2491.8     2845.618   761.706    2.5231    
2492       2847.64    769.802    2.5136    
2492.2     2868.876   729.101    2.5857    
2492.4     2906.292   715.798    2.6232    
2492.6     2884.045   715.348    2.6034    
2492.8     2891.123   742.247    2.5716    
2493       2908.314   758.831    2.5429    
2493.2     2899.213   740.629    2.5903    
2493.4     2867.038   743.522    2.5655    
2493.6     2872.736   711.708    2.6243    
2493.8     2804.157   696.539    2.6096    
2494       2778.765   685.213    2.5977    
2494.2     2846.135   726.949    2.5773    
2494.4     2849.404   728.09     2.5752    
2494.6     2901.236   743.215    2.572     
2494.8     2945.73    743.845    2.5703    
2495       2900.225   751.146    2.5595    
2495.2     2849.663   709.81     2.6133    
2495.4     2826.405   695.933    2.6067    
2495.6     2894.605   688.107    2.6881    
2495.8     2879.679   695.73     2.6477    
2496       2898.935   695.766    2.6637    
2496.2     2814.283   702.184    2.6086    
2496.4     2827.772   649.416    2.7306    
2496.6     2725.281   616.941    2.7394    
2496.8     2660.562   597.84     2.7845    
2497       2749.55    612.404    2.7478    
2497.2     2795.056   653.258    2.673     
2497.4     2908.349   691.962    2.6407    
2497.6     3079.213   763.69     2.5942    
2497.8     2984.157   754.556    2.5828    
2498       2923.483   757.236    2.5504    
2498.2     2851.685   800.87     2.4573    
2498.4     2896.179   793.416    2.4797    
2498.6     2930.562   760.104    2.5744    
2498.8     2912.901   755.311    2.5729    
2499       2902.406   749.234    2.5672    
2499.2     2917.912   760.652    2.5355    
2499.4     2947.753   769.568    2.5525    
2499.6     2959.888   786.337    2.5134    
2499.8     2975.056   798.27     2.5183    
2500       3001.348   806.562    2.5149    
2500.2     3005.393   807.573    2.5181    
2500.4     3064.045   808.327    2.5357    
2500.6     3152.311   811.011    2.5634    
2500.8     3211.685   810.607    2.6169    
2501       3343.146   873.708    2.5186    
2501.2     3422.022   909.436    2.5185    
2501.4     3300.674   913.955    2.4936    
2501.6     3132.809   900.1      2.4329    
2501.8     3179.906   897.521    2.4389    
2502       3124.383   871.888    2.4914    
2502.2     3125.544   840.742    2.5119    
2502.4     3176.292   880.225    2.4655    
2502.6     3189.438   873.375    2.5089    
2502.8     3142.921   821.326    2.5548    
2503       3105.505   825.168    2.5233    
2503.2     3103.483   828.202    2.53      
2503.4     3108.405   823.981    2.5185    
2503.6     2984.157   787.753    2.5504    
2503.8     2895.168   716.226    2.6239    
2504       2791.011   658.921    2.671     
2504.2     2797.078   654.697    2.7061    
2504.4     2826.405   681.977    2.6513    
2504.6     2821.348   725.865    2.5335    
2504.8     3037.753   814.045    2.5094    
2505       3262.247   914.157    2.4425    
2505.2     3510.221   996.952    2.431     
