~Version
 VERS              .         2.0                           : CWLS LOG ASCII STANDARD - VERSION 2.0
 WRAP              .         NO                            : ONE LINE PER DEPTH STEP
 DLM               .         SPACE                         : DELIMITING CHARACTER(SPACE TAB OR COMMA)
~Well Information
#_______________________________________________________________________________
#
#PARAMETER_NAME    .UNIT     VALUE                         : DESCRIPTION
#_______________________________________________________________________________
STRT               .m        2469                          : First reference value
STOP               .m        2690                          : Last reference value
STEP               .m        0.2                           : Step increment
NULL               .         -9999                         : Missing value
COMP               .                                       : Company
WELL               .         101                           : Well name
FLD                .                                       : Field
LOC                .                                       : Location
CNTY               .                                       : County
STAT               .                                       : State
CTRY               .                                       : Country
SRVC               .                                       : Service Company
DATE               .                                       : Date
API                .                                       : API number
LONG               .dega     2.0616605265                  : 
HZCS               .GCS_WGS_1984 World_Mercator                : 
Cartographic_reference_system .         GCS_WGS_1984                  : 
Куст               .         1                             : 
EREF               .m        137.7                         : 
group              .         Pad1                          : 
Тип                .         Разведка                      : 
Статус             .         Не проверено                  : 
LATI               .dega     2.1710182041                  : 
Интер-р            .         Пузин                         : 
Pad                .         1                             : 
~Parameter Information Block
#_______________________________________________________________________________
#
#PARAMETER_NAME    .UNIT     VALUE                         : DESCRIPTION
#_______________________________________________________________________________
SET                .         LAS4                          : 
REAL_CREATION_DATE .         Wed Apr 11 2012-13_17_06      : 
TLFamily_RK20      .         Resistivity 20                : 
TLFamily_RK10      .         Resistivity 10                : 
group              .         INI                           : 
TLFamily_DF20      .         Phase difference 20           : 
TLFamily_DF10      .         Phase difference 10           : 
TLFamily_RK05      .         Resistivity 05                : 
TLFamily_DF05      .         Phase difference 05           : 
TLFamily_RK07      .         Resistivity 07                : 
TLFamily_RK14      .         Resistivity 14                : 
TLFamily_DF07      .         Phase difference 07           : 
TLFamily_DF14      .         Phase difference 14           : 
TLFamily_MD        .         Measured Depth                : 
~Curve Information
#_______________________________________________________________________________
#
#LOGNAME           .UNIT     LOG_ID                        : DESCRIPTION
#_______________________________________________________________________________
MD                 .m                                      : 1 Depth 
DF05               .Ohmm                                   : 2 Induction Log, shift 
DF07               .Ohmm                                   : 3 Induction Log, shift 
DF10               .Ohmm                                   : 4 Induction Log, shift 
DF14               .Ohmm                                   : 5 Induction Log, shift 
DF20               .mS/m                                   : 6 Induction Log, shift 
RK05               .Ohmm                                   : 7 Induction Log, Resistivity 
RK07               .Ohmm                                   : 8 Induction Log, Resistivity 
RK10               .Ohmm                                   : 9 Induction Log, Resistivity 
RK14               .Ohmm                                   : 10 Induction Log, Resistivity 
RK20               .Ohmm                                   : 11 Induction Log, Resistivity 
~Ascii
# ...
2628.4     16.101     17.2524    17.6965    18.3074    18.882     4.5877     4.8771     4.7759     4.6368     4.4024    
2628.6     19.2963    20.7309    20.0852    19.2684    18.9153    4.0624     3.7006     3.9399     4.2536     4.3898    
2628.8     20.6119    22.1472    20.4472    19.5653    19.296     3.7545     3.2841     3.8293     4.1412     4.242     
2629       20.4932    22.433     20.333     19.1885    19.2244    3.893      3.239      3.8884     4.2836     4.2694    
2629.2     20.3174    22.0402    20.119     18.9378    19.1592    3.8624     3.3281     3.9318     4.3805     4.2944    
2629.4     19.5081    21.6428    20.312     19.3459    19.7922    4.0948     3.4582     3.8594     4.224      4.0591    
2629.6     20.4417    22.6482    21.2467    20.4434    20.5989    3.9121     3.1684     3.5416     3.8305     3.7783    
2629.8     21.4335    23.6213    22.3194    21.2874    21.5856    3.266      2.8394     3.2041     3.5555     3.4632    
2630       21.1723    23.5762    22.8374    21.844     22.033     3.8926     2.9879     3.151      3.3844     3.3285    
2630.2     20.3091    22.4687    21.938     21.3897    21.9288    3.9783     3.2329     3.3488     3.5226     3.3593    
2630.4     19.0227    21.5626    21.8876    21.5395    21.6167    4.3138     3.4494     3.3534     3.4766     3.4527    
2630.6     19.5264    22.3152    22.5255    21.7114    21.3996    4.1947     3.2469     3.2044     3.4241     3.5199    
2630.8     19.1974    21.8998    21.3416    20.6294    20.1934    4.3841     3.401      3.5992     3.7707     3.9187    
2631       17.4355    19.825     19.0721    18.3914    18.1135    5.0995     4.1588     4.4301     4.6068     4.7239    
2631.2     21.7705    22.0362    19.2109    17.5393    16.8006    3.2093     3.1801     4.147      4.9732     5.3242    
2631.4     16.7062    18.976     18.2079    16.8555    15.962     6.2521     4.6968     5.0068     5.3096     5.7603    
2631.6     17.3722    18.1083    15.7238    14.329     14.8094    12.0203    5.1982     6.1631     6.7758     6.4602    
2631.8     8.4259     8.6013     9.7067     11.1062    12.4492    9.0357     13.3434    11.6633    9.769299999999999 8.2722    
2632       19.593     17.2496    13.5607    11.3649    11.1902    4.8059     5.1111     7.2828     9.4107     9.602499999999999
2632.2     12.5725    11.9971    10.1348    9.948      10.3404    10.9838    9.236599999999999 12.5107    11.6384    10.7843   
2632.4     8.5958     9.7182     7.1406     7.0134     8.487      14.497     11.752     18.4958    19.2417    14.4015   
2632.6     8.5653     9.4696     7.9798     6.8625     8.0262     13.4566    12.1807    15.3957    19.8634    15.6324   
2632.8     11.4192    11.2082    10.185     8.5757     8.9156     7.2882     9.1432     10.5578    14.3779    13.4123   
2633       16.3146    15.5871    13.7607    11.8007    10.9196    4.8614     5.7552     6.9844     8.9695     9.977499999999999
2633.2     19.2318    18.3024    15.6479    13.5679    12.3549    3.9649     4.5855     5.9307     7.307      8.3477    
2633.4     19.9657    18.0488    14.6148    12.4756    12.168     4.4067     4.9009     6.7758     8.2516     8.536     
2633.6     15.3159    14.8689    11.8883    10.5041    10.7212    8.4828     6.7673     9.0611     10.5361    10.2248   
2633.8     10.8195    12.7021    11.6908    10.7111    10.5164    8.4158     7.7071     8.6231     10.2925    10.5069   
2634       17.6911    19.789     18.0526    14.6183    12.4965    3.6287     3.8102     4.5134     6.6235     8.253500000000001
2634.2     23.1502    27.6161    23.5223    18.1037    14.6781    3.3061     2.3208     3.018      4.7233     6.5237    
2634.4     18.8276    19.876     18.1639    16.1792    13.7611    7.9435     4.5991     5.3056     5.6813     7.1837    
2634.6     9.4651     11.0257    11.0361    11.8138    10.2477    11.8859    9.7796     9.8968     9.0632     11.0554   
2634.8     10.5461    12.4286    11.7939    9.9251     7.7654     9.6067     8.3535     8.8558     11.4248    16.459    
2635       10.7687    12.0494    11.6235    10.743     8.31       11.1322    8.9018     9.2873     10.1786    14.9031   
2635.2     9.6817     10.5857    9.933      10.0511    9.4069     13.5042    10.7991    11.7429    11.2107    12.3346   
2635.4     7.9894     8.3421     7.6721     8.5307     8.9251     15.5351    14.5893    17.0911    14.323     13.3333   
2635.6     6.8622     8.1981     6.9117     7.2161     8.5963     26.9744    16.4149    20.3654    18.4127    14.0973   
2635.8     5.9394     7.4059     6.5436     6.5335     8.4874     21.6051    17.1824    20.6031    21.3586    14.3712   
2636       8.741      9.6006     8.768      8.2985     9.5261     8.7405     11.3426    13.0145    15.1026    12.1678   
2636.2     18.5755    18.317     14.971     12.0474    11.8653    3.9544     4.5491     6.1624     8.715199999999999 8.8637    
2636.4     20.9258    20.4642    16.2492    13.7082    13.2813    3.6725     3.855      5.6416     7.2012     7.5331    
2636.6     21.4584    20.2453    16.2109    13.2824    13.1473    3.3911     3.8616     5.6352     7.5325     7.6426    
2636.8     18.2586    19.1036    15.075     12.5506    12.366     5.3243     4.5465     6.4777     8.1737     8.3484    
2637       19.6546    20.4727    14.9715    12.1517    11.8775    4.1016     3.793      6.1722     8.5497     8.8231    
2637.2     18.7886    19.5094    16.4181    13.505     12.5919    4.2912     4.1271     5.4513     7.3593     8.133699999999999
2637.4     18.1016    19.8608    17.773     14.5304    13.4545    5.003      4.1333     4.8905     6.6211     7.3953    
2637.6     18.3018    20.7224    18.5283    15.3224    14.1287    4.2417     3.6867     4.4479     6.1257     6.8959    
2637.8     23.588     23.9458    20.6704    17.1353    14.8643    2.5805     2.6796     3.6553     5.1669     6.41      
2638       21.6661    22.9735    20.5436    17.6184    15.5995    3.8249     3.188      3.9657     4.9376     5.9622    
2638.2     20.8709    21.9956    18.8823    16.702     15.7812    3.772      3.3665     4.3846     5.3724     5.8594    
2638.4     19.2388    20.0425    18.5612    17.1232    16.3849    4.4227     4.0587     4.5939     5.1663     5.5356    
2638.6     20.1408    20.8293    18.8749    18.0383    17.4772    3.7363     3.5914     4.275      4.7557     5.0037    
2638.8     20.2503    22.7739    21.0856    19.9217    19.029     3.6545     3.0669     3.5747     4.0138     4.3473    
2639       22.4754    25.2705    22.5327    21.0471    20.0964    3.5501     2.5606     3.2104     3.6309     3.9498    
2639.2     19.2248    22.4292    20.8928    20.539     19.9928    4.3837     3.2532     3.6964     3.7995     3.9864    
2639.4     19.8061    23.3975    21.5848    20.1585    19.8519    3.7983     2.893      3.3947     3.9287     4.0367    
2639.6     22.3264    26.3815    23.9235    21.4751    20.1137    2.6521     2.2079     2.7714     3.4972     3.9438    
2639.8     26.5126    28.8395    24.6694    21.5053    19.9944    2.9403     2.0133     2.7609     3.492      3.9873    
2640       20.5716    21.955     19.9609    18.6385    18.4444    3.7648     3.3378     4.0352     4.5074     4.583     
2640.2     20.1674    21.7699    19.6316    18.0848    17.5584    4.1068     3.4244     4.115      4.732      4.964     
2640.4     20.0227    23.0897    21.006     19.2887    18.5939    2.7977     2.8392     3.4965     4.2514     4.521     
2640.6     28.1702    30.8624    25.0961    21.4162    19.8584    3.0353     1.8471     2.6769     3.5144     4.0346    
2640.8     22.1588    23.9241    20.6492    19.7105    19.8833    3.069      2.7497     3.6936     4.0907     4.0258    
2641       21.6791    24.1497    21.1048    19.3612    19.036     3.7397     2.827      3.6586     4.2176     4.342     
2641.2     20.1978    22.7325    20.9139    19.2169    19.0674    3.7551     3.1691     3.642      4.2724     4.3298    
2641.4     23.093     23.47      22.5682    20.3696    19.1603    3.1587     2.8798     3.1229     3.8565     4.2939    
