~Version
 VERS              .         2.0                           : CWLS LOG ASCII STANDARD - VERSION 2.0
 WRAP              .         NO                            : ONE LINE PER DEPTH STEP
 DLM               .         SPACE                         : DELIMITING CHARACTER(SPACE TAB OR COMMA)
~Well Information
#_______________________________________________________________________________
#
#PARAMETER_NAME    .UNIT     VALUE                         : DESCRIPTION
#_______________________________________________________________________________
STRT               .m        2469                          : First reference value
STOP               .m        2690                          : Last reference value
STEP               .m        0.2                           : Step increment
NULL               .         -9999                         : Missing value
COMP               .                                       : Company
WELL               .         101                           : Well name
FLD                .                                       : Field
LOC                .                                       : Location
CNTY               .                                       : County
STAT               .                                       : State
CTRY               .                                       : Country
SRVC               .                                       : Service Company
DATE               .                                       : Date
API                .                                       : API number
LONG               .dega     2.0616605265                  : 
HZCS               .GCS_WGS_1984 World_Mercator                : 
Cartographic_reference_system .         GCS_WGS_1984                  : 
Куст               .         1                             : 
EREF               .m        137.7                         : 
group              .         Pad1                          : 
Тип                .         Разведка                      : 
Статус             .         Не проверено                  : 
LATI               .dega     2.1710182041                  : 
Интер-р            .         Пузин                         : 
Pad                .         1                             : 
~Parameter Information Block
#_______________________________________________________________________________
#
#PARAMETER_NAME    .UNIT     VALUE                         : DESCRIPTION
#_______________________________________________________________________________
SET                .         LAS2                          : 
REAL_CREATION_DATE .         Wed Apr 11 2012-13_17_06      : 
TLFamily_GGR1      .         Density Large                 : 
TLFamily_GGR2      .         Density Small                 : 
group              .         INI                           : 
TLFamily_RHOB      .         Bulk Density                  : 
TLFamily_MD        .         Measured Depth                : 
~Curve Information
#_______________________________________________________________________________
#
#LOGNAME           .UNIT     LOG_ID                        : DESCRIPTION
#_______________________________________________________________________________
MD                 .m                                      : 1 Depth 
GGR1               .imp/min                                : 3 Density GGL Log by Large Zonde 
GGR2               .imp/min                                : 2 Density GGL Log by Small Zonde 
RHOB               .g/cm3                                  : 4 Standart Resolution Formation Densitu 
~Ascii
# ...
2541.8     2857.753   751.348    2.546     
2542       2869.887   751.753    2.5379    
2542.2     2865.833   744.312    2.5496    
2542.4     2888.09    739.341    2.5801    
2542.6     2870.948   744.876    2.5485    
2542.8     2901.236   717.987    2.6254    
2543       2930.562   716.959    2.6282    
2543.2     2906.292   731.326    2.5971    
2543.4     2848.652   749.528    2.5337    
2543.6     2891.123   755.393    2.5373    
2543.8     2896.091   741.095    2.5679    
2544       2906.401   736.786    2.5742    
2544.2     2839.551   733.141    2.5563    
2544.4     2770.786   723.129    2.5369    
2544.6     2812.247   744.32     2.5251    
2544.8     2816.292   759.438    2.5115    
2545       2906.292   741.064    2.5811    
2545.2     2830.42    732.417    2.5614    
2545.4     2842.246   728.562    2.5632    
2545.6     2829.095   720.908    2.5515    
2545.8     2818.315   743.663    2.5255    
2546       2903.258   772.382    2.5325    
2546.2     2941.685   736.584    2.6129    
2546.4     2903.258   733.955    2.5868    
2546.6     2883.033   733.955    2.5798    
2546.8     2827.33    726.674    2.5601    
2547       2801.124   731.079    2.5485    
2547.2     2857.753   714.102    2.6238    
2547.4     2826.405   689.474    2.6439    
2547.6     2835.505   685.82     2.6781    
2547.8     2925.505   716.764    2.6021    
2548       2982.739   773.615    2.5433    
2548.2     2927.528   751.955    2.5645    
2548.4     2813.582   737.228    2.5402    
2548.6     2856.741   726.952    2.5905    
2548.8     2919.438   738.202    2.5958    
2549       2909.326   706.247    2.6869    
2549.2     2890.112   675.708    2.7047    
2549.4     2881.011   691.685    2.6613    
2549.6     2857.753   705.961    2.6057    
2549.8     2810.372   715.348    2.5665    
2550       2855.73    724.861    2.5888    
2550.2     2931.573   743.349    2.5792    
2550.4     2934.607   722.401    2.6536    
2550.6     2838.539   661.146    2.7106    
2550.8     2937.64    668.802    2.7214    
2551       2924.696   640.921    2.789     
2551.2     3070.065   646.989    2.8339    
2551.4     3290.27    718.584    2.783     
2551.6     3336.067   779.437    2.6761    
2551.8     3270.337   800.899    2.6239    
2552       3096.405   787.551    2.5858    
2552.2     2939.663   766.92     2.5563    
2552.4     2898.202   749.73     2.5637    
2552.6     2871.032   746.507    2.5768    
2552.8     2976.067   750.661    2.595     
2553       3078.202   768.952    2.5915    
2553.2     3237.977   821.46     2.5695    
2553.4     3359.325   849.158    2.5935    
2553.6     3373.483   866.604    2.567     
2553.8     3242.022   808.382    2.6342    
2554       3087.84    797.458    2.5643    
2554.2     2911.817   773.617    2.5444    
2554.4     2924.895   760.749    2.5651    
2554.6     2970.965   748.315    2.5955    
2554.8     3019.55    753.573    2.6008    
2555       3038.764   741.034    2.6268    
2555.2     2996.292   722.831    2.6599    
2555.4     2901.236   716.562    2.6186    
2555.6     3190.449   755.875    2.712     
2555.8     3352.751   781.951    2.6905    
2556       3390.674   779.983    2.7199    
2556.2     3108.539   747.943    2.6646    
2556.4     2798.09    689.618    2.6326    
2556.6     2805.168   699.775    2.6043    
2556.8     2888.553   733.303    2.5698    
2557       2930.562   777.843    2.5168    
2557.2     2935.618   814.854    2.4692    
2557.4     2961.91    827.393    2.4652    
2557.6     2976.067   829.011    2.4772    
2557.8     3032.696   896.729    2.3857    
2558       3032.696   915.168    2.3868    
2558.2     3025.618   875.326    2.4283    
2558.4     3009.438   851.461    2.4461    
2558.6     2995.141   866.901    2.4225    
2558.8     2970       887.676    2.3861    
2559       3048.876   868.473    2.4566    
2559.2     3157.078   874.017    2.4632    
2559.4     3174.27    870.674    2.5047    
2559.6     3101.461   828.404    2.5183    
2559.8     3084.27    818.632    2.533     
2560       3099.128   828.223    2.5148    
2560.2     3097.138   864        2.4523    
2560.4     3138.876   881.393    2.4466    
2560.6     3201.573   927.506    2.3985    
2560.8     3126.741   931.551    2.395     
2561       3086.161   953.564    2.3357    
2561.2     3197.513   982.928    2.3522    
2561.4     3255.969   983.167    2.3837    
2561.6     3257.191   974.831    2.3888    
2561.8     3323.932   1013.893   2.3488    
2562       3297.64    1030.381   2.3434    
2562.2     3169.213   987.397    2.3497    
2562.4     3203.595   957.422    2.3873    
2562.6     3194.494   940.652    2.4026    
2562.8     3183.92    928.68     2.4236    
2563       3118.651   921.438    2.4066    
2563.2     3051.91    898.18     2.4187    
2563.4     3069.101   871.079    2.4593    
2563.6     3026.629   844.18     2.4778    
2563.8     3034.719   811.618    2.5087    
2564       3028.652   814.652    2.5108    
2564.2     2921.46    836.35     2.4354    
2564.4     3000.733   854.736    2.4374    
2564.6     3066.067   894.283    2.4183    
2564.8     3117.64    961.079    2.3333    
2565       3128.764   1011.64    2.298     
2565.2     3125.73    1021.061   2.3       
2565.4     3064.052   1000.923   2.2981    
2565.6     3186.116   1004.129   2.3373    
2565.8     3265.281   1031.966   2.3218    
2566       3327.977   1095.977   2.2827    
2566.2     3247.078   1100.022   2.2623    
2566.4     3124.719   1011.512   2.3281    
2566.6     3079.213   975.438    2.3513    
2566.8     3086.855   951.708    2.358     
2567       3179.396   1015.147   2.3022    
2567.2     3390.057   1109.528   2.2803    
2567.4     3427.078   1145.694   2.271     
2567.6     3339.101   1138.404   2.2526    
2567.8     3345.168   1124.09    2.2726    
2568       3343.146   1135.213   2.2556    
2568.2     3337.079   1189.213   2.2125    
2568.4     3354.269   1195.079   2.2133    
2568.6     3405.023   1206.968   2.2185    
2568.8     3405.843   1223.679   2.2061    
2569       3420       1169.393   2.2698    
2569.2     3473.595   1095.371   2.3478    
2569.4     3371.46    1065.233   2.3414    
2569.6     3380.505   1058.218   2.3358    
2569.8     3450.337   1108.325   2.3032    
2570       3512.022   1192.695   2.2435    
2570.2     3486.741   1241.078   2.2106    
2570.4     3405.843   1192.378   2.2351    
2570.6     3433.146   1213.281   2.2227    
2570.8     3553.602   1261.198   2.2136    
2571       3432.183   1228.384   2.2122    
2571.2     3507.508   1272.944   2.191     
2571.4     3402.809   1249.575   2.1934    
2571.6     3482.696   1240.219   2.2062    
2571.8     3505.955   1265.865   2.1984    
2572       3503.932   1284.792   2.1915    
2572.2     3551.46    1280.795   2.2008    
2572.4     3657.64    1307.263   2.2056    
2572.6     3727.063   1339.246   2.1992    
2572.8     3723.37    1310.523   2.2246    
2573       3828.539   1295.704   2.2589    
2573.2     3799.213   1315.82    2.23      
2573.4     3780       1292.966   2.2521    
2573.6     3760.517   1318.611   2.2347    
2573.8     3763.82    1311.25    2.2323    
2574       3709.213   1286.442   2.2441    
2574.2     3637.416   1192.813   2.3045    
2574.4     3500.899   1177.483   2.2722    
2574.6     3555.698   1169.572   2.2872    
2574.8     3525.168   1181.899   2.2819    
2575       3433.146   1164.135   2.2617    
2575.2     3544.204   1167.466   2.2868    
2575.4     3557.528   1179.785   2.2814    
2575.6     3726.404   1227.438   2.2994    
2575.8     3758.764   1258.241   2.2699    
2576       3530.225   1138.854   2.3368    
2576.2     3437.191   1066.326   2.3546    
2576.4     3600       1115.498   2.3363    
2576.6     3487.752   1116.809   2.3073    
2576.8     3401.484   1058.741   2.3487    
2577       3392.697   1023.693   2.386     
2577.2     3387.64    1027.82    2.3742    
2577.4     3281.169   1049.81    2.3077    
2577.6     3273.37    1040.36    2.3314    
2577.8     3237.869   1057.096   2.2915    
2578       3263.258   1098.637   2.2556    
