~Version
 VERS              .         2.0                           : CWLS LOG ASCII STANDARD - VERSION 2.0
 WRAP              .         NO                            : ONE LINE PER DEPTH STEP
 DLM               .         SPACE                         : DELIMITING CHARACTER(SPACE TAB OR COMMA)
~Well Information
#_______________________________________________________________________________
#
#PARAMETER_NAME    .UNIT     VALUE                         : DESCRIPTION
#_______________________________________________________________________________
STRT               .m        2469                          : First reference value
STOP               .m        2690                          : Last reference value
STEP               .m        0.2                           : Step increment
NULL               .         -9999                         : Missing value
COMP               .                                       : Company
WELL               .         101                           : Well name
FLD                .                                       : Field
LOC                .                                       : Location
CNTY               .                                       : County
STAT               .                                       : State
CTRY               .                                       : Country
SRVC               .                                       : Service Company
DATE               .                                       : Date
API                .                                       : API number
LONG               .dega     2.0616605265                  : 
HZCS               .GCS_WGS_1984 World_Mercator                : 
Cartographic_reference_system .         GCS_WGS_1984                  : 
Куст               .         1                             : 
EREF               .m        137.7                         : 
group              .         Pad1                          : 
Тип                .         Разведка                      : 
Статус             .         Не проверено                  : 
LATI               .dega     2.1710182041                  : 
Интер-р            .         Пузин                         : 
Pad                .         1                             : 
~Parameter Information Block
#_______________________________________________________________________________
#
#PARAMETER_NAME    .UNIT     VALUE                         : DESCRIPTION
#_______________________________________________________________________________
SET                .         LAS4                          : 
REAL_CREATION_DATE .         Wed Apr 11 2012-13_17_06      : 
TLFamily_RK20      .         Resistivity 20                : 
TLFamily_RK10      .         Resistivity 10                : 
group              .         INI                           : 
TLFamily_DF20      .         Phase difference 20           : 
TLFamily_DF10      .         Phase difference 10           : 
TLFamily_RK05      .         Resistivity 05                : 
TLFamily_DF05      .         Phase difference 05           : 
TLFamily_RK07      .         Resistivity 07                : 
TLFamily_RK14      .         Resistivity 14                : 
TLFamily_DF07      .         Phase difference 07           : 
TLFamily_DF14      .         Phase difference 14           : 
TLFamily_MD        .         Measured Depth                : 
~Curve Information
#_______________________________________________________________________________
#
#LOGNAME           .UNIT     LOG_ID                        : DESCRIPTION
#_______________________________________________________________________________
MD                 .m                                      : 1 Depth 
DF05               .Ohmm                                   : 2 Induction Log, shift 
DF07               .Ohmm                                   : 3 Induction Log, shift 
DF10               .Ohmm                                   : 4 Induction Log, shift 
DF14               .Ohmm                                   : 5 Induction Log, shift 
DF20               .mS/m                                   : 6 Induction Log, shift 
RK05               .Ohmm                                   : 7 Induction Log, Resistivity 
RK07               .Ohmm                                   : 8 Induction Log, Resistivity 
RK10               .Ohmm                                   : 9 Induction Log, Resistivity 
RK14               .Ohmm                                   : 10 Induction Log, Resistivity 
RK20               .Ohmm                                   : 11 Induction Log, Resistivity 
~Ascii
# ...
2508.8     17.4979    18.5985    16.7158    15.0739    14.7887    5.0284     4.5377     5.3814     6.2736     6.4523    
2509       17.5459    18.4499    16.5797    15.0906    14.6435    4.8976     4.5517     5.4178     6.2634     6.5459    
2509.2     18.0887    19.0116    17.2117    15.3764    14.8401    4.6149     4.3121     5.1024     6.092      6.4198    
2509.4     18.2173    19.5237    17.558     15.7328    15.1406    4.6809     4.1501     4.9466     5.8866     6.233     
2509.6     17.7117    19.2262    17.499     15.603     15.2118    5.1084     4.3479     5.0408     5.9605     6.1899    
2509.8     17.4692    18.7733    16.9482    15.2896    14.919     4.8555     4.4199     5.2381     6.1431     6.37      
2510       18.072     19.2692    17.2361    15.4702    14.7904    4.7991     4.2832     5.1275     6.0367     6.4511    
2510.2     17.9149    18.7674    16.8317    15.293     14.7374    4.774      4.4329     5.3053     6.1415     6.4851    
2510.4     17.6406    18.726     16.9228    15.2317    14.7816    4.9975     4.4849     5.2645     6.1778     6.4568    
2510.6     17.591     18.7273    16.9812    15.4353    15.0642    4.8043     4.439      5.2065     6.0575     6.28      
2510.8     18.2794    19.2484    17.4305    15.8509    15.4183    4.6901     4.2743     5.025      5.8204     6.067     
2511       18.2838    19.3563    17.5726    16.0076    15.6417    4.5479     4.1915     4.943      5.7343     5.938     
2511.2     18.7809    20.0766    18.0181    16.2355    15.8135    4.4327     3.9544     4.7582     5.6122     5.8412    
2511.4     18.8178    19.9736    17.9878    16.3179    15.9606    4.4389     3.9899     4.7706     5.5687     5.76      
2511.6     18.1426    19.7868    17.9343    16.3651    15.9969    4.45       4.0356     4.7702     5.5443     5.7401    
2511.8     20.3886    21.9392    19.3318    17.1626    16.4254    3.8698     3.3731     4.1936     5.149      5.5134    
2512       20.4414    21.8006    19.7403    17.7226    16.8096    3.728      3.3934     4.0732     4.8898     5.3186    
2512.2     21.4183    22.2346    19.9113    17.6005    16.734     3.4787     3.2642     4.0241     4.9446     5.3564    
2512.4     21.5139    21.8785    19.2081    17.0636    16.188     3.579      3.3995     4.3299     5.1971     5.6383    
2512.6     18.9686    19.2359    17.1014    15.5637    15.1646    4.9718     4.4092     5.3111     5.9892     6.2224    
2512.8     17.1071    17.5197    15.6385    14.4913    14.3373    4.8036     4.9283     5.9068     6.6463     6.7502    
2513       17.9681    17.9604    15.8951    14.8427    14.4415    5.5976     4.9688     5.9072     6.4178     6.6801    
2513.2     16.571     16.7193    15.363     15.0175    15.0453    4.537      5.1826     5.9585     6.3138     6.293     
2513.4     19.8549    19.9492    17.8309    16.7855    16.2472    4.6626     4.1449     4.8765     5.3317     5.6087    
2513.6     17.5063    17.606     16.6493    16.6567    17.0219    4.5868     4.8456     5.372      5.3956     5.2149    
2513.8     19.1251    19.0279    17.3266    16.7024    16.9197    4.2966     4.3597     5.0809     5.3719     5.2645    
2514       19.279     18.804     17.0818    16.4418    16.8504    4.211      4.4179     5.1799     5.5044     5.2986    
2514.2     19.8299    18.9446    16.9261    16.3112    16.6355    3.8635     4.2231     5.2026     5.5724     5.4055    
2514.4     21.4767    21.9393    18.7861    17.0854    16.9065    3.2286     3.2827     4.3258     5.1885     5.2711    
2514.6     22.9453    23.2275    20.3433    18.2809    17.4696    3.1414     3.01       3.8816     4.6483     5.0046    
2514.8     21.6028    22.0062    19.5361    18.2193    17.6197    3.3581     3.3338     4.1584     4.6739     4.9361    
2515       23.803     23.7064    20.4591    18.4905    17.4487    2.7362     2.849      3.7876     4.562      5.0139    
2515.2     24.1561    23.7991    20.8112    19.0067    17.835     3.0105     2.8539     3.7072     4.3534     4.8399    
2515.4     19.8148    21.2899    19.7296    18.374     17.762     4.3355     3.693      4.163      4.6109     4.8723    
2515.6     18.495     19.5427    18.3297    17.6013    17.5616    5.3297     4.4021     4.7544     4.9448     4.9627    
2515.8     18.2876    18.3179    16.8394    17.2201    17.4769    3.7419     4.409      5.1359     5.1204     5.0012    
2516       22.2265    22.4181    19.8706    18.1155    17.8088    3.2143     3.2176     4.0287     4.7196     4.8516    
2516.2     22.1507    22.2751    19.7053    18.2873    18.0072    3.4869     3.3065     4.1177     4.6454     4.7646    
2516.4     20.3671    20.7119    18.7379    17.6717    17.4446    4.1043     3.821      4.5197     4.9142     5.0167    
2516.6     19.0325    19.3199    17.6304    16.6877    16.5081    4.4671     4.2636     4.932      5.3803     5.4715    
2516.8     19.2017    19.3057    17.7646    16.5162    15.9512    4.0705     4.1745     4.8443     5.4662     5.7652    
2517       19.6109    20.3019    18.1277    16.3537    15.4415    4.1762     3.8912     4.7558     5.5509     6.0543    
2517.2     19.5254    19.6275    16.8479    14.9731    14.2929    4.4869     4.233      5.4666     6.3487     6.79      
2517.4     15.436     15.4083    13.0198    11.9638    12.1561    8.0088     6.5461     8.2818     8.8232     8.578200000000001
2517.6     10.7101    11.3894    9.6592     9.0137     9.8844     11.2848    9.5375     12.019     13.1982    11.5092   
2517.8     8.8426     10.1153    8.9504     8.2156     8.8068     14.7558    11.3014    13.4063    15.0906    13.599    
2518       9.046      10.2045    9.1838     8.7306     9.3188     11.3295    10.7561    12.5215    13.8003    12.5304   
2518.2     10.8727    11.3563    10.5559    10.1125    10.8549    8.8109     9.223599999999999 10.263     11.1295    10.042    
2518.4     15.4791    15.6357    13.2018    12.169     12.6782    5.1948     5.7416     7.3591     8.5669     8.064399999999999
2518.6     18.4338    18.4713    15.6466    14.0927    14.3538    4.454      4.5163     5.8654     6.9229     6.7461    
2518.8     18.0189    18.4887    16.1315    14.9296    15.3576    4.9775     4.5966     5.7012     6.3631     6.1028    
2519       19.9711    19.5937    16.652     15.4705    15.6814    3.0846     3.9003     5.2285     6.0399     5.916     
2519.2     25.2043    25.3219    20.4155    17.0395    16.4284    2.436      2.4669     3.7803     5.2108     5.5127    
2519.4     25.016     25.1367    20.9641    17.6013    16.6803    2.6965     2.5636     3.6918     4.9448     5.3838    
2519.6     23.0261    23.4469    20.3321    17.0015    15.9749    3.4698     3.0458     3.9039     5.2248     5.7534    
2519.8     20.4881    20.9914    19.344     17.1074    15.6233    3.7906     3.6422     4.2277     5.174      5.9485    
2520       20.8366    21.1141    19.4197    17.8326    15.9368    3.5674     3.5988     4.1964     4.8419     5.7739    
2520.2     22.1406    21.9525    19.6231    18.451     16.5933    3.2646     3.3487     4.1081     4.5768     5.4273    
2520.4     22.666     22.0717    19.6448    18.4243    17.1879    3.2256     3.3093     4.1133     4.5879     5.1361    
2520.6     20.0774    20.4142    18.7048    18.0255    17.4759    4.1242     3.8859     4.528      4.7576     5.0016    
2520.8     18.7764    19.8539    18.1672    17.6485    17.7576    4.6014     4.1142     4.7046     4.923      4.8742    
2521       19.7505    20.1523    18.4555    17.9996    18.1156    3.9526     3.9222     4.5453     4.7682     4.7183    
2521.2     19.4949    20.2085    18.9801    18.5753    18.4975    4.1467     3.9226     4.3458     4.5259     4.5577    
2521.4     21.2315    21.9261    20.1051    19.3934    18.988     3.2599     3.2836     3.8804     4.2061     4.3609    
2521.6     23.5169    24.1346    21.6848    20.0758    19.0533    2.9326     2.7599     3.4205     3.9571     4.3353    
2521.8     23.433     23.8745    21.2657    19.1995    18.2482    2.8822     2.8037     3.5968     4.2811     4.6635    
