~Version
 VERS              .         2.0                           : CWLS LOG ASCII STANDARD - VERSION 2.0
 WRAP              .         NO                            : ONE LINE PER DEPTH STEP
 DLM               .         SPACE                         : DELIMITING CHARACTER(SPACE TAB OR COMMA)
~Well Information
#_______________________________________________________________________________
#
#PARAMETER_NAME    .UNIT     VALUE                         : DESCRIPTION
#_______________________________________________________________________________
STRT               .m        2469                          : First reference value
STOP               .m        2690                          : Last reference value
STEP               .m        0.2                           : Step increment
NULL               .         -9999                         : Missing value
COMP               .                                       : Company
WELL               .         101                           : Well name
FLD                .                                       : Field
LOC                .                                       : Location
CNTY               .                                       : County
STAT               .                                       : State
CTRY               .                                       : Country
SRVC               .                                       : Service Company
DATE               .                                       : Date
API                .                                       : API number
LONG               .dega     2.0616605265                  : 
HZCS               .GCS_WGS_1984 World_Mercator                : 
Cartographic_reference_system .         GCS_WGS_1984                  : 
Куст               .         1                             : 
EREF               .m        137.7                         : 
group              .         Pad1                          : 
Тип                .         Разведка                      : 
Статус             .         Не проверено                  : 
LATI               .dega     2.1710182041                  : 
Интер-р            .         Пузин                         : 
Pad                .         1                             : 
~Parameter Information Block
#_______________________________________________________________________________
#
#PARAMETER_NAME    .UNIT     VALUE                         : DESCRIPTION
#_______________________________________________________________________________
SET                .         LAS4                          : 
REAL_CREATION_DATE .         Wed Apr 11 2012-13_17_06      : 
TLFamily_RK20      .         Resistivity 20                : 
TLFamily_RK10      .         Resistivity 10                : 
group              .         INI                           : 
TLFamily_DF20      .         Phase difference 20           : 
TLFamily_DF10      .         Phase difference 10           : 
TLFamily_RK05      .         Resistivity 05                : 
TLFamily_DF05      .         Phase difference 05           : 
TLFamily_RK07      .         Resistivity 07                : 
TLFamily_RK14      .         Resistivity 14                : 
TLFamily_DF07      .         Phase difference 07           : 
TLFamily_DF14      .         Phase difference 14           : 
TLFamily_MD        .         Measured Depth                : 
~Curve Information
#_______________________________________________________________________________
#
#LOGNAME           .UNIT     LOG_ID                        : DESCRIPTION
#_______________________________________________________________________________
MD                 .m                                      : 1 Depth 
DF05               .Ohmm                                   : 2 Induction Log, shift 
DF07               .Ohmm                                   : 3 Induction Log, shift 
DF10               .Ohmm                                   : 4 Induction Log, shift 
DF14               .Ohmm                                   : 5 Induction Log, shift 
DF20               .mS/m                                   : 6 Induction Log, shift 
RK05               .Ohmm                                   : 7 Induction Log, Resistivity 
RK07               .Ohmm                                   : 8 Induction Log, Resistivity 
RK10               .Ohmm                                   : 9 Induction Log, Resistivity 
RK14               .Ohmm                                   : 10 Induction Log, Resistivity 
RK20               .Ohmm                                   : 11 Induction Log, Resistivity 
~Ascii
# ...
2548.8     24.1176    25.3773    23.1668    21.2091    20.4922    2.7181     2.4741     3.0024     3.5792     3.8137    
2549       23.9568    24.9962    22.6833    21.188     20.6037    2.8763     2.5976     3.1601     3.5861     3.776     
2549.2     23.7505    24.6842    22.2981    20.8014    20.6499    2.9928     2.6509     3.257      3.7104     3.7605    
2549.4     22.9783    24.044     22.2638    20.7889    20.8024    2.9235     2.7705     3.2483     3.7146     3.7102    
2549.6     24.1101    24.9063    22.9775    21.5214    21.0806    2.66       2.5576     3.0283     3.4833     3.6201    
2549.8     25.7302    26.7652    24.4758    22.6091    21.7008    2.2334     2.1549     2.6512     3.1648     3.4276    
2550       27.6467    28.5769    25.4834    22.9728    21.6818    2.1132     1.9006     2.49       3.0652     3.4339    
2550.2     24.2817    25.0247    22.5221    20.4961    19.7879    3.4195     2.7626     3.381      3.828      4.0681    
2550.4     18.187     19.0664    17.4585    16.4363    16.5745    7.8241     4.7972     5.2971     5.537      5.4568    
2550.6     14.4498    15.3152    14.9678    14.2949    14.4751    4.1918     5.6991     6.063      6.7826     6.6571    
2550.8     21.1948    21.2154    18.2929    15.4087    14.3162    9.2474     4.1925     5.0364     6.0785     6.7649    
2551       6.0705     7.9026     9.5899     11.1798    12.7051    22.0676    15.4303    12.3356    9.763      8.0511    
2551.2     12.8709    14.6415    12.8547    11.4679    11.9852    6.5817     6.3733     7.577      9.4321     8.7247    
2551.4     18.285     20.5332    17.773     15.9161    15.1483    3.8759     3.6802     4.6725     5.8056     6.264     
2551.6     22.1086    23.8057    20.8965    18.6075    18.0404    3.137      2.8594     3.6536     4.5137     4.7552    
2551.8     23.7914    24.4049    21.5645    19.4402    19.2       2.7324     2.6697     3.4313     4.188      4.2787    
2552       24.5264    25.1895    22.4514    19.9804    19.3721    2.9299     2.5533     3.2156     3.9908     4.2132    
2552.2     21.2444    22.8865    21.208     19.4762    19.0859    3.7733     3.1521     3.6323     4.175      4.3228    
2552.4     21.1619    22.5941    20.8155    19.2304    18.7466    3.4814     3.142      3.6649     4.267      4.4566    
2552.6     21.7446    23.2237    21.7735    19.8601    18.8696    3.3863     2.9835     3.4036     4.0342     4.4075    
2552.8     22.0646    23.8504    22.1018    20.5527    19.2915    3.161      2.8036     3.2827     3.7938     4.2438    
2553       24.7815    26.0532    23.4153    21.3753    19.9311    2.3778     2.2793     2.9011     3.5288     4.0089    
2553.2     25.7966    26.9937    24.2049    22.1044    20.4023    2.4062     2.1599     2.764      3.3076     3.844     
2553.4     25.6846    26.7071    23.8143    21.7055    20.4541    2.4241     2.2196     2.8679     3.4259     3.8264    
2553.6     25.3496    26.1704    23.318     21.1999    20.3968    2.6534     2.3635     3.0107     3.5826     3.8458    
2553.8     24.0131    24.0584    21.8675    20.168     20.0756    2.98       2.8183     3.4249     3.926      3.9575    
2554       21.8708    22.1035    20.0753    19.1254    19.2743    3.4097     3.3107     3.9653     4.3077     4.2508    
2554.2     22.6918    22.9598    20.6367    19.2068    19.1084    2.922      3.0162     3.7159     4.2766     4.3142    
2554.4     24.1162    24.4318    21.7573    20.1802    19.6903    2.7641     2.6946     3.3994     3.921      4.0953    
2554.6     24.2919    24.5044    21.8935    20.4503    19.8556    2.7926     2.6769     3.3667     3.8276     4.0353    
2554.8     23.5344    23.9236    21.6215    20.1526    19.6738    2.9707     2.8258     3.4724     3.9304     4.1014    
2555       23.3087    23.5371    21.0936    19.5067    19.3063    3.0184     2.9244     3.6532     4.1633     4.2384    
2555.2     16.2106    18.3793    17.6891    17.3408    18.1274    16.2614    6.2781     5.5233     5.0978     4.7201    
2555.4     12.2404    13.9811    14.1899    15.6154    17.0675    3.9428     6.6665     6.3888     5.9927     5.1962    
2555.6     27.8363    29.7809    25.7115    21.9506    19.7151    2.1897     1.7509     2.4207     3.3718     4.1012    
2555.8     25.5876    27.2665    24.0332    22.3444    21.8444    2.6195     2.1486     2.8326     3.2413     3.3846    
2556       24.2152    25.4987    22.8497    21.2113    20.9178    2.8651     2.4938     3.111      3.5788     3.6725    
2556.2     22.5733    23.5704    22.1349    20.8625    20.5708    3.2775     2.935      3.313      3.6904     3.787     
2556.4     22.5973    23.1686    21.8157    20.6029    20.4612    3.0994     2.9881     3.3835     3.7763     3.824     
2556.6     23.0481    23.6267    21.977     20.7479    20.5355    2.9661     2.8747     3.3358     3.7284     3.7988    
2556.8     24.0132    24.6166    22.4227    21.1608    20.6771    2.7501     2.6385     3.1997     3.5945     3.7515    
2557       24.3523    24.9581    22.5917    21.3645    20.8185    2.6505     2.5615     3.1545     3.5304     3.705     
2557.2     23.9288    24.6636    22.3312    20.8031    20.6174    3.1766     2.7184     3.2923     3.7111     3.7717    
2557.4     21.5792    22.4873    20.867     19.7092    20.004     3.4244     3.1851     3.7011     4.0891     3.9832    
2557.6     22.2586    23.0816    20.9173    19.4245    19.2019    3.2734     3.0219     3.6698     4.1936     4.2781    
2557.8     21.3124    22.6884    20.5696    19.3177    18.792     3.4724     3.1319     3.8022     4.2339     4.4383    
2558       22.9031    24.4645    21.3608    19.5571    19.0228    2.9626     2.6682     3.4663     4.145      4.3472    
2558.2     23.502     25.0009    22.3568    20.1238    19.4188    2.9697     2.5821     3.2481     3.9402     4.1959    
2558.4     21.6295    23.2011    21.107     19.6061    19.138     4.2588     3.1708     3.7207     4.1307     4.3033    
2558.6     18.7169    20.5425    19.2694    18.1252    18.2118    4.0787     3.6997     4.1968     4.7143     4.678     
2558.8     21.0555    22.7091    20.5775    18.2536    17.6919    3.5947     3.1152     3.7782     4.6594     4.9036    
2559       19.0045    21.11      19.5655    17.8523    17.3618    4.2039     3.6234     4.1791     4.833      5.0543    
2559.2     21.2832    22.845     20.0249    17.8401    17.3105    3.6197     3.1108     3.9462     4.8386     5.0781    
2559.4     20.7003    22.536     20.1414    18.4327    17.7864    3.6067     3.1697     3.9119     4.5845     4.8626    
2559.6     22.5092    24.1279    21.1206    18.9515    18.4514    3.4054     2.8123     3.6123     4.3751     4.5768    
2559.8     20.8566    22.4141    20.2791    18.7733    18.6929    3.4731     3.1438     3.8488     4.4457     4.4781    
2560       22.9488    24.6383    22.1361    19.6465    19.1333    2.8898     2.6025     3.2504     4.1148     4.3051    
2560.2     24.6262    26.5146    23.6138    20.9964    20.001     2.5397     2.2269     2.881      3.6478     3.9838    
2560.4     25.7053    27.1653    23.9473    21.4492    20.4081    2.6067     2.1597     2.84       3.5042     3.842     
2560.6     22.6081    24.2341    21.9303    20.1157    19.7873    3.495      2.8095     3.433      3.9462     4.0614    
2560.8     21.0422    22.7323    20.8094    19.2696    19.0434    3.3759     3.0662     3.6644     4.2521     4.3394    
2561       23.4363    25.2706    22.4918    20.2562    19.2828    2.788      2.4719     3.1652     3.8959     4.2474    
2561.2     23.3947    25.0467    22.3884    20.4958    19.6113    3.1733     2.6139     3.2804     3.8131     4.1244    
2561.4     21.7373    23.7262    21.1839    19.7559    19.2296    3.1177     2.8202     3.5377     4.0714     4.2673    
2561.6     25.7715    27.4451    23.4454    20.8821    19.7046    2.6205     2.1006     2.9262     3.6845     4.0904    
2561.8     22.3726    24.1367    21.8339    20.3397    19.9758    3.0866     2.7549     3.417      3.8663     3.9924    
2562       25.3053    26.3305    22.7812    20.3594    19.7499    2.9569     2.3417     3.1323     3.8589     4.0736    
