~Version
 VERS              .         2.0                           : CWLS LOG ASCII STANDARD - VERSION 2.0
 WRAP              .         NO                            : ONE LINE PER DEPTH STEP
 DLM               .         SPACE                         : DELIMITING CHARACTER(SPACE TAB OR COMMA)
~Well Information
#_______________________________________________________________________________
#
#PARAMETER_NAME    .UNIT     VALUE                         : DESCRIPTION
#_______________________________________________________________________________
STRT               .m        2469                          : First reference value
STOP               .m        2690                          : Last reference value
STEP               .m        0.2                           : Step increment
NULL               .         -9999                         : Missing value
COMP               .                                       : Company
WELL               .         101                           : Well name
FLD                .                                       : Field
LOC                .                                       : Location
CNTY               .                                       : County
STAT               .                                       : State
CTRY               .                                       : Country
SRVC               .                                       : Service Company
DATE               .                                       : Date
API                .                                       : API number
LONG               .dega     2.0616605265                  : 
HZCS               .GCS_WGS_1984 World_Mercator                : 
Cartographic_reference_system .         GCS_WGS_1984                  : 
Куст               .         1                             : 
EREF               .m        137.7                         : 
group              .         Pad1                          : 
Тип                .         Разведка                      : 
Статус             .         Не проверено                  : 
LATI               .dega     2.1710182041                  : 
Интер-р            .         Пузин                         : 
Pad                .         1                             : 
~Parameter Information Block
#_______________________________________________________________________________
#
#PARAMETER_NAME    .UNIT     VALUE                         : DESCRIPTION
#_______________________________________________________________________________
SET                .         LAS4                          : 
REAL_CREATION_DATE .         Wed Apr 11 2012-13_17_06      : 
TLFamily_RK20      .         Resistivity 20                : 
TLFamily_RK10      .         Resistivity 10                : 
group              .         INI                           : 
TLFamily_DF20      .         Phase difference 20           : 
TLFamily_DF10      .         Phase difference 10           : 
TLFamily_RK05      .         Resistivity 05                : 
TLFamily_DF05      .         Phase difference 05           : 
TLFamily_RK07      .         Resistivity 07                : 
TLFamily_RK14      .         Resistivity 14                : 
TLFamily_DF07      .         Phase difference 07           : 
TLFamily_DF14      .         Phase difference 14           : 
TLFamily_MD        .         Measured Depth                : 
~Curve Information
#_______________________________________________________________________________
#
#LOGNAME           .UNIT     LOG_ID                        : DESCRIPTION
#_______________________________________________________________________________
MD                 .m                                      : 1 Depth 
DF05               .Ohmm                                   : 2 Induction Log, shift 
DF07               .Ohmm                                   : 3 Induction Log, shift 
DF10               .Ohmm                                   : 4 Induction Log, shift 
DF14               .Ohmm                                   : 5 Induction Log, shift 
DF20               .mS/m                                   : 6 Induction Log, shift 
RK05               .Ohmm                                   : 7 Induction Log, Resistivity 
RK07               .Ohmm                                   : 8 Induction Log, Resistivity 
RK10               .Ohmm                                   : 9 Induction Log, Resistivity 
RK14               .Ohmm                                   : 10 Induction Log, Resistivity 
RK20               .Ohmm                                   : 11 Induction Log, Resistivity 
~Ascii
# ...
2562.2     21.2104    22.3421    20.6867    19.7245    19.5682    3.2843     3.1633     3.7501     4.0849     4.1401    
2562.4     23.7       25.0257    22.0658    19.9326    19.3323    2.7384     2.5249     3.2853     4.0101     4.2283    
2562.6     24.5384    25.7292    22.6416    20.641     19.8049    2.6507     2.3882     3.1502     3.7635     4.0538    
2562.8     24.2458    25.8213    22.588     20.3834    19.7493    2.842      2.4242     3.2024     3.8506     4.0739    
2563       21.736     23.6608    21.1998    19.4899    19.2118    3.7499     2.9781     3.6347     4.1709     4.2746    
2563.2     21.3218    22.8742    20.5695    19.0663    18.7387    3.3456     3.0397     3.7466     4.3309     4.4596    
2563.4     22.6203    24.4633    21.7837    19.8827    19.185     3.0025     2.6528     3.3606     4.0268     4.2854    
2563.6     24.8228    26.6648    23.3685    21.1195    20.1827    2.5295     2.2054     2.9399     3.6086     3.9203    
2563.8     25.2444    26.6983    23.675     21.5685    20.7639    2.6334     2.2333     2.8987     3.4675     3.7228    
2564       22.8138    24.6803    22.3892    20.8175    20.5823    3.1072     2.6593     3.2565     3.7057     3.7835    
2564.2     23.6157    25.4484    22.5889    20.6285    20.2914    2.8779     2.4696     3.1503     3.7678     3.882     
2564.4     23.968     25.8055    22.698     20.7686    20.0456    2.6887     2.3742     3.1319     3.7214     3.9677    
2564.6     24.9404    26.409     22.8792    20.4412    19.6842    2.7847     2.3212     3.1246     3.8308     4.0975    
2564.8     22.8421    24.0371    21.2437    19.4462    19.211     3.3331     2.8371     3.6139     4.1869     4.2748    
2565       20.6062    21.9507    19.7941    18.5185    18.5387    4.0098     3.4083     4.0966     4.55       4.5415    
2565.2     19.7904    21.2724    19.1741    18.126     17.8751    3.77       3.5001     4.2417     4.7135     4.8222    
2565.4     21.6692    23.0642    20.2149    18.4451    17.939     3.6647     3.0536     3.9156     4.5793     4.7942    
2565.6     21.2414    22.4014    19.7212    18.1065    17.7523    3.2469     3.106      4.0451     4.7218     4.8765    
2565.8     23.0013    24.2839    20.7039    18.1074    17.5062    3.1243     2.7224     3.7677     4.7214     4.9876    
2566       19.3774    21.6301    18.9851    17.2575    17.1203    4.9683     3.7048     4.5309     5.1068     5.1698    
2566.2     18.9526    20.6851    18.1603    16.6522    16.7361    3.7509     3.6334     4.5573     5.3991     5.3552    
2566.4     21.5932    23.4069    20.4944    18.257     17.2503    3.465      2.984      3.8209     4.6585     5.1076    
2566.6     21.8031    23.3267    20.1776    18.3442    17.5346    3.7214     3.0208     3.9456     4.6218     4.9747    
2566.8     19.529     21.1315    19.0192    17.6962    16.9685    3.7836     3.5062     4.3111     4.9019     5.241     
2567       22.2732    23.9085    20.3967    17.616     16.5083    3.3943     2.8518     3.8701     4.9377     5.4703    
2567.2     19.9764    21.7303    18.7505    16.5369    15.9221    4.4655     3.5251     4.5607     5.4626     5.783     
2567.4     18.1714    19.8228    17.3091    15.3427    14.9623    4.4653     4.0274     5.0566     6.1116     6.3434    
2567.6     19.4853    20.9418    18.1851    15.8271    14.8661    4.2331     3.6744     4.6892     5.8341     6.4034    
2567.8     19.666     20.7399    17.8741    15.9283    15.048     4.1966     3.7268     4.8313     5.7779     6.2896    
2568       18.6827    19.7652    17.3226    15.507     14.8367    4.4591     4.0508     5.0916     6.0159     6.422     
2568.2     19.0174    20.1219    17.4047    15.2914    14.6895    4.2326     3.9058     5.0157     6.1424     6.516     
2568.4     18.6996    20.0681    17.4282    15.2708    14.7157    4.5561     3.995      5.0551     6.1544     6.4991    
2568.6     19.4253    20.3252    17.4801    15.2535    14.7398    4.2913     3.8651     4.9951     6.1649     6.4837    
2568.8     18.3463    19.5874    17.2391    15.2224    14.5032    4.5517     4.1155     5.1244     6.1835     6.6383    
2569       18.6092    19.9163    17.2476    15.1399    14.4626    4.5141     4.007      5.0997     6.2334     6.6654    
2569.2     18.7527    20.0765    17.3643    15.3019    14.6051    4.5044     3.9664     5.0528     6.1359     6.5711    
2569.4     18.3518    19.78      17.2245    15.3295    14.6559    4.5708     4.0629     5.1114     6.1194     6.5379    
2569.6     19.0388    20.4201    17.6252    15.5524    14.932     4.1051     3.7808     4.883      5.9901     6.3619    
2569.8     20.3292    21.6218    18.5743    16.2766    15.4624    4.0361     3.4711     4.5342     5.5908     6.0415    
2570       18.7858    20.3224    18.0468    16.2615    15.7319    4.2755     3.8374     4.74       5.5984     5.8869    
2570.2     20.763     22.2565    19.1921    16.8601    16.0195    3.7218     3.2556     4.2389     5.2951     5.728     
2570.4     21.1266    22.756     19.7277    17.4459    16.3558    3.4082     3.0693     4.0506     5.0154     5.5492    
2570.6     21.6539    23.5261    20.1913    17.4457    16.4075    3.5519     2.9622     3.9513     5.0155     5.5222    
2570.8     20.0413    21.9344    19.1081    16.6869    15.9901    4.2986     3.4524     4.3714     5.3812     5.7449    
2571       19.3795    21.2611    18.6275    16.4547    15.6119    4.0859     3.5258     4.4596     5.4978     5.9549    
2571.2     18.9646    20.9551    18.6328    16.5202    15.5463    4.4328     3.7004     4.5592     5.4642     5.9926    
2571.4     19.8671    21.5457    18.6208    16.3902    15.5331    3.8742     3.4484     4.4798     5.5311     6.0002    
2571.6     20.5804    22.1716    18.9182    16.5307    15.5142    3.7423     3.2824     4.3842     5.4588     6.0112    
2571.8     20.7038    22.0677    18.7313    16.4224    15.4763    3.7738     3.3187     4.4712     5.5144     6.0332    
2572       20.2241    21.4652    18.3885    16.1524    15.3651    4.2996     3.5871     4.6678     5.6571     6.0984    
2572.2     18.3518    19.9503    17.4065    15.5022    15.1631    4.4079     3.9675     5.0183     6.0187     6.2192    
2572.4     18.9977    20.4807    17.5736    15.4296    14.9493    4.191      3.7968     4.9443     6.0604     6.3509    
2572.6     20.5561    21.8725    18.1782    15.7428    14.991     3.6895     3.3506     4.6575     5.8814     6.3251    
2572.8     21.3526    22.6306    18.8535    16.2319    15.2308    3.4838     3.1456     4.405      5.6145     6.1785    
2573       21.4428    22.6202    18.936     16.398     15.2891    3.5129     3.1773     4.3918     5.527      6.1434    
2573.2     20.7514    21.6176    18.2374    15.9067    15.0705    4.0529     3.5241     4.7315     5.7905     6.2762    
2573.4     19.334     20.0341    17.1359    15.2603    14.6544    4.1685     3.9313     5.1431     6.1609     6.5391    
2573.6     18.8925    20.2728    17.306     15.2985    14.547     4.4311     3.9038     5.0832     6.1385     6.6093    
2573.8     20.7525    21.9933    18.1057    15.7064    14.8072    3.2851     3.2563     4.6446     5.9028     6.4408    
2574       22.8477    23.8884    19.4952    16.382     15.0531    3.0811     2.8039     4.1533     5.5355     6.2866    
2574.2     19.3604    23.4716    19.4747    16.4646    15.1517    5.4269     3.5644     4.2843     5.4936     6.2266    
2574.4     17.5147    18.5771    15.9312    14.6303    14.5461    4.4491     4.4351     5.7007     6.5631     6.6111    
2574.6     19.7458    19.8489    16.9599    14.4145    14.087     3.902      3.9994     5.2175     6.7063     6.9239    
2574.8     21.5696    21.703     18.0217    15.9274    14.6751    3.2722     3.3773     4.7183     5.7802     6.5273    
2575       22.7087    22.5052    18.8008    16.6368    15.3271    3.0406     3.1721     4.4045     5.4051     6.1212    
2575.2     23.038     22.8543    19.2763    17.012     15.8808    3.0898     3.0972     4.2312     5.2198     5.8038    
2575.4     22.49      23.4831    19.9255    17.3781    15.9752    2.9506     2.8752     3.9626     5.0469     5.752     
