~Version
 VERS              .         2.0                           : CWLS LOG ASCII STANDARD - VERSION 2.0
 WRAP              .         NO                            : ONE LINE PER DEPTH STEP
 DLM               .         SPACE                         : DELIMITING CHARACTER(SPACE TAB OR COMMA)
~Well Information
#_______________________________________________________________________________
#
#PARAMETER_NAME    .UNIT     VALUE                         : DESCRIPTION
#_______________________________________________________________________________
STRT               .m        2469                          : First reference value
STOP               .m        2690                          : Last reference value
STEP               .m        0.2                           : Step increment
NULL               .         -9999                         : Missing value
COMP               .                                       : Company
WELL               .         101                           : Well name
FLD                .                                       : Field
LOC                .                                       : Location
CNTY               .                                       : County
STAT               .                                       : State
CTRY               .                                       : Country
SRVC               .                                       : Service Company
DATE               .                                       : Date
API                .                                       : API number
LONG               .dega     2.0616605265                  : 
HZCS               .GCS_WGS_1984 World_Mercator                : 
Cartographic_reference_system .         GCS_WGS_1984                  : 
Куст               .         1                             : 
EREF               .m        137.7                         : 
group              .         Pad1                          : 
Тип                .         Разведка                      : 
Статус             .         Не проверено                  : 
LATI               .dega     2.1710182041                  : 
Интер-р            .         Пузин                         : 
Pad                .         1                             : 
~Parameter Information Block
#_______________________________________________________________________________
#
#PARAMETER_NAME    .UNIT     VALUE                         : DESCRIPTION
#_______________________________________________________________________________
SET                .         LAS4                          : 
REAL_CREATION_DATE .         Wed Apr 11 2012-13_17_06      : 
TLFamily_RK20      .         Resistivity 20                : 
TLFamily_RK10      .         Resistivity 10                : 
group              .         INI                           : 
TLFamily_DF20      .         Phase difference 20           : 
TLFamily_DF10      .         Phase difference 10           : 
TLFamily_RK05      .         Resistivity 05                : 
TLFamily_DF05      .         Phase difference 05           : 
TLFamily_RK07      .         Resistivity 07                : 
TLFamily_RK14      .         Resistivity 14                : 
TLFamily_DF07      .         Phase difference 07           : 
TLFamily_DF14      .         Phase difference 14           : 
TLFamily_MD        .         Measured Depth                : 
~Curve Information
#_______________________________________________________________________________
#
#LOGNAME           .UNIT     LOG_ID                        : DESCRIPTION
#_______________________________________________________________________________
MD                 .m                                      : 1 Depth 
DF05               .Ohmm                                   : 2 Induction Log, shift 
DF07               .Ohmm                                   : 3 Induction Log, shift 
DF10               .Ohmm                                   : 4 Induction Log, shift 
DF14               .Ohmm                                   : 5 Induction Log, shift 
DF20               .mS/m                                   : 6 Induction Log, shift 
RK05               .Ohmm                                   : 7 Induction Log, Resistivity 
RK07               .Ohmm                                   : 8 Induction Log, Resistivity 
RK10               .Ohmm                                   : 9 Induction Log, Resistivity 
RK14               .Ohmm                                   : 10 Induction Log, Resistivity 
RK20               .Ohmm                                   : 11 Induction Log, Resistivity 
~Ascii
# ...
2655       16.752     18.0611    16.5238    15.2018    14.7346    5.4577     4.83       5.5993     6.2007     6.4876    
2655.2     18.4629    19.481     16.4541    14.336     13.9388    4.6644     4.2384     5.4943     6.751      7.0318    
2655.4     18.0329    18.3715    15.8583    14.2404    13.7159    4.8883     4.6477     5.8589     6.8183     7.1944    
2655.6     17.1988    17.709     15.1648    13.8333    13.6148    5.083      4.9087     6.2114     7.1071     7.2709    
2655.8     17.5476    17.8299    15.527     14.1156    13.9547    5.2257     4.8944     5.9837     6.9042     7.0197    
2656       16.4131    16.7369    15.5593    14.7246    14.6287    5.7146     5.3173     5.931      6.495      6.5565    
2656.2     13.9601    16.1381    15.8915    15.3364    14.9061    7.0838     5.6789     5.7982     6.1153     6.3778    
2656.4     18.0702    19.9202    17.5323    15.6225    14.8431    3.7294     3.8233     4.8547     5.9513     6.4179    
2656.6     21.5239    22.1125    18.4365    15.3439    13.9165    3.988      3.4241     4.7326     6.1201     7.0536    
2656.8     17.7186    18.9109    15.3969    12.7547    11.9473    5.3373     4.4248     6.189      7.9932     8.787900000000001
2657       17.7018    18.7711    14.827     11.4595    10.3268    5.0563     4.4858     6.4254     9.283300000000001 10.7838   
2657.2     15.809     15.5793    13.6945    10.9104    9.6253     5.7645     6.0119     7.3568     9.9574     11.9278   
2657.4     17.3492    15.9785    12.8366    10.4739    9.2246     6.5292     5.93       8.1513     10.5777    12.712    
2657.6     12.1129    10.8013    9.0566     8.3667     7.962      8.3478     9.973100000000001 13.4188    14.8424    15.8642   
2657.8     13.0203    11.6619    8.3565     7.3454     6.8585     6.6477     8.7537     14.4161    17.8806    19.8381   
2658       13.1495    13.0966    9.2029     7.6815     7.1811     8.7555     7.9363     12.903     16.7011    18.516    
2658.2     21.7953    18.5815    12.4779    9.3289     8.4979     3.1053     4.1599     7.7478     12.8484    14.4452   
2658.4     7.2836     7.0471     8.3733     8.1095     8.4463     690569.8   1758.931   73.7633    17.125     14.5189   
2658.6     9.3034     7.9479     5.0217     4.1011     7.1268     9.1143     15.0095    30.0985    45.1483    18.9095   
2658.8     13.2802    11.2486    9.212      7.5168     7.4051     6.4042     9.2425     12.5297    17.3262    17.7785   
2659       15.0852    14.5921    10.404     8.4632     8.3927     6.8965     6.5928     10.5443    14.4564    14.6175   
2659.2     13.9156    15.3822    11.8879    9.9191     9.5049     5.7184     5.7997     8.4073     11.5488    12.2071   
2659.4     20.091     22.28      18.3794    13.9445    11.8304    3.8991     3.2788     4.5326     7.0697     8.9184    
2659.6     20.1551    21.6381    18.5913    15.3061    13.6273    3.7677     3.4614     4.519      6.1342     7.262     
2659.8     20.806     21.9169    18.7077    15.3431    13.7277    3.8578     3.4005     4.4779     6.1113     7.1856    
2660       19.9533    21.5229    18.6821    15.7382    14.013     3.8201     3.4577     4.439      5.8837     6.9777    
2660.2     19.9762    21.642     19.1637    16.1814    14.4854    4.5425     3.6044     4.3705     5.6408     6.6511    
2660.4     18.08      19.457     17.9167    16.0711    15.0576    4.5034     4.1527     4.7456     5.7007     6.286     
2660.6     19.0094    20.6871    19.6211    18.0299    16.6417    4.4445     3.7603     4.0663     4.7654     5.4142    
2660.8     20.0046    22.4777    21.9686    21.0628    19.7747    3.5387     3.0901     3.2413     3.6349     4.0762    
2661       22.8435    26.3517    25.6297    23.8521    22.4309    2.9808     2.2464     2.3903     2.8394     3.2157    
2661.2     22.7824    26.9474    25.9474    23.9443    22.7062    3.0307     2.1823     2.3977     2.8166     3.1382    
2661.4     23.2705    26.7213    24.507     22.1117    21.0796    3.26       2.2833     2.7195     3.3087     3.6235    
2661.6     21.3597    24.2686    22.9908    20.5796    19.4402    3.6555     2.8021     3.1031     3.7854     4.1887    
2661.8     21.1142    22.7448    21.973     20.0454    18.8124    3.5492     3.113      3.3284     3.9677     4.4301    
2662       21.2465    22.8884    22.0928    20.2398    18.7554    3.7003     3.1172     3.3296     3.8998     4.4531    
2662.2     21.8911    23.5608    22.0214    20.0683    18.4843    2.9972     2.8222     3.3121     3.9599     4.5633    
2662.4     24.1037    25.466     21.587     19.2609    17.5778    3.3752     2.5117     3.5667     4.26       4.9578    
2662.6     18.0517    20.4789    17.7463    16.3048    15.7223    5.1981     3.8916     5.0749     5.595      5.9041    
2662.8     14.9433    17.4395    15.1009    13.9115    14.2126    6.5928     5.1473     6.3562     7.0532     6.8379    
2663       15.1499    16.9513    14.5469    12.9731    14.0901    6.9515     5.3965     6.6327     7.7882     6.9218    
2663.2     14.5696    16.7422    15.0088    13.9123    14.9508    5.0996     5.0764     6.0614     7.077      6.3571    
2663.4     20.7727    23.3204    20.4565    18.0513    17.3608    3.6901     2.9707     3.7626     4.7682     5.0664    
2663.6     20.9526    24.1452    21.7278    20.1229    19.643     3.3994     2.7249     3.3818     3.9406     4.1142    
2663.8     23.7143    26.4308    22.9898    20.2609    19.767     2.8843     2.2707     3.0609     3.8928     4.0686    
2664       22.0049    24.3949    21.1789    18.7091    18.3896    3.6777     2.7835     3.6956     4.4812     4.608     
2664.2     20.3712    22.4005    19.4832    16.7132    16.4646    3.8752     3.2547     4.1678     5.3682     5.4973    
2664.4     19.3404    20.7626    19.164     16.3632    15.4031    4.4778     3.8191     4.4233     5.5453     6.0766    
2664.6     17.9298    18.7264    17.1266    15.6903    14.8275    4.7646     4.4633     5.1559     5.9124     6.4288    
2664.8     19.0643    20.1823    18.118     16.5938    14.7112    4.334      3.9183     4.6996     5.4294     6.5034    
2665       18.8029    20.0109    17.7932    17.0062    15.5097    4.467      3.9763     4.8827     5.2229     6.0153    
2665.2     19.2745    20.3732    17.9471    16.6967    16.4166    4.0275     3.7919     4.7269     5.3749     5.5185    
2665.4     20.5438    21.8158    19.7593    17.7952    17.5867    3.5915     3.3165     3.9918     4.8614     4.9543    
2665.6     21.0108    23.4942    21.5507    19.4713    18.9647    3.6046     2.9143     3.4542     4.1776     4.371     
2665.8     21.6038    24.8117    22.3353    20.3201    19.6529    3.3595     2.6108     3.2186     3.8725     4.1092    
2666       23.8189    26.1742    22.9722    20.4848    19.4506    2.8997     2.3186     3.0697     3.8162     4.184     
2666.2     22.0686    24.8647    22.3482    19.8945    18.8997    3.3608     2.5952     3.2444     4.0217     4.3955    
2666.4     22.3285    25.0812    22.4665    19.9291    18.8213    3.3128     2.5744     3.2248     4.009      4.4267    
2666.6     20.9453    22.597     20.8246    19.0427    18.2072    3.8641     3.2654     3.7996     4.343      4.681     
2666.8     19.9739    20.6794    18.7848    17.5072    17.0295    4.0399     3.7649     4.4747     4.9881     5.2124    
2667       19.8853    20.4734    18.3191    17.0883    16.7389    3.9263     3.7994     4.6152     5.1832     5.3537    
2667.2     20.3637    20.8679    18.804     17.4215    17.0424    4.0174     3.7259     4.4337     5.0266     5.2052    
2667.4     19.7746    20.3132    18.9547    17.8099    17.5912    3.7913     3.8065     4.3293     4.8517     4.9497    
2667.6     21.7008    22.0896    20.1201    18.7129    18.1732    3.3636     3.2931     3.9307     4.4702     4.6933    
2667.8     21.6146    22.1622    19.8928    18.4047    17.9208    3.3861     3.2793     4.0249     4.5967     4.8033    
2668       22.1472    22.6923    19.6196    17.3883    16.8728    3.4365     3.1963     4.1938     5.0444     5.2895    
