~Version
 VERS              .         2.0                           : CWLS LOG ASCII STANDARD - VERSION 2.0
 WRAP              .         NO                            : ONE LINE PER DEPTH STEP
 DLM               .         SPACE                         : DELIMITING CHARACTER(SPACE TAB OR COMMA)
~Well Information
#_______________________________________________________________________________
#
#PARAMETER_NAME    .UNIT     VALUE                         : DESCRIPTION
#_______________________________________________________________________________
STRT               .m        2469                          : First reference value
STOP               .m        2690                          : Last reference value
STEP               .m        0.2                           : Step increment
NULL               .         -9999                         : Missing value
COMP               .                                       : Company
WELL               .         101                           : Well name
FLD                .                                       : Field
LOC                .                                       : Location
CNTY               .                                       : County
STAT               .                                       : State
CTRY               .                                       : Country
SRVC               .                                       : Service Company
DATE               .                                       : Date
API                .                                       : API number
LONG               .dega     2.0616605265                  : 
HZCS               .GCS_WGS_1984 World_Mercator                : 
Cartographic_reference_system .         GCS_WGS_1984                  : 
Куст               .         1                             : 
EREF               .m        137.7                         : 
group              .         Pad1                          : 
Тип                .         Разведка                      : 
Статус             .         Не проверено                  : 
LATI               .dega     2.1710182041                  : 
Интер-р            .         Пузин                         : 
Pad                .         1                             : 
~Parameter Information Block
#_______________________________________________________________________________
#
#PARAMETER_NAME    .UNIT     VALUE                         : DESCRIPTION
#_______________________________________________________________________________
SET                .         LAS2                          : 
REAL_CREATION_DATE .         Wed Apr 11 2012-13_17_06      : 
TLFamily_GGR1      .         Density Large                 : 
TLFamily_GGR2      .         Density Small                 : 
group              .         INI                           : 
TLFamily_RHOB      .         Bulk Density                  : 
TLFamily_MD        .         Measured Depth                : 
~Curve Information
#_______________________________________________________________________________
#
#LOGNAME           .UNIT     LOG_ID                        : DESCRIPTION
#_______________________________________________________________________________
MD                 .m                                      : 1 Depth 
GGR1               .imp/min                                : 3 Density GGL Log by Large Zonde 
GGR2               .imp/min                                : 2 Density GGL Log by Small Zonde 
RHOB               .g/cm3                                  : 4 Standart Resolution Formation Densitu 
~Ascii
# ...
2505.4     3552.472   1031.118   2.4316    
2505.6     3475.618   1036.655   2.3972    
2505.8     3565.618   1040.817   2.45      
2506       3673.82    1017.708   2.4885    
2506.2     3734.494   1007.191   2.513     
2506.4     3720.337   959.269    2.5904    
2506.6     3292.736   839.165    2.5987    
2506.8     2944.306   781.888    2.525     
2507       2980.68    771.168    2.5688    
2507.2     3066.067   781.061    2.5656    
2507.4     3039.775   775.618    2.577     
2507.6     3077.191   805.124    2.5317    
2507.8     2941.685   807.575    2.4739    
2508       2903.258   797.146    2.4901    
2508.2     2913.757   792.224    2.496     
2508.4     3011.46    802.567    2.522     
2508.6     3026.629   794.629    2.536     
2508.8     3112.584   808.24     2.541     
2509       3028.652   823.348    2.4886    
2509.2     3025.618   847.416    2.455     
2509.4     2944.719   853.088    2.4363    
2509.6     2998.842   836.469    2.4627    
2509.8     3020.204   838.517    2.458     
2510       2953.853   812.831    2.4823    
2510.2     3011.46    842.14     2.4598    
2510.4     3045.843   846.404    2.4669    
2510.6     3043.82    881.344    2.4246    
2510.8     3087.303   889.241    2.4473    
2511       3024.606   890.899    2.4011    
2511.2     3079.311   867.282    2.4742    
2511.4     3039.775   858.204    2.4607    
2511.6     3040.786   815.865    2.5278    
2511.8     2946.741   800.494    2.5115    
2512       2907.303   780.674    2.5166    
2512.2     2923.483   799.245    2.4774    
2512.4     2947.799   806.107    2.4843    
2512.6     3014.494   806.425    2.5125    
2512.8     3115.618   811.052    2.5617    
2513       3182.359   866.831    2.4759    
2513.2     3319.887   896.68     2.4994    
2513.4     3478.652   985.753    2.4185    
2513.6     3657.64    1097.596   2.3645    
2513.8     3570.674   1127.845   2.3364    
2514       3586.212   1110.792   2.3427    
2514.2     3603.101   1080.404   2.4014    
2514.4     3618.202   1079.364   2.3939    
2514.6     3724.382   1113.573   2.3733    
2514.8     3774.944   1149.573   2.4014    
2515       3945.842   1132.989   2.4291    
2515.2     4140       1114.754   2.5193    
2515.4     4151.605   1104.067   2.5261    
2515.6     4016.629   1055.792   2.5605    
2515.8     3722.359   989.093    2.4962    
2516       3407.865   950.764    2.4619    
2516.2     3337.079   950.966    2.4463    
2516.4     3329.801   951.833    2.4438    
2516.6     3316.854   924.27     2.4744    
2516.8     3213.708   885.438    2.4467    
2517       3050.899   808.395    2.5533    
2517.2     2978.09    791.976    2.5272    
2517.4     2932.584   769.348    2.5667    
2517.6     2953.82    744.876    2.6201    
2517.8     2778.876   703.416    2.6207    
2518       2806.18    699.263    2.5936    
2518.2     2875.638   737.363    2.5522    
2518.4     3042.809   807.777    2.5035    
2518.6     3335.056   915.168    2.4468    
2518.8     3542.359   1028.325   2.411     
2519       3504.944   1033.079   2.4181    
2519.2     3533.258   993.236    2.4557    
2519.4     3700.64    1009.213   2.502     
2519.6     3810.226   1000.921   2.5464    
2519.8     3750.674   972.809    2.5738    
2520       3722.359   963.708    2.5746    
2520.2     3396.741   892.719    2.5581    
2520.4     3094.382   857.933    2.4869    
2520.6     3204.423   896.157    2.4434    
2520.8     3387.324   953.191    2.4572    
2521       3442.247   1009.092   2.3939    
2521.2     3453.371   1034.899   2.3855    
2521.4     3482.696   1033.888   2.3958    
2521.6     3515.056   1083.034   2.3437    
2521.8     3545.393   1073.326   2.3865    
2522       3564.607   1075.955   2.3917    
2522.2     3582.015   1029.644   2.4416    
2522.4     3597.977   1001.288   2.4834    
2522.6     3669.775   964.012    2.5298    
2522.8     3770.899   1022.288   2.4675    
2523       3706.18    1042.786   2.4594    
2523.2     3573.708   1019.933   2.4549    
2523.4     3498.02    996.563    2.4396    
2523.6     3684.898   996.067    2.5153    
2523.8     3812.929   957.528    2.5924    
2524       3748.56    914.966    2.6245    
2524.2     3583.82    863.51     2.6806    
2524.4     3224.831   786.337    2.6673    
2524.6     2966.966   733.225    2.6187    
2524.8     2981.124   720.726    2.6338    
2525       2973.937   741.023    2.6092    
2525.2     3071.124   757.397    2.6225    
2525.4     2968.989   795.438    2.5187    
2525.6     2993.258   766.112    2.5929    
2525.8     2987.191   775.068    2.5591    
2526       3081.236   790.787    2.5568    
2526.2     3161.123   820.921    2.5437    
2526.4     3113.091   851.797    2.4815    
2526.6     3155.824   856.921    2.4949    
2526.8     3297.861   888.472    2.5104    
2527       3390.674   920.285    2.496     
2527.2     3371.46    902.831    2.5373    
2527.4     3271.348   880.786    2.5242    
2527.6     3178.314   865.098    2.5034    
2527.8     3118.935   876.473    2.4626    
2528       3189.438   917.671    2.428     
2528.2     3259.067   940.814    2.4401    
2528.4     3283.483   889.472    2.5023    
2528.6     3332.022   887.505    2.5255    
2528.8     3254.157   870.773    2.5188    
2529       3229.887   827.595    2.5881    
2529.2     3242.022   837.851    2.5451    
2529.4     3226.854   858.742    2.5204    
2529.6     3303.708   853.071    2.5593    
2529.8     3125.73    853.685    2.5028    
2530       3224.831   882.091    2.4918    
2530.2     3212.696   909.55     2.437     
2530.4     3417.978   926.494    2.4855    
2530.6     3338.09    916.584    2.5004    
2530.8     3289.551   902.022    2.4757    
2531       3264.27    930.337    2.4285    
2531.2     3415.776   979.685    2.4299    
2531.4     3590.899   1020.68    2.4274    
2531.6     3675.843   1008.864   2.4987    
2531.8     3876.067   999.392    2.5935    
2532       3903.371   1028.022   2.5343    
2532.2     4038.876   1074.742   2.514     
2532.4     4125.843   1049.258   2.5933    
2532.6     3804.269   1006.97    2.5547    
2532.8     3646.517   968.535    2.5556    
2533       3821.46    1023.653   2.4828    
2533.2     4092.71    1084.834   2.5497    
2533.4     4330.112   1136.629   2.5347    
2533.6     4246.18    1135.405   2.5416    
2533.8     3883.146   1010.927   2.5836    
2534       3439.213   962.494    2.4677    
2534.2     3485.73    996.674    2.4463    
2534.4     3575.73    1012.454   2.4384    
2534.6     3609.101   1000.517   2.4927    
2534.8     3585.843   975.546    2.4924    
2535       3533.737   994.145    2.4547    
2535.2     3558.539   1037.897   2.4321    
2535.4     3764.831   1097.598   2.4111    
2535.6     3997.416   1171.805   2.3902    
2535.8     4085.393   1241.798   2.3649    
2536       4348.314   1280.512   2.3962    
2536.2     4510.458   1260.37    2.4539    
2536.4     4344.613   1215.506   2.4744    
2536.6     4004.664   1208.547   2.3897    
2536.8     3808.956   1101.236   2.4459    
2537       3579.775   1030.247   2.4488    
2537.2     3422.022   986.764    2.4409    
2537.4     3508.916   973.482    2.4608    
2537.6     3718.314   1081.213   2.4103    
2537.8     3737.528   1126.517   2.3809    
2538       3622.247   1067.914   2.4189    
2538.2     3461.46    1016.697   2.4053    
2538.4     3247.078   987.977    2.3774    
2538.6     3309.775   969.169    2.4248    
2538.8     3215.73    927.792    2.4464    
2539       3153.034   852.27     2.5182    
2539.2     3108.539   866.224    2.4473    
2539.4     3079.213   877.054    2.4536    
2539.6     2927.475   859.043    2.4137    
2539.8     2961.083   805.042    2.5016    
2540       2928.539   789.76     2.5292    
2540.2     2912.359   764.697    2.5462    
2540.4     2915.393   774.575    2.5222    
2540.6     2917.416   789.837    2.4989    
2540.8     2934.607   791.191    2.5123    
2541       2925.251   771.307    2.5353    
2541.2     2840.217   744.247    2.5571    
2541.4     2848.649   774.202    2.4737    
2541.6     2889.101   779.122    2.517     
