~Version
 VERS              .         2.0                           : CWLS LOG ASCII STANDARD - VERSION 2.0
 WRAP              .         NO                            : ONE LINE PER DEPTH STEP
 DLM               .         SPACE                         : DELIMITING CHARACTER(SPACE TAB OR COMMA)
~Well Information
#_______________________________________________________________________________
#
#PARAMETER_NAME    .UNIT     VALUE                         : DESCRIPTION
#_______________________________________________________________________________
STRT               .m        2469                          : First reference value
STOP               .m        2690                          : Last reference value
STEP               .m        0.2                           : Step increment
NULL               .         -9999                         : Missing value
COMP               .                                       : Company
WELL               .         101                           : Well name
FLD                .                                       : Field
LOC                .                                       : Location
CNTY               .                                       : County
STAT               .                                       : State
CTRY               .                                       : Country
SRVC               .                                       : Service Company
DATE               .                                       : Date
API                .                                       : API number
LONG               .dega     2.0616605265                  : 
HZCS               .GCS_WGS_1984 World_Mercator                : 
Cartographic_reference_system .         GCS_WGS_1984                  : 
Куст               .         1                             : 
EREF               .m        137.7                         : 
group              .         Pad1                          : 
Тип                .         Разведка                      : 
Статус             .         Не проверено                  : 
LATI               .dega     2.1710182041                  : 
Интер-р            .         Пузин                         : 
Pad                .         1                             : 
~Parameter Information Block
#_______________________________________________________________________________
#
#PARAMETER_NAME    .UNIT     VALUE                         : DESCRIPTION
#_______________________________________________________________________________
SET                .         LAS4                          : 
REAL_CREATION_DATE .         Wed Apr 11 2012-13_17_06      : 
TLFamily_RK20      .         Resistivity 20                : 
TLFamily_RK10      .         Resistivity 10                : 
group              .         INI                           : 
TLFamily_DF20      .         Phase difference 20           : 
TLFamily_DF10      .         Phase difference 10           : 
TLFamily_RK05      .         Resistivity 05                : 
TLFamily_DF05      .         Phase difference 05           : 
TLFamily_RK07      .         Resistivity 07                : 
TLFamily_RK14      .         Resistivity 14                : 
TLFamily_DF07      .         Phase difference 07           : 
TLFamily_DF14      .         Phase difference 14           : 
TLFamily_MD        .         Measured Depth                : 
~Curve Information
#_______________________________________________________________________________
#
#LOGNAME           .UNIT     LOG_ID                        : DESCRIPTION
#_______________________________________________________________________________
MD                 .m                                      : 1 Depth 
DF05               .Ohmm                                   : 2 Induction Log, shift 
DF07               .Ohmm                                   : 3 Induction Log, shift 
DF10               .Ohmm                                   : 4 Induction Log, shift 
DF14               .Ohmm                                   : 5 Induction Log, shift 
DF20               .mS/m                                   : 6 Induction Log, shift 
RK05               .Ohmm                                   : 7 Induction Log, Resistivity 
RK07               .Ohmm                                   : 8 Induction Log, Resistivity 
RK10               .Ohmm                                   : 9 Induction Log, Resistivity 
RK14               .Ohmm                                   : 10 Induction Log, Resistivity 
RK20               .Ohmm                                   : 11 Induction Log, Resistivity 
~Ascii
# ...
2535.4     23.1559    23.712     20.2031    18.2009    18.0558    3.6049     3.0992     4.0347     4.6821     4.744     
2535.6     22.9882    22.7875    19.5445    17.7788    18.2899    2.7434     3.0237     4.0387     4.8653     4.644     
2535.8     24.3802    24.3161    21.4046    19.0196    18.4141    2.6784     2.7137     3.5079     4.3488     4.5925    
2536       24.9414    25.3755    22.2749    19.7909    18.858     2.0554     2.3874     3.1776     4.0625     4.4126    
2536.2     24.5681    27.6008    24.1362    21.1526    19.3462    4.5667     2.6176     2.9318     3.5973     4.2234    
2536.4     20.3618    21.3393    20.3271    19.9623    18.7678    3.2455     3.4029     3.7693     3.9985     4.449     
2536.6     22.2649    22.4574    20.7087    19.1638    17.55      3.4567     3.2692     3.8417     4.2964     4.9689    
2536.8     20.0383    20.1662    18.2366    17.1956    16.3538    4.1345     3.9352     4.7461     5.1369     5.552     
2537       19.1436    20.02      17.1785    15.8826    15.5495    4.5332     4.0384     5.1818     5.8038     5.9911    
2537.2     17.9223    18.8232    16.6948    15.6146    15.5758    4.7699     4.4168     5.3544     5.9539     5.9766    
2537.4     19.744     20.6497    18.3251    16.7969    16.5487    3.6229     3.6182     4.4974     5.3355     5.4565    
2537.6     22.225     23.5178    21.0026    19.0985    18.3307    3.1006     2.8852     3.6081     4.3221     4.63      
2537.8     23.828     24.4367    21.8493    19.7924    19.4333    2.6408     2.6533     3.3691     4.0582     4.1903    
2538       24.6384    25.011     21.9295    19.7193    19.4737    2.8332     2.6195     3.3944     4.0847     4.1753    
2538.2     23.207     23.6614    21.0788    19.2516    19.0181    3.0652     2.9051     3.6334     4.2593     4.3493    
2538.4     22.2022    23.1706    21.096     19.2701    18.6339    3.3079     3.0253     3.5973     4.2519     4.5019    
2538.6     21.6927    22.4035    20.749     19.182     18.313     3.558      3.2859     3.7756     4.2864     4.6345    
2538.8     22.0099    21.7211    19.7064    18.326     17.6674    3.5957     3.4795     4.1379     4.6307     4.9156    
2539       19.0319    18.701     17.388     16.9085    16.4179    4.9266     4.5811     5.1661     5.276      5.5196    
2539.2     16.0693    16.5313    15.5495    15.5241    15.3437    5.8043     5.4417     6.0141     6.0065     6.112     
2539.4     16.6104    16.9954    15.8429    15.363     15.3382    4.9083     5.1338     5.7732     6.1002     6.1154    
2539.6     18.5966    18.8973    16.8705    15.9529    16.026     4.5414     4.4056     5.2724     5.7644     5.7249    
2539.8     18.3696    18.8116    16.9538    16.1756    16.3403    4.5558     4.4263     5.2295     5.6438     5.557     
2540       18.9253    19.3637    17.3911    16.2882    16.4443    4.2337     4.179      5.0038     5.5848     5.503     
2540.2     20.9718    21.5368    18.7298    16.9988    16.7777    3.3314     3.397      4.395      5.2287     5.3344    
2540.4     21.4577    22.4356    19.4118    17.3227    16.9756    3.8146     3.2877     4.2384     5.0726     5.2373    
2540.6     20.5427    21.3497    18.9189    16.78      16.6433    3.7945     3.5232     4.384      5.3333     5.4019    
2540.8     19.0008    20.0929    18.3591    16.4894    16.2334    4.8473     4.0512     4.6917     5.4802     5.6132    
2541       18.2564    19.4387    17.9207    16.584     16.4029    4.1847     4.0885     4.7207     5.4333     5.5247    
2541.2     20.964     21.836     19.7498    17.9366    17.1077    3.5565     3.3488     4.0317     4.7977     5.1753    
2541.4     21.1472    22.2482    20.2032    18.5595    17.8092    3.489      3.2459     3.9088     4.5323     4.8516    
2541.6     21.6617    23.1525    20.7269    18.7401    18.0314    3.5986     3.0516     3.7453     4.459      4.7542    
2541.8     20.7693    22.1775    20.1515    18.474     17.9955    3.7668     3.2816     3.9272     4.5677     4.7697    
2542       20.1337    21.8637    20.0529    18.2715    17.9026    3.936      3.3793     3.9674     4.6517     4.8103    
2542.2     20.755     22.3417    20.4054    18.5534    17.9687    3.5766     3.2027     3.8187     4.5351     4.7813    
2542.4     21.7089    23.2326    20.8658    18.8469    18.0758    3.5141     3.0114     3.6976     4.4164     4.735     
2542.6     20.3911    21.9457    20.1182    18.5369    18.0154    3.9069     3.3748     3.9712     4.5415     4.7611    
2542.8     20.5401    22.1098    20.1141    18.4684    17.9405    3.7762     3.2927     3.9328     4.5698     4.7938    
2543       20.3374    22.1071    20.2305    18.5803    18.249     3.9318     3.3104     3.9134     4.5237     4.6612    
2543.2     19.9936    21.9361    20.2097    18.5491    18.3233    3.8959     3.3543     3.9046     4.5365     4.6299    
2543.4     21.1509    22.82      20.8226    18.9225    18.4254    3.444      3.0739     3.6736     4.3875     4.5877    
2543.6     21.8778    23.5306    21.3587    19.4898    18.7279    3.3882     2.9234     3.5365     4.1691     4.464     
2543.8     21.8088    23.3434    21.1325    19.2874    18.8389    3.3944     2.9669     3.6004     4.2453     4.4196    
2544       21.3643    23.0779    21.0002    19.0692    18.7478    3.6646     3.0757     3.6645     4.3292     4.4561    
2544.2     20.855     22.3737    20.4622    18.8095    18.5865    3.6203     3.2218     3.8195     4.4312     4.5212    
2544.4     21.6943    23.019     20.717     19.0103    18.5031    3.3574     3.0294     3.6921     4.3522     4.5553    
2544.6     22.1269    23.4541    21.4356    19.4063    18.7419    3.1975     2.9248     3.5023     4.2006     4.4585    
2544.8     22.9871    23.9507    21.5611    19.697     19.0495    3.1839     2.82       3.4736     4.0928     4.3368    
2545       21.2897    22.601     20.826     19.31      19.1773    3.6558     3.1882     3.7341     4.2373     4.2874    
2545.2     21.5206    22.8894    20.9067    19.2139    18.9213    3.2556     3.0451     3.6353     4.2742     4.387     
2545.4     22.7196    24.1155    21.8263    19.9261    19.2123    3.0808     2.7728     3.3799     4.0102     4.2741    
2545.6     23.7166    24.7487    22.2693    20.2357    19.5484    2.8196     2.6156     3.2443     3.9013     4.1474    
2545.8     23.455     24.4274    22.1102    20.2806    19.6953    3.0974     2.7283     3.3281     3.8858     4.0934    
2546       22.6832    23.5572    21.5347    19.9844    19.6337    3.2109     2.9014     3.4708     3.9894     4.116     
2546.2     22.1498    23.2767    21.5402    19.9777    19.6061    3.1769     2.9576     3.4731     3.9917     4.1261    
2546.4     22.9553    23.9924    21.9824    20.2677    19.6186    3.039      2.7912     3.346      3.8903     4.1215    
2546.6     23.3241    24.3853    21.9845    20.2605    19.5699    3.019      2.7012     3.3383     3.8927     4.1395    
2546.8     22.6249    23.965     21.7681    19.9895    19.4365    3.2075     2.8182     3.4132     3.9876     4.1891    
2547       22.3794    23.6704    21.5283    19.7809    19.3061    3.2152     2.8793     3.4882     4.0623     4.2382    
2547.2     21.5992    22.8154    20.7169    19.3645    19.143     3.8379     3.19       3.8143     4.2177     4.3007    
2547.4     17.6462    20.1163    18.9083    18.105     18.5343    4.7812     3.979      4.3829     4.7225     4.5426    
2547.6     22.8569    24.428     21.6665    19.8221    19.1825    2.7149     2.621      3.3264     4.0559     4.2879    
2547.8     24.7168    26.3126    23.9053    21.7669    20.8281    2.6232     2.3005     2.8305     3.4074     3.7029    
2548       24.9803    26.1362    23.6526    21.8574    21.1991    2.7571     2.3534     2.8981     3.3804     3.5825    
2548.2     22.979     24.1523    22.3165    20.8875    20.6809    3.205      2.7672     3.2702     3.6837     3.7503    
2548.4     21.9069    23.5095    21.7829    20.1707    20.0543    3.243      2.8989     3.3886     3.9238     3.9648    
2548.6     23.0459    24.6531    22.4628    20.6222    20.0936    2.9354     2.6271     3.179      3.7701     3.9508    
