~Version
 VERS              .         2.0                           : CWLS LOG ASCII STANDARD - VERSION 2.0
 WRAP              .         NO                            : ONE LINE PER DEPTH STEP
 DLM               .         SPACE                         : DELIMITING CHARACTER(SPACE TAB OR COMMA)
~Well Information
#_______________________________________________________________________________
#
#PARAMETER_NAME    .UNIT     VALUE                         : DESCRIPTION
#_______________________________________________________________________________
STRT               .m        2469                          : First reference value
STOP               .m        2690                          : Last reference value
STEP               .m        0.2                           : Step increment
NULL               .         -9999                         : Missing value
COMP               .                                       : Company
WELL               .         101                           : Well name
FLD                .                                       : Field
LOC                .                                       : Location
CNTY               .                                       : County
STAT               .                                       : State
CTRY               .                                       : Country
SRVC               .                                       : Service Company
DATE               .                                       : Date
API                .                                       : API number
LONG               .dega     2.0616605265                  : 
HZCS               .GCS_WGS_1984 World_Mercator                : 
Cartographic_reference_system .         GCS_WGS_1984                  : 
Куст               .         1                             : 
EREF               .m        137.7                         : 
group              .         Pad1                          : 
Тип                .         Разведка                      : 
Статус             .         Не проверено                  : 
LATI               .dega     2.1710182041                  : 
Интер-р            .         Пузин                         : 
Pad                .         1                             : 
~Parameter Information Block
#_______________________________________________________________________________
#
#PARAMETER_NAME    .UNIT     VALUE                         : DESCRIPTION
#_______________________________________________________________________________
SET                .         LAS2                          : 
REAL_CREATION_DATE .         Wed Apr 11 2012-13_17_06      : 
TLFamily_GGR1      .         Density Large                 : 
TLFamily_GGR2      .         Density Small                 : 
group              .         INI                           : 
TLFamily_RHOB      .         Bulk Density                  : 
TLFamily_MD        .         Measured Depth                : 
~Curve Information
#_______________________________________________________________________________
#
#LOGNAME           .UNIT     LOG_ID                        : DESCRIPTION
#_______________________________________________________________________________
MD                 .m                                      : 1 Depth 
GGR1               .imp/min                                : 3 Density GGL Log by Large Zonde 
GGR2               .imp/min                                : 2 Density GGL Log by Small Zonde 
RHOB               .g/cm3                                  : 4 Standart Resolution Formation Densitu 
~Ascii
# ...
2651       3238.271   810.138    2.606     
2651.2     3274.382   873.101    2.5058    
2651.4     3200.562   872.586    2.506     
2651.6     3232.921   866.831    2.5198    
2651.8     3337.079   892.536    2.5068    
2652       3420       888.65     2.5533    
2652.2     3397.753   861.573    2.582     
2652.4     3258.202   834.847    2.5406    
2652.6     3058.989   808.18     2.5321    
2652.8     2987.697   803.932    2.5018    
2653       3002.359   818.797    2.4921    
2653.2     2932.584   809.393    2.4991    
2653.4     2903.258   779.532    2.5186    
2653.6     2940.674   785.326    2.507     
2653.8     2984.979   791.411    2.5083    
2654       3067.079   831.253    2.481     
2654.2     3237.977   873.91     2.5061    
2654.4     3176.292   857.227    2.5281    
2654.6     3195.506   855.506    2.5171    
2654.8     3240       845.865    2.5428    
2655       3356.292   895.763    2.4993    
2655.2     3348.202   929.73     2.4713    
2655.4     3216.741   916.809    2.4329    
2655.6     3125.73    897.977    2.4367    
2655.8     3212.307   933.037    2.4022    
2656       3380.562   1031.998   2.3484    
2656.2     3445.281   1147.753   2.2494    
2656.4     3594.944   1401.168   2.1264    
2656.6     3790.112   1805.46    1.9419    
2656.8     4255.283   2532.402   1.8135    
2657       5064.269   3912.674   1.6838    
2657.2     6420.045   6006.244   1.6258    
2657.4     6421.348   7362.129   1.5873    
2657.6     6630.896   7439.754   1.5896    
2657.8     6514.382   7296.876   1.5912    
2658       6390       6946.988   1.6033    
2658.2     6272.709   6496.218   1.619     
2658.4     6130.112   5830.18    1.6449    
2658.6     5795.499   4664.183   1.7298    
2658.8     4980.858   3408.583   1.8156    
2659       4034.831   1947.236   2.08      
2659.2     4012.365   1779.973   2.0011    
2659.4     4530.337   2164.045   1.9016    
2659.6     3441.236   1311.13    2.3469    
2659.8     3080.225   782.938    2.5951    
2660       3013.483   758.629    2.5964    
2660.2     2949.775   761.587    2.5541    
2660.4     2976.067   761.663    2.5712    
2660.6     3001.129   776.285    2.543     
2660.8     3073.146   828.137    2.4841    
2661       3200.562   888.067    2.4548    
2661.2     3208.652   898.831    2.4747    
2661.4     3153.034   859.55     2.5057    
2661.6     3072.135   792.404    2.5626    
2661.8     3022.584   756        2.6126    
2662       3036.901   768.03     2.5859    
2662.2     3032.696   785.945    2.5528    
2662.4     2999.326   802.315    2.4946    
2662.6     2944.885   765.708    2.5652    
2662.8     2898.202   744.236    2.5759    
2663       2805.168   721.337    2.5895    
2663.2     2817.303   692.697    2.6138    
2663.4     2878.765   728.354    2.6079    
2663.6     3081.236   824.236    2.4888    
2663.8     3104.494   832.854    2.535     
2664       3082.886   789.766    2.5835    
2664.2     3066.067   754.584    2.6406    
2664.4     3060.922   739.449    2.6486    
2664.6     3090.337   785.126    2.5734    
2664.8     3219.775   880.18     2.4709    
2665       3294.607   911.709    2.4892    
2665.2     2911.348   783.303    2.566     
2665.4     2993.258   752.699    2.6021    
2665.6     3020.562   810.607    2.4927    
2665.8     3119.065   868.9      2.4485    
2666       3194.494   857.73     2.5152    
2666.2     3200.065   867.254    2.5174    
2666.4     3201.573   819.15     2.5811    
2666.6     3249.101   823.551    2.5768    
2666.8     3228.326   817.848    2.5859    
2667       2942.697   734.562    2.6356    
2667.2     2817.994   696.169    2.6374    
2667.4     2757.64    694.405    2.5928    
2667.6     2840.562   712.517    2.5801    
2667.8     3062.186   787.348    2.5349    
2668       3107.528   798.27     2.5887    
2668.2     3033.708   752.557    2.63      
2668.4     2859.775   702.607    2.623     
2668.6     2847.472   643.149    2.7659    
2668.8     2554.382   554.912    2.838     
2669       2580.674   547.888    2.826     
2669.2     2718.202   590.498    2.7618    
2669.4     2932.584   654.876    2.7963    
2669.6     3253.146   778.546    2.6239    
2669.8     3416.966   847.011    2.5893    
2670       3382.584   863.506    2.5686    
2670.2     3275.393   858.135    2.5344    
2670.4     3185.393   817.39     2.5649    
2670.6     3180.337   786.796    2.6205    
2670.8     3208.652   802.719    2.578     
2671       3480.032   928.067    2.503     
2671.2     3561.573   1048.449   2.3825    
2671.4     3442.247   1072.719   2.3484    
2671.6     3460.449   1064.022   2.3567    
2671.8     3492.474   1054.562   2.3819    
2672       3564.607   1024.786   2.436     
2672.2     3632.054   1041.664   2.4274    
2672.4     3620.225   1048.045   2.4341    
2672.6     3601.011   1054.719   2.4253    
2672.8     3428       992.308    2.427     
2673       3333.033   956.225    2.44      
2673.2     3246.067   911.813    2.483     
2673.4     3180.337   858.944    2.5109    
2673.6     3093.34    814.554    2.5428    
2673.8     3061.011   796.449    2.5422    
2674       3025.56    839.144    2.4547    
2674.2     3031.685   856.112    2.4533    
2674.4     3125.187   878.391    2.455     
2674.6     3213.708   916.819    2.4399    
2674.8     3132.809   842.966    2.5432    
2675       3006.754   733.983    2.6724    
2675.2     2986.18    707.461    2.6747    
2675.4     2981.624   711.392    2.6603    
2675.6     2940.674   715.885    2.6139    
2675.8     2841.573   747.91     2.5273    
2676       2898.202   773.393    2.5287    
2676.2     2934.475   797.846    2.5029    
2676.4     2908.314   805.392    2.4851    
2676.6     2978.09    841.753    2.445     
2676.8     2986.725   820.837    2.494     
2677       2902.247   818.09     2.4559    
2677.2     2930.009   817.265    2.4816    
2677.4     3019.55    786.337    2.5599    
2677.6     3027.64    778.652    2.5703    
2677.8     2994.27    813.438    2.4823    
2678       3149.619   853.819    2.5024    
2678.2     3238.378   884.697    2.4924    
2678.4     3229.993   885.336    2.5059    
2678.6     3274.726   888.918    2.5037    
2678.8     3240.481   889.098    2.4836    
2679       3258.202   893.522    2.5094    
2679.2     3259.408   870.96     2.53      
2679.4     3101.038   845.694    2.4976    
2679.6     3072.623   833.561    2.4895    
2679.8     3001.392   813.341    2.5079    
2680       2949.802   774.683    2.5474    
2680.2     3063.033   813.236    2.5214    
2680.4     3277.416   912.571    2.4346    
2680.6     3414.944   1030.652   2.3538    
2680.8     3515.259   1056.181   2.389     
2681       3375.505   967.348    2.4533    
2681.2     3452.359   956.225    2.455     
2681.4     3403.82    969.89     2.4514    
2681.6     3235.955   984.742    2.3671    
2681.8     3201.573   1108.807   2.2088    
2682       3482.696   1434.135   2.0482    
2682.2     3861.91    2048.309   1.9166    
2682.4     4497.471   3024.001   1.7451    
2682.6     5575.955   4859.393   1.6431    
2682.8     6254.333   6396.692   1.609     
2683       5451.573   5021.23    1.6913    
2683.2     4225.955   2181.438   1.9821    
2683.4     3268.314   884.184    2.6276    
2683.6     3097.416   720.809    2.7508    
2683.8     2913.044   654.067    2.7622    
2684       2887.079   676.719    2.6763    
2684.2     3001.923   721.454    2.681     
2684.4     3158.09    753.775    2.6373    
2684.6     3215.084   819.668    2.5758    
2684.8     3128.764   809.688    2.5754    
2685       3070.112   794.427    2.5554    
2685.2     3025.618   776.593    2.5762    
2685.4     3062.022   765.506    2.6209    
2685.6     2933.159   722.675    2.6275    
2685.8     2855.73    723.023    2.5894    
2686       2825.393   720.202    2.5841    
2686.2     2813.258   684.478    2.6474    
2686.4     2872.921   675.506    2.6777    
2686.6     2953.82    709.384    2.6384    
2686.8     2988.202   710.697    2.6717    
2687       3026.326   731.285    2.6268    
2687.2     3032.696   737.022    2.6549    
