~Version
 VERS              .         2.0                           : CWLS LOG ASCII STANDARD - VERSION 2.0
 WRAP              .         NO                            : ONE LINE PER DEPTH STEP
 DLM               .         SPACE                         : DELIMITING CHARACTER(SPACE TAB OR COMMA)
~Well Information
#_______________________________________________________________________________
#
#PARAMETER_NAME    .UNIT     VALUE                         : DESCRIPTION
#_______________________________________________________________________________
STRT               .m        2469                          : First reference value
STOP               .m        2690                          : Last reference value
STEP               .m        0.2                           : Step increment
NULL               .         -9999                         : Missing value
COMP               .                                       : Company
WELL               .         101                           : Well name
FLD                .                                       : Field
LOC                .                                       : Location
CNTY               .                                       : County
STAT               .                                       : State
CTRY               .                                       : Country
SRVC               .                                       : Service Company
DATE               .                                       : Date
API                .                                       : API number
LONG               .dega     2.0616605265                  : 
HZCS               .GCS_WGS_1984 World_Mercator                : 
Cartographic_reference_system .         GCS_WGS_1984                  : 
Куст               .         1                             : 
EREF               .m        137.7                         : 
group              .         Pad1                          : 
Тип                .         Разведка                      : 
Статус             .         Не проверено                  : 
LATI               .dega     2.1710182041                  : 
Интер-р            .         Пузин                         : 
Pad                .         1                             : 
~Parameter Information Block
#_______________________________________________________________________________
#
#PARAMETER_NAME    .UNIT     VALUE                         : DESCRIPTION
#_______________________________________________________________________________
SET                .         LAS4                          : 
REAL_CREATION_DATE .         Wed Apr 11 2012-13_17_06      : 
TLFamily_RK20      .         Resistivity 20                : 
TLFamily_RK10      .         Resistivity 10                : 
group              .         INI                           : 
TLFamily_DF20      .         Phase difference 20           : 
TLFamily_DF10      .         Phase difference 10           : 
TLFamily_RK05      .         Resistivity 05                : 
TLFamily_DF05      .         Phase difference 05           : 
TLFamily_RK07      .         Resistivity 07                : 
TLFamily_RK14      .         Resistivity 14                : 
TLFamily_DF07      .         Phase difference 07           : 
TLFamily_DF14      .         Phase difference 14           : 
TLFamily_MD        .         Measured Depth                : 
~Curve Information
#_______________________________________________________________________________
#
#LOGNAME           .UNIT     LOG_ID                        : DESCRIPTION
#_______________________________________________________________________________
MD                 .m                                      : 1 Depth 
DF05               .Ohmm                                   : 2 Induction Log, shift 
DF07               .Ohmm                                   : 3 Induction Log, shift 
DF10               .Ohmm                                   : 4 Induction Log, shift 
DF14               .Ohmm                                   : 5 Induction Log, shift 
DF20               .mS/m                                   : 6 Induction Log, shift 
RK05               .Ohmm                                   : 7 Induction Log, Resistivity 
RK07               .Ohmm                                   : 8 Induction Log, Resistivity 
RK10               .Ohmm                                   : 9 Induction Log, Resistivity 
RK14               .Ohmm                                   : 10 Induction Log, Resistivity 
RK20               .Ohmm                                   : 11 Induction Log, Resistivity 
~Ascii
# ...
2588.6     20.0523    21.3224    18.2205    15.5378    14.712     4.1221     3.5537     4.6675     5.9976     6.5015    
2588.8     16.7064    18.4862    16.4438    14.7725    14.1448    5.7475     4.6902     5.6435     6.4734     6.8847    
2589       16.8927    18.4974    15.9598    14.0023    13.5308    5.3885     4.5726     5.7188     6.9848     7.3358    
2589.2     16.8269    18.5008    16.2802    14.5982    13.675     4.9291     4.4538     5.5328     6.5761     7.227     
2589.4     17.5648    19.6649    17.1424    15.06      14.1181    4.8796     4.1223     5.1801     6.2822     6.9022    
2589.6     19.4369    20.7493    17.4863    15.0892    14.3792    4.2511     3.7249     4.9762     6.2643     6.7215    
2589.8     18.0371    19.3934    16.7454    14.7105    14.0445    4.9624     4.2286     5.4314     6.5052     6.9547    
2590       16.8627    18.5261    15.7168    13.6945    13.3831    5.2609     4.5445     5.9083     7.211      7.4539    
2590.2     17.8826    19.2198    15.9459    13.5318    12.9867    5.1323     4.2846     5.7703     7.3348     7.7772    
2590.4     15.0406    16.9072    14.7751    12.8334    12.4646    6.3177     5.29       6.5358     7.9116     8.242000000000001
2590.6     16.3097    17.936     15.1349    12.6315    12.0287    5.5292     4.7664     6.2031     8.091699999999999 8.6668    
2590.8     15.8479    17.5509    14.9475    12.8441    11.9733    5.6546     4.9387     6.3765     7.9002     8.7234    
2591       15.8194    17.5943    14.5505    12.2244    11.5733    6.6731     5.14       6.7513     8.475199999999999 9.156000000000001
2591.2     13.8486    15.5574    13.0931    11.3503    10.9677    6.5416     5.8653     7.5933     9.409599999999999 9.880100000000001
2591.4     15.3762    17.3392    14.2961    11.7031    10.818     6.3973     5.1282     6.8119     9.0101     10.076    
2591.6     14.5136    16.4751    13.6297    11.4469    10.8972    6.4578     5.477      7.2833     9.300800000000001 9.970700000000001
2591.8     15.4673    16.7945    13.573     11.1744    10.6793    6.1864     5.3543     7.3318     9.620200000000001 10.2629   
2592       13.6137    15.1316    12.4884    10.6584    10.4484    8.0519     6.3846     8.3984     10.2987    10.5905   
2592.2     12.8487    14.6919    12.1481    10.5072    10.4569    7.0331     6.3612     8.3428     10.5216    10.5801   
2592.4     16.7738    18.2448    15.1834    12.584     11.6605    5.3631     4.5772     6.0798     8.155099999999999 9.0761    
2592.6     16.652     18.5287    16.1415    13.9044    12.9768    4.7385     4.3925     5.5818     7.0566     7.7896    
2592.8     19.2939    21.0644    17.7851    14.5957    13.4738    4.1846     3.6305     4.8907     6.578      7.3797    
2593       18.3064    19.8457    16.5989    14.0692    13.303     5.1826     4.1372     5.5094     6.9436     7.5175    
2593.2     16.5186    18.3151    15.4052    13.1571    12.6122    5.2363     4.5719     6.0314     7.6339     8.1066    
2593.4     17.1741    19.2502    16.5085    13.7633    12.6364    5.2178     4.2886     5.4464     7.1614     8.085100000000001
2593.6     17.9903    19.7958    17.2874    14.6404    13.4645    4.7063     4.0159     5.0397     6.55       7.3885    
2593.8     18.2449    20.1485    17.8503    15.4529    14.0853    4.2541     3.84       4.7801     6.0478     6.9267    
2594       20.1971    22.2107    19.1254    16.2401    14.7638    4.0473     3.2899     4.3224     5.61       6.4689    
2594.2     19.7962    21.7861    18.6241    16.3274    15.2965    3.6991     3.3263     4.5054     5.5639     6.1393    
2594.4     21.2948    23.2267    19.4313    16.7608    15.8193    3.5645     3.0388     4.1547     5.344      5.8394    
2594.6     22.8071    23.974     20.8862    17.573     16.9069    2.9116     2.7445     3.5949     4.9589     5.2757    
2594.8     24.1612    25.6396    23.2589    21.0291    18.8133    2.5175     2.3713     2.9317     3.6426     4.4352    
2595       26.7487    28.3153    25.7109    23.197     21.0793    2.0015     1.8851     2.3799     3.0068     3.6245    
2595.2     26.7013    28.8545    26.1117    23.4891    22.5019    2.5225     1.9348     2.3828     2.9301     3.1943    
2595.4     26.1007    27.8338    24.956     22.4378    21.6531    2.3615     1.9934     2.5475     3.2121     3.4425    
2595.6     25.2458    26.8439    24.9964    22.2073    20.9614    2.5392     2.1792     2.5915     3.2779     3.6583    
2595.8     23.5701    25.2747    23.5165    21.5106    20.6214    3.0213     2.5521     2.9769     3.4857     3.7703    
2596       23.3592    24.9575    22.7825    21.2873    20.5399    2.964      2.5894     3.109      3.5551     3.7977    
2596.2     24.8081    26.4485    23.9669    22.7267    21.75      2.3914     2.2066     2.7419     3.1341     3.4165    
2596.4     25.99      27.9352    25.6595    24.1566    23.4058    2.3013     1.9748     2.4114     2.7629     2.9517    
2596.6     26.7243    28.6262    25.9577    24.1618    23.848     2.1191     1.8651     2.3595     2.7617     2.8386    
2596.8     26.62      27.9838    25.035     23.1971    23.0735    2.8111     2.1116     2.651      3.009      3.0391    
2597       23.6691    25.2002    23.2582    21.8143    22.15      2.3538     2.4097     2.9047     3.3937     3.2944    
2597.2     26.3349    28.1532    25.7125    23.1313    22.3617    2.4947     2.0384     2.4659     3.0225     3.234     
2597.4     24.9037    26.3111    24.0555    22.5683    22.5007    2.7755     2.3379     2.8085     3.1761     3.1949    
2597.6     24.1889    25.4958    23.4742    22.3525    22.1305    2.5449     2.404      2.8944     3.2364     3.3001    
2597.8     25.4146    27.0284    24.8086    23.2113    22.3517    2.4977     2.1639     2.6013     3.0017     3.2365    
2598       25.1785    26.8347    24.7616    23.11      22.3637    2.4        2.1688     2.6103     3.0284     3.2333    
2598.2     25.7539    27.2693    24.3018    21.6681    21.0961    2.7555     2.2309     2.8293     3.4423     3.6207    
2598.4     23.8171    23.5638    20.3743    18.3756    18.2671    5.7294     3.1218     4.0673     4.6357     4.6717    
2598.6     9.4809     11.5166    12.4073    12.8465    14.3268    14.2666    9.2897     8.9794     8.0182     6.787     
2598.8     8.2228     11.5523    11.3776    10.7276    12.0742    15.2358    9.1365     9.2694     10.2221    8.620799999999999
2599       10.5132    13.9175    13.7417    13.2791    13.5722    6.3955     6.6014     6.8045     7.6174     7.3453    
2599.2     23.5419    24.796     20.9525    18.199     17.0636    3.2391     2.6529     3.6399     4.6953     5.2073    
2599.4     21.737     22.4906    19.9552    18.8139    18.945     3.049      3.1158     3.9702     4.4307     4.3778    
2599.6     23.3664    23.9446    20.7343    18.5103    18.6175    3.008      2.8297     3.7517     4.5523     4.5086    
2599.8     23.2443    23.7882    20.6282    18.3588    18.4661    3.067      2.8335     3.7528     4.6151     4.5707    
2600       22.5877    23.4459    20.6281    18.1814    17.8101    3.2632     2.948      3.7812     4.6899     4.8517    
2600.2     20.9229    22.0695    19.9513    17.6749    16.9901    3.758      3.3433     4.0188     4.9112     5.2314    
2600.4     22.6159    23.6336    20.7335    17.8327    16.4974    2.8004     2.8086     3.6705     4.8421     5.4759    
2600.6     23.2548    23.6037    20.0904    17.3373    15.8907    4.4279     3.1987     4.2374     5.0811     5.8015    
2600.8     11.2194    13.0157    12.5466    12.8321    13.2711    13.397     8.392799999999999 8.7146     8.021599999999999 7.5767    
2601       10.5075    13.682     12.6401    12.1616    12.0259    7.455      6.8356     7.677      8.635199999999999 8.6854    
2601.2     21.0218    23.1824    19.8696    17.16      15.1046    3.2495     2.9369     3.91       5.1723     6.2929    
2601.4     21.4151    23.2406    20.6669    18.9374    18.0102    3.5482     3.0429     3.7886     4.381      4.7657    
2601.6     25.0783    25.5497    21.8354    19.5604    19.1035    2.2378     2.3477     3.287      4.1483     4.3177    
