~Version
 VERS              .         2.0                           : CWLS LOG ASCII STANDARD - VERSION 2.0
 WRAP              .         NO                            : ONE LINE PER DEPTH STEP
 DLM               .         SPACE                         : DELIMITING CHARACTER(SPACE TAB OR COMMA)
~Well Information
#_______________________________________________________________________________
#
#PARAMETER_NAME    .UNIT     VALUE                         : DESCRIPTION
#_______________________________________________________________________________
STRT               .m        2469                          : First reference value
STOP               .m        2690                          : Last reference value
STEP               .m        0.2                           : Step increment
NULL               .         -9999                         : Missing value
COMP               .                                       : Company
WELL               .         101                           : Well name
FLD                .                                       : Field
LOC                .                                       : Location
CNTY               .                                       : County
STAT               .                                       : State
CTRY               .                                       : Country
SRVC               .                                       : Service Company
DATE               .                                       : Date
API                .                                       : API number
LONG               .dega     2.0616605265                  : 
HZCS               .GCS_WGS_1984 World_Mercator                : 
Cartographic_reference_system .         GCS_WGS_1984                  : 
Куст               .         1                             : 
EREF               .m        137.7                         : 
group              .         Pad1                          : 
Тип                .         Разведка                      : 
Статус             .         Не проверено                  : 
LATI               .dega     2.1710182041                  : 
Интер-р            .         Пузин                         : 
Pad                .         1                             : 
~Parameter Information Block
#_______________________________________________________________________________
#
#PARAMETER_NAME    .UNIT     VALUE                         : DESCRIPTION
#_______________________________________________________________________________
SET                .         LAS3                          : 
TLFamily_GR        .         Russian Gamma Ray             : 
REAL_CREATION_DATE .         Wed Apr 11 2012-13_17_06      : 
TLFamily_NKT       .         Neutron Far                   : 
group              .         INI                           : 
TLFamily_TNPH      .         Neutron Porosity              : 
TLFamily_NKM       .         Neutron Near                  : 
TLFamily_MD        .         Measured Depth                : 
~Curve Information
#_______________________________________________________________________________
#
#LOGNAME           .UNIT     LOG_ID                        : DESCRIPTION
#_______________________________________________________________________________
MD                 .m                                      : 1 Depth 
GR                 .uR/h                                   : 4 Gamma-Ray 
NKM                .UE                                     : 3 Near Thermal Neutron Logging 
NKT                .UE                                     : 2 Far Thermal Neutron Logging 
TNPH               .v/v                                    : 5 Hydrogen Content 
~Ascii
# ...
2615       17.876     1.493      2.809      0.317     
2615.2     17.944     1.497      2.85       0.308     
2615.4     17.135     1.504      2.866      0.318     
2615.6     16.537     1.506      2.795      0.323     
2615.8     16.209     1.509      2.844      0.31      
2616       16.037     1.517      2.95       0.295     
2616.2     15.78      1.532      3.04       0.293     
2616.4     15.594     1.547      3.068      0.288     
2616.6     15.158     1.573      3.214      0.271     
2616.8     14.04      1.628      3.405      0.26      
2617       14.914     1.674      3.66       0.244     
2617.2     16.209     1.669      3.85       0.229     
2617.4     16.706     1.725      4.054      0.21      
2617.6     16.671     1.877      4.669      0.182     
2617.8     17.822     2.073      5.487      0.17      
2618       17.326     2.229      6.13       0.162     
2618.2     14.643     2.36       6.877      0.139     
2618.4     10.129     2.524      8.055      0.115     
2618.6     7.683      2.697      9.324      0.1       
2618.8     6.402      2.82       10.323     0.091     
2619       6.025      2.897      11.034     0.085     
2619.2     6.146      2.954      11.464     0.085     
2619.4     6.74       2.916      11.477     0.088     
2619.6     7.407      2.741      10.429     0.111     
2619.8     8.448      2.531      8.387      0.149     
2620       9.234      2.375      6.999      0.169     
2620.2     9.407      2.267      6.449      0.17      
2620.4     9.395      2.234      6.225      0.178     
2620.6     9.18       2.239      5.924      0.192     
2620.8     8.981      2.233      5.83       0.192     
2621       8.909      2.208      5.803      0.19      
2621.2     8.761      2.199      5.832      0.184     
2621.4     8.613      2.203      5.942      0.178     
2621.6     8.843      2.206      6.17       0.164     
2621.8     8.858      2.207      6.404      0.159     
2622       8.692      2.227      6.318      0.17      
2622.2     8.648      2.218      6.211      0.171     
2622.4     8.557      2.189      6.076      0.18      
2622.6     8.404      2.161      5.776      0.19      
2622.8     8.795      2.145      5.608      0.192     
2623       8.885      2.137      5.634      0.186     
2623.2     8.715      2.167      5.705      0.188     
2623.4     8.645      2.216      5.784      0.189     
2623.6     8.802      2.247      5.982      0.176     
2623.8     8.45       2.285      6.505      0.152     
2624       8.099      2.358      7.094      0.142     
2624.2     7.822      2.452      7.421      0.143     
2624.4     7.72       2.473      7.618      0.144     
2624.6     7.883      2.38       7.276      0.159     
2624.8     8.502      2.254      6.445      0.177     
2625       8.783      2.176      5.943      0.184     
2625.2     8.88       2.143      5.688      0.191     
2625.4     8.876      2.146      5.6        0.19      
2625.6     8.792      2.159      5.661      0.192     
2625.8     8.578      2.167      5.604      0.195     
2626       8.971      2.155      5.614      0.194     
2626.2     9.29       2.128      5.508      0.199     
2626.4     9.423      2.084      5.337      0.205     
2626.6     9.252      2.024      5.105      0.21      
2626.8     9.264      2.006      4.876      0.222     
2627       9.311      1.995      4.759      0.221     
2627.2     8.871      2.017      4.856      0.213     
2627.4     8.336      2.067      5.062      0.208     
2627.6     8.054      2.082      5.184      0.208     
2627.8     7.974      2.072      5.143      0.211     
2628       8.131      2.086      5.063      0.219     
2628.2     8.216      2.108      4.961      0.231     
2628.4     8.141      2.121      4.948      0.224     
2628.6     8.144      2.138      5.151      0.213     
2628.8     7.793      2.142      5.299      0.211     
2629       7.828      2.131      5.263      0.209     
2629.2     7.928      2.136      5.343      0.203     
2629.4     7.963      2.165      5.402      0.208     
2629.6     7.87       2.201      5.394      0.211     
2629.8     7.714      2.22       5.453      0.211     
2630       7.446      2.219      5.498      0.208     
2630.2     7.424      2.216      5.544      0.204     
2630.4     7.561      2.257      5.686      0.195     
2630.6     7.715      2.315      6.059      0.18      
2630.8     7.758      2.348      6.539      0.172     
2631       7.751      2.411      6.868      0.153     
2631.2     7.29       2.497      7.569      0.133     
2631.4     6.838      2.573      8.47       0.112     
2631.6     6.804      2.622      9.369      0.098     
2631.8     6.915      2.661      9.816      0.096     
2632       6.994      2.704      9.955      0.095     
2632.2     6.516      2.784      10.393     0.087     
2632.4     5.912      2.869      11.145     0.082     
2632.6     5.887      2.886      11.352     0.083     
2632.8     6.05       2.841      11.091     0.092     
2633       6.604      2.695      10.184     0.105     
2633.2     6.908      2.497      8.85       0.127     
2633.4     7.118      2.349      7.342      0.157     
2633.6     7.246      2.311      6.671      0.16      
2633.8     6.981      2.364      6.798      0.159     
2634       7.509      2.404      6.889      0.162     
2634.2     8.031      2.387      6.905      0.162     
2634.4     8.004      2.358      6.821      0.16      
2634.6     7.557      2.373      6.796      0.158     
2634.8     7.009      2.466      7.118      0.154     
2635       6.748      2.507      7.464      0.148     
2635.2     7.285      2.465      7.593      0.143     
2635.4     7.727      2.402      7.583      0.132     
2635.6     7.321      2.636      8.133      0.113     
2635.8     7.439      2.745      9.52       0.108     
2636       7.883      2.671      9.519      0.115     
2636.2     8.799      2.466      8.385      0.143     
2636.4     9.98       2.22       6.64       0.183     
2636.6     10.674     2.022      5.33       0.229     
2636.8     11.552     1.998      4.586      0.243     
2637       12.432     1.959      4.441      0.242     
2637.2     12.563     1.939      4.435      0.236     
2637.4     11.665     1.973      4.526      0.229     
2637.6     10.993     2.051      4.754      0.225     
2637.8     11.741     2.087      4.925      0.228     
2638       12.746     2.044      4.781      0.241     
2638.2     12.754     1.966      4.406      0.259     
2638.4     12.199     1.918      4.196      0.248     
2638.6     11.444     1.985      4.472      0.225     
2638.8     10.893     2.093      5          0.208     
2639       11.405     2.121      5.286      0.211     
2639.2     11.321     2.115      5.147      0.215     
2639.4     10.656     2.159      5.221      0.214     
2639.6     10.853     2.158      5.274      0.219     
2639.8     12.545     2.09       5.041      0.23      
2640       13.495     1.988      4.666      0.244     
2640.2     13.475     1.894      4.166      0.281     
2640.4     13.298     1.783      3.576      0.31      
2640.6     12.999     1.666      3.326      0.293     
2640.8     13.428     1.648      3.407      0.259     
2641       13.469     1.729      3.781      0.248     
2641.2     13.444     1.696      3.669      0.288     
2641.4     13.497     1.567      3.076      0.337     
2641.6     12.788     1.453      2.62       0.352     
2641.8     11.494     1.407      2.549      0.321     
2642       11.494     1.489      2.84       0.275     
2642.2     11.396     1.751      3.486      0.254     
2642.4     10.861     1.94       4.229      0.235     
2642.6     10.81      1.946      4.574      0.227     
2642.8     10.897     1.931      4.587      0.223     
2643       10.916     1.933      4.621      0.222     
2643.2     11.302     1.955      4.538      0.243     
2643.4     12.024     1.93       4.205      0.266     
2643.6     12.556     1.885      4.125      0.249     
2643.8     12.734     1.844      4.188      0.248     
2644       12.179     1.817      3.93       0.273     
