~Version
 VERS              .         2.0                           : CWLS LOG ASCII STANDARD - VERSION 2.0
 WRAP              .         NO                            : ONE LINE PER DEPTH STEP
 DLM               .         SPACE                         : DELIMITING CHARACTER(SPACE TAB OR COMMA)
~Well Information
#_______________________________________________________________________________
#
#PARAMETER_NAME    .UNIT     VALUE                         : DESCRIPTION
#_______________________________________________________________________________
STRT               .m        2469                          : First reference value
STOP               .m        2690                          : Last reference value
STEP               .m        0.2                           : Step increment
NULL               .         -9999                         : Missing value
COMP               .                                       : Company
WELL               .         101                           : Well name
FLD                .                                       : Field
LOC                .                                       : Location
CNTY               .                                       : County
STAT               .                                       : State
CTRY               .                                       : Country
SRVC               .                                       : Service Company
DATE               .                                       : Date
API                .                                       : API number
LONG               .dega     2.0616605265                  : 
HZCS               .GCS_WGS_1984 World_Mercator                : 
Cartographic_reference_system .         GCS_WGS_1984                  : 
Куст               .         1                             : 
EREF               .m        137.7                         : 
group              .         Pad1                          : 
Тип                .         Разведка                      : 
Статус             .         Не проверено                  : 
LATI               .dega     2.1710182041                  : 
Интер-р            .         Пузин                         : 
Pad                .         1                             : 
~Parameter Information Block
#_______________________________________________________________________________
#
#PARAMETER_NAME    .UNIT     VALUE                         : DESCRIPTION
#_______________________________________________________________________________
SET                .         LAS4                          : 
REAL_CREATION_DATE .         Wed Apr 11 2012-13_17_06      : 
TLFamily_RK20      .         Resistivity 20                : 
TLFamily_RK10      .         Resistivity 10                : 
group              .         INI                           : 
TLFamily_DF20      .         Phase difference 20           : 
TLFamily_DF10      .         Phase difference 10           : 
TLFamily_RK05      .         Resistivity 05                : 
TLFamily_DF05      .         Phase difference 05           : 
TLFamily_RK07      .         Resistivity 07                : 
TLFamily_RK14      .         Resistivity 14                : 
TLFamily_DF07      .         Phase difference 07           : 
TLFamily_DF14      .         Phase difference 14           : 
TLFamily_MD        .         Measured Depth                : 
~Curve Information
#_______________________________________________________________________________
#
#LOGNAME           .UNIT     LOG_ID                        : DESCRIPTION
#_______________________________________________________________________________
MD                 .m                                      : 1 Depth 
DF05               .Ohmm                                   : 2 Induction Log, shift 
DF07               .Ohmm                                   : 3 Induction Log, shift 
DF10               .Ohmm                                   : 4 Induction Log, shift 
DF14               .Ohmm                                   : 5 Induction Log, shift 
DF20               .mS/m                                   : 6 Induction Log, shift 
RK05               .Ohmm                                   : 7 Induction Log, Resistivity 
RK07               .Ohmm                                   : 8 Induction Log, Resistivity 
RK10               .Ohmm                                   : 9 Induction Log, Resistivity 
RK14               .Ohmm                                   : 10 Induction Log, Resistivity 
RK20               .Ohmm                                   : 11 Induction Log, Resistivity 
~Ascii
# ...
2601.8     24.4284    25.8003    23.1439    20.8046    20.1458    2.986      2.453      3.0669     3.7096     3.933     
2602       24.2519    26.4585    23.4819    21.0769    20.8503    2.3173     2.1767     2.8499     3.6244     3.6947    
2602.2     27.7737    29.7221    26.0476    23.2137    21.8587    2.1652     1.7388     2.3512     3.0015     3.3807    
2602.4     26.1711    27.9232    25.2832    23.3042    22.458     2.1476     1.9581     2.4849     2.977      3.2064    
2602.6     27.9635    29.6558    26.5702    23.9383    22.6425    2.1551     1.7457     2.2438     2.8165     3.155     
2602.8     26.5328    28.0206    25.6436    23.9596    22.8457    2.2088     1.9544     2.4321     2.8112     3.0991    
2603       25.3439    26.9266    24.4209    22.972     22.0628    2.8377     2.2471     2.7791     3.0669     3.3214    
2603.2     22.8148    24.7443    22.6424    21.661     21.1805    2.8359     2.5715     3.1109     3.4393     3.5882    
2603.4     26.9613    28.9009    25.4933    23.3263    22.1043    1.9848     1.7903     2.4133     2.9737     3.3104    
2603.6     26.436     28.2224    25.6495    24.0041    23.3024    2.5775     2.013      2.4867     2.8007     2.9775    
2603.8     25.216     27.0079    24.5056    23.3572    23.3997    2.2931     2.0968     2.6409     2.9633     2.9521    
2604       27.0356    29.0431    26.0944    24.1236    23.758     2.1852     1.8214     2.3339     2.7711     2.8611    
2604.2     27.1666    28.874     26.0887    24.2318    24.0945    1.994      1.791      2.325      2.7447     2.7779    
2604.4     27.5375    29.6481    26.6031    24.5655    24.0709    2.2291     1.7505     2.2647     2.6658     2.7836    
2604.6     25.5691    27.5877    24.95      24.0758    23.5922    2.512      2.0551     2.594      2.7839     2.9033    
2604.8     24.9528    27.315     24.6193    22.9274    22.7562    2.5861     2.1022     2.6534     3.077      3.124     
2605       25.6018    27.7885    24.943     23.0133    22.4432    2.4346     2.0099     2.5774     3.0539     3.2106    
2605.2     24.6122    26.6899    24.1068    22.5132    22.0432    2.7901     2.2538     2.817      3.1924     3.3258    
2605.4     24.4347    26.6688    23.8792    22.0108    21.5737    2.5113     2.1791     2.798      3.3351     3.4659    
2605.6     25.8356    27.7212    24.2007    22.0994    21.4645    2.3935     2.0395     2.7806     3.3096     3.4993    
2605.8     25.557     26.5202    23.087     21.234     21.3148    2.6402     2.2705     3.0476     3.5713     3.5461    
2606       23.6205    25.3595    22.6568    21.0091    21.008     2.8622     2.4602     3.1469     3.643      3.6433    
2606.2     23.9499    26.2668    23.2047    21.4042    21.2289    2.7938     2.3068     2.9888     3.5183     3.5729    
2606.4     24.9741    26.9373    24.1293    22.1321    21.7227    2.5217     2.1611     2.7564     3.2998     3.4208    
2606.6     25.6785    27.7416    24.8205    22.7596    22.1368    2.3121     1.9914     2.5898     3.1227     3.2983    
2606.8     25.0745    27.2262    24.5713    22.7235    22.149     2.6968     2.1559     2.7043     3.1333     3.2947    
2607       24.8716    26.8426    24.078     22.2162    21.8481    2.6186     2.1784     2.7681     3.2753     3.3831    
2607.2     23.7694    26.2154    23.9944    22.3443    21.807     2.831      2.314      2.7967     3.2386     3.3954    
2607.4     25.5305    27.7623    25.0277    22.9051    22.1362    2.2729     1.9837     2.5245     3.0839     3.2985    
2607.6     25.6373    27.7347    25.0458    23.0532    22.1465    2.6057     2.0698     2.6018     3.0441     3.2954    
2607.8     23.8628    25.8224    23.2912    21.6281    21.3805    3.0282     2.4433     3.0248     3.4514     3.5266    
2608       22.6407    24.532     22.2303    20.8463    20.5983    3.0492     2.6553     3.2486     3.6957     3.7779    
2608.2     23.6588    25.5358    23.219     21.4081    20.9261    3.0024     2.4725     3.0011     3.5172     3.67      
2608.4     22.8989    24.8665    23.009     21.6339    21.428     2.8918     2.5569     3.0253     3.4476     3.5108    
2608.6     25.1795    26.9778    24.4086    22.5175    21.8936    2.5385     2.154      2.6951     3.1902     3.3696    
2608.8     23.9024    25.6079    23.7595    22.3416    22.0466    2.8155     2.4375     2.8714     3.2397     3.3245    
2609       25.0282    26.5445    24.2605    22.3222    21.9043    2.5621     2.234      2.7311     3.2449     3.3664    
2609.2     24.2861    25.8438    23.8565    22.1295    21.89      2.8464     2.4083     2.8586     3.3008     3.3707    
2609.4     23.1724    24.9492    23.2561    21.7777    21.5884    2.9462     2.5609     2.9809     3.4041     3.4614    
2609.6     24.9365    26.7206    24.4915    22.5626    21.8449    2.4113     2.173      2.6453     3.1789     3.3846    
2609.8     25.9339    27.5191    25.2711    23.4156    22.6386    2.3942     2.0697     2.5146     2.948      3.156     
2610       25.4343    26.8431    24.7894    23.2102    22.7572    2.4841     2.1791     2.6108     3.0016     3.1233    
2610.2     25.2538    26.8204    24.8244    23.1941    22.5704    2.5568     2.2028     2.6173     3.0058     3.1749    
2610.4     24.8371    26.377     24.4953    22.8456    22.3537    2.6496     2.2921     2.6994     3.0992     3.2361    
2610.6     24.1525    25.6323    23.8911    22.4965    21.9273    2.7002     2.4229     2.8182     3.1956     3.3595    
2610.8     25.6038    26.801     24.8135    22.992     22.0264    2.4482     2.1898     2.5949     3.06       3.3306    
2611       25.5925    26.6877    25.0164    23.3101    22.3244    2.4044     2.1915     2.5534     2.9754     3.2443    
2611.2     25.994     27.4229    25.4858    23.3243    22.1816    2.4382     2.0759     2.4691     2.9718     3.2853    
2611.4     23.7462    25.4964    24.1371    22.2314    21.5043    2.9191     2.4738     2.802      3.2724     3.4876    
2611.6     24.4017    26.2744    24.617     22.0805    21.0426    2.5587     2.2626     2.6085     3.3155     3.6321    
2611.8     26.4529    28.4169    26.5031    23.4963    21.6918    2.1266     1.8758     2.2258     2.928      3.4308    
2612       27.3535    28.8568    26.8958    23.9205    22.2425    2.061      1.8341     2.1842     2.8206     3.2677    
2612.2     25.4613    27.2325    25.5703    23.0284    21.9232    2.9611     2.2533     2.5276     3.0516     3.3613    
2612.4     23.6762    25.2267    23.6676    22.2144    21.5209    2.5838     2.446      2.8211     3.2763     3.4821    
2612.6     26.3063    27.9185    26.1178    23.9644    22.4343    2.1861     1.9653     2.305      2.8122     3.2146    
2612.8     27.119     28.7471    26.7254    24.9686    23.4148    2.131      1.8422     2.2126     2.5735     2.9484    
2613       27.0049    28.7873    26.3702    24.6351    23.318     2.1711     1.8458     2.2977     2.6501     2.9736    
2613.2     25.7977    27.7396    25.1302    23.3722    22.3734    2.7        2.095      2.5985     2.9614     3.2313    
2613.4     23.3701    25.122     23.0931    21.7824    21.4687    2.8867     2.5223     3.0244     3.4032     3.4982    
2613.6     24.4516    26.4257    24.0596    22.2185    21.5589    2.6093     2.2511     2.7633     3.2758     3.4712    
2613.8     25.314     27.3259    24.8832    23.1932    22.5135    2.4513     2.0912     2.5883     3.0062     3.191     
2614       25.7038    27.5807    24.9962    23.4127    22.9405    2.3923     2.0488     2.5652     2.9488     3.0734    
2614.2     26.1576    28.1574    25.3271    23.5879    23.1987    2.2921     1.941      2.4845     2.9039     3.0046    
2614.4     26.5308    28.5061    25.7733    23.7177    23.353     2.1715     1.8738     2.3853     2.871      2.9643    
2614.6     26.2936    28.4555    25.9466    23.8218    23.3492    2.4325     1.9381     2.3972     2.8451     2.9653    
2614.8     25.75      27.7663    25.2455    23.4717    23.1048    2.3457     2.0006     2.4998     2.9336     3.0295    
2615       26.2947    28.322     25.6866    23.729     22.8791    2.2736     1.9207     2.4192     2.8682     3.09      
