~Version
 VERS              .         2.0                           : CWLS LOG ASCII STANDARD - VERSION 2.0
 WRAP              .         NO                            : ONE LINE PER DEPTH STEP
 DLM               .         SPACE                         : DELIMITING CHARACTER(SPACE TAB OR COMMA)
~Well Information
#_______________________________________________________________________________
#
#PARAMETER_NAME    .UNIT     VALUE                         : DESCRIPTION
#_______________________________________________________________________________
STRT               .m        2469                          : First reference value
STOP               .m        2690                          : Last reference value
STEP               .m        0.2                           : Step increment
NULL               .         -9999                         : Missing value
COMP               .                                       : Company
WELL               .         101                           : Well name
FLD                .                                       : Field
LOC                .                                       : Location
CNTY               .                                       : County
STAT               .                                       : State
CTRY               .                                       : Country
SRVC               .                                       : Service Company
DATE               .                                       : Date
API                .                                       : API number
LONG               .dega     2.0616605265                  : 
HZCS               .GCS_WGS_1984 World_Mercator                : 
Cartographic_reference_system .         GCS_WGS_1984                  : 
Куст               .         1                             : 
EREF               .m        137.7                         : 
group              .         Pad1                          : 
Тип                .         Разведка                      : 
Статус             .         Не проверено                  : 
LATI               .dega     2.1710182041                  : 
Интер-р            .         Пузин                         : 
Pad                .         1                             : 
~Parameter Information Block
#_______________________________________________________________________________
#
#PARAMETER_NAME    .UNIT     VALUE                         : DESCRIPTION
#_______________________________________________________________________________
SET                .         LAS3                          : 
TLFamily_GR        .         Russian Gamma Ray             : 
REAL_CREATION_DATE .         Wed Apr 11 2012-13_17_06      : 
TLFamily_NKT       .         Neutron Far                   : 
group              .         INI                           : 
TLFamily_TNPH      .         Neutron Porosity              : 
TLFamily_NKM       .         Neutron Near                  : 
TLFamily_MD        .         Measured Depth                : 
~Curve Information
#_______________________________________________________________________________
#
#LOGNAME           .UNIT     LOG_ID                        : DESCRIPTION
#_______________________________________________________________________________
MD                 .m                                      : 1 Depth 
GR                 .uR/h                                   : 4 Gamma-Ray 
NKM                .UE                                     : 3 Near Thermal Neutron Logging 
NKT                .UE                                     : 2 Far Thermal Neutron Logging 
TNPH               .v/v                                    : 5 Hydrogen Content 
~Ascii
2469.0     11.572     1.174      2.32       0.265     
2469.2     11.841     1.304      2.683      0.264     
2469.4     12.038     1.341      2.852      0.26      
2469.6     11.961     1.373      2.937      0.26      
2469.8     11.602     1.449      3.008      0.269     
2470       11.168     1.536      3.146      0.269     
2470.2     10.857     1.628      3.384      0.261     
2470.4     10.839     1.72       3.633      0.258     
2470.6     11.046     1.798      3.843      0.256     
2470.8     11.092     1.858      3.986      0.258     
2471       11.002     1.859      4.073      0.252     
2471.2     10.889     1.847      4.128      0.244     
2471.4     10.865     1.846      4.173      0.243     
2471.6     11.143     1.838      4.112      0.252     
2471.8     11.476     1.831      3.943      0.266     
2472       11.553     1.817      3.899      0.258     
2472.2     11.682     1.818      3.979      0.254     
2472.4     11.771     1.817      3.955      0.259     
2472.6     11.599     1.844      3.95       0.258     
2472.8     11.577     1.876      4.086      0.25      
2473       11.605     1.892      4.211      0.245     
2473.2     11.416     1.906      4.272      0.242     
2473.4     11.144     1.956      4.357      0.246     
2473.6     11.533     1.957      4.35       0.253     
2473.8     12.336     1.851      4.191      0.251     
2474       12.449     1.778      3.959      0.256     
2474.2     12.445     1.753      3.784      0.267     
2474.4     12.284     1.763      3.663      0.276     
2474.6     11.883     1.789      3.652      0.284     
2474.8     11.9       1.805      3.622      0.288     
2475       11.892     1.799      3.681      0.277     
2475.2     11.823     1.793      3.75       0.269     
2475.4     11.664     1.797      3.841      0.257     
2475.6     11.274     1.818      4.009      0.244     
2475.8     11.152     1.841      4.12       0.249     
2476       11.349     1.839      3.947      0.274     
2476.2     11.493     1.807      3.76       0.276     
2476.4     11.813     1.79       3.753      0.27      
2476.6     11.764     1.796      3.774      0.269     
2476.8     11.852     1.818      3.793      0.277     
2477       12.136     1.82       3.669      0.293     
2477.2     11.954     1.807      3.655      0.281     
2477.4     11.586     1.777      3.712      0.276     
2477.6     11.688     1.76       3.658      0.274     
2477.8     11.961     1.772      3.704      0.271     
2478       11.825     1.777      3.724      0.27      
2478.2     11.817     1.789      3.745      0.276     
2478.4     11.879     1.802      3.629      0.295     
2478.6     11.871     1.802      3.541      0.298     
2478.8     11.918     1.817      3.554      0.301     
2479       12.085     1.85       3.54       0.31      
2479.2     11.899     1.836      3.558      0.299     
2479.4     11.606     1.787      3.675      0.275     
2479.6     11.652     1.764      3.718      0.269     
2479.8     11.697     1.778      3.737      0.268     
2480       11.577     1.795      3.772      0.269     
2480.2     11.398     1.81       3.821      0.266     
2480.4     11.222     1.816      3.851      0.268     
2480.6     11.453     1.825      3.818      0.274     
2480.8     11.966     1.826      3.765      0.281     
2481       12.161     1.822      3.745      0.278     
2481.2     12.019     1.823      3.794      0.271     
2481.4     11.647     1.827      3.855      0.269     
2481.6     11.625     1.827      3.83       0.273     
2481.8     11.653     1.837      3.821      0.271     
2482       11.791     1.835      3.905      0.262     
2482.2     11.817     1.816      3.954      0.256     
2482.4     11.531     1.813      3.95       0.263     
2482.6     11.63      1.826      3.743      0.293     
2482.8     11.734     1.803      3.593      0.289     
2483       11.832     1.785      3.707      0.268     
2483.2     11.924     1.799      3.824      0.264     
2483.4     11.786     1.816      3.834      0.27      
2483.6     11.905     1.81       3.834      0.265     
2483.8     11.956     1.792      3.87       0.257     
2484       11.68      1.8        3.925      0.253     
2484.2     11.712     1.817      3.99       0.252     
2484.4     12.016     1.821      3.956      0.263     
2484.6     11.924     1.801      3.838      0.271     
2484.8     11.961     1.783      3.716      0.275     
2485       11.77      1.785      3.776      0.258     
2485.2     11.503     1.802      3.997      0.241     
2485.4     11.344     1.823      4.116      0.245     
2485.6     11.45      1.835      4.013      0.261     
2485.8     11.891     1.803      3.921      0.258     
2486       12.272     1.787      3.898      0.258     
2486.2     12.233     1.786      3.845      0.265     
2486.4     12.314     1.784      3.739      0.276     
2486.6     12.619     1.792      3.698      0.276     
2486.8     12.603     1.804      3.741      0.273     
2487       12.258     1.802      3.809      0.264     
2487.2     11.981     1.81       3.895      0.259     
2487.4     11.454     1.854      3.932      0.265     
2487.6     10.807     1.896      4.012      0.263     
2487.8     10.887     1.937      4.06       0.274     
2488       11.468     1.964      4.033      0.277     
2488.2     12.045     1.936      4.09       0.268     
2488.4     12.428     1.894      4.094      0.258     
2488.6     12.26      1.865      4.119      0.251     
2488.8     11.872     1.815      4.074      0.248     
2489       11.783     1.8        4.048      0.242     
2489.2     11.707     1.824      4.059      0.25      
2489.4     11.616     1.83       4.045      0.249     
2489.6     11.489     1.836      4.049      0.253     
2489.8     11.783     1.829      4.062      0.244     
2490       11.86      1.815      4.159      0.234     
2490.2     12.161     1.821      4.244      0.229     
2490.4     12.662     1.794      4.199      0.239     
2490.6     12.859     1.781      3.969      0.254     
2490.8     12.972     1.8        3.854      0.268     
2491       13.24      1.813      3.744      0.286     
2491.2     13.541     1.777      3.542      0.306     
2491.4     13.713     1.742      3.342      0.313     
2491.6     13.955     1.726      3.312      0.307     
2491.8     14.171     1.727      3.345      0.301     
2492       14.318     1.722      3.44       0.282     
2492.2     14.18      1.705      3.601      0.263     
2492.4     13.709     1.731      3.708      0.257     
2492.6     13.368     1.778      3.85       0.25      
2492.8     12.537     1.833      4.082      0.234     
2493       11.838     1.908      4.463      0.213     
2493.2     11.409     2.004      5.031      0.183     
2493.4     10.273     2.162      5.885      0.156     
2493.6     9.326      2.357      6.959      0.136     
2493.8     9.398      2.505      7.866      0.132     
2494       10.906     2.406      7.834      0.143     
2494.2     12.217     2.128      6.559      0.177     
2494.4     13.086     1.918      5.029      0.225     
2494.6     13.335     1.885      4.235      0.249     
2494.8     13.384     1.884      4.238      0.241     
2495       13.292     1.892      4.304      0.236     
2495.2     13.441     1.926      4.45       0.228     
2495.4     13.677     1.958      4.572      0.229     
2495.6     13.727     1.989      4.624      0.226     
2495.8     13.083     2.041      4.914      0.201     
2496       11.643     2.131      5.629      0.164     
2496.2     10.253     2.3        6.783      0.13      
2496.4     8.82       2.523      8.224      0.11      
2496.6     8.04       2.691      9.375      0.101     
2496.8     7.972      2.805      10.105     0.099     
2497       8.467      2.782      10.166     0.106     
2497.2     9.035      2.653      9.251      0.13      
2497.4     10.293     2.441      7.483      0.181     
2497.6     11.855     2.163      5.728      0.219     
2497.8     12.79      1.976      4.844      0.227     
2498       12.906     1.935      4.5        0.237     
