~Version
 VERS              .         2.0                           : CWLS LOG ASCII STANDARD - VERSION 2.0
 WRAP              .         NO                            : ONE LINE PER DEPTH STEP
 DLM               .         SPACE                         : DELIMITING CHARACTER(SPACE TAB OR COMMA)
~Well Information
#_______________________________________________________________________________
#
#PARAMETER_NAME    .UNIT     VALUE                         : DESCRIPTION
#_______________________________________________________________________________
STRT               .m        2469                          : First reference value
STOP               .m        2690                          : Last reference value
STEP               .m        0.2                           : Step increment
NULL               .         -9999                         : Missing value
COMP               .                                       : Company
WELL               .         101                           : Well name
FLD                .                                       : Field
LOC                .                                       : Location
CNTY               .                                       : County
STAT               .                                       : State
CTRY               .                                       : Country
SRVC               .                                       : Service Company
DATE               .                                       : Date
API                .                                       : API number
LONG               .dega     2.0616605265                  : 
HZCS               .GCS_WGS_1984 World_Mercator                : 
Cartographic_reference_system .         GCS_WGS_1984                  : 
Куст               .         1                             : 
EREF               .m        137.7                         : 
group              .         Pad1                          : 
Тип                .         Разведка                      : 
Статус             .         Не проверено                  : 
LATI               .dega     2.1710182041                  : 
Интер-р            .         Пузин                         : 
Pad                .         1                             : 
~Parameter Information Block
#_______________________________________________________________________________
#
#PARAMETER_NAME    .UNIT     VALUE                         : DESCRIPTION
#_______________________________________________________________________________
SET                .         LAS2                          : 
REAL_CREATION_DATE .         Wed Apr 11 2012-13_17_06      : 
TLFamily_GGR1      .         Density Large                 : 
TLFamily_GGR2      .         Density Small                 : 
group              .         INI                           : 
TLFamily_RHOB      .         Bulk Density                  : 
TLFamily_MD        .         Measured Depth                : 
~Curve Information
#_______________________________________________________________________________
#
#LOGNAME           .UNIT     LOG_ID                        : DESCRIPTION
#_______________________________________________________________________________
MD                 .m                                      : 1 Depth 
GGR1               .imp/min                                : 3 Density GGL Log by Large Zonde 
GGR2               .imp/min                                : 2 Density GGL Log by Small Zonde 
RHOB               .g/cm3                                  : 4 Standart Resolution Formation Densitu 
~Ascii
# ...
2578.2     3309.775   1091.73    2.2909    
2578.4     3356.374   1080.677   2.3114    
2578.6     3501.91    1130.36    2.3135    
2578.8     3713.577   1171.156   2.3349    
2579       3810.337   1141.319   2.4003    
2579.2     3711.236   1088.697   2.4102    
2579.4     3605.056   1065.034   2.4126    
2579.6     3284.494   1042.544   2.3154    
2579.8     3193.483   1046.022   2.2892    
2580       3175.792   994.652    2.344     
2580.2     3190.449   994.478    2.3364    
2580.4     3202.584   1028.022   2.3027    
2580.6     3209.663   999.506    2.3522    
2580.8     3236.966   985.348    2.3774    
2581       3234.944   999.62     2.3592    
2581.2     3247.391   1019.555   2.3369    
2581.4     3288.539   1034.292   2.3286    
2581.6     3208.522   1036.271   2.3022    
2581.8     3267.303   996.067    2.3752    
2582       3333.033   1000.719   2.3825    
2582.2     3345.68    1031.004   2.3485    
2582.4     3238.989   1019.528   2.3445    
2582.6     3246.067   1001.354   2.3395    
2582.8     3192.472   1016.494   2.3123    
2583       3224.831   1068.674   2.2801    
2583.2     3316.822   1074.981   2.3062    
2583.4     3313.82    1101.713   2.2754    
2583.6     3400.786   1116.404   2.2881    
2583.8     3488.764   1179.564   2.2594    
2584       3383.595   1182.539   2.2308    
2584.2     3415.955   1181.73    2.2445    
2584.4     3407.865   1173.728   2.2454    
2584.6     3364.382   1141.685   2.2808    
2584.8     3402.809   1099.194   2.3154    
2585       3440.224   1130.372   2.2764    
2585.2     3493.82    1199.933   2.234     
2585.4     3502.921   1178.635   2.2856    
2585.6     3302.697   1067.258   2.3113    
2585.8     3152.026   979.523    2.3701    
2586       3220.786   950.183    2.4047    
2586.2     3372.472   1004.966   2.3768    
2586.4     3477.402   1082.508   2.3343    
2586.6     3479.663   1123.685   2.2875    
2586.8     3431.757   1136.346   2.281     
2587       3384.606   1150.79    2.2564    
2587.2     3336.067   1108.921   2.2887    
2587.4     3346.179   1094.878   2.3       
2587.6     3282.472   1075.348   2.2952    
2587.8     3178.314   974.225    2.3859    
2588       3201.155   963.419    2.3676    
2588.2     3176.292   1009.861   2.3048    
2588.4     3300.674   1064.629   2.3089    
2588.6     3299.663   1113.641   2.2587    
2588.8     3366.404   1134.809   2.2588    
2589       3370.24    1178.722   2.2232    
2589.2     3431.124   1174.668   2.2512    
2589.4     3414.944   1199.528   2.2252    
2589.6     3450.249   1207.906   2.2332    
2589.8     3496.854   1239.573   2.218     
2590       3611.123   1286.09    2.2138    
2590.2     3475.714   1280.892   2.1906    
2590.4     3518.09    1245.64    2.2266    
2590.6     3475.618   1201.507   2.2391    
2590.8     3503.932   1186.382   2.2582    
2591       3552.564   1239.904   2.2207    
2591.2     3581.797   1265.676   2.225     
2591.4     3441.236   1224.607   2.2154    
2591.6     3555.798   1254.337   2.224     
2591.8     3596.966   1318.247   2.1724    
2592       3593.932   1409.258   2.1233    
2592.2     3535.059   1290.401   2.2081    
2592.4     3304.719   1111.348   2.2959    
2592.6     3215.27    1028.788   2.3273    
2592.8     3223.82    999.91     2.3491    
2593       3208.652   1063.618   2.2597    
2593.2     3272.653   1058.385   2.3246    
2593.4     3183.371   1020.337   2.3266    
2593.6     3151.304   981.226    2.3419    
2593.8     3046.854   928.081    2.3847    
2594       2959.888   855.91     2.4518    
2594.2     2850.674   804.741    2.4761    
2594.4     2794.045   750.135    2.5182    
2594.6     2741.238   720.186    2.5614    
2594.8     2813.258   697.569    2.5993    
2595       2915.393   755.798    2.5409    
2595.2     2981.094   788.471    2.5205    
2595.4     3032.696   813.64     2.5109    
2595.6     3120.433   857.007    2.4594    
2595.8     2992.247   865.852    2.4284    
2596       2964.944   825.775    2.4693    
2596.2     2990.49    832.238    2.4637    
2596.4     2975.056   847.82     2.4411    
2596.6     3031.101   829.828    2.4951    
2596.8     3042.809   850.321    2.4679    
2597       3046.854   835.079    2.5016    
2597.2     2990.949   827.366    2.4738    
2597.4     3017.528   852.876    2.4479    
2597.6     3012.472   845.798    2.4596    
2597.8     2952.718   826.382    2.4745    
2598       2897.191   799.641    2.4788    
2598.2     2903.258   764.09     2.554     
2598.4     2914.382   727.98     2.623     
2598.6     2664.607   674.899    2.641     
2598.8     2781.91    641.822    2.7026    
2599       3033.708   707.056    2.6615    
2599.2     3196.525   787.472    2.5827    
2599.4     3254.157   846.404    2.538     
2599.6     3190.449   848.176    2.5372    
2599.8     3098.711   799.281    2.5834    
2600       3094.382   806.764    2.5479    
2600.2     3160.112   820.292    2.5479    
2600.4     3042.809   831.034    2.4913    
2600.6     2992.261   817.016    2.4851    
2600.8     2891.123   804.84     2.4864    
2601       2983.146   786.337    2.5323    
2601.2     3189.336   842.544    2.5147    
2601.4     3303.708   910.517    2.4749    
2601.6     3303.708   891.91     2.5047    
2601.8     3222.52    859.147    2.5259    
2602       3075.168   809.016    2.5585    
2602.2     3047.865   796.247    2.5447    
2602.4     3023.595   819.627    2.4936    
2602.6     3042.809   797.258    2.5582    
2602.8     2998.924   784.393    2.5566    
2603       2948.764   776.629    2.5308    
2603.2     2926.517   786.135    2.523     
2603.4     3023.595   751.753    2.6256    
2603.6     3054.944   752.592    2.6025    
2603.8     3011.804   756.809    2.5905    
2604       2995.281   748.112    2.5955    
2604.2     3041.798   776.951    2.5779    
2604.4     3051.91    778.449    2.5991    
2604.6     3067.079   793.283    2.555     
2604.8     3041.798   809.546    2.5248    
2605       3000.337   808.347    2.5084    
2605.2     2967.583   796.502    2.5181    
2605.4     2913.371   828.607    2.4296    
2605.6     2927.528   805.809    2.4961    
2605.8     2984.842   834.279    2.4643    
2606       3024.606   813.345    2.5195    
2606.2     2991.236   814.449    2.4913    
2606.4     2994.27    813.006    2.5071    
2606.6     2980.112   818.697    2.4734    
2606.8     2958       818.876    2.4766    
2607       2901.236   818.251    2.4522    
2607.2     2898.202   804.337    2.4866    
2607.4     2963.932   800.507    2.5171    
2607.6     3002.359   781.685    2.5627    
2607.8     3044.844   782.708    2.5758    
2608       3016.517   786.735    2.5591    
2608.2     2931.573   790.382    2.4957    
2608.4     2960.899   838.315    2.4508    
2608.6     2918.56    807.95     2.4979    
2608.8     2949.775   789.474    2.5167    
2609       2946.741   803.73     2.4839    
2609.2     2909.257   799.994    2.4669    
2609.4     2929.551   797.056    2.4933    
2609.6     2953.04    826.188    2.4547    
2609.8     2891.123   807.488    2.4641    
2610       2989.213   819.708    2.4905    
2610.2     2998.314   808.18     2.5052    
2610.4     2978.09    809.595    2.492     
2610.6     2958.876   814.239    2.4799    
2610.8     3008.427   834.876    2.4707    
2611       2996.292   870.472    2.4147    
2611.2     3022.584   892.335    2.3935    
2611.4     2994.27    846.71     2.4437    
2611.6     3000.337   858.539    2.4427    
2611.8     2986.18    846.404    2.4539    
2612       2986.18    834.876    2.4734    
2612.2     3022.163   820.517    2.4919    
2612.4     3004.382   813.034    2.5101    
2612.6     3013.879   812.967    2.5139    
2612.8     2949.775   807.168    2.4881    
2613       2963.932   802.719    2.5043    
2613.2     2999.326   828.13     2.4744    
2613.4     3069.101   869.258    2.4288    
2613.6     3010.764   894.135    2.4061    
2613.8     2923.483   801.101    2.4999    
2614       2894.157   798.27     2.4671    
2614.2     2975.664   835.685    2.4387    
2614.4     2940.674   822.539    2.4741    
