~Version
 VERS              .         2.0                           : CWLS LOG ASCII STANDARD - VERSION 2.0
 WRAP              .         NO                            : ONE LINE PER DEPTH STEP
 DLM               .         SPACE                         : DELIMITING CHARACTER(SPACE TAB OR COMMA)
~Well Information
#_______________________________________________________________________________
#
#PARAMETER_NAME    .UNIT     VALUE                         : DESCRIPTION
#_______________________________________________________________________________
STRT               .m        2469                          : First reference value
STOP               .m        2690                          : Last reference value
STEP               .m        0.2                           : Step increment
NULL               .         -9999                         : Missing value
COMP               .                                       : Company
WELL               .         101                           : Well name
FLD                .                                       : Field
LOC                .                                       : Location
CNTY               .                                       : County
STAT               .                                       : State
CTRY               .                                       : Country
SRVC               .                                       : Service Company
DATE               .                                       : Date
API                .                                       : API number
LONG               .dega     2.0616605265                  : 
HZCS               .GCS_WGS_1984 World_Mercator                : 
Cartographic_reference_system .         GCS_WGS_1984                  : 
Куст               .         1                             : 
EREF               .m        137.7                         : 
group              .         Pad1                          : 
Тип                .         Разведка                      : 
Статус             .         Не проверено                  : 
LATI               .dega     2.1710182041                  : 
Интер-р            .         Пузин                         : 
Pad                .         1                             : 
~Parameter Information Block
#_______________________________________________________________________________
#
#PARAMETER_NAME    .UNIT     VALUE                         : DESCRIPTION
#_______________________________________________________________________________
SET                .         LAS4                          : 
REAL_CREATION_DATE .         Wed Apr 11 2012-13_17_06      : 
TLFamily_RK20      .         Resistivity 20                : 
TLFamily_RK10      .         Resistivity 10                : 
group              .         INI                           : 
TLFamily_DF20      .         Phase difference 20           : 
TLFamily_DF10      .         Phase difference 10           : 
TLFamily_RK05      .         Resistivity 05                : 
TLFamily_DF05      .         Phase difference 05           : 
TLFamily_RK07      .         Resistivity 07                : 
TLFamily_RK14      .         Resistivity 14                : 
TLFamily_DF07      .         Phase difference 07           : 
TLFamily_DF14      .         Phase difference 14           : 
TLFamily_MD        .         Measured Depth                : 
~Curve Information
#_______________________________________________________________________________
#
#LOGNAME           .UNIT     LOG_ID                        : DESCRIPTION
#_______________________________________________________________________________
MD                 .m                                      : 1 Depth 
DF05               .Ohmm                                   : 2 Induction Log, shift 
DF07               .Ohmm                                   : 3 Induction Log, shift 
DF10               .Ohmm                                   : 4 Induction Log, shift 
DF14               .Ohmm                                   : 5 Induction Log, shift 
DF20               .mS/m                                   : 6 Induction Log, shift 
RK05               .Ohmm                                   : 7 Induction Log, Resistivity 
RK07               .Ohmm                                   : 8 Induction Log, Resistivity 
RK10               .Ohmm                                   : 9 Induction Log, Resistivity 
RK14               .Ohmm                                   : 10 Induction Log, Resistivity 
RK20               .Ohmm                                   : 11 Induction Log, Resistivity 
~Ascii
# ...
2522       22.8851    22.5537    19.1929    17.1176    16.5341    3.5326     3.3417     4.4444     5.1788     5.4658    
2522.2     18.9868    18.4057    16.2229    15.0196    14.7337    4.4073     4.564      5.5688     6.3073     6.4903    
2522.4     22.3343    21.9867    18.9981    16.4382    15.1061    2.8934     3.2155     4.2405     5.5239     6.2617    
2522.6     21.913     22.2126    20.1772    18.2042    16.6818    4.0515     3.406      4.0213     4.6801     5.3845    
2522.8     17.6563    18.0789    17.4576    17.199     16.8601    4.953      4.7359     5.0617     5.1323     5.294     
2523       16.5003    17.4959    16.3918    16.2939    16.6291    5.5541     5.0898     5.5912     5.5815     5.4087    
2523.2     19.9581    20.2064    17.7188    16.8086    17.1115    3.2814     3.7332     4.7124     5.3252     5.1722    
2523.4     24.4123    24.2179    20.9164    18.6392    17.6413    2.4955     2.6969     3.646      4.5011     4.9272    
2523.6     25.3764    25.263     21.4652    18.8142    18.0524    2.7947     2.5603     3.5296     4.4294     4.7452    
2523.8     21.8807    22.2071    19.9478    18.0627    17.6405    3.5991     3.3311     4.0459     4.7418     4.9271    
2524       20.3092    20.6647    18.998     17.5191    17.2304    3.9722     3.829      4.4033     4.9818     5.1157    
2524.2     20.2371    19.732     18.3444    17.5672    17.1484    3.8413     3.9967     4.5871     4.9598     5.1545    
2524.4     21.4485    21.6611    19.428     18.2431    17.6604    3.1461     3.3521     4.1046     4.6646     4.918     
2524.6     23.1542    23.4923    20.8224    18.9982    18.3379    3.0794     2.9486     3.7163     4.3574     4.6244    
2524.8     23.7285    23.4748    20.5909    18.9467    18.6521    2.9983     2.9245     3.7746     4.3772     4.4945    
2525       20.0755    20.7115    18.9584    17.8127    18.2989    4.3493     3.8495     4.4878     4.8537     4.641     
2525.2     18.8002    19.523     17.922     16.7607    16.9005    4.3992     4.1702     4.7835     5.3429     5.2764    
2525.4     19.8937    20.6355    18.7089    17.303     16.6688    3.8023     3.7153     4.4134     5.0823     5.3888    
2525.6     21.4582    21.9427    19.4076    17.7635    16.9258    3.4168     3.3369     4.2053     4.8717     5.2617    
2525.8     22.0639    21.95      18.7481    16.8574    16.3978    3.8848     3.3785     4.5087     5.2982     5.5287    
2526       15.765     16.7116    15.4554    14.3711    14.715     6.8778     5.522      6.2764     6.7416     6.5058    
2526.2     13.6843    15.3822    14.2553    13.0686    13.5978    6.4955     5.9695     6.6901     7.7188     7.2844    
2526.4     17.9521    19.0962    17.1466    15.2336    14.6676    4.2311     4.2192     5.045      6.193      6.5379    
2526.6     21.2844    21.5825    19.1052    17.0825    16.4144    3.5435     3.4316     4.2971     5.1866     5.5207    
2526.8     20.1779    20.5706    18.4959    16.9634    16.661     4.0831     3.8429     4.6292     5.245      5.393     
2527       18.4692    19.0228    17.0225    15.8088    16.0108    4.9803     4.4184     5.2756     5.8465     5.7347    
2527.2     17.54      18.4612    16.5842    15.1909    15.4315    4.9068     4.5423     5.3802     6.2023     6.0595    
2527.4     17.8091    18.7493    17.2991    15.5283    15.3622    4.7319     4.4009     5.0568     6.0039     6.1001    
2527.6     18.9778    19.9454    18.1123    16.1458    15.4991    4.1619     3.9345     4.6858     5.6617     6.02      
2527.8     19.199     20.6397    18.5315    16.4334    15.709     4.3696     3.808      4.5745     5.5087     5.8998    
2528       20.142     20.8075    18.4631    16.3654    15.7026    3.9866     3.6715     4.5524     5.544      5.9035    
2528.2     18.3711    19.3181    17.8322    16.2712    15.5635    4.7635     4.2572     4.9018     5.5939     5.9827    
2528.4     16.1945    18.112     16.8001    15.5317    15.3697    5.7857     4.8341     5.3798     6.0014     6.096     
2528.6     19.3311    20.4511    17.957     16.1145    15.6981    3.6833     3.6989     4.6426     5.6818     5.9069    
2528.8     21.1003    21.7774    19.6633    17.4434    16.3985    3.5078     3.3951     4.1106     5.0163     5.5278    
2529       21.4446    22.0662    19.5766    17.3927    16.7352    3.67       3.3675     4.176      5.0397     5.3556    
2529.2     20.4968    20.8421    18.5171    16.9401    16.522     4.0215     3.7393     4.5872     5.2557     5.4632    
2529.4     19.3221    19.5244    17.7454    16.4042    16.1291    4.1531     4.1314     4.8702     5.5238     5.6688    
2529.6     19.4221    19.7976    18.0171    16.4895    16.0901    4.1679     4.0734     4.767      5.4799     5.6897    
2529.8     20.3876    20.1792    18.3236    16.934     16.35      3.6467     3.8772     4.594      5.2583     5.5523    
2530       21.2662    21.0219    18.9899    17.4515    16.6032    3.7296     3.6413     4.3495     5.0126     5.4218    
2530.2     20.1329    20.3681    18.4851    17.056     16.4524    3.7905     3.8309     4.6001     5.1991     5.4991    
2530.4     22.8741    21.6622    18.3425    16.4372    15.9765    3.4105     3.4411     4.6644     5.507      5.7521    
2530.6     15.8063    15.7357    14.5667    14.284     14.7465    7.1053     6.2468     6.9989     6.8181     6.4856    
2530.8     13.8544    14.5262    12.9984    12.7449    13.7753    7.3131     6.6332     7.6809     7.9925     7.1502    
2531       14.5045    15.8435    14.6182    14.3749    14.7885    5.3222     5.5854     6.3525     6.7369     6.4644    
2531.2     19.9788    20.9854    18.5961    17.0267    16.6532    4.1937     3.7202     4.508      5.2184     5.4       
2531.4     20.1429    20.7133    18.4245    17.7378    17.6341    2.7609     3.5355     4.4259     4.8833     4.9299    
2531.6     27.6528    27.4349    22.3675    19.2248    18.1401    4.4753     2.4511     3.4        4.2695     4.7075    
2531.8     15.6535    16.2604    16.1485    16.3523    17.1385    4.319      5.2651     5.5734     5.5606     5.1606    
2532       27.5034    25.9683    21.5432    17.638     16.5292    2.3438     2.2806     3.385      4.9459     5.4599    
2532.2     18.7769    18.5055    18.1406    16.9317    16.1074    5.4356     4.8088     5.1893     5.298      5.685     
2532.4     15.239     16.0666    14.2726    13.3729    14.157     6.2113     5.7516     6.8032     7.4594     6.8866    
2532.6     14.8946    16.0085    14.6156    13.9984    13.8559    6.9164     5.8706     6.5441     6.989      7.0937    
2532.8     16.9418    17.6885    16.0913    15.5052    15.3602    4.0037     4.6396     5.4788     6.0288     6.1107    
2533       20.6694    21.5161    19.2025    17.7002    17.0429    3.6484     3.5053     4.2666     4.9013     5.2081    
2533.2     23.8582    23.7296    20.3482    18.3723    17.8558    2.639      2.815      3.8135     4.6099     4.8307    
2533.4     24.3546    23.906     20.4651    18.5866    18.0288    2.8382     2.8476     3.8591     4.5212     4.7553    
2533.6     22.413     22.2644    19.5358    17.8622    17.7095    3.5724     3.3636     4.2112     4.8292     4.8969    
2533.8     21.0454    20.8302    18.7257    17.1197    17.0284    3.6133     3.6833     4.4528     5.1683     5.2127    
2534       20.5732    20.4242    18.7119    17.0987    16.4581    3.828      3.8482     4.4873     5.1781     5.4963    
2534.2     19.7813    20.2161    18.2608    16.7323    15.8171    4.5516     4.12       4.7385     5.3587     5.841     
2534.4     15.5239    15.481     15.5062    15.0683    14.6906    6.7182     6.2167     6.4252     6.2921     6.5198    
2534.6     14.1104    14.305     13.1608    13.1954    13.4677    6.9208     6.7933     7.6195     7.6065     7.386     
2534.8     14.1343    14.5314    13.6371    13.5126    13.4497    6.902      6.6495     7.2236     7.3521     7.3998    
2535       15.8795    15.7702    14.5659    14.4904    14.3213    4.7361     5.6468     6.4313     6.652      6.7634    
2535.2     22.0824    21.3524    18.0392    16.6637    16.6179    2.7073     3.3803     4.6082     5.4035     5.4214    
