~Version
 VERS              .         2.0                           : CWLS LOG ASCII STANDARD - VERSION 2.0
 WRAP              .         NO                            : ONE LINE PER DEPTH STEP
 DLM               .         SPACE                         : DELIMITING CHARACTER(SPACE TAB OR COMMA)
~Well Information
#_______________________________________________________________________________
#
#PARAMETER_NAME    .UNIT     VALUE                         : DESCRIPTION
#_______________________________________________________________________________
STRT               .m        2469                          : First reference value
STOP               .m        2690                          : Last reference value
STEP               .m        0.2                           : Step increment
NULL               .         -9999                         : Missing value
COMP               .                                       : Company
WELL               .         101                           : Well name
FLD                .                                       : Field
LOC                .                                       : Location
CNTY               .                                       : County
STAT               .                                       : State
CTRY               .                                       : Country
SRVC               .                                       : Service Company
DATE               .                                       : Date
API                .                                       : API number
LONG               .dega     2.0616605265                  : 
HZCS               .GCS_WGS_1984 World_Mercator                : 
Cartographic_reference_system .         GCS_WGS_1984                  : 
Куст               .         1                             : 
EREF               .m        137.7                         : 
group              .         Pad1                          : 
Тип                .         Разведка                      : 
Статус             .         Не проверено                  : 
LATI               .dega     2.1710182041                  : 
Интер-р            .         Пузин                         : 
Pad                .         1                             : 
~Parameter Information Block
#_______________________________________________________________________________
#
#PARAMETER_NAME    .UNIT     VALUE                         : DESCRIPTION
#_______________________________________________________________________________
SET                .         LAS4                          : 
REAL_CREATION_DATE .         Wed Apr 11 2012-13_17_06      : 
TLFamily_RK20      .         Resistivity 20                : 
TLFamily_RK10      .         Resistivity 10                : 
group              .         INI                           : 
TLFamily_DF20      .         Phase difference 20           : 
TLFamily_DF10      .         Phase difference 10           : 
TLFamily_RK05      .         Resistivity 05                : 
TLFamily_DF05      .         Phase difference 05           : 
TLFamily_RK07      .         Resistivity 07                : 
TLFamily_RK14      .         Resistivity 14                : 
TLFamily_DF07      .         Phase difference 07           : 
TLFamily_DF14      .         Phase difference 14           : 
TLFamily_MD        .         Measured Depth                : 
~Curve Information
#_______________________________________________________________________________
#
#LOGNAME           .UNIT     LOG_ID                        : DESCRIPTION
#_______________________________________________________________________________
MD                 .m                                      : 1 Depth 
DF05               .Ohmm                                   : 2 Induction Log, shift 
DF07               .Ohmm                                   : 3 Induction Log, shift 
DF10               .Ohmm                                   : 4 Induction Log, shift 
DF14               .Ohmm                                   : 5 Induction Log, shift 
DF20               .mS/m                                   : 6 Induction Log, shift 
RK05               .Ohmm                                   : 7 Induction Log, Resistivity 
RK07               .Ohmm                                   : 8 Induction Log, Resistivity 
RK10               .Ohmm                                   : 9 Induction Log, Resistivity 
RK14               .Ohmm                                   : 10 Induction Log, Resistivity 
RK20               .Ohmm                                   : 11 Induction Log, Resistivity 
~Ascii
# ...
2668.2     20.649     21.0992    17.6151    15.5387    15.2647    3.908      3.6871     5.0341     6.0109     6.1682    
2668.4     17.8768    17.8651    14.4578    12.8493    12.9163    17.8485    5.8575     7.4984     7.9952     7.8809    
2668.6     6.8477     7.7599     8.153      8.9181     10.3649    13.8529    15.608     14.7477    13.4085    10.7311   
2668.8     9.7449     11.629     10.9784    9.5151     9.8092     11.1124    8.996700000000001 9.8727     12.205     11.6126   
2669       9.189      11.8902    10.9729    10.5205    11.0496    12.8899    8.8149     9.8691     10.4893    9.7798    
2669.2     12.6536    15.0181    12.9864    12.1179    12.6643    6.165      6.0347     7.4513     8.632400000000001 8.085100000000001
2669.4     17.5403    19.1977    17.3411    15.6956    15.251     4.8423     4.2835     5.0223     5.9242     6.178     
2669.6     19.453     20.3066    18.2945    17.1654    16.9546    3.4161     3.6879     4.5051     5.1472     5.2494    
2669.8     23.2659    24.338     20.8112    17.9317    17.4412    3.0272     2.7466     3.7377     4.7976     5.0173    
2670       22.8989    23.7074    20.1205    17.3262    17.1389    3.2379     2.8893     3.9615     5.0717     5.1603    
2670.2     21.6282    22.8133    19.3893    16.6203    16.3715    3.4525     3.1318     4.2051     5.4134     5.5412    
2670.4     21.5308    22.5889    19.9079    17.0423    16.1856    3.5795     3.193      4.0083     5.2066     5.6386    
2670.6     22.4161    23.4355    20.8531    18.159     16.8985    2.563      2.8493     3.622      4.7021     5.2774    
2670.8     29.3538    28.5105    23.9405    20.4305    18.4467    3.6227     2.1959     2.9519     3.8344     4.58      
2671       16.8159    18.1565    18.5772    19.7353    19.5645    4.4732     4.4707     4.3967     4.0801     4.1441    
2671.2     19.323     22.2543    22.432     22.1555    21.2456    3.6405     3.1645     3.1111     3.3066     3.5758    
2671.4     24.2075    27.1195    26.3177    25.2825    24.284     2.7005     2.1308     2.2645     2.5053     2.7344    
2671.6     26.1924    29.5144    26.9291    25.3704    24.7605    2.0341     1.6722     2.141      2.4858     2.6212    
2671.8     27.6858    31.373     27.4243    24.3966    23.6641    2.2345     1.5205     2.0983     2.706      2.8853    
2672       24.858     27.4849    25.5276    23.5919    22.8013    2.8532     2.1017     2.4726     2.9031     3.1112    
2672.2     23.1359    25.8609    24.8865    24.1716    23.2742    2.8007     2.3601     2.5836     2.7604     2.9857    
2672.4     24.5112    27.1731    25.5761    24.8692    24.1656    2.8504     2.1568     2.4384     2.5959     2.7608    
2672.6     22.4698    25.596     25.1039    24.6024    24.2459    3.2954     2.4636     2.5613     2.6573     2.7413    
2672.8     23.3818    26.5636    25.2555    24.4436    24.1362    2.8484     2.2132     2.4895     2.6944     2.7679    
2673       24.0513    27.1451    25.5945    23.9142    23.8438    2.8115     2.1283     2.4491     2.8231     2.8402    
2673.2     23.3417    26.2658    24.2431    22.4732    22.4516    3.161      2.345      2.8133     3.2051     3.2104    
2673.4     20.8978    23.2163    21.639     20.5292    20.7005    4.2067     3.1385     3.5372     3.8053     3.7463    
2673.6     18.2675    19.8195    19.2921    18.5993    19.1909    4.648      4.0501     4.2657     4.518      4.2849    
2673.8     18.5282    20.1161    18.9874    18.1169    18.2709    4.3744     3.8898     4.3502     4.7174     4.6524    
2674       19.7228    21.7935    19.4132    17.9456    17.7159    4.3286     3.3393     4.1728     4.7918     4.8931    
2674.2     16.8589    21.1854    19.0913    17.1377    16.7949    5.1799     3.8526     4.4341     5.1616     5.3289    
2674.4     20.353     21.1332    17.6613    16.3706    15.8384    3.4388     3.4705     4.7194     5.5412     5.8273    
2674.6     20.4113    21.7902    18.9953    16.916     16.4747    4.1523     3.5047     4.4294     5.2664     5.4876    
2674.8     21.247     21.9843    18.9365    16.3917    16.6103    3.2609     3.2566     4.2928     5.5318     5.4187    
2675       21.0569    22.4034    19.8328    17.439     16.3721    3.8905     3.3185     4.1016     5.0185     5.5404    
2675.2     20.4328    21.4309    19.033     17.2152    16.4469    3.9017     3.5129     4.3306     5.1228     5.5017    
2675.4     18.2229    19.5027    18.3498    16.7896    16.4473    4.9764     4.2841     4.6964     5.3297     5.5016    
2675.6     19.3226    19.9614    18.1442    16.5467    16.4098    3.8732     3.8828     4.6151     5.4524     5.5208    
2675.8     20.1144    21.1944    19.2725    17.3159    16.5131    4.0651     3.627      4.291      5.0754     5.4677    
2676       20.2896    21.3054    18.9323    17.2593    16.525     3.7556     3.4907     4.3196     5.1028     5.4616    
2676.2     20.7582    22.401     20.5064    18.2348    16.7825    3.2563     3.1886     3.7924     4.6682     5.3321    
2676.4     27.9751    26.5346    22.006     18.7142    17.5403    2.562      2.3032     3.3654     4.4694     4.9724    
2676.6     20.5226    20.2143    18.8226    17.8609    17.3556    3.8166     3.8532     4.4601     4.8319     5.057     
2676.8     19.5829    21.3725    19.7943    17.7676    17.1243    4.0638     3.475      3.9712     4.8758     5.1666    
2677       21.5645    24.4654    22.7939    20.215     18.5349    3.3324     2.6473     3.085      3.9107     4.5447    
2677.2     21.8799    24.1916    22.196     20.0491    18.7907    3.2365     2.8221     3.3661     3.9718     4.4396    
2677.4     22.6       22.7263    19.8507    18.0413    17.8001    3.4317     3.1318     4.0957     4.754      4.8564    
2677.6     20.66      23.0399    19.7248    17.3745    17.4791    3.2714     2.975      4.0049     5.0487     5.0001    
2677.8     23.6188    26.4379    23.7688    20.0101    18.607     3.2967     2.38       2.8195     3.9905     4.5153    
2678       22.7648    23.909     23.0439    21.3067    19.9651    2.9088     2.762      3.0422     3.5486     3.997     
2678.2     23.3471    24.4056    22.2289    20.7349    20.0105    2.931      2.7163     3.3071     3.7331     3.9801    
2678.4     23.4363    24.4362    21.7311    19.9489    19.5453    3.1858     2.7138     3.4266     4.002      4.1488    
2678.6     21.8167    23.8334    21.8107    20.362     19.5097    3.3619     2.8267     3.3622     3.8589     4.1624    
2678.8     21.3487    23.2895    22.1925    20.5819    19.9462    4.0085     3.1229     3.3564     3.784      4.0029    
2679       19.7159    20.5797    20.4473    19.3889    19.3311    3.6189     3.6729     3.8123     4.2077     4.23      
2679.2     21.8486    23.379     20.7445    19.01      18.278     3.8497     3.0347     3.778      4.3534     4.6505    
2679.4     19.7082    20.3077    18.9167    17.5623    17.0827    3.9058     3.8175     4.4255     4.9636     5.1883    
2679.6     20.93      22.1449    18.8387    17.1272    16.0952    3.7814     3.2476     4.4003     5.1654     5.6882    
2679.8     17.8895    20.0436    17.8909    15.6388    15.3125    5.4432     4.1721     4.9681     5.9509     6.1304    
2680       14.3441    15.0171    14.4576    13.5714    14.0126    7.1011     6.6327     6.9959     7.3135     6.9906    
2680.2     15.9174    16.6171    13.5612    13.1008    13.1844    5.2411     5.2457     7.0678     7.6836     7.6114    
2680.4     18.6188    20.3957    17.6429    15.258     14.6599    3.9894     3.7337     4.8205     6.1694     6.5532    
2680.6     21.1022    22.0295    19.073     16.5376    15.8765    3.5518     3.4034     4.3604     5.4564     5.8062    
2680.8     21.2497    20.9985    17.9303    16.077     15.5137    4.2012     3.708      4.8837     5.7003     6.014     
2681       16.43      18.3246    16.1981    14.5766    14.6737    5.6881     4.7264     5.6727     6.5956     6.5262    
2681.2     18.1643    18.487     16.8505    14.438     14.2665    4.0719     4.4277     5.2076     6.6928     6.7994    
