~Version
 VERS              .         2.0                           : CWLS LOG ASCII STANDARD - VERSION 2.0
 WRAP              .         NO                            : ONE LINE PER DEPTH STEP
 DLM               .         SPACE                         : DELIMITING CHARACTER(SPACE TAB OR COMMA)
~Well Information
#_______________________________________________________________________________
#
#PARAMETER_NAME    .UNIT     VALUE                         : DESCRIPTION
#_______________________________________________________________________________
STRT               .m        2469                          : First reference value
STOP               .m        2690                          : Last reference value
STEP               .m        0.2                           : Step increment
NULL               .         -9999                         : Missing value
COMP               .                                       : Company
WELL               .         101                           : Well name
FLD                .                                       : Field
LOC                .                                       : Location
CNTY               .                                       : County
STAT               .                                       : State
CTRY               .                                       : Country
SRVC               .                                       : Service Company
DATE               .                                       : Date
API                .                                       : API number
LONG               .dega     2.0616605265                  : 
HZCS               .GCS_WGS_1984 World_Mercator                : 
Cartographic_reference_system .         GCS_WGS_1984                  : 
Куст               .         1                             : 
EREF               .m        137.7                         : 
group              .         Pad1                          : 
Тип                .         Разведка                      : 
Статус             .         Не проверено                  : 
LATI               .dega     2.1710182041                  : 
Интер-р            .         Пузин                         : 
Pad                .         1                             : 
~Parameter Information Block
#_______________________________________________________________________________
#
#PARAMETER_NAME    .UNIT     VALUE                         : DESCRIPTION
#_______________________________________________________________________________
SET                .         LAS4                          : 
REAL_CREATION_DATE .         Wed Apr 11 2012-13_17_06      : 
TLFamily_RK20      .         Resistivity 20                : 
TLFamily_RK10      .         Resistivity 10                : 
group              .         INI                           : 
TLFamily_DF20      .         Phase difference 20           : 
TLFamily_DF10      .         Phase difference 10           : 
TLFamily_RK05      .         Resistivity 05                : 
TLFamily_DF05      .         Phase difference 05           : 
TLFamily_RK07      .         Resistivity 07                : 
TLFamily_RK14      .         Resistivity 14                : 
TLFamily_DF07      .         Phase difference 07           : 
TLFamily_DF14      .         Phase difference 14           : 
TLFamily_MD        .         Measured Depth                : 
~Curve Information
#_______________________________________________________________________________
#
#LOGNAME           .UNIT     LOG_ID                        : DESCRIPTION
#_______________________________________________________________________________
MD                 .m                                      : 1 Depth 
DF05               .Ohmm                                   : 2 Induction Log, shift 
DF07               .Ohmm                                   : 3 Induction Log, shift 
DF10               .Ohmm                                   : 4 Induction Log, shift 
DF14               .Ohmm                                   : 5 Induction Log, shift 
DF20               .mS/m                                   : 6 Induction Log, shift 
RK05               .Ohmm                                   : 7 Induction Log, Resistivity 
RK07               .Ohmm                                   : 8 Induction Log, Resistivity 
RK10               .Ohmm                                   : 9 Induction Log, Resistivity 
RK14               .Ohmm                                   : 10 Induction Log, Resistivity 
RK20               .Ohmm                                   : 11 Induction Log, Resistivity 
~Ascii
# ...
2495.6     19.8614    20.7984    18.5896    16.8108    15.7177    3.9099     3.7029     4.5235     5.3181     5.8957    
2495.8     20.0334    20.9504    18.1076    16.1252    14.9968    4.2435     3.744      4.8052     5.6744     6.3232    
2496       16.1287    17.3053    15.022     13.6802    13.2621    7.8288     5.6143     6.7327     7.2791     7.5787    
2496.2     14.4468    14.5174    12.1809    10.9518    11.0927    7.1574     6.4595     8.4236     9.918900000000001 9.741099999999999
2496.4     8.7743     10.4846    9.8766     9.1365     9.4375     18.3974    11.1882    12.54      13.0355    12.294    
2496.6     6.6412     9.017      7.9124     7.2081     8.4639     23.6014    13.6358    16.2526    18.3968    14.456    
2496.8     6.5525     7.8835     7.3939     7.1921     8.2901     17.6102    15.8401    17.4986    18.4569    14.8875   
2497       8.6079     9.2497     8.4466     7.9457     8.9685     13.1131    12.5471    14.2564    15.8968    13.2506   
2497.2     10.6934    10.9492    9.8742     9.5547     10.548     7.5817     9.4183     10.9962    12.1328    10.4828   
2497.4     17.2907    18.294     15.1573    12.6781    12.7607    4.5773     4.5523     6.0293     8.0907     7.9952    
2497.6     20.2469    21.1288    17.4336    14.7258    14.4839    3.9425     3.6171     4.9913     6.4926     6.6541    
2497.8     19.6023    20.2976    17.2504    14.8189    14.5583    4.0753     3.8808     5.1268     6.4332     6.6022    
2498       19.4691    20.0029    16.9512    14.3374    13.8763    4.6289     4.0564     5.3186     6.752      7.0772    
2498.2     16.0511    17.2202    14.9736    13.3073    13.2278    5.6558     5.1102     6.3364     7.5135     7.5782    
2498.4     18.3142    19.386     16.4767    13.7292    13.0373    4.4677     4.1622     5.3928     7.197      7.734     
2498.6     17.7706    18.6863    16.6998    14.5057    13.4969    5.3091     4.5945     5.4745     6.6382     7.362     
2498.8     17.4826    17.8703    15.9762    14.1027    13.4046    4.6546     4.7155     5.6828     6.9148     7.4341    
2499       18.1292    18.7144    16.6903    14.8531    13.6968    4.775      4.4864     5.4034     6.4113     7.2094    
2499.2     17.9255    18.5258    16.3604    14.7939    13.9819    4.7591     4.5269     5.5497     6.449      6.999     
2499.4     18.3689    19.0256    16.5235    14.9572    14.0709    4.4812     4.3184     5.4332     6.3459     6.936     
2499.6     18.9466    19.4646    17.0014    15.134     14.3889    4.4851     4.1867     5.2263     6.2369     6.7152    
2499.8     18.2332    18.9673    16.7928    14.9813    14.532     4.6844     4.3735     5.339      6.3311     6.6191    
2500       17.3346    18.3055    16.4043    14.6344    14.4045    5.3318     4.72       5.5794     6.5521     6.7045    
2500.2     16.8822    17.5627    15.7502    14.4146    14.2083    5.662      4.9935     5.8879     6.6977     6.8389    
2500.4     18.7786    18.8944    16.6909    14.9855    14.4208    3.5207     4.1386     5.1831     6.3384     6.6976    
2500.6     21.2282    21.9905    19.435     16.6754    15.297     3.6529     3.3617     4.2322     5.3867     6.1402    
2500.8     21.1107    21.6995    18.8867    16.7006    15.7764    3.493      3.4021     4.3889     5.3728     5.8619    
2501       22.4502    22.463     19.2935    16.6364    15.6184    3.5913     3.2432     4.2728     5.4053     5.9513    
2501.2     15.5445    16.7508    15.9433    14.9686    14.803     6.5735     5.5547     6.0114     6.3576     6.4474    
2501.4     17.5437    18.116     15.5326    13.8389    13.8352    4.9985     4.7092     5.9217     7.1069     7.1081    
2501.6     16.6765    17.0262    15.4341    14.1745    13.6783    5.4477     5.2627     6.1339     6.8632     7.2232    
2501.8     16.5764    17.076     15.2585    13.8809    13.7522    5.7072     5.2489     6.1743     7.0726     7.1673    
2502       17.7164    17.8428    15.7936    14.6237    14.0697    4.3203     4.6629     5.7145     6.5644     6.9387    
2502.2     17.0807    18.4286    16.7858    15.2634    14.3216    6.2183     4.9488     5.5761     6.1644     6.7614    
2502.4     17.1301    16.7737    14.5588    13.7145    13.6056    4.3097     5.1203     6.4365     7.1962     7.282     
2502.6     18.5946    17.6209    15.2164    13.5398    12.7194    5.4656     5.1863     6.4123     7.3314     8.010999999999999
2502.8     14.2039    14.5935    12.7297    11.8596    11.9037    7.4202     6.5383     8.0184     8.8508     8.8026    
2503       12.8454    15.0496    13.197     11.3918    11.1139    7.4761     6.2072     7.5326     9.3607     9.695499999999999
2503.2     15.2596    16.799     14.1842    11.463     10.7984    5.3612     5.2608     6.8572     9.2782     10.1027   
2503.4     17.9763    17.1111    13.1703    11.0166    9.8568     5.0637     5.343      7.8697     9.850400000000001 11.5409   
2503.6     13.6307    12.526     9.4402     8.5034     8.2629     9.2947     8.9435     13.5103    14.6379    15.0293   
2503.8     10.4576    10.1827    7.076      6.0253     6.7515     11.7918    11.0993    18.7444    24.1663    20.3753   
2504       8.2933     9.2061     6.9261     5.5872     6.1149     21.2182    13.2045    19.7788    26.9846    23.5914   
2504.2     5.3797     7.0131     5.882      5.1724     5.763      26.1915    21.4305    26.4377    30.2289    25.8196   
2504.4     6.5912     6.2759     4.7183     4.9951     5.0772     19.1519    22.0968    33.4079    31.7206    30.975    
2504.6     7.9855     7.8402     6.0736     5.1614     5.7946     13.4655    15.6089    22.8733    30.267     25.6376   
2504.8     10.8645    10.9181    8.7408     6.3718     7.1102     7.998      9.5632     13.2184    22.3866    18.8985   
2505       16.1957    15.5341    12.3421    9.4349     8.7947     5.2722     5.9149     8.1468     12.4103    13.6772   
2505.2     17.3136    15.8882    13.257     11.1403    10.1767    4.5735     5.7361     7.5216     9.6625     11.0146   
2505.4     21.662     18.8191    14.6535    12.0181    11.0497    2.9137     4.2689     6.3755     8.700799999999999 9.7803    
2505.6     25.1001    22.9792    17.1725    13.7026    12.1216    2.6482     3.026      5.105      7.2076     8.579000000000001
2505.8     22.3512    22.737     17.1375    14.0233    12.7089    3.8415     3.2175     5.1906     6.9696     8.0182    
2506       19.0299    19.9595    16.6272    13.4838    12.4636    4.0006     3.9349     5.3254     7.3722     8.2423    
2506.2     20.4155    21.2074    18.6031    14.3102    12.6956    4.1236     3.6848     4.5371     6.7711     8.0307    
2506.4     19.0316    19.8104    17.8387    14.9286    13.1393    4.4307     4.1061     4.85       6.3641     7.6486    
2506.6     18.611     19.0607    17.4684    15.5699    13.4244    4.6152     4.3724     5.0342     5.9796     7.4202    
2506.8     18.6517    18.884     16.993     15.9197    13.8838    4.3172     4.3558     5.2096     5.7824     7.0709    
2507       19.7408    19.9126    17.5354    16.0267    14.4568    4.0839     4.0063     4.9645     5.7239     6.67      
2507.2     19.4652    19.7571    17.5188    15.9977    14.9683    4.2397     4.0713     4.9935     5.7397     6.3393    
2507.4     18.6024    19.0486    17.1174    15.6075    15.0051    4.6664     4.3732     5.1993     5.9579     6.3163    
2507.6     17.9599    18.5596    16.6472    15.2844    14.7863    4.8353     4.5315     5.398      6.1463     6.4538    
2507.8     17.8963    18.7038    16.791     15.351     14.8313    4.7656     4.4597     5.3268     6.1066     6.4251    
2508       18.3095    19.2496    17.0457    15.4498    14.9031    4.5975     4.2519     5.1919     6.0487     6.3797    
2508.2     18.2575    19.2669    17.2726    15.5138    14.9675    4.6771     4.2567     5.095      6.0114     6.3394    
2508.4     18.0754    19.2616    17.2424    15.479     14.9593    4.851      4.2691     5.1222     6.0316     6.3445    
2508.6     17.5581    18.8615    16.9042    15.2807    14.9204    4.9557     4.4137     5.2723     6.1487     6.3688    
