~Version
 VERS              .         2.0                           : CWLS LOG ASCII STANDARD - VERSION 2.0
 WRAP              .         NO                            : ONE LINE PER DEPTH STEP
 DLM               .         SPACE                         : DELIMITING CHARACTER(SPACE TAB OR COMMA)
~Well Information
#_______________________________________________________________________________
#
#PARAMETER_NAME    .UNIT     VALUE                         : DESCRIPTION
#_______________________________________________________________________________
STRT               .m        2469                          : First reference value
STOP               .m        2690                          : Last reference value
STEP               .m        0.2                           : Step increment
NULL               .         -9999                         : Missing value
COMP               .                                       : Company
WELL               .         101                           : Well name
FLD                .                                       : Field
LOC                .                                       : Location
CNTY               .                                       : County
STAT               .                                       : State
CTRY               .                                       : Country
SRVC               .                                       : Service Company
DATE               .                                       : Date
API                .                                       : API number
LONG               .dega     2.0616605265                  : 
HZCS               .GCS_WGS_1984 World_Mercator                : 
Cartographic_reference_system .         GCS_WGS_1984                  : 
Куст               .         1                             : 
EREF               .m        137.7                         : 
group              .         Pad1                          : 
Тип                .         Разведка                      : 
Статус             .         Не проверено                  : 
LATI               .dega     2.1710182041                  : 
Интер-р            .         Пузин                         : 
Pad                .         1                             : 
~Parameter Information Block
#_______________________________________________________________________________
#
#PARAMETER_NAME    .UNIT     VALUE                         : DESCRIPTION
#_______________________________________________________________________________
SET                .         LAS3                          : 
TLFamily_GR        .         Russian Gamma Ray             : 
REAL_CREATION_DATE .         Wed Apr 11 2012-13_17_06      : 
TLFamily_NKT       .         Neutron Far                   : 
group              .         INI                           : 
TLFamily_TNPH      .         Neutron Porosity              : 
TLFamily_NKM       .         Neutron Near                  : 
TLFamily_MD        .         Measured Depth                : 
~Curve Information
#_______________________________________________________________________________
#
#LOGNAME           .UNIT     LOG_ID                        : DESCRIPTION
#_______________________________________________________________________________
MD                 .m                                      : 1 Depth 
GR                 .uR/h                                   : 4 Gamma-Ray 
NKM                .UE                                     : 3 Near Thermal Neutron Logging 
NKT                .UE                                     : 2 Far Thermal Neutron Logging 
TNPH               .v/v                                    : 5 Hydrogen Content 
~Ascii
# ...
2527.4     11.829     1.937      4.718      0.216     
2527.6     11.387     1.95       4.686      0.22      
2527.8     11.092     1.958      4.718      0.216     
2528       11.099     1.968      4.808      0.211     
2528.2     11.406     1.977      4.891      0.209     
2528.4     11.533     1.96       4.89       0.208     
2528.6     11.598     1.958      4.834      0.212     
2528.8     12.311     1.957      4.774      0.216     
2529       13.029     1.941      4.698      0.221     
2529.2     13.265     1.917      4.596      0.222     
2529.4     12.939     1.918      4.614      0.215     
2529.6     12.623     1.919      4.733      0.21      
2529.8     12.196     1.913      4.727      0.212     
2530       12.153     1.903      4.698      0.21      
2530.2     12.123     1.908      4.703      0.211     
2530.4     11.51      1.949      4.71       0.215     
2530.6     10.169     2.013      4.881      0.206     
2530.8     9.016      2.109      5.294      0.192     
2531       8.77       2.188      5.68       0.192     
2531.2     9.071      2.131      5.596      0.2       
2531.4     9.57       1.999      5.212      0.205     
2531.6     10.14      1.911      4.761      0.222     
2531.8     10.315     1.891      4.4        0.237     
2532       10.003     1.917      4.354      0.233     
2532.2     9.816      1.956      4.593      0.217     
2532.4     9.281      2          4.878      0.207     
2532.6     8.408      2.071      5.129      0.204     
2532.8     8.447      2.088      5.231      0.21      
2533       8.763      2.01       4.968      0.224     
2533.2     9.098      1.921      4.553      0.236     
2533.4     9.788      1.873      4.323      0.236     
2533.6     10.835     1.848      4.294      0.232     
2533.8     11.581     1.828      4.294      0.227     
2534       11.022     1.841      4.342      0.222     
2534.2     10.058     1.894      4.51       0.213     
2534.4     8.738      1.964      4.851      0.197     
2534.6     7.961      2.047      5.222      0.194     
2534.8     7.9        2.114      5.331      0.205     
2535       8.296      2.074      5.184      0.216     
2535.2     8.864      1.997      4.798      0.234     
2535.4     9.464      1.916      4.477      0.235     
2535.6     9.852      1.861      4.352      0.235     
2535.8     10.742     1.864      4.191      0.25      
2536       10.974     1.851      4.06       0.257     
2536.2     10.626     1.82       4.019      0.25      
2536.4     10.159     1.82       4.056      0.244     
2536.6     9.557      1.875      4.179      0.237     
2536.8     8.806      1.964      4.508      0.223     
2537       8.397      2.025      4.811      0.22      
2537.2     8.191      2.038      4.92       0.215     
2537.4     7.957      2.051      4.992      0.217     
2537.6     8.121      2.062      4.894      0.23      
2537.8     9.085      2.022      4.741      0.23      
2538       9.726      1.974      4.742      0.219     
2538.2     9.969      1.956      4.746      0.217     
2538.4     10.282     1.953      4.698      0.224     
2538.6     10.382     1.956      4.548      0.236     
2538.8     10.695     1.953      4.495      0.234     
2539       11.042     1.948      4.507      0.236     
2539.2     10.812     1.957      4.457      0.235     
2539.4     10.384     1.988      4.668      0.217     
2539.6     10.906     2.021      4.953      0.211     
2539.8     12.178     1.982      4.873      0.222     
2540       13.116     1.915      4.54       0.236     
2540.2     13.364     1.91       4.304      0.246     
2540.4     13.187     1.9        4.28       0.243     
2540.6     12.922     1.869      4.292      0.235     
2540.8     13.059     1.851      4.325      0.231     
2541       13.547     1.849      4.231      0.245     
2541.2     13.839     1.859      4.062      0.26      
2541.4     14.278     1.864      3.981      0.263     
2541.6     14.181     1.867      3.992      0.266     
2541.8     13.767     1.892      3.927      0.279     
2542       13.48      1.892      3.875      0.277     
2542.2     13.547     1.877      4.01       0.256     
2542.4     13.818     1.884      4.124      0.254     
2542.6     13.909     1.884      4.121      0.253     
2542.8     14.048     1.882      4.207      0.242     
2543       13.986     1.856      4.254      0.24      
2543.2     13.931     1.838      4.169      0.246     
2543.4     13.803     1.837      4.04       0.259     
2543.6     14.027     1.825      3.9        0.267     
2543.8     14.424     1.812      3.867      0.263     
2544       14.578     1.818      3.912      0.257     
2544.2     14.355     1.82       3.993      0.252     
2544.4     14.402     1.841      3.978      0.265     
2544.6     14.448     1.838      3.849      0.276     
2544.8     14.538     1.811      3.833      0.26      
2545       14.797     1.811      4.012      0.243     
2545.2     14.845     1.83       4.147      0.237     
2545.4     14.87      1.834      4.251      0.229     
2545.6     14.813     1.791      4.338      0.217     
2545.8     14.559     1.744      4.305      0.214     
2546       14.262     1.744      4.184      0.228     
2546.2     14.054     1.736      4          0.236     
2546.4     13.921     1.734      4.035      0.228     
2546.6     13.714     1.748      4.098      0.226     
2546.8     12.881     1.77       4.221      0.215     
2547       12.681     1.786      4.369      0.214     
2547.2     12.799     1.774      4.324      0.219     
2547.4     13.134     1.762      4.234      0.222     
2547.6     13.409     1.763      4.187      0.225     
2547.8     13.825     1.739      4.154      0.226     
2548       14.28      1.698      4.021      0.229     
2548.2     14.506     1.7        4.019      0.219     
2548.4     15.05      1.713      4.19       0.208     
2548.6     14.98      1.735      4.318      0.205     
2548.8     14.043     1.748      4.381      0.205     
2549       13.287     1.75       4.392      0.205     
2549.2     12.972     1.758      4.377      0.211     
2549.4     12.743     1.788      4.303      0.219     
2549.6     12.734     1.803      4.325      0.219     
2549.8     13.07      1.803      4.386      0.21      
2550       13.054     1.815      4.569      0.197     
2550.2     12.515     1.864      4.833      0.183     
2550.4     11.488     1.961      5.271      0.169     
2550.6     10.609     2.097      5.804      0.162     
2550.8     10.061     2.188      6.322      0.15      
2551       9.449      2.216      6.813      0.138     
2551.2     9.294      2.295      7.067      0.138     
2551.4     10.189     2.321      7.206      0.149     
2551.6     11.948     2.106      6.383      0.174     
2551.8     13.395     1.856      5.256      0.187     
2552       13.787     1.768      4.686      0.195     
2552.2     13.868     1.758      4.465      0.206     
2552.4     13.841     1.771      4.414      0.204     
2552.6     13.95      1.799      4.452      0.216     
2552.8     14.735     1.824      4.216      0.245     
2553       15.829     1.817      3.932      0.274     
2553.2     16.422     1.748      3.591      0.296     
2553.4     17.101     1.687      3.346      0.299     
2553.6     17.603     1.663      3.296      0.297     
2553.8     17.784     1.657      3.234      0.307     
2554       17.719     1.675      3.16       0.316     
2554.2     17.471     1.699      3.209      0.308     
2554.4     17.027     1.731      3.35       0.295     
2554.6     16.286     1.765      3.503      0.291     
2554.8     15.588     1.781      3.54       0.29      
2555       15.005     1.796      3.636      0.277     
2555.2     14.33      1.83       3.819      0.261     
2555.4     13.431     1.905      4.113      0.248     
2555.6     13.579     1.935      4.305      0.249     
2555.8     14.661     1.846      4.213      0.247     
2556       14.691     1.784      3.971      0.26      
2556.2     14.631     1.753      3.782      0.259     
2556.4     14.971     1.743      3.846      0.249     
