~Version
 VERS              .         2.0                           : CWLS LOG ASCII STANDARD - VERSION 2.0
 WRAP              .         NO                            : ONE LINE PER DEPTH STEP
 DLM               .         SPACE                         : DELIMITING CHARACTER(SPACE TAB OR COMMA)
~Well Information
#_______________________________________________________________________________
#
#PARAMETER_NAME    .UNIT     VALUE                         : DESCRIPTION
#_______________________________________________________________________________
STRT               .m        2469                          : First reference value
STOP               .m        2690                          : Last reference value
STEP               .m        0.2                           : Step increment
NULL               .         -9999                         : Missing value
COMP               .                                       : Company
WELL               .         101                           : Well name
FLD                .                                       : Field
LOC                .                                       : Location
CNTY               .                                       : County
STAT               .                                       : State
CTRY               .                                       : Country
SRVC               .                                       : Service Company
DATE               .                                       : Date
API                .                                       : API number
LONG               .dega     2.0616605265                  : 
HZCS               .GCS_WGS_1984 World_Mercator                : 
Cartographic_reference_system .         GCS_WGS_1984                  : 
Куст               .         1                             : 
EREF               .m        137.7                         : 
group              .         Pad1                          : 
Тип                .         Разведка                      : 
Статус             .         Не проверено                  : 
LATI               .dega     2.1710182041                  : 
Интер-р            .         Пузин                         : 
Pad                .         1                             : 
~Parameter Information Block
#_______________________________________________________________________________
#
#PARAMETER_NAME    .UNIT     VALUE                         : DESCRIPTION
#_______________________________________________________________________________
SET                .         LAS4                          : 
REAL_CREATION_DATE .         Wed Apr 11 2012-13_17_06      : 
TLFamily_RK20      .         Resistivity 20                : 
TLFamily_RK10      .         Resistivity 10                : 
group              .         INI                           : 
TLFamily_DF20      .         Phase difference 20           : 
TLFamily_DF10      .         Phase difference 10           : 
TLFamily_RK05      .         Resistivity 05                : 
TLFamily_DF05      .         Phase difference 05           : 
TLFamily_RK07      .         Resistivity 07                : 
TLFamily_RK14      .         Resistivity 14                : 
TLFamily_DF07      .         Phase difference 07           : 
TLFamily_DF14      .         Phase difference 14           : 
TLFamily_MD        .         Measured Depth                : 
~Curve Information
#_______________________________________________________________________________
#
#LOGNAME           .UNIT     LOG_ID                        : DESCRIPTION
#_______________________________________________________________________________
MD                 .m                                      : 1 Depth 
DF05               .Ohmm                                   : 2 Induction Log, shift 
DF07               .Ohmm                                   : 3 Induction Log, shift 
DF10               .Ohmm                                   : 4 Induction Log, shift 
DF14               .Ohmm                                   : 5 Induction Log, shift 
DF20               .mS/m                                   : 6 Induction Log, shift 
RK05               .Ohmm                                   : 7 Induction Log, Resistivity 
RK07               .Ohmm                                   : 8 Induction Log, Resistivity 
RK10               .Ohmm                                   : 9 Induction Log, Resistivity 
RK14               .Ohmm                                   : 10 Induction Log, Resistivity 
RK20               .Ohmm                                   : 11 Induction Log, Resistivity 
~Ascii
# ...
2681.4     20.6823    21.2283    17.94      15.3989    13.9739    4.0713     3.5638     4.8014     6.0791     7.0049    
2681.6     18.5631    19.6389    17.1299    14.3092    13.3629    4.3943     4.1529     5.2072     6.7784     7.4695    
2681.8     19.6186    19.1737    16.0806    13.2379    12.17      4.2921     4.268      5.826      7.5695     8.5391    
2682       16.4731    16.8566    13.5197    11.2997    10.2276    8.0068     5.8452     7.7061     9.5982     10.9878   
2682.2     6.0556     7.6275     8.4855     7.8281     8.6283     46.7366    21.0395    16.5298    16.4246    14.0507   
2682.4     7.3869     9.1364     7.6439     7.1463     7.9334     11.946     12.2177    15.9149    18.8937    15.914    
2682.6     11.0079    11.9094    11.6011    10.0827    9.46       8.4392     8.486599999999999 8.9008     11.2146    12.3593   
2682.8     17.5283    17.8102    15.5666    13.5822    12.4958    4.2377     4.6094     5.8053     7.3386     8.2369    
2683       18.9274    19.4341    16.6932    14.8208    14.1857    4.3058     4.3754     5.4747     6.4359     6.8567    
2683.2     19.1488    18.1699    15.3913    13.9307    14.3917    5.4937     4.6767     6.2543     7.0365     6.715     
2683.4     14.8026    14.9753    13.9545    12.8686    13.5223    5.6578     6.3466     6.9929     7.8845     7.3424    
2683.6     15.3369    16.5892    14.34      13.0912    14.0752    6.7892     5.4308     6.8031     7.7241     6.9393    
2683.8     16.5268    17.0759    16.0889    15.55      15.6601    4.7202     5.0512     5.5403     6.002      5.9352    
2684       20.1214    22.2142    20.1372    18.804     17.9382    3.2545     3.1198     3.8124     4.4497     4.8004    
2684.2     23.7151    24.5669    23.1745    21.2409    19.9936    3.0559     2.6425     3.0162     3.5691     3.9899    
2684.4     21.7885    22.9018    21.6816    20.4031    20.2139    3.39       3.199      3.5548     3.8457     3.911     
2684.6     22.3096    23.4671    20.6661    18.8595    18.8468    3.2798     2.9068     3.7267     4.4114     4.4193    
2684.8     23.1945    23.1967    21.3499    19.0776    18.2123    3.0743     2.9767     3.5432     4.3259     4.6767    
2685       19.8846    22.0531    19.8898    18.3696    18.0986    4.2172     3.4522     4.0808     4.6115     4.7252    
2685.2     21.1298    21.5346    20.0439    18.1078    17.6983    3.6651     3.4081     3.9443     4.7218     4.9008    
2685.4     20.7085    21.3436    19.7835    18.5939    17.9829    3.6883     3.5098     4.0552     4.5181     4.7752    
2685.6     21.3332    21.8866    19.7682    18.4543    17.8834    3.4536     3.366      4.0716     4.5755     4.8188    
2685.8     21.8583    22.2805    20.3496    18.552     18.105     3.1115     3.1356     3.8522     4.5353     4.7225    
2686       24.1776    23.912     22.0318    19.4861    18.6457    2.8617     2.8365     3.3639     4.1712     4.4979    
2686.2     20.2382    22.7493    20.2701    18.8305    18.6959    4.085      3.231      3.9264     4.4233     4.4773    
2686.4     24.2728    24.8083    22.4329    19.43      18.9315    2.4631     2.4892     3.1386     4.1933     4.383     
2686.6     23.7274    24.1067    22.5381    20.1797    19.1424    2.9623     2.7918     3.2198     3.9212     4.3021    
2686.8     24.1637    25.6238    21.9995    19.8212    18.9336    2.6435     2.4946     3.2843     4.0479     4.3821    
2687       24.4631    25.6       22.5629    20.2215    19.4181    2.804      2.4606     3.2609     3.9073     4.1959    
2687.2     21.6397    21.6936    20.4989    19.1654    18.9578    4.2112     3.3866     3.8568     4.2967     4.3726    
2687.4     17.2594    20.1861    18.957     18.4258    18.515     5.0033     4.0479     4.3305     4.5899     4.5512    
2687.6     21.3742    22.755     20.7208    19.472     19.4202    2.9246     2.965      3.5952     4.1805     4.1957    
2687.8     22.5466    25.0695    23.6218    21.4703    20.37      3.2489     2.5416     2.9546     3.4993     3.8554    
2688       24.1635    23.7655    22.8132    21.0716    20.1567    2.7233     2.7874     3.074      3.6238     3.9288    
2688.2     24.3129    25.0043    23.4144    20.4086    19.7882    2.728      2.5652     2.9842     3.8428     4.0597    
2688.4     24.32      24.9937    22.4732    19.1598    18.8186    2.7139     2.5672     3.1998     4.2979     4.4294    
2688.6     24.3933    25.0274    22.5413    19.0429    18.2545    2.7094     2.5624     3.1835     4.3394     4.6588    
2688.8     24.3779    25.0108    22.5352    19.0369    18.2938    2.716      2.5624     3.1871     4.3417     4.6423    
2689       24.33      24.9936    22.5109    19.0063    18.0113    2.716      2.5674     3.1905     4.3536     4.7629    
2689.2     24.3505    25.0409    22.5289    18.992     17.9421    2.7108     2.5573     3.188      4.3592     4.7929    
2689.4     24.4232    25.0575    22.5925    18.9575    17.9951    2.6983     2.5545     3.1712     4.3727     4.7698    
2689.6     24.39      24.9777    22.5017    19.0379    17.9789    2.7175     2.5732     3.1956     4.3413     4.7769    
2689.8     24.3303    24.9899    22.4884    19.036     17.9779    2.7202     2.5687     3.2032     4.342      4.7775    
2690       24.3308    24.9919    22.5244    18.9355    17.9678    2.7217     2.5684     3.1889     4.3814     4.7817    
