~Version
 VERS              .         2.0                           : CWLS LOG ASCII STANDARD - VERSION 2.0
 WRAP              .         NO                            : ONE LINE PER DEPTH STEP
 DLM               .         SPACE                         : DELIMITING CHARACTER(SPACE TAB OR COMMA)
~Well Information
#_______________________________________________________________________________
#
#PARAMETER_NAME    .UNIT     VALUE                         : DESCRIPTION
#_______________________________________________________________________________
STRT               .m        2469                          : First reference value
STOP               .m        2690                          : Last reference value
STEP               .m        0.2                           : Step increment
NULL               .         -9999                         : Missing value
COMP               .                                       : Company
WELL               .         101                           : Well name
FLD                .                                       : Field
LOC                .                                       : Location
CNTY               .                                       : County
STAT               .                                       : State
CTRY               .                                       : Country
SRVC               .                                       : Service Company
DATE               .                                       : Date
API                .                                       : API number
LONG               .dega     2.0616605265                  : 
HZCS               .GCS_WGS_1984 World_Mercator                : 
Cartographic_reference_system .         GCS_WGS_1984                  : 
Куст               .         1                             : 
EREF               .m        137.7                         : 
group              .         Pad1                          : 
Тип                .         Разведка                      : 
Статус             .         Не проверено                  : 
LATI               .dega     2.1710182041                  : 
Интер-р            .         Пузин                         : 
Pad                .         1                             : 
~Parameter Information Block
#_______________________________________________________________________________
#
#PARAMETER_NAME    .UNIT     VALUE                         : DESCRIPTION
#_______________________________________________________________________________
SET                .         LAS4                          : 
REAL_CREATION_DATE .         Wed Apr 11 2012-13_17_06      : 
TLFamily_RK20      .         Resistivity 20                : 
TLFamily_RK10      .         Resistivity 10                : 
group              .         INI                           : 
TLFamily_DF20      .         Phase difference 20           : 
TLFamily_DF10      .         Phase difference 10           : 
TLFamily_RK05      .         Resistivity 05                : 
TLFamily_DF05      .         Phase difference 05           : 
TLFamily_RK07      .         Resistivity 07                : 
TLFamily_RK14      .         Resistivity 14                : 
TLFamily_DF07      .         Phase difference 07           : 
TLFamily_DF14      .         Phase difference 14           : 
TLFamily_MD        .         Measured Depth                : 
~Curve Information
#_______________________________________________________________________________
#
#LOGNAME           .UNIT     LOG_ID                        : DESCRIPTION
#_______________________________________________________________________________
MD                 .m                                      : 1 Depth 
DF05               .Ohmm                                   : 2 Induction Log, shift 
DF07               .Ohmm                                   : 3 Induction Log, shift 
DF10               .Ohmm                                   : 4 Induction Log, shift 
DF14               .Ohmm                                   : 5 Induction Log, shift 
DF20               .mS/m                                   : 6 Induction Log, shift 
RK05               .Ohmm                                   : 7 Induction Log, Resistivity 
RK07               .Ohmm                                   : 8 Induction Log, Resistivity 
RK10               .Ohmm                                   : 9 Induction Log, Resistivity 
RK14               .Ohmm                                   : 10 Induction Log, Resistivity 
RK20               .Ohmm                                   : 11 Induction Log, Resistivity 
~Ascii
# ...
2615.2     26.8014    28.503     25.6613    23.7049    22.9987    2.1533     1.8912     2.4194     2.8743     3.0578    
2615.4     26.8794    28.7818    25.71      23.6791    23.058     2.1664     1.8551     2.4272     2.8811     3.0419    
2615.6     26.7719    28.3311    25.002     23.1209    22.927     2.3694     1.9744     2.5922     3.0261     3.0772    
2615.8     25.1678    26.5776    24.0246    22.9125    22.8185    2.4615     2.2176     2.7693     3.0812     3.1065    
2616       26.9027    28.4657    25.7426    24.2357    23.4209    1.9829     1.8471     2.3542     2.7457     2.9483    
2616.2     28.9245    30.9069    27.8356    25.6357    24.4542    1.6805     1.506      1.9845     2.4279     2.6923    
2616.4     30.9003    32.5408    28.1898    25.2392    24.0794    1.6873     1.3725     2.0023     2.515      2.783     
2616.6     25.1198    25.8977    22.6512    21.4119    21.6772    4.8945     2.784      3.509      3.5499     3.4442    
2616.8     15.2944    17.3263    16.9205    17.5565    19.2145    4.1063     4.6976     4.9866     4.97       4.2731    
2617       28.2935    29.7516    25.8981    22.8974    21.3934    1.7786     1.6623     2.3157     3.1131     3.5347    
2617.2     28.4011    29.7445    26.5185    25.2131    24.6242    1.8687     1.6998     2.2642     2.5192     2.6529    
2617.4     29.6546    30.6775    26.6088    25.013     24.7438    2.0844     1.6182     2.2428     2.5635     2.6248    
2617.6     25.4453    26.7322    25.4705    24.3201    24.089     2.2523     2.1301     2.4113     2.7237     2.7793    
2617.8     27.4428    27.3919    26.2383    23.5573    22.8764    2.4744     2.1533     2.4583     2.9137     3.0939    
2618       21.6683    22.3861    21.1493    19.6771    19.8942    3.4725     3.2444     3.6754     4.1167     4.0381    
2618.2     22.4716    22.633     19.7044    17.3041    16.707     3.864      3.3103     4.2345     5.0876     5.3805    
2618.4     15.6065    16.776     15.4129    14.4301    14.2449    6.9134     5.5853     6.2649     6.7261     6.8323    
2618.6     13.7392    13.7289    12.4892    11.7535    11.8785    9.1797     7.4874     8.6606     8.989699999999999 8.8438    
2618.8     12.0564    11.2506    9.9787     10.2355    10.5638    7.3442     9.0771     11.073     10.9089    10.425    
2619       9.799      10.7061    9.545      9.4509     9.9454     16.8295    11.8388    13.3853    12.2782    11.3741   
2619.2     9.2317     9.5505     7.9218     8.2925     10.0552    11.2387    11.6222    15.4329    14.8878    11.1925   
2619.4     10.0346    10.7653    9.4782     9.33       10.5954    9.8408     9.875400000000001 11.8825    12.525     10.3956   
2619.6     11.106     12.5758    11.3518    10.9791    11.8012    9.8569     8.1942     9.3231     9.8896     8.907400000000001
2619.8     13.4202    15.0356    13.0842    12.6077    12.982     6.4574     6.1605     7.4581     8.1295     7.793     
2620       18.2206    19.2768    16.6219    14.7548    14.6997    3.789      4.1228     5.2777     6.4841     6.5171    
2620.2     19.9567    22.266     18.7319    16.1679    15.7243    4.9924     3.5374     4.5332     5.6486     5.8911    
2620.4     17.1277    19.0857    17.0457    15.6753    15.6024    4.9631     4.2462     5.1263     5.9198     5.9603    
2620.6     18.6723    20.7777    18.991     16.4977    15.5249    4.3454     3.6961     4.3152     5.4809     6.0054    
2620.8     19.6887    21.5168    20.0042    17.583     16.0915    3.8449     3.43       3.9464     4.9542     5.6899    
2621       20.621     22.779     20.7681    18.3026    16.6694    4.3098     3.2229     3.7761     4.6388     5.3885    
2621.2     18.1469    19.9631    18.7916    17.7828    16.7178    4.4717     3.9262     4.4141     4.863      5.3644    
2621.4     19.1304    21.0468    19.5882    18.0771    16.8869    4.2917     3.6191     4.128      4.7353     5.281     
2621.6     18.9041    20.7167    19.1532    18.0574    17.1633    4.4827     3.775      4.3371     4.7431     5.1472    
2621.8     17.5839    19.1964    17.8331    17.2206    17.1034    5.2719     4.3872     4.8972     5.122      5.1759    
2622       15.2788    17.5822    17.3307    17.0001    17.272     6.339      5.0155     5.0256     5.2262     5.0962    
2622.2     16.7328    19.5901    19.4589    18.5962    18.2207    5.2842     4.121      4.1157     4.5192     4.6751    
2622.4     17.6078    19.417     19.8549    19.3068    19.0394    4.5694     4.1389     4.0266     4.2379     4.341     
2622.6     19.334     20.5046    20.3075    19.5358    19.1931    3.7839     3.7248     3.8489     4.1526     4.2813    
2622.8     20.8309    22.5702    21.09      19.9698    19.2692    3.8666     3.2067     3.6351     3.9945     4.2522    
2623       19.1923    21.6333    20.1161    19.343     18.8443    4.6203     3.5608     4.0013     4.226      4.4186    
2623.2     20.9253    22.2006    20.3525    18.8282    18.1557    3.8048     3.1529     3.7633     4.4242     4.701     
2623.4     18.1005    20.1341    19.9085    18.2855    17.2817    4.4883     3.8452     4.108      4.6478     5.0921    
2623.6     18.276     21.0103    19.4992    16.9038    16.0513    4.4611     3.6532     4.1969     5.2724     5.717     
2623.8     20.5806    23.1904    19.8433    16.5164    15.0947    3.8122     3.1544     4.1244     5.469      6.2639    
2624       22.7042    22.807     18.5101    15.4499    14.1915    4.1238     3.1747     4.5823     6.0563     6.8528    
2624.2     15.1927    16.8534    15.2565    13.7094    13.1191    7.0772     5.493      6.3568     7.2179     7.6668    
2624.4     12.1639    13.7106    13.8655    12.6462    12.7068    8.691      7.1286     7.1278     8.074500000000001 8.020300000000001
2624.6     11.1247    13.1683    13.8943    13.2542    13.6146    8.8134     7.5127     7.0074     7.5594     7.2769    
2624.8     16.8133    17.8567    16.6396    15.9038    14.9792    4.5527     4.6596     5.2499     5.8061     6.339     
2625       19.559     20.998     19.0353    17.7748    16.5629    4.0196     3.5957     4.3104     4.8671     5.4465    
2625.2     20.3224    22.6531    19.9305    18.1521    17.6684    3.9822     3.1507     3.9897     4.7023     4.914     
2625.4     19.5615    22.2832    20.454     18.1469    17.5883    4.1017     3.2481     3.7981     4.7046     4.9501    
2625.6     19.732     22.4017    21.2564    18.5356    17.6523    4.0543     3.222      3.5527     4.5423     4.9213    
2625.8     20.0789    22.6432    21.4649    19.1044    17.9156    3.9686     3.1566     3.5011     4.3157     4.8045    
2626       19.6322    22.2037    21.0772    19.3942    18.0514    4.1141     3.2834     3.6248     4.2049     4.7455    
2626.2     19.9866    22.4502    21.2852    19.7136    18.3731    3.9594     3.2057     3.5402     4.0868     4.6092    
2626.4     20.5112    22.8595    21.7103    20.2078    18.8424    3.7169     3.0628     3.4047     3.911      4.4188    
2626.6     23.8642    25.0273    22.9897    20.9035    19.6758    2.4751     2.4526     2.9939     3.6788     4.1014    
2626.8     26.2196    27.2961    24.7323    21.7667    20.3707    2.5812     2.125      2.6851     3.4074     3.8549    
2627       15.5041    19.1625    19.6832    19.4064    19.6974    8.904      5.2954     4.5712     4.2318     4.098     
2627.2     15.821     17.0274    16.3531    17.0253    18.4569    4.6831     4.9924     5.2967     5.2146     4.5745    
2627.4     19.9098    20.578     20.1336    19.5338    19.1318    3.8479     3.7357     3.9046     4.1549     4.309     
2627.6     20.2605    21.9591    20.7303    20.3248    20.2022    3.7922     3.3175     3.7072     3.8706     3.913     
2627.8     25.4823    25.9994    23.048     21.4821    20.9025    2.008      2.2121     2.9264     3.4983     3.6783    
2628       23.2334    24.8252    23.5719    21.8167    21.0598    3.9458     2.9006     3.1332     3.397      3.6272    
2628.2     18.4082    20.4274    19.8566    19.2314    19.9507    5.8544     4.1281     4.1397     4.271      4.006     
