~Version
 VERS              .         2.0                           : CWLS LOG ASCII STANDARD - VERSION 2.0
 WRAP              .         NO                            : ONE LINE PER DEPTH STEP
 DLM               .         SPACE                         : DELIMITING CHARACTER(SPACE TAB OR COMMA)
~Well Information
#_______________________________________________________________________________
#
#PARAMETER_NAME    .UNIT     VALUE                         : DESCRIPTION
#_______________________________________________________________________________
STRT               .m        2469                          : First reference value
STOP               .m        2690                          : Last reference value
STEP               .m        0.2                           : Step increment
NULL               .         -9999                         : Missing value
COMP               .                                       : Company
WELL               .         101                           : Well name
FLD                .                                       : Field
LOC                .                                       : Location
CNTY               .                                       : County
STAT               .                                       : State
CTRY               .                                       : Country
SRVC               .                                       : Service Company
DATE               .                                       : Date
API                .                                       : API number
LONG               .dega     2.0616605265                  : 
HZCS               .GCS_WGS_1984 World_Mercator                : 
Cartographic_reference_system .         GCS_WGS_1984                  : 
Куст               .         1                             : 
EREF               .m        137.7                         : 
group              .         Pad1                          : 
Тип                .         Разведка                      : 
Статус             .         Не проверено                  : 
LATI               .dega     2.1710182041                  : 
Интер-р            .         Пузин                         : 
Pad                .         1                             : 
~Parameter Information Block
#_______________________________________________________________________________
#
#PARAMETER_NAME    .UNIT     VALUE                         : DESCRIPTION
#_______________________________________________________________________________
SET                .         LAS3                          : 
TLFamily_GR        .         Russian Gamma Ray             : 
REAL_CREATION_DATE .         Wed Apr 11 2012-13_17_06      : 
TLFamily_NKT       .         Neutron Far                   : 
group              .         INI                           : 
TLFamily_TNPH      .         Neutron Porosity              : 
TLFamily_NKM       .         Neutron Near                  : 
TLFamily_MD        .         Measured Depth                : 
~Curve Information
#_______________________________________________________________________________
#
#LOGNAME           .UNIT     LOG_ID                        : DESCRIPTION
#_______________________________________________________________________________
MD                 .m                                      : 1 Depth 
GR                 .uR/h                                   : 4 Gamma-Ray 
NKM                .UE                                     : 3 Near Thermal Neutron Logging 
NKT                .UE                                     : 2 Far Thermal Neutron Logging 
TNPH               .v/v                                    : 5 Hydrogen Content 
~Ascii
# ...
2585.8     13.509     1.733      3.278      0.304     
2586       13.047     1.751      3.448      0.291     
2586.2     12.906     1.754      3.514      0.296     
2586.4     12.61      1.705      3.342      0.311     
2586.6     12.954     1.636      3.161      0.318     
2586.8     14.56      1.602      2.966      0.336     
2587       15.929     1.581      2.834      0.342     
2587.2     16.676     1.59       2.893      0.315     
2587.4     16.73      1.608      3.163      0.285     
2587.6     15.739     1.629      3.358      0.272     
2587.8     14.201     1.66       3.427      0.278     
2588       13.367     1.69       3.449      0.278     
2588.2     13.22      1.694      3.506      0.279     
2588.4     13.472     1.662      3.415      0.292     
2588.6     14.026     1.62       3.163      0.316     
2588.8     15.519     1.59       2.974      0.328     
2589       17.054     1.586      2.838      0.355     
2589.2     17.502     1.588      2.663      0.383     
2589.4     17.442     1.575      2.571      0.386     
2589.6     17.248     1.543      2.623      0.353     
2589.8     17.312     1.529      2.752      0.336     
2590       18.226     1.528      2.736      0.342     
2590.2     18.772     1.53       2.745      0.334     
2590.4     18.769     1.535      2.799      0.334     
2590.6     17.625     1.589      2.769      0.351     
2590.8     16.174     1.633      2.833      0.348     
2591       16.373     1.624      2.898      0.344     
2591.2     16.831     1.598      2.845      0.347     
2591.4     17.035     1.6        2.813      0.348     
2591.6     17.323     1.621      2.835      0.347     
2591.8     19.022     1.588      2.886      0.335     
2592       20.338     1.544      2.81       0.341     
2592.2     20.854     1.544      2.763      0.333     
2592.4     19.655     1.575      2.887      0.318     
2592.6     17.509     1.631      3.055      0.31      
2592.8     16.237     1.653      3.159      0.311     
2593       16.23      1.663      3.099      0.332     
2593.2     16.396     1.638      2.922      0.358     
2593.4     16.287     1.601      2.758      0.359     
2593.6     15.616     1.612      2.834      0.334     
2593.8     15.014     1.631      3.069      0.3       
2594       15.16      1.651      3.33       0.275     
2594.2     15.419     1.707      3.523      0.273     
2594.4     15.313     1.775      3.592      0.283     
2594.6     15.403     1.821      3.646      0.288     
2594.8     15.8       1.819      3.694      0.283     
2595       16.647     1.781      3.666      0.286     
2595.2     17.095     1.708      3.495      0.292     
2595.4     17.15      1.673      3.292      0.307     
2595.6     16.288     1.636      3.175      0.305     
2595.8     15.798     1.613      3.18       0.295     
2596       15.85      1.62       3.181      0.302     
2596.2     15.728     1.618      3.149      0.301     
2596.4     15.662     1.613      3.153      0.302     
2596.6     15.837     1.603      3.141      0.299     
2596.8     15.735     1.617      3.134      0.307     
2597       15.686     1.638      3.093      0.317     
2597.2     15.585     1.644      3.141      0.298     
2597.4     15.396     1.64       3.333      0.276     
2597.6     15.399     1.626      3.514      0.247     
2597.8     15.543     1.632      3.779      0.221     
2598       15.183     1.684      4.073      0.206     
2598.2     14.409     1.766      4.369      0.197     
2598.4     12.586     1.89       4.871      0.176     
2598.6     10.484     2.063      5.634      0.158     
2598.8     8.565      2.294      6.52       0.15      
2599       9.663      2.409      7.045      0.164     
2599.2     11.902     2.133      6.286      0.186     
2599.4     14.855     1.794      4.958      0.206     
2599.6     15.978     1.658      4.179      0.212     
2599.8     15.827     1.675      4.015      0.224     
2600       15.553     1.693      3.943      0.232     
2600.2     15.52      1.697      3.93       0.234     
2600.4     15.169     1.725      3.906      0.241     
2600.6     14.073     1.775      3.97       0.238     
2600.8     12.732     1.853      4.22       0.226     
2601       12.57      1.973      4.555      0.225     
2601.2     14.41      1.997      4.684      0.238     
2601.4     17.116     1.781      4.239      0.248     
2601.6     17.724     1.605      3.734      0.242     
2601.8     16.787     1.561      3.584      0.235     
2602       16.163     1.548      3.639      0.225     
2602.2     15.721     1.564      3.637      0.236     
2602.4     15.489     1.571      3.578      0.235     
2602.6     15.208     1.583      3.72       0.22      
2602.8     15.2       1.595      3.845      0.219     
2603       15.041     1.597      3.789      0.228     
2603.2     14.737     1.602      3.699      0.24      
2603.4     14.299     1.604      3.564      0.254     
2603.6     14.337     1.616      3.517      0.253     
2603.8     14.352     1.619      3.597      0.247     
2604       14.328     1.618      3.585      0.255     
2604.2     14.234     1.613      3.47       0.266     
2604.4     14.141     1.597      3.413      0.262     
2604.6     14.422     1.591      3.446      0.259     
2604.8     15.147     1.596      3.428      0.259     
2605       15.518     1.597      3.524      0.246     
2605.2     15.849     1.593      3.605      0.241     
2605.4     16.371     1.587      3.643      0.232     
2605.6     16.488     1.589      3.708      0.233     
2605.8     16.91      1.589      3.612      0.246     
2606       16.289     1.578      3.508      0.249     
2606.2     16.145     1.576      3.553      0.236     
2606.4     16.261     1.587      3.692      0.226     
2606.6     16.344     1.571      3.794      0.216     
2606.8     16.464     1.577      3.796      0.223     
2607       17.044     1.587      3.716      0.228     
2607.2     17.218     1.567      3.79       0.212     
2607.4     16.922     1.565      3.899      0.207     
2607.6     16.696     1.576      3.862      0.216     
2607.8     16.568     1.596      3.848      0.215     
2608       16.438     1.585      3.926      0.21      
2608.2     16.182     1.587      3.858      0.221     
2608.4     15.874     1.614      3.742      0.236     
2608.6     15.475     1.612      3.681      0.241     
2608.8     15.791     1.613      3.631      0.243     
2609       15.936     1.628      3.689      0.238     
2609.2     15.631     1.613      3.737      0.234     
2609.4     15.288     1.604      3.691      0.241     
2609.6     15.144     1.606      3.552      0.258     
2609.8     15.04      1.609      3.42       0.27      
2610       14.711     1.62       3.361      0.278     
2610.2     14.439     1.622      3.289      0.29      
2610.4     14.679     1.611      3.231      0.289     
2610.6     14.623     1.609      3.248      0.287     
2610.8     14.088     1.596      3.251      0.284     
2611       14.167     1.583      3.22       0.287     
2611.2     14.596     1.566      3.167      0.294     
2611.4     15.105     1.543      2.994      0.314     
2611.6     15.699     1.519      2.913      0.307     
2611.8     16.22      1.503      2.927      0.299     
2612       15.858     1.503      2.995      0.291     
2612.2     15.953     1.519      2.956      0.312     
2612.4     16.085     1.527      2.816      0.336     
2612.6     16.14      1.533      2.702      0.352     
2612.8     16.213     1.536      2.707      0.338     
2613       16.09      1.528      2.816      0.328     
2613.2     15.964     1.515      2.742      0.347     
2613.4     15.852     1.503      2.653      0.341     
2613.6     15.567     1.511      2.735      0.33      
2613.8     15.857     1.526      2.819      0.315     
2614       16.243     1.526      2.948      0.306     
2614.2     16.099     1.529      2.871      0.33      
2614.4     16.46      1.532      2.753      0.337     
2614.6     16.956     1.526      2.801      0.325     
2614.8     17.312     1.508      2.828      0.32      
