~Version
 VERS              .         2.0                           : CWLS LOG ASCII STANDARD - VERSION 2.0
 WRAP              .         NO                            : ONE LINE PER DEPTH STEP
 DLM               .         SPACE                         : DELIMITING CHARACTER(SPACE TAB OR COMMA)
~Well Information
#_______________________________________________________________________________
#
#PARAMETER_NAME    .UNIT     VALUE                         : DESCRIPTION
#_______________________________________________________________________________
STRT               .m        2469                          : First reference value
STOP               .m        2690                          : Last reference value
STEP               .m        0.2                           : Step increment
NULL               .         -9999                         : Missing value
COMP               .                                       : Company
WELL               .         101                           : Well name
FLD                .                                       : Field
LOC                .                                       : Location
CNTY               .                                       : County
STAT               .                                       : State
CTRY               .                                       : Country
SRVC               .                                       : Service Company
DATE               .                                       : Date
API                .                                       : API number
LONG               .dega     2.0616605265                  : 
HZCS               .GCS_WGS_1984 World_Mercator                : 
Cartographic_reference_system .         GCS_WGS_1984                  : 
Куст               .         1                             : 
EREF               .m        137.7                         : 
group              .         Pad1                          : 
Тип                .         Разведка                      : 
Статус             .         Не проверено                  : 
LATI               .dega     2.1710182041                  : 
Интер-р            .         Пузин                         : 
Pad                .         1                             : 
~Parameter Information Block
#_______________________________________________________________________________
#
#PARAMETER_NAME    .UNIT     VALUE                         : DESCRIPTION
#_______________________________________________________________________________
SET                .         LAS3                          : 
TLFamily_GR        .         Russian Gamma Ray             : 
REAL_CREATION_DATE .         Wed Apr 11 2012-13_17_06      : 
TLFamily_NKT       .         Neutron Far                   : 
group              .         INI                           : 
TLFamily_TNPH      .         Neutron Porosity              : 
TLFamily_NKM       .         Neutron Near                  : 
TLFamily_MD        .         Measured Depth                : 
~Curve Information
#_______________________________________________________________________________
#
#LOGNAME           .UNIT     LOG_ID                        : DESCRIPTION
#_______________________________________________________________________________
MD                 .m                                      : 1 Depth 
GR                 .uR/h                                   : 4 Gamma-Ray 
NKM                .UE                                     : 3 Near Thermal Neutron Logging 
NKT                .UE                                     : 2 Far Thermal Neutron Logging 
TNPH               .v/v                                    : 5 Hydrogen Content 
~Ascii
# ...
2556.6     15.511     1.745      3.859      0.253     
2556.8     16.336     1.761      3.795      0.262     
2557       17.15      1.786      3.767      0.273     
2557.2     17.903     1.784      3.645      0.289     
2557.4     19.523     1.757      3.569      0.281     
2557.6     21.717     1.714      3.635      0.269     
2557.8     24.109     1.68       3.486      0.294     
2558       24.259     1.628      3.198      0.307     
2558.2     23.254     1.628      3.105      0.313     
2558.4     22.057     1.678      3.117      0.318     
2558.6     22.143     1.691      3.217      0.306     
2558.8     23.549     1.668      3.32       0.291     
2559       23.975     1.637      3.283      0.299     
2559.2     24.558     1.617      3.147      0.304     
2559.4     25.818     1.613      3.148      0.302     
2559.6     25.771     1.62       3.091      0.319     
2559.8     24.238     1.619      3.01       0.321     
2560       23.476     1.612      3.077      0.306     
2560.2     22.979     1.606      3.103      0.312     
2560.4     22.189     1.598      3.005      0.321     
2560.6     22.561     1.59       2.994      0.316     
2560.8     23.619     1.577      2.976      0.323     
2561       23.958     1.576      2.875      0.336     
2561.2     25.029     1.575      2.805      0.351     
2561.4     26.754     1.544      2.701      0.359     
2561.6     27.586     1.523      2.611      0.368     
2561.8     28.168     1.552      2.581      0.369     
2562       28.596     1.533      2.67       0.349     
2562.2     28.544     1.528      2.728      0.335     
2562.4     28.017     1.539      2.816      0.324     
2562.6     27.279     1.542      2.892      0.317     
2562.8     26.046     1.562      2.903      0.322     
2563       25.115     1.596      2.943      0.32      
2563.2     24.435     1.611      3.026      0.317     
2563.4     23.402     1.623      3.013      0.325     
2563.6     22.117     1.652      3.058      0.314     
2563.8     20.948     1.679      3.222      0.3       
2564       21.03      1.685      3.36       0.288     
2564.2     21.741     1.694      3.376      0.301     
2564.4     22.85      1.685      3.199      0.326     
2564.6     24.071     1.655      2.998      0.351     
2564.8     26.611     1.638      2.799      0.371     
2565       28.804     1.599      2.757      0.355     
2565.2     30.27      1.568      2.786      0.346     
2565.4     32.162     1.558      2.75       0.349     
2565.6     34.271     1.559      2.728      0.354     
2565.8     39.608     1.542      2.678      0.358     
2566       45.869     1.508      2.68       0.334     
2566.2     49.955     1.498      2.82       0.308     
2566.4     52.787     1.503      2.932      0.297     
2566.6     50.641     1.538      2.962      0.311     
2566.8     40.332     1.582      2.916      0.326     
2567       37.268     1.593      2.917      0.335     
2567.2     38.617     1.546      2.818      0.342     
2567.4     40.755     1.506      2.678      0.354     
2567.6     40.246     1.503      2.583      0.359     
2567.8     38.277     1.51       2.644      0.34      
2568       37.932     1.529      2.772      0.327     
2568.2     37.632     1.533      2.861      0.316     
2568.4     37.785     1.514      2.91       0.308     
2568.6     38.114     1.504      2.902      0.307     
2568.8     38.753     1.498      2.846      0.323     
2569       38.539     1.498      2.731      0.333     
2569.2     37.901     1.525      2.764      0.326     
2569.4     36.133     1.569      2.859      0.328     
2569.6     33.804     1.571      2.957      0.304     
2569.8     32.131     1.558      3.098      0.3       
2570       31.724     1.513      2.875      0.339     
2570.2     31.677     1.439      2.574      0.356     
2570.4     31.724     1.424      2.436      0.368     
2570.6     32.414     1.448      2.415      0.373     
2570.8     34.763     1.452      2.44       0.368     
2571       35.73      1.429      2.493      0.346     
2571.2     34.903     1.419      2.583      0.323     
2571.4     35.326     1.429      2.677      0.322     
2571.6     36.02      1.44       2.608      0.343     
2571.8     35.576     1.44       2.535      0.349     
2572       33.99      1.422      2.564      0.328     
2572.2     33.137     1.412      2.673      0.31      
2572.4     32.617     1.401      2.714      0.302     
2572.6     32.492     1.372      2.768      0.281     
2572.8     31.168     1.367      2.865      0.269     
2573       30.323     1.382      2.85       0.28      
2573.2     30.054     1.404      2.856      0.281     
2573.4     29.677     1.42       2.865      0.29      
2573.6     29.405     1.414      2.824      0.293     
2573.8     28.189     1.413      2.813      0.29      
2574       25.38      1.423      2.901      0.274     
2574.2     23.034     1.468      3          0.284     
2574.4     20.485     1.53       2.963      0.304     
2574.6     19.903     1.557      3.014      0.298     
2574.8     21.544     1.535      3.118      0.277     
2575       22.143     1.508      3.237      0.257     
2575.2     22.112     1.506      3.298      0.253     
2575.4     21.722     1.512      3.302      0.254     
2575.6     21.484     1.528      3.337      0.253     
2575.8     21.123     1.518      3.337      0.256     
2576       20.35      1.52       3.291      0.257     
2576.2     19.49      1.571      3.385      0.248     
2576.4     19.305     1.594      3.65       0.231     
2576.6     18.929     1.576      3.651      0.24      
2576.8     17.587     1.606      3.569      0.245     
2577       16.704     1.66       3.653      0.248     
2577.2     16.53      1.707      3.763      0.245     
2577.4     16.487     1.695      3.839      0.248     
2577.6     17.031     1.672      3.671      0.26      
2577.8     17.245     1.65       3.59       0.255     
2578       17.101     1.65       3.644      0.248     
2578.2     17.232     1.642      3.674      0.244     
2578.4     17.751     1.636      3.771      0.227     
2578.6     18.463     1.673      3.915      0.227     
2578.8     19.621     1.665      3.947      0.227     
2579       18.838     1.645      3.861      0.232     
2579.2     16.928     1.688      3.803      0.243     
2579.4     15.328     1.732      3.838      0.245     
2579.6     15.223     1.732      3.966      0.232     
2579.8     14.913     1.742      4.063      0.231     
2580       14.529     1.783      4.093      0.227     
2580.2     14.563     1.8        4.381      0.209     
2580.4     14.731     1.801      4.405      0.221     
2580.6     14.757     1.812      4.278      0.224     
2580.8     14.479     1.815      4.379      0.215     
2581       14.497     1.809      4.448      0.212     
2581.2     14.54      1.819      4.451      0.214     
2581.4     14.769     1.824      4.398      0.224     
2581.6     15.193     1.826      4.203      0.246     
2581.8     15.443     1.809      3.976      0.258     
2582       14.849     1.802      3.89       0.264     
2582.2     14.685     1.829      3.769      0.286     
2582.4     15.177     1.807      3.638      0.293     
2582.6     15.404     1.783      3.551      0.295     
2582.8     14.814     1.776      3.528      0.292     
2583       14.68      1.778      3.602      0.276     
2583.2     15.336     1.766      3.749      0.267     
2583.4     16.099     1.73       3.656      0.279     
2583.6     16.011     1.709      3.435      0.302     
2583.8     15.815     1.691      3.197      0.328     
2584       16.582     1.676      3.037      0.339     
2584.2     16.662     1.69       3          0.343     
2584.4     16.601     1.676      3.032      0.332     
2584.6     15.562     1.676      3.083      0.322     
2584.8     14.097     1.701      3.194      0.311     
2585       14.176     1.702      3.253      0.316     
2585.2     14.635     1.68       3.143      0.327     
2585.4     15.087     1.67       3.065      0.329     
2585.6     14.566     1.694      3.099      0.32      
