~Version
 VERS              .         2.0                           : CWLS LOG ASCII STANDARD - VERSION 2.0
 WRAP              .         NO                            : ONE LINE PER DEPTH STEP
 DLM               .         SPACE                         : DELIMITING CHARACTER(SPACE TAB OR COMMA)
~Well Information
#_______________________________________________________________________________
#
#PARAMETER_NAME    .UNIT     VALUE                         : DESCRIPTION
#_______________________________________________________________________________
STRT               .m        2469                          : First reference value
STOP               .m        2690                          : Last reference value
STEP               .m        0.2                           : Step increment
NULL               .         -9999                         : Missing value
COMP               .                                       : Company
WELL               .         101                           : Well name
FLD                .                                       : Field
LOC                .                                       : Location
CNTY               .                                       : County
STAT               .                                       : State
CTRY               .                                       : Country
SRVC               .                                       : Service Company
DATE               .                                       : Date
API                .                                       : API number
LONG               .dega     2.0616605265                  : 
HZCS               .GCS_WGS_1984 World_Mercator                : 
Cartographic_reference_system .         GCS_WGS_1984                  : 
Куст               .         1                             : 
EREF               .m        137.7                         : 
group              .         Pad1                          : 
Тип                .         Разведка                      : 
Статус             .         Не проверено                  : 
LATI               .dega     2.1710182041                  : 
Интер-р            .         Пузин                         : 
Pad                .         1                             : 
~Parameter Information Block
#_______________________________________________________________________________
#
#PARAMETER_NAME    .UNIT     VALUE                         : DESCRIPTION
#_______________________________________________________________________________
SET                .         LAS4                          : 
REAL_CREATION_DATE .         Wed Apr 11 2012-13_17_06      : 
TLFamily_RK20      .         Resistivity 20                : 
TLFamily_RK10      .         Resistivity 10                : 
group              .         INI                           : 
TLFamily_DF20      .         Phase difference 20           : 
TLFamily_DF10      .         Phase difference 10           : 
TLFamily_RK05      .         Resistivity 05                : 
TLFamily_DF05      .         Phase difference 05           : 
TLFamily_RK07      .         Resistivity 07                : 
TLFamily_RK14      .         Resistivity 14                : 
TLFamily_DF07      .         Phase difference 07           : 
TLFamily_DF14      .         Phase difference 14           : 
TLFamily_MD        .         Measured Depth                : 
~Curve Information
#_______________________________________________________________________________
#
#LOGNAME           .UNIT     LOG_ID                        : DESCRIPTION
#_______________________________________________________________________________
MD                 .m                                      : 1 Depth 
DF05               .Ohmm                                   : 2 Induction Log, shift 
DF07               .Ohmm                                   : 3 Induction Log, shift 
DF10               .Ohmm                                   : 4 Induction Log, shift 
DF14               .Ohmm                                   : 5 Induction Log, shift 
DF20               .mS/m                                   : 6 Induction Log, shift 
RK05               .Ohmm                                   : 7 Induction Log, Resistivity 
RK07               .Ohmm                                   : 8 Induction Log, Resistivity 
RK10               .Ohmm                                   : 9 Induction Log, Resistivity 
RK14               .Ohmm                                   : 10 Induction Log, Resistivity 
RK20               .Ohmm                                   : 11 Induction Log, Resistivity 
~Ascii
# ...
2482.4     23.7077    25.5059    22.4301    20.3315    19.8634    2.8346     2.4529     3.2027     3.8682     4.0325    
2482.6     23.7934    25.3911    22.4146    20.364     19.8095    2.8865     2.491      3.2303     3.8571     4.0519    
2482.8     23.4775    25.0458    22.1093    20.1452    19.6676    2.9867     2.5652     3.3184     3.9327     4.1035    
2483       23.0225    24.4611    21.726     19.9602    19.5401    3.072      2.6839     3.4229     3.9979     4.1505    
2483.2     22.8208    24.4077    21.7149    19.9056    19.4795    3.1117     2.7025     3.4292     4.0174     4.173     
2483.4     22.5665    24.3036    21.5647    19.8857    19.4492    3.2068     2.7373     3.4713     4.0245     4.1843    
2483.6     22.5516    24.2692    21.4889    19.8659    19.3934    3.1818     2.7409     3.4886     4.0316     4.2052    
2483.8     22.5353    24.397     21.592     19.7706    19.2903    3.193      2.7068     3.4569     4.066      4.2442    
2484       22.6432    24.4717    21.6261    19.8224    19.435     3.139      2.6804     3.4428     4.0473     4.1896    
2484.2     22.836     24.7089    21.8514    19.9795    19.6086    3.0503     2.6179     3.3625     3.9914     4.1253    
2484.4     23.1923    25.1088    22.4257    20.3962    19.9492    2.8969     2.5097     3.1957     3.8465     4.002     
2484.6     24.1734    26.3497    23.2685    20.9804    20.3684    2.7512     2.2869     2.9851     3.6525     3.8556    
2484.8     24.0709    26.11      23.127     20.9921    20.4638    2.8319     2.3424     3.037      3.6485     3.8231    
2485       23.6087    25.6386    22.7211    20.7301    20.1923    2.9266     2.4336     3.1385     3.7339     3.9164    
2485.2     23.447     25.3889    22.6079    20.6091    20.0615    2.9517     2.4834     3.1679     3.7742     3.9621    
2485.4     22.9259    24.8004    22.2447    20.3601    19.9398    3.1258     2.6305     3.2847     3.8585     4.0052    
2485.6     23.1718    24.8032    22.1742    20.2793    19.8136    2.9178     2.5893     3.272      3.8863     4.0505    
2485.8     23.7966    25.3839    22.5596    20.6383    20.0056    2.8486     2.4801     3.1816     3.7645     3.9818    
2486       23.6133    25.2357    22.4115    20.5411    20.0515    2.944      2.5272     3.235      3.7971     3.9656    
2486.2     23.3961    25.002     22.1458    20.3691    20.019     2.9894     2.5633     3.2938     3.8553     3.9771    
2486.4     23.4007    25.0622    22.2032    20.4189    19.9743    2.9019     2.5354     3.2612     3.8383     3.993     
2486.6     24.0316    25.5179    22.6215    20.4414    19.9202    2.8998     2.458      3.1737     3.8307     4.0122    
2486.8     22.3303    23.9134    21.6015    20.1039    19.7329    3.2654     2.8235     3.4731     3.9475     4.0797    
2487       22.2857    23.9958    21.4892    19.8436    19.4572    3.2621     2.8041     3.4885     4.0399     4.1813    
2487.2     22.5597    24.314     21.7412    20.0697    19.5141    3.089      2.6985     3.3966     3.9592     4.1601    
2487.4     23.0023    24.8169    22.0206    20.0495    19.4601    3.0931     2.6156     3.3546     3.9664     4.1805    
2487.6     22.5111    24.2449    21.2891    19.3564    18.8632    3.5571     2.8013     3.6064     4.2205     4.4107    
2487.8     18.9278    21.3727    19.4258    18.0895    18.0461    4.1087     3.4905     4.1724     4.7295     4.7479    
2488       23.4285    25.5214    21.8997    19.1707    18.3598    3.0257     2.4582     3.327      4.2934     4.6152    
2488.2     22.0059    23.7244    21.2175    19.6637    19.1415    3.4757     2.8729     3.6134     4.1063     4.3013    
2488.4     21.3235    22.8996    20.5843    19.2094    19.1067    3.1569     2.9892     3.7233     4.2758     4.3147    
2488.6     24.0421    25.7321    22.7509    20.2561    19.6424    2.7776     2.4019     3.1048     3.8963     4.1131    
2488.8     23.9048    25.5503    22.825     20.7164    20.189     2.95       2.4702     3.1202     3.7386     3.9174    
2489       22.6338    23.8753    21.7372    20.0684    19.7413    3.2141     2.8485     3.434      3.9605     4.0768    
2489.2     22.4508    23.6713    21.4637    19.6638    19.3554    3.2033     2.8774     3.5041     4.1049     4.2196    
2489.4     21.4908    23.1453    20.9815    19.4024    19.1109    3.5869     3.051      3.6801     4.2022     4.313     
2489.6     21.7519    23.1495    21.0135    19.1999    18.9069    3.3142     3.0059     3.6182     4.2789     4.3926    
2489.8     22.2234    23.48      21.3095    19.5908    19.0634    3.4058     2.9688     3.5691     4.1318     4.3313    
2490       21.2973    22.7375    20.8689    19.4077    19.1498    3.4233     3.0918     3.6696     4.1999     4.298     
2490.2     22.4501    24.0592    21.947     20.1266    19.6126    3.13       2.7694     3.3387     3.9404     4.1241    
2490.4     23.8143    25.1445    22.6783    20.8879    20.3577    2.7006     2.5096     3.1287     3.6823     3.8596    
2490.6     22.0486    23.6958    21.8219    20.3828    20.3712    4.5375     3.1425     3.5392     3.8532     3.8552    
2490.8     21.5885    23.5363    21.6274    20.3213    20.3836    2.5902     2.7228     3.283      3.8777     3.8511    
2491       24.5699    27.0524    25.192     22.8219    21.4936    2.6504     2.1582     2.543      3.106      3.4924    
2491.2     24.6195    26.4634    24.6161    22.7327    22.1639    2.6917     2.277      2.6703     3.13       3.2905    
2491.4     24.3455    25.8741    23.9935    22.4585    21.9473    2.6721     2.3792     2.8083     3.2063     3.3536    
2491.6     24.6054    26.0919    23.9957    22.55      21.979     2.6443     2.3307     2.7957     3.1806     3.3443    
2491.8     25.2106    26.5054    24.2473    22.6047    22.2014    2.5098     2.2508     2.743      3.1654     3.2795    
2492       25.1535    26.25      24.0261    22.5379    22.2311    2.5478     2.306      2.8053     3.184      3.271     
2492.2     24.9561    25.8851    23.7079    22.3218    22.1362    2.5841     2.3739     2.8779     3.245      3.2984    
2492.4     24.7344    25.6878    23.449     22.0677    21.7655    2.6801     2.4211     2.9479     3.3187     3.4078    
2492.6     24.3398    25.3621    23.0386    21.5141    21.2744    2.7891     2.4933     3.0609     3.4842     3.559     
2492.8     22.9463    24.1481    22.0517    20.7082    20.3262    3.2646     2.8103     3.3712     3.7433     3.8715    
2493       21.721     22.8745    20.6551    19.3379    19.0623    3.5237     3.1149     3.7928     4.2285     4.3334    
2493.2     20.5595    21.6358    19.2567    17.786     17.6554    3.9352     3.5066     4.3396     4.8677     4.9243    
2493.4     18.4205    18.9153    16.7571    15.4663    15.8165    7.3786     4.7586     5.6472     6.0656     5.8528    
2493.6     9.1645     10.9102    11.1378    11.7834    13.1876    13.7586    9.924300000000001 9.8998     8.9718     7.6269    
2493.8     8.8646     11.8239    11.5382    11.2238    12.0798    11.7275    8.709400000000001 9.0087     9.5938     8.616     
2494       16.7638    18.7072    16.3476    14.57      14.2249    4.1168     4.2049     5.2859     6.6589     6.8578    
2494.2     19.5808    21.7522    19.4454    17.4311    16.6297    4.0676     3.4707     4.2567     5.022      5.4133    
2494.4     21.05      21.5386    18.307     16.7208    17.0277    3.861      3.4889     4.649      5.363      5.213     
2494.6     19.1897    20.1669    17.7171    16.1917    16.3834    4.0896     3.8771     4.8908     5.6364     5.5351    
2494.8     19.8747    21.0171    18.2469    15.868     16.0048    4.0735     3.6501     4.6434     5.8111     5.7359    
2495       19.4426    20.3841    18.3658    16.1428    15.8182    4.2396     3.8689     4.6058     5.6614     5.8385    
2495.2     20.3433    20.7454    18.7781    16.6827    15.8394    3.662      3.6475     4.3953     5.3851     5.8271    
2495.4     19.9121    20.6185    18.9454    17.123     15.9433    4.151      3.7967     4.4247     5.1664     5.7694    
