~Version
 VERS              .         2.0                           : CWLS LOG ASCII STANDARD - VERSION 2.0
 WRAP              .         NO                            : ONE LINE PER DEPTH STEP
 DLM               .         SPACE                         : DELIMITING CHARACTER(SPACE TAB OR COMMA)
~Well Information
#_______________________________________________________________________________
#
#PARAMETER_NAME    .UNIT     VALUE                         : DESCRIPTION
#_______________________________________________________________________________
STRT               .m        2898                          : First reference value
STOP               .m        3121.6                        : Last reference value
STEP               .m        0.2                           : Step increment
NULL               .         -9999                         : Missing value
COMP               .                                       : Company
WELL               .         200                           : Well name
FLD                .                                       : Field
LOC                .                                       : Location
CNTY               .                                       : County
STAT               .                                       : State
CTRY               .                                       : Country
SRVC               .                                       : Service Company
DATE               .                                       : Date
API                .                                       : API number
LONG               .dega     2.052578559                   : 
HZCS               .GCS_WGS_1984 World_Mercator                : 
Cartographic_reference_system .         GCS_WGS_1984                  : 
Куст               .         2                             : 
EREF               .m        139.76                        : 
group              .         Pad2                          : 
Тип                .         Разведка                      : 
Статус             .         Не проверено                  : 
LATI               .dega     2.1856221126                  : 
Интер-р            .         Зайцев                        : 
Pad                .         2                             : 
~Parameter Information Block
#_______________________________________________________________________________
#
#PARAMETER_NAME    .UNIT     VALUE                         : DESCRIPTION
#_______________________________________________________________________________
SET                .         LAS4                          : 
TLFamily_GR        .         Russian Gamma Ray             : 
REAL_CREATION_DATE .         Wed Apr 11 2012-13_17_06      : 
TLFamily_NKTb      .         Neutron Far                   : 
TLFamily_NKTs      .         Neutron Near                  : 
group              .         INI                           : 
TLFamily_TNPH      .         Neutron Porosity              : 
TLFamily_MD        .         Measured Depth                : 
~Curve Information
#_______________________________________________________________________________
#
#LOGNAME           .UNIT     LOG_ID                        : DESCRIPTION
#_______________________________________________________________________________
MD                 .m                                      : 1 Depth 
GR                 .uR/h                                   : 5 Естественная гамма-активность породы по гамма-каротажу 
NKTb               .UE                                     : 2 ННК-т, большой зонд 
NKTs               .UE                                     : 3 ННК-т, малый зонд 
TNPH               .v/v                                    : 4 Суммарное водородосодержание 
~Ascii
# ...
3073.2     9.1251     6.9342     1.5605     0.163423  
3073.4     9.4195     6.7941     1.5864     0.165072  
3073.6     9.6931     6.7188     1.6022     0.174444  
3073.8     9.8204     6.5502     1.6033     0.181242  
3074       10.0933    6.1384     1.5866     0.193508  
3074.2     10.803     5.468      1.5189     0.218845  
3074.4     11.7068    4.8592     1.4222     0.250952  
3074.6     11.8083    4.8711     1.4239     0.24566   
3074.8     11.7747    4.8683     1.4092     0.244048  
3075       11.8082    4.7453     1.3609     0.243738  
3075.2     11.7954    4.4218     1.3017     0.247234  
3075.4     11.4526    4.2767     1.315      0.259369  
3075.6     11.0591    4.9531     1.4808     0.246568  
3075.8     10.7772    5.8971     1.6346     0.221993  
3076       10.7211    6.2378     1.6465     0.212606  
3076.2     11.1717    6.1113     1.5867     0.211571  
3076.4     11.5377    5.8916     1.5641     0.209978  
3076.6     11.365     5.7771     1.5788     0.216301  
3076.8     10.5011    5.9799     1.6157     0.219138  
3077       9.1762     6.4921     1.6804     0.20651   
3077.2     8.2902     6.8746     1.7247     0.19335   
3077.4     8.3502     6.6796     1.6831     0.19418   
3077.6     9.246      5.9825     1.6341     0.20904   
3077.8     9.8912     5.6308     1.6237     0.223367  
3078       11.0544    5.1361     1.5842     0.256761  
3078.2     11.6326    4.844      1.5081     0.275922  
3078.4     12.2114    4.6625     1.4775     0.274969  
3078.6     13.1129    4.463      1.4704     0.282007  
3078.8     13.4334    4.3979     1.4524     0.29614   
3079       12.8526    4.5807     1.4381     0.285015  
3079.2     12.2742    4.6456     1.4365     0.266094  
3079.4     12.5286    4.6905     1.4477     0.266663  
3079.6     11.8423    5.8106     1.5658     0.22983   
3079.8     10.1888    7.2681     1.7354     0.186759  
3080       8.533      8.9676     1.8616     0.151485  
3080.2     7.74       9.8554     1.9059     0.125924  
3080.4     7.788      9.6757     1.8956     0.123766  
3080.6     8.4857     9.2294     1.8627     0.132023  
3080.8     9.2661     8.9465     1.8391     0.138683  
3081       9.1757     9.0517     1.8468     0.138585  
3081.2     8.7089     9.0953     1.8701     0.135064  
3081.4     8.5946     8.845      1.872      0.141392  
3081.6     8.6993     8.681      1.8424     0.149324  
3081.8     8.6203     8.7732     1.7995     0.146258  
3082       8.3376     8.7041     1.8039     0.13747   
3082.2     7.9694     8.1966     1.8205     0.146271  
3082.4     8.1365     7.4986     1.7643     0.169503  
3082.6     9.4537     6.8245     1.6763     0.188132  
3082.8     10.8151    6.6103     1.6143     0.195846  
3083       10.8677    6.8841     1.6144     0.181496  
3083.2     10.2296    6.7359     1.6384     0.171929  
3083.4     10.2045    6.2703     1.6185     0.182075  
3083.6     10.5742    4.8998     1.4853     0.236319  
3083.8     10.1332    3.5565     1.2755     0.313446  
3084       7.896      2.4351     1.0506     0.40717   
3084.2     4.5866     1.7964     0.9088     0.508337  
3084.4     2.6127     1.6577     0.8985     0.545229  
3084.6     2.2891     1.7262     0.9319     0.541899  
3084.8     3.0492     1.8135     0.9285     0.527158  
3085       3.7007     1.8551     0.9138     0.506184  
3085.2     4.6025     1.9183     0.9253     0.484213  
3085.4     6.0952     2.2227     0.9851     0.45071   
3085.6     8.0966     2.8661     1.1198     0.373923  
3085.8     9.8011     3.3823     1.2617     0.319947  
3086       10.3296    3.33       1.2661     0.339654  
3086.2     9.9997     3.2552     1.2215     0.362123  
3086.4     10.1423    3.6554     1.3128     0.332455  
3086.6     10.6616    4.7908     1.4989     0.283443  
3086.8     10.2055    6.5047     1.6677     0.219534  
3087       9.5416     7.9998     1.7602     0.168688  
3087.2     9.5396     8.5781     1.796      0.14369   
3087.4     9.5276     8.3197     1.7949     0.144994  
3087.6     9.7316     8.0203     1.7749     0.156406  
3087.8     10.7308    7.8232     1.7681     0.160963  
3088       11.6843    7.6579     1.7698     0.166823  
3088.2     11.7265    7.5432     1.7589     0.171295  
3088.4     11.1672    7.0184     1.6989     0.178832  
3088.6     10.2802    6.074      1.5839     0.201133  
3088.8     9.3499     5.151      1.4692     0.231921  
3089       9.188      4.8741     1.4318     0.246504  
3089.2     9.462      5.1043     1.4536     0.249948  
3089.4     9.3794     6.0544     1.6081     0.210478  
3089.6     9.0764     6.7853     1.7284     0.192504  
3089.8     9.1482     7.126      1.7574     0.190487  
3090       9.3744     7.3082     1.7734     0.182462  
3090.2     9.2131     7.2316     1.7779     0.18479   
3090.4     9.1001     7.1434     1.7695     0.190257  
3090.6     8.6886     7.338      1.79       0.188581  
3090.8     7.5958     7.7346     1.8326     0.17842   
3091       6.6738     8.0286     1.8499     0.171657  
3091.2     6.3527     8.2057     1.8486     0.165649  
3091.4     6.3999     8.0694     1.8446     0.162742  
3091.6     6.6698     7.3725     1.8089     0.175951  
3091.8     7.3475     6.4322     1.678      0.205556  
3092       9.2246     5.5685     1.4883     0.228121  
3092.2     11.4119    5.0943     1.4082     0.232379  
3092.4     11.9546    5.4436     1.4953     0.221819  
3092.6     11.5009    6.0629     1.5883     0.205649  
3092.8     11.0885    6.4384     1.605      0.198136  
3093       10.5281    7.0793     1.655      0.182224  
3093.2     9.9763     7.7925     1.7669     0.15814   
3093.4     10.085     7.5098     1.7941     0.164424  
3093.6     10.891     6.688      1.6983     0.194555  
3093.8     11.8301    6.1965     1.5828     0.211619  
3094       11.7731    5.9429     1.5027     0.205321  
3094.2     10.6012    5.6194     1.4512     0.203906  
3094.4     9.3446     5.4576     1.457      0.210346  
3094.6     9.0119     5.64       1.5003     0.210985  
3094.8     8.8017     6.9159     1.6639     0.190716  
3095       8.2943     8.5648     1.8574     0.15081   
3095.2     8.0175     9.081      1.951      0.143635  
3095.4     7.9662     8.6222     1.8679     0.15623   
3095.6     7.5976     8.8521     1.811      0.153813  
3095.8     7.5699     9.8962     1.859      0.125941  
3096       7.8196     10.5936    1.8692     0.107748  
3096.2     8.0954     10.2114    1.8049     0.103473  
3096.4     8.3612     8.8117     1.7427     0.115978  
3096.6     8.7719     7.6463     1.7007     0.148025  
3096.8     9.4824     7.2228     1.6783     0.168618  
3097       10.2836    6.8886     1.6589     0.176496  
3097.2     10.4979    6.2849     1.634      0.1922    
3097.4     9.7385     5.4844     1.5755     0.224732  
3097.6     9.455      5.1287     1.4757     0.256924  
3097.8     10.1659    5.9094     1.4704     0.226621  
3098       10.383     7.2175     1.5944     0.163125  
3098.2     9.7418     7.6329     1.7113     0.145303  
3098.4     8.9712     7.4809     1.7495     0.163894  
3098.6     8.201      7.5525     1.7408     0.173506  
3098.8     7.8732     7.6529     1.7232     0.166234  
3099       7.7045     7.4429     1.7351     0.165472  
3099.2     7.1104     7.4101     1.753      0.1748    
3099.4     6.5832     7.7129     1.7634     0.172627  
3099.6     6.4932     8.1517     1.7942     0.160152  
3099.8     6.8483     8.4567     1.8326     0.150644  
3100       7.4936     8.4715     1.8445     0.15084   
3100.2     7.7852     8.4861     1.8355     0.153326  
3100.4     8.3371     8.5567     1.8054     0.149774  
3100.6     8.9903     8.3186     1.7704     0.14541   
3100.8     9.4012     7.6489     1.7652     0.15532   
3101       9.854      6.6063     1.7235     0.187473  
3101.2     10.5968    5.7582     1.6355     0.229321  
3101.4     11.562     5.4411     1.5809     0.2479    
3101.6     12.6944    5.6117     1.5863     0.240862  
3101.8     13.4135    5.9602     1.5878     0.22343   
3102       12.9849    6.2207     1.5815     0.206271  
3102.2     11.9953    6.4371     1.5746     0.192857  
