~Version
 VERS              .         2.0                           : CWLS LOG ASCII STANDARD - VERSION 2.0
 WRAP              .         NO                            : ONE LINE PER DEPTH STEP
 DLM               .         SPACE                         : DELIMITING CHARACTER(SPACE TAB OR COMMA)
~Well Information
#_______________________________________________________________________________
#
#PARAMETER_NAME    .UNIT     VALUE                         : DESCRIPTION
#_______________________________________________________________________________
STRT               .m        2898                          : First reference value
STOP               .m        3121.6                        : Last reference value
STEP               .m        0.2                           : Step increment
NULL               .         -9999                         : Missing value
COMP               .                                       : Company
WELL               .         200                           : Well name
FLD                .                                       : Field
LOC                .                                       : Location
CNTY               .                                       : County
STAT               .                                       : State
CTRY               .                                       : Country
SRVC               .                                       : Service Company
DATE               .                                       : Date
API                .                                       : API number
LONG               .dega     2.052578559                   : 
HZCS               .GCS_WGS_1984 World_Mercator                : 
Cartographic_reference_system .         GCS_WGS_1984                  : 
Куст               .         2                             : 
EREF               .m        139.76                        : 
group              .         Pad2                          : 
Тип                .         Разведка                      : 
Статус             .         Не проверено                  : 
LATI               .dega     2.1856221126                  : 
Интер-р            .         Зайцев                        : 
Pad                .         2                             : 
~Parameter Information Block
#_______________________________________________________________________________
#
#PARAMETER_NAME    .UNIT     VALUE                         : DESCRIPTION
#_______________________________________________________________________________
SET                .         LAS4                          : 
TLFamily_GR        .         Russian Gamma Ray             : 
REAL_CREATION_DATE .         Wed Apr 11 2012-13_17_06      : 
TLFamily_NKTb      .         Neutron Far                   : 
TLFamily_NKTs      .         Neutron Near                  : 
group              .         INI                           : 
TLFamily_TNPH      .         Neutron Porosity              : 
TLFamily_MD        .         Measured Depth                : 
~Curve Information
#_______________________________________________________________________________
#
#LOGNAME           .UNIT     LOG_ID                        : DESCRIPTION
#_______________________________________________________________________________
MD                 .m                                      : 1 Depth 
GR                 .uR/h                                   : 5 Естественная гамма-активность породы по гамма-каротажу 
NKTb               .UE                                     : 2 ННК-т, большой зонд 
NKTs               .UE                                     : 3 ННК-т, малый зонд 
TNPH               .v/v                                    : 4 Суммарное водородосодержание 
~Ascii
# ...
3044       15.4867    3.794      1.2857     0.297159  
3044.2     15.4155    3.5807     1.2842     0.327802  
3044.4     15.1225    3.7033     1.2818     0.311094  
3044.6     15.3899    3.8883     1.2903     0.292801  
3044.8     15.7794    4.0184     1.2783     0.279442  
3045       15.6057    4.0787     1.2571     0.267206  
3045.2     14.9927    4.1238     1.2464     0.258412  
3045.4     14.3969    4.0513     1.2343     0.260795  
3045.6     14.4269    3.9097     1.2368     0.272496  
3045.8     14.4525    3.9871     1.2584     0.270362  
3046       14.0229    4.0256     1.2722     0.271355  
3046.2     13.3446    4.0424     1.3185     0.277758  
3046.4     13.3398    4.1491     1.3787     0.28603   
3046.6     14.4533    4.2314     1.3852     0.289437  
3046.8     15.1453    4.7507     1.4092     0.246553  
3047       16.5651    5.8033     1.523      0.19876   
3047.2     18.5157    7.327      1.6488     0.1564    
3047.4     17.2553    9.2464     1.7614     0.115324  
3047.6     12.847     10.6907    1.8896     0.097056  
3047.8     9.0408     11.0501    1.9662     0.101837  
3048       7.4626     11.068     1.9732     0.105792  
3048.2     6.8737     11.2991    1.9652     0.100474  
3048.4     6.5242     11.0815    1.997      0.105659  
3048.6     6.818      10.9993    2.0219     0.111215  
3048.8     7.2013     11.1588    2.0193     0.10929   
3049       7.1585     11.2282    1.9866     0.105916  
3049.2     6.9347     11.2464    1.9474     0.101036  
3049.4     6.6393     11.8938    1.9676     0.088784  
3049.6     6.1258     13.9294    2.0901     0.066274  
3049.8     5.6698     16.3977    2.2715     0.051147  
3050       5.2054     17.3164    2.3196     0.051258  
3050.2     4.5823     16.2802    2.213      0.057435  
3050.4     4.3757     15.3581    2.1627     0.060089  
3050.6     5.0106     16.4449    2.265      0.052079  
3050.8     5.4149     18.574     2.3777     0.041812  
3051       5.0574     20.3698    2.4271     0.03234   
3051.2     4.7596     20.6047    2.4471     0.032021  
3051.4     5.2651     18.0619    2.357      0.050013  
3051.6     5.971      14.4249    2.1625     0.077085  
3051.8     6.312      13.2458    2.1314     0.083464  
3052       5.9586     15.0223    2.2663     0.067298  
3052.2     5.3331     16.5919    2.3597     0.059121  
3052.4     5.4699     15.1615    2.2693     0.074614  
3052.6     6.0503     12.2551    2.0624     0.101582  
3052.8     6.4686     9.9539     1.915      0.128079  
3053       6.503      8.9641     1.8858     0.144439  
3053.2     6.4842     8.9114     1.9109     0.147952  
3053.4     6.5417     9.105      1.9105     0.144877  
3053.6     6.2117     9.4875     1.9015     0.132715  
3053.8     6.3645     9.7752     1.8982     0.12564   
3054       6.9845     10.1056    1.8819     0.116502  
3054.2     7.2026     10.8946    1.9274     0.100914  
3054.4     6.5781     12.6708    2.0988     0.082254  
3054.6     5.9431     15.1379    2.302      0.067274  
3054.8     5.9781     16.6354    2.362      0.061379  
3055       6.2892     15.7769    2.2683     0.067246  
3055.2     6.8825     14.0775    2.1563     0.077997  
3055.4     7.7765     12.9762    2.1014     0.086994  
3055.6     8.5431     11.8158    2.0175     0.100216  
3055.8     8.6817     10.455     1.8984     0.114828  
3056       8.4903     9.4315     1.8375     0.127446  
3056.2     8.4861     8.9206     1.8351     0.137985  
3056.4     8.4464     8.6753     1.8524     0.14682   
3056.6     7.9276     8.3594     1.8558     0.158477  
3056.8     7.6716     8.1847     1.8431     0.163741  
3057       7.8545     8.3478     1.8363     0.157067  
3057.2     7.9758     8.5893     1.8439     0.149191  
3057.4     8.1944     8.5204     1.8566     0.152693  
3057.6     8.4406     8.4078     1.8556     0.157567  
3057.8     8.0999     8.4208     1.8493     0.156276  
3058       7.4095     8.5299     1.8549     0.152889  
3058.2     7.3242     8.6112     1.8607     0.15126   
3058.4     7.9972     8.513      1.8522     0.154086  
3058.6     8.4677     8.3679     1.8245     0.156068  
3058.8     8.3938     8.3866     1.794      0.149638  
3059       8.3404     8.4679     1.8043     0.146601  
3059.2     8.2581     8.5048     1.818      0.147315  
3059.4     7.7702     8.5866     1.8292     0.147401  
3059.6     7.331      8.6699     1.8373     0.145927  
3059.8     7.3376     8.6511     1.8372     0.147238  
3060       7.3076     8.5549     1.8241     0.148827  
3060.2     7.132      8.7286     1.8373     0.144152  
3060.4     6.8476     10.074     1.8955     0.115863  
3060.6     6.3792     12.318     2.0179     0.082766  
3060.8     6.1962     13.4557    2.1213     0.076765  
3061       6.5349     12.5179    2.0802     0.093445  
3061.2     6.9676     10.1764    1.9386     0.126844  
3061.4     7.3023     8.374      1.8152     0.158829  
3061.6     7.4844     7.7905     1.7572     0.166051  
3061.8     7.1575     7.7085     1.7509     0.164909  
3062       6.8627     7.8163     1.7795     0.163063  
3062.2     6.9831     8.1229     1.8422     0.16026   
3062.4     6.9754     8.3496     1.881      0.16102   
3062.6     6.8991     8.5146     1.8882     0.1586    
3062.8     7.1255     8.7379     1.8751     0.151518  
3063       7.195      8.8236     1.8392     0.144758  
3063.2     6.6929     8.9153     1.8262     0.138263  
3063.4     5.6546     9.1406     1.853      0.133299  
3063.6     4.9285     9.5652     1.9009     0.127832  
3063.8     5.0924     10.0718    1.9545     0.121904  
3064       6.2948     9.3972     1.9237     0.140432  
3064.2     6.3478     8.426      1.8501     0.159531  
3064.4     5.7613     8.1102     1.8411     0.164418  
3064.6     5.3601     8.2592     1.8569     0.161568  
3064.8     5.3734     8.6438     1.871      0.151825  
3065       5.7046     9.53       1.8903     0.130861  
3065.2     5.8949     12.1861    1.9724     0.083499  
3065.4     5.7335     16.2531    2.1878     0.04518   
3065.6     5.4409     19.8308    2.4028     0.030861  
3065.8     5.3386     22.4538    2.5035     0.022374  
3066       5.4234     24.3454    2.5666     0.015083  
3066.2     5.1082     25.1854    2.6305     0.013738  
3066.4     4.4913     24.3056    2.6344     0.01998   
3066.6     4.285      23.3332    2.6014     0.024872  
3066.8     4.2918     20.7225    2.4865     0.036856  
3067       4.697      17.5093    2.3743     0.05542   
3067.2     5.034      14.1333    2.2709     0.087028  
3067.4     5.3993     10.8545    2.0704     0.130653  
3067.6     6.8463     8.2846     1.835      0.171877  
3067.8     9.6168     7.1782     1.6967     0.184634  
3068       11.9721    6.87       1.6509     0.183331  
3068.2     12.9013    6.5015     1.6365     0.195404  
3068.4     12.9876    6.1106     1.6049     0.211526  
3068.6     12.911     5.9481     1.5773     0.21325   
3068.8     12.7564    5.8775     1.5856     0.215515  
3069       12.7154    5.9796     1.6124     0.214637  
3069.2     12.6868    5.9167     1.5898     0.220167  
3069.4     13.0366    5.601      1.5221     0.225723  
3069.6     13.3957    5.3817     1.4887     0.228173  
3069.8     13.1681    5.1444     1.4299     0.234745  
3070       12.8554    5.0364     1.3541     0.227237  
3070.2     12.886     5.0029     1.3398     0.216991  
3070.4     13.0554    5.2217     1.3805     0.212602  
3070.6     13.3655    5.9358     1.4621     0.194506  
3070.8     13.7703    6.6082     1.5708     0.171874  
3071       13.9077    6.8443     1.6363     0.170898  
3071.2     13.3526    6.7452     1.641      0.180696  
3071.4     11.9851    6.485      1.6347     0.189013  
3071.6     10.5839    6.3228     1.633      0.200642  
3071.8     9.9865     6.3323     1.627      0.203375  
3072       9.8483     6.4284     1.6069     0.200245  
3072.2     9.7205     6.5486     1.599      0.195539  
3072.4     9.4748     6.8362     1.6007     0.179698  
3072.6     9.4495     6.8289     1.605      0.171765  
3072.8     9.3658     6.7502     1.5957     0.177383  
3073       9.1234     6.9071     1.571      0.174101  
