~Version
 VERS              .         2.0                           : CWLS LOG ASCII STANDARD - VERSION 2.0
 WRAP              .         NO                            : ONE LINE PER DEPTH STEP
 DLM               .         SPACE                         : DELIMITING CHARACTER(SPACE TAB OR COMMA)
~Well Information
#_______________________________________________________________________________
#
#PARAMETER_NAME    .UNIT     VALUE                         : DESCRIPTION
#_______________________________________________________________________________
STRT               .m        2898                          : First reference value
STOP               .m        3121.6                        : Last reference value
STEP               .m        0.2                           : Step increment
NULL               .         -9999                         : Missing value
COMP               .                                       : Company
WELL               .         200                           : Well name
FLD                .                                       : Field
LOC                .                                       : Location
CNTY               .                                       : County
STAT               .                                       : State
CTRY               .                                       : Country
SRVC               .                                       : Service Company
DATE               .                                       : Date
API                .                                       : API number
LONG               .dega     2.052578559                   : 
HZCS               .GCS_WGS_1984 World_Mercator                : 
Cartographic_reference_system .         GCS_WGS_1984                  : 
Куст               .         2                             : 
EREF               .m        139.76                        : 
group              .         Pad2                          : 
Тип                .         Разведка                      : 
Статус             .         Не проверено                  : 
LATI               .dega     2.1856221126                  : 
Интер-р            .         Зайцев                        : 
Pad                .         2                             : 
~Parameter Information Block
#_______________________________________________________________________________
#
#PARAMETER_NAME    .UNIT     VALUE                         : DESCRIPTION
#_______________________________________________________________________________
SET                .         LAS4                          : 
TLFamily_GR        .         Russian Gamma Ray             : 
REAL_CREATION_DATE .         Wed Apr 11 2012-13_17_06      : 
TLFamily_NKTb      .         Neutron Far                   : 
TLFamily_NKTs      .         Neutron Near                  : 
group              .         INI                           : 
TLFamily_TNPH      .         Neutron Porosity              : 
TLFamily_MD        .         Measured Depth                : 
~Curve Information
#_______________________________________________________________________________
#
#LOGNAME           .UNIT     LOG_ID                        : DESCRIPTION
#_______________________________________________________________________________
MD                 .m                                      : 1 Depth 
GR                 .uR/h                                   : 5 Естественная гамма-активность породы по гамма-каротажу 
NKTb               .UE                                     : 2 ННК-т, большой зонд 
NKTs               .UE                                     : 3 ННК-т, малый зонд 
TNPH               .v/v                                    : 4 Суммарное водородосодержание 
~Ascii
# ...
3014.8     13.8994    4.3454     1.3848     0.277495  
3015       14.825     4.2401     1.3835     0.283763  
3015.2     14.9986    4.526      1.4014     0.279579  
3015.4     13.8908    4.913      1.4411     0.249827  
3015.6     12.3451    5.0805     1.4863     0.239011  
3015.8     11.4033    5.1113     1.4855     0.242702  
3016       11.4392    4.8439     1.44       0.247341  
3016.2     12.0721    4.3241     1.39       0.269057  
3016.4     12.8703    3.8997     1.3445     0.300559  
3016.6     14.0155    3.6253     1.3225     0.325234  
3016.8     15.1874    3.6594     1.3461     0.337502  
3017       15.7672    3.8948     1.3715     0.322513  
3017.2     15.1923    3.9118     1.367      0.312571  
3017.4     14.3023    4.0198     1.393      0.313692  
3017.6     13.6326    4.3578     1.4385     0.29709   
3017.8     13.2387    4.6406     1.4471     0.27714   
3018       12.9467    4.5954     1.4194     0.266276  
3018.2     12.9953    4.3695     1.385      0.273416  
3018.4     14.357     4.1835     1.3563     0.282889  
3018.6     16.4026    3.9689     1.3194     0.291977  
3018.8     17.5327    3.735      1.29       0.30594   
3019       17.429     3.6328     1.2889     0.3172    
3019.2     16.976     3.6791     1.2836     0.320659  
3019.4     16.7928    3.8267     1.277      0.306772  
3019.6     17.2629    3.8556     1.2851     0.290984  
3019.8     17.9339    3.7135     1.2811     0.300581  
3020       18.154     3.6583     1.2659     0.315082  
3020.2     17.5882    3.7632     1.2885     0.306066  
3020.4     16.3868    3.8712     1.3398     0.299831  
3020.6     15.7323    3.8806     1.3583     0.308095  
3020.8     16.3577    3.8185     1.3444     0.318874  
3021       16.8794    3.8662     1.3523     0.316916  
3021.2     16.5067    3.8727     1.3625     0.311906  
3021.4     17.1969    3.6272     1.334      0.32665   
3021.6     19.7293    3.3346     1.28       0.355649  
3021.8     21.92      3.2043     1.2323     0.368667  
3022       21.3006    3.2397     1.2371     0.357513  
3022.2     18.3141    3.4318     1.2901     0.345403  
3022.4     15.502     3.8338     1.3405     0.320333  
3022.6     15.2776    3.8503     1.3335     0.310159  
3022.8     15.4202    3.7144     1.3267     0.317498  
3023       15.6356    3.7342     1.3354     0.327071  
3023.2     15.4414    4.0282     1.3506     0.312821  
3023.4     14.8829    4.3861     1.3702     0.280782  
3023.6     14.5257    4.8246     1.4018     0.255662  
3023.8     14.0471    5.668      1.5039     0.220748  
3024       12.7866    6.6572     1.6688     0.186697  
3024.2     12.5008    6.8853     1.7313     0.183239  
3024.4     14.0774    6.2186     1.6063     0.205038  
3024.6     15.7868    5.355      1.4564     0.225707  
3024.8     16.4516    4.8202     1.3613     0.238279  
3025       16.246     4.4245     1.3255     0.246418  
3025.2     15.5567    4.1274     1.3288     0.266776  
3025.4     15.2822    4.0453     1.3322     0.288028  
3025.6     15.1269    4.2226     1.3246     0.283922  
3025.8     14.5153    4.3336     1.3226     0.264034  
3026       14.1465    4.2431     1.3208     0.262058  
3026.2     14.438     4.0238     1.3201     0.276135  
3026.4     14.7561    3.9898     1.3341     0.295836  
3026.6     14.3368    4.3562     1.3489     0.282842  
3026.8     13.7892    4.6097     1.3499     0.252521  
3027       13.8821    4.5872     1.3464     0.244985  
3027.2     14.2426    4.5711     1.3462     0.246974  
3027.4     14.3758    4.4795     1.3385     0.249641  
3027.6     14.4861    4.3751     1.3194     0.257921  
3027.8     14.3444    4.338      1.318      0.256949  
3028       13.8885    4.4554     1.3433     0.258614  
3028.2     12.2121    5.1645     1.4828     0.238125  
3028.4     9.8493     6.3223     1.7193     0.207129  
3028.6     9.7489     6.8283     1.8072     0.201133  
3028.8     12.2573    6.0291     1.6431     0.223455  
3029       13.0184    4.9452     1.4327     0.25278   
3029.2     13.5332    4.3938     1.3639     0.266591  
3029.4     14.2675    4.3836     1.3517     0.271494  
3029.6     14.3964    4.4775     1.3293     0.26102   
3029.8     14.2463    4.4291     1.3002     0.249984  
3030       14.5       4.199      1.3085     0.253573  
3030.2     14.562     4.0776     1.3218     0.277465  
3030.4     13.7569    4.3317     1.325      0.275862  
3030.6     13.3462    4.4738     1.3436     0.252197  
3030.8     14.3684    4.3433     1.3762     0.257952  
3031       15.4342    4.1746     1.3816     0.281604  
3031.2     15.4601    3.9842     1.3514     0.300354  
3031.4     15.4644    3.8976     1.3258     0.307168  
3031.6     15.4517    3.987      1.315      0.292722  
3031.8     15.0345    4.1377     1.3101     0.275607  
3032       14.3042    4.2866     1.3146     0.261848  
3032.2     13.9583    4.3664     1.3271     0.257053  
3032.4     13.8638    4.3054     1.3352     0.265134  
3032.6     13.5961    4.214      1.3402     0.275116  
3032.8     13.8764    4.281      1.3451     0.272041  
3033       14.063     4.425      1.3452     0.259438  
3033.2     13.8455    4.4669     1.3408     0.254941  
3033.4     13.6405    4.3808     1.3368     0.260235  
3033.6     13.4122    4.41       1.3519     0.259866  
3033.8     13.0634    4.5528     1.3798     0.254429  
3034       13.0041    4.608      1.4001     0.256783  
3034.2     13.517     4.6025     1.3886     0.258906  
3034.4     14.2592    4.5799     1.3563     0.253585  
3034.6     14.524     4.5858     1.3474     0.249107  
3034.8     14.679     4.6736     1.349      0.240103  
3035       14.5208    4.7895     1.3448     0.232112  
3035.2     14.5368    4.7987     1.3257     0.227167  
3035.4     15.0064    4.5553     1.3176     0.240145  
3035.6     15.5166    4.3118     1.3275     0.26143   
3035.8     15.7925    4.2031     1.3397     0.27482   
3036       16.1628    4.0867     1.3447     0.288896  
3036.2     16.4095    4.0761     1.3307     0.289659  
3036.4     16.2129    4.177      1.3168     0.274505  
3036.6     15.9789    4.237      1.3219     0.267604  
3036.8     16.1352    4.2287     1.3333     0.271006  
3037       16.2258    4.2281     1.3414     0.274491  
3037.2     15.9068    4.2731     1.3381     0.271092  
3037.4     15.5979    4.2271     1.33       0.272636  
3037.6     15.4692    4.0903     1.3207     0.282889  
3037.8     14.9914    4.0063     1.3229     0.289393  
3038       14.3198    4.0668     1.361      0.294475  
3038.2     14.365     4.2726     1.3583     0.277903  
3038.4     14.812     4.2547     1.3498     0.275163  
3038.6     15.2863    4.0052     1.34       0.297398  
3038.8     14.9714    3.9713     1.3166     0.297336  
3039       13.9783    4.2583     1.3064     0.264647  
3039.2     13.2903    4.5375     1.3227     0.241174  
3039.4     13.2185    4.4834     1.347      0.250845  
3039.6     13.6289    4.3625     1.3597     0.266993  
3039.8     13.7731    4.4438     1.3612     0.262677  
3040       13.5198    4.5611     1.3484     0.251174  
3040.2     13.8632    4.5591     1.3298     0.246003  
3040.4     14.4502    4.4976     1.3255     0.245799  
3040.6     14.6434    4.4776     1.3158     0.248341  
3040.8     15.1591    4.3946     1.2886     0.249696  
3041       14.7619    4.4249     1.2892     0.241602  
3041.2     12.9508    4.6229     1.3821     0.238303  
3041.4     11.9891    4.8865     1.5119     0.254852  
3041.6     14.0073    4.861      1.4558     0.264761  
3041.8     14.972     4.4827     1.3353     0.265198  
3042       15.1149    4.0917     1.281      0.27373   
3042.2     14.8089    3.9285     1.2856     0.285158  
3042.4     14.5743    3.8865     1.3092     0.294914  
3042.6     14.6892    3.8326     1.3253     0.308093  
3042.8     14.8588    3.7564     1.3161     0.3172    
3043       14.9231    3.4969     1.2955     0.341953  
3043.2     14.8597    3.1924     1.2611     0.364317  
3043.4     14.7442    3.479      1.2624     0.332437  
3043.6     14.5349    3.8237     1.2678     0.29389   
3043.8     14.7528    3.9999     1.2713     0.275013  
