~Version
 VERS              .         2.0                           : CWLS LOG ASCII STANDARD - VERSION 2.0
 WRAP              .         NO                            : ONE LINE PER DEPTH STEP
 DLM               .         SPACE                         : DELIMITING CHARACTER(SPACE TAB OR COMMA)
~Well Information
#_______________________________________________________________________________
#
#PARAMETER_NAME    .UNIT     VALUE                         : DESCRIPTION
#_______________________________________________________________________________
STRT               .m        2898                          : First reference value
STOP               .m        3121.6                        : Last reference value
STEP               .m        0.2                           : Step increment
NULL               .         -9999                         : Missing value
COMP               .                                       : Company
WELL               .         200                           : Well name
FLD                .                                       : Field
LOC                .                                       : Location
CNTY               .                                       : County
STAT               .                                       : State
CTRY               .                                       : Country
SRVC               .                                       : Service Company
DATE               .                                       : Date
API                .                                       : API number
LONG               .dega     2.052578559                   : 
HZCS               .GCS_WGS_1984 World_Mercator                : 
Cartographic_reference_system .         GCS_WGS_1984                  : 
Куст               .         2                             : 
EREF               .m        139.76                        : 
group              .         Pad2                          : 
Тип                .         Разведка                      : 
Статус             .         Не проверено                  : 
LATI               .dega     2.1856221126                  : 
Интер-р            .         Зайцев                        : 
Pad                .         2                             : 
~Parameter Information Block
#_______________________________________________________________________________
#
#PARAMETER_NAME    .UNIT     VALUE                         : DESCRIPTION
#_______________________________________________________________________________
SET                .         LAS3                          : 
TLFamily_GGKB      .         Density Large                 : 
REAL_CREATION_DATE .         Wed Apr 11 2012-13_17_06      : 
TLFamily_GGK       .         Bulk Density                  : 
TLFamily_GGKS      .         Density Small                 : 
group              .         INI                           : 
TLFamily_MD        .         Measured Depth                : 
~Curve Information
#_______________________________________________________________________________
#
#LOGNAME           .UNIT     LOG_ID                        : DESCRIPTION
#_______________________________________________________________________________
MD                 .m                                      : 1 Depth 
GGK                .g/cm3                                  : 4 Объемная плотность по ГГК-П 
GGKB               .imp/min                                : 2 Большой зонд плотностного гамма-гамма каротажа ГГК-П 
GGKS               .imp/min                                : 3 Малый зонд плотностного гамма-гамма каротажа ГГК-П 
~Ascii
# ...
3007.2     2.3876     20884.01   31656.32  
3007.4     2.4093     20764.05   32101.88  
3007.6     2.3914     21090.85   32203.17  
3007.8     2.3885     21094.26   31967.54  
3008       2.3879     20846.66   31632.02  
3008.2     2.3655     20989.16   31507.55  
3008.4     2.336      21703.79   31897.29  
3008.6     2.3764     22119.87   33172.39  
3008.8     2.3841     21623.82   32669.63  
3009       2.3752     21404.13   32068.52  
3009.2     2.4048     21021.25   32303.84  
3009.4     2.4186     20847.72   32285.68  
3009.6     2.447      20467.58   32424.77  
3009.8     2.4594     20227.22   32493.77  
3010       2.4565     20375.35   32581.62  
3010.2     2.4542     20305.46   32498.59  
3010.4     2.4475     20385.68   32381.19  
3010.6     2.4441     20387.66   32330.99  
3010.8     2.4448     20507.63   32790.42  
3011       2.3781     21612.32   32764.1   
3011.2     2.3821     21454.28   32418.38  
3011.4     2.3848     21584.18   32808.96  
3011.6     2.3636     21888.22   32628.25  
3011.8     2.3465     21507.91   31382.28  
3012       2.3656     20811.88   30984.5   
3012.2     2.39       20412.8    30955.83  
3012.4     2.4115     20505.49   31846.34  
3012.6     2.4069     20988.43   32525.34  
3012.8     2.3863     21622.4    32969.98  
3013       2.3706     22170.14   33413.63  
3013.2     2.3421     22843.33   33769.79  
3013.4     2.3067     24027.57   34438.96  
3013.6     2.3579     23401.42   34294.03  
3013.8     2.4021     22330.99   34196.79  
3014       2.4316     22285.54   34890.48  
3014.2     2.4257     21671.22   33787.29  
3014.4     2.4017     21845.14   33610.04  
3014.6     2.387      22015.3    33593.09  
3014.8     2.339      22745.56   33281.84  
3015       2.374      22223.5    33099.19  
3015.2     2.4052     20963.97   31883.05  
3015.4     2.403      20190.84   30909.49  
3015.6     2.4172     19910.89   30900.92  
3015.8     2.3716     20458.31   30910.55  
3016       2.3666     21066.66   31543.61  
3016.2     2.3953     21212.38   32532.98  
3016.4     2.3584     21938.3    32820.77  
3016.6     2.3298     22686.95   33086.09  
3016.8     2.3162     22829.84   32782.05  
3017       2.3493     22570.86   33129.34  
3017.2     2.3775     22128.46   33202.34  
3017.4     2.4125     21428.24   32816.37  
3017.6     2.4436     20454.43   32342.17  
3017.8     2.4127     20703.43   32335.3   
3018       2.3911     21887.88   33717.12  
3018.2     2.4262     22392.33   35101.6   
3018.4     2.4995     22449.14   37095.4   
3018.6     2.4238     22554.86   35419.36  
3018.8     2.4035     23152.75   35568.96  
3019       2.4085     22851.33   35223.17  
3019.2     2.3678     22963.81   34351.97  
3019.4     2.3591     23025.39   34354.91  
3019.6     2.3326     23770      34872.82  
3019.8     2.328      24464.14   35479.05  
3020       2.3316     24277.37   35286.31  
3020.2     2.3643     24077.94   35986.46  
3020.4     2.4361     23399.6    36906.57  
3020.6     2.4498     23832.92   37983.7   
3020.8     2.3851     23533.77   35593.8   
3021       2.3555     23689.22   35370     
3021.2     2.299      25137.27   35999.73  
3021.4     2.2926     25781.55   36528.05  
3021.6     2.3453     26276.02   38581.8   
3021.8     2.4242     25031.07   38226.82  
3022       2.5624     22302.8    38019.12  
3022.2     2.5524     20777.39   35523.46  
3022.4     2.3965     20725.76   31820.89  
3022.6     2.3532     21295.54   31528.98  
3022.8     2.349      21393.88   31514.37  
3023       2.3455     20965.14   30596.96  
3023.2     2.3794     19828.65   30090.16  
3023.4     2.3827     19626.88   29502.46  
3023.6     2.4175     18840.13   29004.04  
3023.8     2.494      17760.3    28812.53  
3024       2.5493     16696.75   28567.08  
3024.2     2.6158     16617.32   30150.29  
3024.4     2.7046     16852.37   32702.9   
3024.6     2.6013     17211.11   31074.41  
3024.8     2.5645     18589.51   32059.1   
3025       2.4316     18869.34   29687.99  
3025.2     2.4646     19126.85   30798.56  
3025.4     2.4736     18884.26   30576.28  
3025.6     2.4611     18679.3    29828.69  
3025.8     2.5069     18164.11   30192.79  
3026       2.5181     18208.59   30641.53  
3026.2     2.5676     18322.56   31786.83  
3026.4     2.6318     17802.64   32569.79  
3026.6     2.5196     18045.14   30489.6   
3026.8     2.4481     18468.29   29465.94  
3027       2.4625     18774.38   30220.42  
3027.2     2.5181     18545.85   31000.29  
3027.4     2.5452     18431.37   31752.75  
3027.6     2.5701     19099.95   33517.21  
3027.8     2.6343     19452.43   35807.34  
3028       2.5538     19708.94   33952.69  
3028.2     2.5871     18847.71   32818.18  
3028.4     2.5328     17677.84   29927.05  
3028.6     2.4905     18022.79   29842.47  
3028.8     2.4948     18712.61   30994.61  
3029       2.4773     19028.26   31032.11  
3029.2     2.4528     19197.72   30631.43  
3029.4     2.4684     19070.56   30727.74  
3029.6     2.4835     18962.38   31559.39  
3029.8     2.4755     19860.18   32346.92  
3030       2.4663     19970.48   32377.24  
3030.2     2.404      20555.26   31743.59  
3030.4     2.4162     20946.2    32534.24  
3030.6     2.4442     20810.78   32907.29  
3030.8     2.4633     20098.52   32039.14  
3031       2.4429     19844.33   31567.63  
3031.2     2.4377     20153.11   31775.96  
3031.4     2.464      19768.87   31652.36  
3031.6     2.4808     19456.47   31566.98  
3031.8     2.4688     19460.45   31571.05  
3032       2.4504     19798.7    31563.33  
3032.2     2.5203     19629.56   32807.51  
3032.4     2.5848     18842.46   33007.67  
3032.6     2.6222     18612.07   33975.14  
3032.8     2.5674     18717.45   32544.62  
3033       2.4941     18355.61   30056.1   
3033.2     2.5014     17763.13   29212.76  
3033.4     2.5037     17024.3    28130.49  
3033.6     2.4806     17196.18   28197.72  
3033.8     2.5072     17374.98   28885.25  
3034       2.5259     17384.42   29282.91  
3034.2     2.4822     17779.52   29034.06  
3034.4     2.5127     17531.58   29127.96  
3034.6     2.5258     17161.65   29029.03  
3034.8     2.5119     17313.37   28982.02  
3035       2.513      17275.54   28949.56  
3035.2     2.4764     17780.54   29015.85  
3035.4     2.4451     18043.36   28787.71  
3035.6     2.4452     18391.83   29109.83  
3035.8     2.4591     18194.08   29231.16  
3036       2.4462     18333.72   29080.25  
3036.2     2.4674     18070.6    29078.69  
3036.4     2.4854     17807.92   29104.86  
3036.6     2.5114     17771.71   29731.99  
3036.8     2.485      18277.64   30129.36  
3037       2.4383     18624.19   29392.84  
3037.2     2.4191     18855.14   29535.26  
3037.4     2.3701     19397.85   29080.93  
3037.6     2.3577     19369.01   28667.42  
3037.8     2.3866     19078.34   28855.23  
3038       2.4126     18610.05   28603.14  
3038.2     2.4554     18102.96   28956.02  
3038.4     2.458      18290.81   29247.17  
3038.6     2.4459     18074.81   28514.01  
3038.8     2.4224     18155.53   28409.15  
3039       2.4223     18456.43   28777.98  
3039.2     2.4816     18181.93   29683.61  
3039.4     2.4658     18818.77   30680.04  
3039.6     2.4844     19512.01   31898.04  
3039.8     2.4493     19166.28   30293.57  
3040       2.46       18541.11   29697.48  
3040.2     2.4673     18505.16   29808.47  
3040.4     2.4848     18148.61   29624.64  
3040.6     2.476      18125.31   29453.54  
3040.8     2.478      18018.4    29149.23  
3041       2.5229     17225.12   28696.77  
3041.2     2.5393     16341.38   27739.52  
3041.4     2.4987     16393.96   27250.75  
3041.6     2.5335     16980.14   29496.06  
3041.8     2.5572     18127.52   31348.08  
3042       2.5825     18194.85   32144.53  
3042.2     2.5391     18250.9    31153.33  
3042.4     2.4167     18213.58   28255.79  
3042.6     2.4557     18177.09   28995.15  
3042.8     2.5031     17695.75   29265.5   
3043       2.474      17753.68   28850.84  
3043.2     2.4448     18441.59   28980.13  
3043.4     2.415      18607.08   28847.43  
