~Version
 VERS              .         2.0                           : CWLS LOG ASCII STANDARD - VERSION 2.0
 WRAP              .         NO                            : ONE LINE PER DEPTH STEP
 DLM               .         SPACE                         : DELIMITING CHARACTER(SPACE TAB OR COMMA)
~Well Information
#_______________________________________________________________________________
#
#PARAMETER_NAME    .UNIT     VALUE                         : DESCRIPTION
#_______________________________________________________________________________
STRT               .m        2898                          : First reference value
STOP               .m        3121.6                        : Last reference value
STEP               .m        0.2                           : Step increment
NULL               .         -9999                         : Missing value
COMP               .                                       : Company
WELL               .         200                           : Well name
FLD                .                                       : Field
LOC                .                                       : Location
CNTY               .                                       : County
STAT               .                                       : State
CTRY               .                                       : Country
SRVC               .                                       : Service Company
DATE               .                                       : Date
API                .                                       : API number
LONG               .dega     2.052578559                   : 
HZCS               .GCS_WGS_1984 World_Mercator                : 
Cartographic_reference_system .         GCS_WGS_1984                  : 
Куст               .         2                             : 
EREF               .m        139.76                        : 
group              .         Pad2                          : 
Тип                .         Разведка                      : 
Статус             .         Не проверено                  : 
LATI               .dega     2.1856221126                  : 
Интер-р            .         Зайцев                        : 
Pad                .         2                             : 
~Parameter Information Block
#_______________________________________________________________________________
#
#PARAMETER_NAME    .UNIT     VALUE                         : DESCRIPTION
#_______________________________________________________________________________
SET                .         LAS5                          : 
REAL_CREATION_DATE .         Wed Apr 11 2012-13_17_07      : 
TLFamily_RK20      .         Resistivity 20                : 
TLFamily_RK10      .         Resistivity 10                : 
group              .         INI                           : 
TLFamily_RK05      .         Resistivity 05                : 
TLFamily_RK07      .         Resistivity 07                : 
TLFamily_RK14      .         Resistivity 14                : 
TLFamily_MD        .         Measured Depth                : 
~Curve Information
#_______________________________________________________________________________
#
#LOGNAME           .UNIT     LOG_ID                        : DESCRIPTION
#_______________________________________________________________________________
MD                 .m                                      : 1 Depth 
RK05               .Ohmm                                   : 2 ВИКИЗ, зонд 0,5 м 
RK07               .Ohmm                                   : 3 ВИКИЗ, зонд 0,7 м 
RK10               .Ohmm                                   : 4 ВИКИЗ, зонд 1 м 
RK14               .Ohmm                                   : 5 ВИКИЗ, зонд 1,4 м 
RK20               .Ohmm                                   : 6 ВИКИЗ, зонд 2 м 
~Ascii
# ...
2970.8     4.2311     4.0892     4.4448     5.6964     5.8922    
2971       4.5606     4.0405     4.3763     5.796      6.0207    
2971.2     4.3353     4.1171     4.693      6.1151     6.3605    
2971.4     5.8656     5.025      5.5673     6.9815     7.076     
2971.6     9.0461     6.9143     7.0718     8.880000000000001 8.2126    
2971.8     6.8334     7.876      7.8969     9.661899999999999 8.981500000000001
2972       6.1887     6.6055     6.6352     7.9508     7.7936    
2972.2     5.377      5.7277     5.9043     7.4608     7.2826    
2972.4     3.3184     3.664      4.2757     5.9125     6.2253    
2972.6     3.7003     3.4583     3.8895     5.1564     5.3983    
2972.8     3.7633     3.6167     4.0149     5.3132     5.3946    
2973       3.7196     3.4732     3.9062     5.1651     5.4134    
2973.2     3.6658     3.4784     3.8863     5.0817     5.4115    
2973.4     3.8558     3.6462     3.9299     5.067      5.435     
2973.6     3.7572     3.6182     3.9314     5.0226     5.4252    
2973.8     3.5743     3.5254     3.9432     4.9515     5.3381    
2974       3.7345     3.5722     4.0045     5.0681     5.3038    
2974.2     3.8795     3.7067     4.1214     5.1262     5.3858    
2974.4     3.7832     3.6268     4.0849     5.1897     5.356     
2974.6     3.5634     3.433      3.8819     4.9916     5.1837    
2974.8     3.5137     3.3525     3.7396     4.8611     5.0622    
2975       3.5036     3.3819     3.7522     4.7793     5.0593    
2975.2     3.4347     3.2354     3.6354     4.7768     5.0401    
2975.4     3.4941     3.2544     3.6029     4.7198     4.9667    
2975.6     3.818      3.3784     3.7064     4.7677     5.0342    
2975.8     3.9696     3.4838     3.7439     4.7864     5.098     
2976       3.815      3.3913     3.5858     4.6989     5.0205    
2976.2     3.7568     3.3897     3.5158     4.6073     4.9762    
2976.4     3.7578     3.3943     3.5451     4.5719     4.9183    
2976.6     3.8167     3.352      3.595      4.5059     4.8769    
2976.8     3.7001     3.3677     3.5547     4.5202     4.7273    
2977       3.6144     3.2024     3.4226     4.4027     4.5691    
2977.2     3.6285     3.1793     3.3769     4.388      4.5579    
2977.4     3.7806     3.314      3.511      4.4015     4.5663    
2977.6     3.6383     3.2374     3.4671     4.4922     4.6267    
2977.8     3.4385     3.1975     3.5817     4.6187     4.7221    
2978       4.7827     3.4913     3.8959     5.2038     5.0655    
2978.2     3.7598     3.959      4.4014     5.2361     5.1165    
2978.4     3.9003     3.5739     3.7167     4.6209     4.9006    
2978.6     3.2158     3.299      3.5987     4.4139     4.4726    
2978.8     2.8073     2.7798     3.1916     4.0375     4.2064    
2979       3.1466     2.9223     3.3462     4.2615     4.1922    
2979.2     3.1356     3.1338     3.4685     4.3879     4.2938    
2979.4     3.2324     3.1761     3.4323     4.3924     4.41      
2979.6     3.0511     3.0226     3.3554     4.2266     4.3937    
2979.8     3.0117     2.947      3.3003     4.1571     4.3043    
2980       2.8059     2.6893     3.0811     3.908      4.0406    
2980.2     2.6927     2.6261     2.9561     3.8226     3.9256    
2980.4     2.7331     2.5939     2.8158     3.695      3.8432    
2980.6     2.7078     2.3529     2.6638     3.6555     3.9249    
2980.8     2.9966     2.7877     3.26       4.1423     4.2965    
2981       3.9074     4.1447     4.4082     5.5464     5.3474    
2981.2     3.3239     2.9309     3.2847     4.6584     5.1394    
2981.4     2.8136     2.7284     2.9004     3.7388     4.1311    
2981.6     2.625      2.4759     2.6868     3.4968     3.916     
2981.8     3.0562     2.3313     2.6608     3.5119     3.796     
2982       3.0713     2.9157     3.1867     4.0053     3.9304    
2982.2     3.5364     2.9209     2.9615     4.0186     4.0881    
2982.4     3.4855     3.3199     3.3168     4.2147     4.2799    
2982.6     3.4383     3.1924     3.2253     4.1498     4.3291    
2982.8     3.3922     3.1233     3.1775     4.0145     4.2087    
2983       2.9925     2.7917     2.9952     3.9509     4.0845    
2983.2     3.108      2.6599     2.9542     3.9638     4.1689    
2983.4     3.1628     3.0463     3.2448     4.1809     4.2372    
2983.6     3.1529     3.0514     3.1645     4.0846     4.2133    
2983.8     2.655      2.6772     2.8176     3.8588     4.0454    
2984       3.0375     2.4633     2.6687     3.5468     3.8818    
2984.2     2.6406     2.6406     2.9033     3.7804     3.9223    
2984.4     2.7909     2.6127     2.8754     3.9495     4.0524    
2984.6     3.3617     3.1363     3.429      4.1847     4.2369    
2984.8     3.2172     4.2513     4.2297     4.8697     4.6717    
2985       4.4559     3.341      3.3103     4.3719     4.5673    
2985.2     2.887      3.3031     3.7928     4.6083     4.4429    
2985.4     2.3335     2.538      2.7513     3.7227     4.0115    
2985.6     2.1789     2.1687     2.4746     3.4535     3.8004    
2985.8     2.1358     2.1946     2.4886     3.4275     3.7613    
2986       2.6538     2.4841     2.721      3.7915     4.0005    
2986.2     3.1564     3.1005     3.1977     4.0364     4.222     
2986.4     3.1638     3.071      3.2525     4.1494     4.3964    
2986.6     2.5006     2.7562     2.94       3.8948     4.1701    
2986.8     2.6124     2.4825     2.6803     3.648      3.9255    
2987       2.3671     2.4958     2.7458     3.7096     3.9659    
2987.2     4.2652     3.5735     3.3096     4.0333     4.2983    
2987.4     4.532      3.5903     3.6936     4.7159     4.7048    
2987.6     3.6814     4.0875     4.0598     4.8101     4.8915    
2987.8     3.2403     3.1022     3.2081     4.1565     4.5997    
2988       3.4278     3.1234     3.1517     4.0417     4.5034    
2988.2     3.4431     3.5258     3.4945     4.3032     4.5341    
2988.4     3.607      2.7778     3.0512     4.3641     4.5711    
2988.6     4.3718     2.9371     3.4117     4.7254     4.7935    
2988.8     5.0357     5.4684     4.9419     5.6592     5.6324    
2989       3.9557     3.8625     3.9561     5.4352     5.6297    
2989.2     3.4339     3.3886     3.5912     4.813      5.0989    
2989.4     3.1827     2.8774     3.2362     4.3865     4.6712    
2989.6     3.094      3.3222     3.479      4.4413     4.5813    
2989.8     3.0321     2.8626     3.0753     4.0033     4.3034    
2990       2.9411     2.599      2.9181     3.9211     4.1473    
2990.2     2.9062     2.7902     3.0432     3.8983     4.0615    
2990.4     3.0392     2.9161     3.2298     4.127      4.3041    
2990.6     3.1969     3.26       3.5145     4.4138     4.5488    
2990.8     2.8233     2.7902     3.0803     4.0922     4.4754    
2991       3.1167     2.9938     3.2076     4.1447     4.4076    
2991.2     2.6526     2.8128     3.237      4.1621     4.4883    
2991.4     3.5773     3.0919     3.2889     4.0972     4.3807    
2991.6     3.2167     3.3704     3.6426     4.609      4.5022    
2991.8     2.9977     2.7774     3.1027     4.2373     4.5793    
2992       3.3431     3.0219     3.3165     4.3375     4.5093    
2992.2     2.9442     2.8049     3.129      4.177      4.5794    
2992.4     2.7168     2.6824     2.9277     4.1479     4.47      
2992.6     2.617      2.2488     2.5358     3.8482     4.3614    
2992.8     3.8769     3.0922     3.2874     4.1895     4.4735    
2993       3.8851     3.6518     3.9483     4.8579     4.7545    
2993.2     3.3879     3.3925     3.5441     4.304      4.5949    
2993.4     2.7711     2.5757     2.9288     3.8791     4.2335    
2993.6     2.2063     2.2927     2.6494     3.6005     3.8125    
2993.8     1.8833     1.8712     2.2709     3.2613     3.6482    
2994       4.9993     3.1476     3.1158     3.6149     3.8519    
2994.2     3.5575     3.627      3.9272     4.6326     4.6788    
2994.4     2.9098     3.1611     3.4053     4.4506     4.7192    
2994.6     3.4239     3.2013     3.5992     4.4644     4.6099    
2994.8     3.3629     3.3376     3.7879     4.8111     4.7978    
