~Version
 VERS              .         2.0                           : CWLS LOG ASCII STANDARD - VERSION 2.0
 WRAP              .         NO                            : ONE LINE PER DEPTH STEP
 DLM               .         SPACE                         : DELIMITING CHARACTER(SPACE TAB OR COMMA)
~Well Information
#_______________________________________________________________________________
#
#PARAMETER_NAME    .UNIT     VALUE                         : DESCRIPTION
#_______________________________________________________________________________
STRT               .m        2898                          : First reference value
STOP               .m        3121.6                        : Last reference value
STEP               .m        0.2                           : Step increment
NULL               .         -9999                         : Missing value
COMP               .                                       : Company
WELL               .         200                           : Well name
FLD                .                                       : Field
LOC                .                                       : Location
CNTY               .                                       : County
STAT               .                                       : State
CTRY               .                                       : Country
SRVC               .                                       : Service Company
DATE               .                                       : Date
API                .                                       : API number
LONG               .dega     2.052578559                   : 
HZCS               .GCS_WGS_1984 World_Mercator                : 
Cartographic_reference_system .         GCS_WGS_1984                  : 
Куст               .         2                             : 
EREF               .m        139.76                        : 
group              .         Pad2                          : 
Тип                .         Разведка                      : 
Статус             .         Не проверено                  : 
LATI               .dega     2.1856221126                  : 
Интер-р            .         Зайцев                        : 
Pad                .         2                             : 
~Parameter Information Block
#_______________________________________________________________________________
#
#PARAMETER_NAME    .UNIT     VALUE                         : DESCRIPTION
#_______________________________________________________________________________
SET                .         LAS5                          : 
REAL_CREATION_DATE .         Wed Apr 11 2012-13_17_07      : 
TLFamily_RK20      .         Resistivity 20                : 
TLFamily_RK10      .         Resistivity 10                : 
group              .         INI                           : 
TLFamily_RK05      .         Resistivity 05                : 
TLFamily_RK07      .         Resistivity 07                : 
TLFamily_RK14      .         Resistivity 14                : 
TLFamily_MD        .         Measured Depth                : 
~Curve Information
#_______________________________________________________________________________
#
#LOGNAME           .UNIT     LOG_ID                        : DESCRIPTION
#_______________________________________________________________________________
MD                 .m                                      : 1 Depth 
RK05               .Ohmm                                   : 2 ВИКИЗ, зонд 0,5 м 
RK07               .Ohmm                                   : 3 ВИКИЗ, зонд 0,7 м 
RK10               .Ohmm                                   : 4 ВИКИЗ, зонд 1 м 
RK14               .Ohmm                                   : 5 ВИКИЗ, зонд 1,4 м 
RK20               .Ohmm                                   : 6 ВИКИЗ, зонд 2 м 
~Ascii
# ...
3018.8     5.3828     5.3817     5.7032     7.1753     7.326     
3019       5.3783     5.0883     5.5055     7.0184     7.4469    
3019.2     4.8658     4.5557     5.2355     6.7484     7.1647    
3019.4     4.5394     4.705      5.3178     6.7696     7.0129    
3019.6     4.6809     4.3868     5.1664     6.8338     7.1817    
3019.8     5.2012     4.9316     5.7852     7.6574     7.6367    
3020       4.3791     4.8433     5.7658     8.0832     8.2994    
3020.2     5.9979     4.8432     5.4221     8.255000000000001 9.0716    
3020.4     5.5513     5.6912     6.2253     8.630900000000001 9.334199999999999
3020.6     5.9361     5.5649     6.1574     8.098100000000001 9.821899999999999
3020.8     6.0647     5.6217     6.4457     8.7522     9.660299999999999
3021       6.4046     6.6404     7.5228     9.9856     10.2125   
3021.2     6.7487     6.28       7.2579     9.9374     10.6327   
3021.4     6.6229     6.806      8.0015     10.8174    10.7901   
3021.6     6.0192     6.3467     7.9257     11.4959    11.4496   
3021.8     7.4487     8.1549     9.3208     12.274     11.5916   
3022       5.1455     6.3321     7.6578     11.3331    11.4159   
3022.2     5.1604     4.6705     5.1423     8.0146     9.4148    
3022.4     4.0729     4.4093     4.9382     7.0032     8.4031    
3022.6     3.9453     3.8675     4.6749     6.5795     7.9273    
3022.8     5.3511     4.9611     5.6911     7.3264     7.9916    
3023       4.6607     4.4984     5.4556     7.6566     8.212199999999999
3023.2     4.5733     4.4243     5.09       6.8649     7.7947    
3023.4     4.5151     4.4768     5.0229     6.6572     7.5341    
3023.6     4.2374     4.1585     4.8689     6.4491     7.0429    
3023.8     4.6581     4.2912     5.0362     6.5063     6.9165    
3024       8.2991     5.6166     6.0576     7.2791     7.0713    
3024.2     8.3798     9.3304     8.3881     8.5997     7.7197    
3024.4     2.6417     2.5503     2.8738     4.492      5.629     
3024.6     1.789      1.7218     2.0016     2.7084     3.2799    
3024.8     1.8634     1.7917     2.0721     2.7117     3.0299    
3025       2.1707     2.1337     2.3793     3.104      3.2662    
3025.2     2.4074     2.3739     2.6413     3.5141     3.7202    
3025.4     3.0564     2.7812     3.0357     3.8313     3.9846    
3025.6     2.9536     2.8548     3.1614     3.8292     3.9775    
3025.8     2.6206     2.6733     2.9161     3.5428     3.7325    
3026       2.091      2.0212     2.2263     2.8926     2.9042    
3026.2     2.1108     1.9696     2.1638     2.8424     2.8703    
3026.4     2.7089     2.1241     2.3884     3.0201     3.2275    
3026.6     2.6005     2.6559     2.7732     3.5177     3.4839    
3026.8     2.3212     2.0633     2.2431     3.0609     3.2776    
3027       2.3468     2.3346     2.6162     3.28       3.2585    
3027.2     2.5003     2.535      2.7417     3.3205     3.3078    
3027.4     2.2871     2.1007     2.4148     3.1344     3.1847    
3027.6     2.4701     2.2708     2.4387     3.053      3.09      
3027.8     2.0459     2.0849     2.3023     3.1142     3.2648    
3028       2.8835     2.408      2.5848     3.765      4.0679    
3028.2     2.1174     2.0956     2.6653     4.1195     4.5571    
3028.4     113.8495   17.5844    8.604900000000001 6.9964     6.4169    
3028.6     16.4886    13.8076    9.392899999999999 11.0759    9.0349    
3028.8     2.6454     4.4311     4.0545     5.5784     6.4482    
3029       2.5463     2.0515     2.2788     3.5685     3.9259    
3029.2     2.674      3.0738     3.2702     3.9381     3.877     
3029.4     2.828      2.9505     3.2297     4.2826     4.3504    
3029.6     2.9004     2.8801     3.2742     4.5115     4.5378    
3029.8     3.3262     3.221      3.4678     4.6536     4.9057    
3030       3.5601     3.7148     3.733      4.7093     5.4664    
3030.2     3.6321     3.6631     3.6398     4.7038     5.5902    
3030.4     3.2399     3.1564     3.5598     4.6905     5.358     
3030.6     4.6168     4.4193     5.0501     5.7537     5.7618    
3030.8     7.5637     8.2254     7.5809     7.5457     7.0541    
3031       4.2244     3.7294     4.1703     5.2951     6.0392    
3031.2     4.016      4.4058     4.5382     5.382      5.2348    
3031.4     2.284      2.4614     2.8485     4.0183     4.4878    
3031.6     2.7149     2.5611     2.7978     3.7968     4.1715    
3031.8     2.0296     2.0414     2.3572     3.4725     4.0038    
3032       2.1237     1.9792     2.1584     3.006      3.5832    
3032.2     2.111      2.2543     2.3527     3.1629     3.5607    
3032.4     2.4293     2.3994     2.5064     3.1499     3.5467    
3032.6     2.0882     2.1063     2.3357     3.0538     3.4894    
3032.8     2.5224     2.2031     2.4163     3.1079     3.4174    
3033       3.2801     2.8334     2.9673     3.7336     3.7338    
3033.2     2.3396     2.376      2.5668     3.4812     3.736     
3033.4     2.6231     2.1931     2.3111     3.0035     3.2971    
3033.6     2.3645     2.3985     2.4344     3.0259     3.1991    
3033.8     2.0421     1.9414     2.2218     2.8304     2.9626    
3034       2.1792     2.0657     2.2704     2.8894     2.8218    
3034.2     1.9708     1.8663     2.1153     2.8268     2.8621    
3034.4     2.2621     1.8913     2.2028     2.9951     3.0474    
3034.6     2.6608     2.2945     2.4696     3.219      3.221     
3034.8     2.5832     2.2766     2.4377     3.3305     3.4769    
3035       2.5427     2.262      2.4517     3.1874     3.5301    
3035.2     2.9405     2.5762     2.7815     3.4007     3.6659    
3035.4     2.7481     2.6629     2.9482     3.6229     3.7352    
3035.6     2.6628     2.5079     2.8155     3.6185     3.6964    
3035.8     2.7806     2.6545     2.9467     3.7315     3.6676    
3036       2.8914     2.3901     2.7245     3.5684     3.5935    
3036.2     2.5829     2.4239     2.6974     3.4967     3.5494    
3036.4     2.4605     2.1981     2.3623     3.2766     3.5623    
3036.6     2.6861     2.5301     2.6914     3.3212     3.6197    
3036.8     2.4319     2.3257     2.5928     3.3212     3.5729    
3037       2.6566     2.4956     2.6601     3.2831     3.4538    
3037.2     2.1815     2.1244     2.3327     3.1536     3.2859    
3037.4     2.23       2.128      2.4772     3.3004     3.4334    
3037.6     3.1323     2.5927     2.9241     3.698      3.8227    
3037.8     2.9672     2.823      3.1458     3.9348     4.0384    
3038       2.8662     2.6034     2.6865     3.7241     3.9846    
3038.2     2.5602     2.5227     2.7014     3.4968     3.8231    
3038.4     2.7581     2.4942     2.7007     3.3827     3.7132    
3038.6     2.5066     2.465      2.6872     3.4422     3.5912    
3038.8     2.3412     2.3209     2.6247     3.4216     3.3979    
3039       2.5932     2.4838     2.8092     3.5044     3.4346    
3039.2     2.6276     2.5223     2.6692     3.3243     3.3852    
3039.4     2.3639     2.1237     2.3804     3.1254     3.2833    
3039.6     2.4347     2.2255     2.393      3.2056     3.3206    
3039.8     2.5781     2.247      2.3632     3.265      3.4378    
3040       2.5128     2.3614     2.5101     3.2264     3.451     
3040.2     2.262      2.2137     2.3687     2.9958     3.3346    
3040.4     2.3592     2.1422     2.2568     2.791      2.9225    
3040.6     1.7347     1.7041     1.9523     2.5671     2.7133    
3040.8     1.968      1.7873     2.0252     2.9037     2.9945    
3041       3.3551     2.4987     2.926      3.7238     3.733     
3041.2     6.4466     5.2742     4.7458     5.5102     5.0435    
3041.4     3.9242     3.8983     3.6858     5.0608     5.0381    
3041.6     2.4193     2.3237     2.4796     3.178      3.912     
3041.8     2.4143     2.3206     2.4448     2.9481     3.1124    
3042       2.2671     2.2872     2.6374     3.2231     3.15      
3042.2     2.4908     2.3467     2.6427     3.318      3.227     
3042.4     2.1581     2.0628     2.3235     3.1745     3.1555    
3042.6     2.0687     1.8479     2.0498     2.7688     3.0456    
3042.8     2.1062     1.8676     2.068      2.7978     3.1995    
