~Version
 VERS              .         2.0                           : CWLS LOG ASCII STANDARD - VERSION 2.0
 WRAP              .         NO                            : ONE LINE PER DEPTH STEP
 DLM               .         SPACE                         : DELIMITING CHARACTER(SPACE TAB OR COMMA)
~Well Information
#_______________________________________________________________________________
#
#PARAMETER_NAME    .UNIT     VALUE                         : DESCRIPTION
#_______________________________________________________________________________
STRT               .m        2898                          : First reference value
STOP               .m        3121.6                        : Last reference value
STEP               .m        0.2                           : Step increment
NULL               .         -9999                         : Missing value
COMP               .                                       : Company
WELL               .         200                           : Well name
FLD                .                                       : Field
LOC                .                                       : Location
CNTY               .                                       : County
STAT               .                                       : State
CTRY               .                                       : Country
SRVC               .                                       : Service Company
DATE               .                                       : Date
API                .                                       : API number
LONG               .dega     2.052578559                   : 
HZCS               .GCS_WGS_1984 World_Mercator                : 
Cartographic_reference_system .         GCS_WGS_1984                  : 
Куст               .         2                             : 
EREF               .m        139.76                        : 
group              .         Pad2                          : 
Тип                .         Разведка                      : 
Статус             .         Не проверено                  : 
LATI               .dega     2.1856221126                  : 
Интер-р            .         Зайцев                        : 
Pad                .         2                             : 
~Parameter Information Block
#_______________________________________________________________________________
#
#PARAMETER_NAME    .UNIT     VALUE                         : DESCRIPTION
#_______________________________________________________________________________
SET                .         LAS5                          : 
REAL_CREATION_DATE .         Wed Apr 11 2012-13_17_07      : 
TLFamily_RK20      .         Resistivity 20                : 
TLFamily_RK10      .         Resistivity 10                : 
group              .         INI                           : 
TLFamily_RK05      .         Resistivity 05                : 
TLFamily_RK07      .         Resistivity 07                : 
TLFamily_RK14      .         Resistivity 14                : 
TLFamily_MD        .         Measured Depth                : 
~Curve Information
#_______________________________________________________________________________
#
#LOGNAME           .UNIT     LOG_ID                        : DESCRIPTION
#_______________________________________________________________________________
MD                 .m                                      : 1 Depth 
RK05               .Ohmm                                   : 2 ВИКИЗ, зонд 0,5 м 
RK07               .Ohmm                                   : 3 ВИКИЗ, зонд 0,7 м 
RK10               .Ohmm                                   : 4 ВИКИЗ, зонд 1 м 
RK14               .Ohmm                                   : 5 ВИКИЗ, зонд 1,4 м 
RK20               .Ohmm                                   : 6 ВИКИЗ, зонд 2 м 
~Ascii
# ...
2946.6     3.5554     3.5643     3.9944     4.9753     5.619     
2946.8     2.8789     3.4061     3.9567     5.149      5.7646    
2947       3.0117     2.9109     3.3228     4.5483     5.3924    
2947.2     3.4598     3.238      3.6913     4.6396     5.3465    
2947.4     3.743      3.5483     3.9522     4.8728     5.5442    
2947.6     5.0435     4.6054     4.8219     5.3726     5.5592    
2947.8     4.938      4.7852     5.1651     5.83       5.651     
2948       3.6514     3.9409     4.5247     5.3231     5.4046    
2948.2     3.4473     3.6635     4.1869     5.1243     5.2095    
2948.4     3.1888     3.1337     3.795      4.9242     5.0729    
2948.6     4.3692     3.9894     4.5112     5.4536     5.4289    
2948.8     4.7334     4.933      5.3559     6.3728     6.0095    
2949       4.4463     4.8104     5.0013     5.6135     5.8879    
2949.2     4.2121     3.6284     4.0071     5.1213     5.5144    
2949.4     4.2857     4.0869     4.5438     5.1567     5.0901    
2949.6     3.9733     4.3035     4.6893     5.4055     5.2044    
2949.8     3.2169     3.3158     3.8178     4.8379     5.0971    
2950       3.2559     3.1306     3.518      4.6711     4.9473    
2950.2     3.2237     3.5081     3.8511     4.8372     5.1395    
2950.4     4.3273     3.4933     3.7632     5.0873     5.589     
2950.6     5.8919     4.6099     4.2717     5.8958     6.4425    
2950.8     5.3949     5.198      4.6975     5.7455     6.8802    
2951       3.5257     3.3124     3.6551     4.9382     5.9347    
2951.2     3.2781     3.0955     3.6959     4.8274     5.6467    
2951.4     3.874      3.7915     4.3659     5.594      6.1834    
2951.6     3.7907     3.8809     4.4315     5.6693     6.3117    
2951.8     3.8887     3.4837     4.0071     5.4892     6.0128    
2952       3.8536     3.6808     3.9605     5.2643     5.6463    
2952.2     4.1837     3.7693     4.0895     5.1376     5.5631    
2952.4     4.0471     3.8122     4.2358     5.3019     5.6116    
2952.6     4.1667     3.983      4.4817     5.4711     5.7767    
2952.8     5.0988     4.5529     5.0247     6.0243     6.0746    
2953       5.9443     5.1949     5.7587     6.7895     6.5071    
2953.2     4.8681     5.1404     5.5961     6.8121     6.5744    
2953.4     4.1802     3.9901     4.5506     5.8104     5.9203    
2953.6     4.4492     4.0372     4.4773     5.7558     5.8321    
2953.8     3.4337     3.3648     3.9281     5.3716     5.5293    
2954       3.4067     3.2778     3.667      4.8573     5.1529    
2954.2     3.2963     3.0987     3.4667     4.7039     5.0152    
2954.4     3.2459     3.3395     3.6754     4.7039     4.9045    
2954.6     4.196      3.3578     3.804      4.8354     5.0796    
2954.8     4.4679     4.5847     4.9459     5.8055     5.737     
2955       3.6488     3.773      4.2713     5.4762     5.9508    
2955.2     3.4594     3.4231     3.9463     5.0364     5.4945    
2955.4     3.0728     3.1253     3.6992     4.8614     5.3373    
2955.6     3.7782     3.846      4.0757     5.093      5.4561    
2955.8     3.664      3.4311     4.0626     5.3567     5.6592    
2956       4.6695     4.9232     5.602      6.858      6.6692    
2956.2     7.4271     5.417      6.0374     7.7969     7.8103    
2956.4     8.2361     8.1487     8.2385     8.848100000000001 8.4926    
2956.6     4.4301     5.068      5.6675     7.2771     7.582     
2956.8     3.7894     4.2206     4.6001     5.5948     5.9932    
2957       4.1636     3.7926     4.2454     5.364      5.7458    
2957.2     4.4758     4.1164     4.5624     5.7687     5.6579    
2957.4     2.9769     3.4666     4.0132     5.5642     5.8425    
2957.6     2.8359     2.4394     3.1175     4.6492     5.4635    
2957.8     3.7249     3.877      4.3714     5.5461     5.7486    
2958       3.4622     3.4384     3.7986     5.1729     5.5606    
2958.2     3.6343     3.394      3.8354     5.0161     5.4645    
2958.4     4.0492     4.0468     4.4433     5.2695     5.5604    
2958.6     5.4618     4.5237     4.6295     5.4866     5.6085    
2958.8     4.2025     4.4143     4.8022     5.6662     5.4341    
2959       2.5598     2.863      3.5009     4.8338     5.0934    
2959.2     3.2982     3.4369     3.9114     5.065      5.0064    
2959.4     3.162      3.6177     4.3559     5.4692     5.3015    
2959.6     3.9855     3.5233     3.9934     5.3191     5.578     
2959.8     3.9011     3.7064     4.3093     5.4693     5.6562    
2960       4.9066     4.6606     5.2175     6.124      6.0449    
2960.2     5.2027     4.9733     5.4108     6.4023     6.5688    
2960.4     6.1934     5.8435     5.8339     6.378      6.6236    
2960.6     4.6606     4.9288     5.4432     6.3716     6.2621    
2960.8     3.9186     4.2585     4.7282     5.7158     5.7327    
2961       3.9036     3.8723     4.5392     5.5759     5.6544    
2961.2     3.0269     3.6125     4.7023     6.3864     6.4372    
2961.4     4.9181     4.7899     5.5683     7.0763     6.9551    
2961.6     4.3948     5.15       6.0592     8.039199999999999 7.581     
2961.8     6.1598     5.8226     5.8541     7.2547     7.1894    
2962       5.199      5.2653     5.6128     7.0425     6.8403    
2962.2     3.8016     4.21       4.904      6.0831     6.1646    
2962.4     3.8708     4.3359     5.0862     6.195      6.0439    
2962.6     3.3196     3.7603     4.5787     5.9025     6.1277    
2962.8     3.7878     3.6853     4.1997     5.4043     5.8587    
2963       3.9797     3.7264     4.1839     5.4075     5.8425    
2963.2     4.0754     4.0212     4.4901     5.5753     5.886     
2963.4     3.3304     3.6684     4.317      5.3171     5.8184    
2963.6     4.3758     4.4451     4.8722     5.6043     5.7507    
2963.8     3.2595     3.3587     4.1591     5.4548     5.817     
2964       3.0157     3.768      4.5112     5.4231     5.742     
2964.2     4.1228     3.761      4.3526     5.4402     5.8317    
2964.4     3.9369     4.0998     4.52       5.6425     5.8547    
2964.6     4.9061     4.2519     4.4525     5.3549     5.7483    
2964.8     4.0672     4.0649     4.6559     5.9828     5.8551    
2965       4.3585     4.2291     5.1756     6.4439     6.1481    
2965.2     4.7028     5.2108     6.2014     7.5351     7.1086    
2965.4     5.5129     5.2319     6.1409     7.7121     7.6026    
2965.6     6.0833     5.6307     6.3385     7.6874     7.563     
2965.8     5.9457     5.6693     6.4438     7.316      6.9146    
2966       6.2901     6.0273     6.2064     7.0117     6.6009    
2966.2     3.3978     3.8874     4.4998     5.503      5.4321    
2966.4     3.1321     3.4164     4.0585     5.322      5.2674    
2966.6     2.937      3.5118     4.3468     5.5064     5.4998    
2966.8     3.3196     3.1725     3.8657     5.4905     5.6224    
2967       3.746      4.0059     4.7039     5.9543     6.0279    
2967.2     6.5671     5.4331     5.7722     7.3489     7.2785    
2967.4     5.3356     6.1888     6.5351     7.7438     7.5708    
2967.6     5.6106     5.2305     5.5054     6.623      6.9193    
2967.8     5.6711     5.4285     5.6381     6.6168     6.6689    
2968       4.0933     4.8809     5.3513     6.3842     6.2412    
2968.2     3.5353     3.9639     4.7645     5.7579     5.7498    
2968.4     3.7595     3.6137     4.4572     5.7217     5.7377    
2968.6     4.3714     3.7785     4.4706     5.6123     5.6543    
2968.8     3.3356     3.5307     4.1211     5.184      5.4037    
2969       2.7146     3.0923     3.6525     4.6771     5.2102    
2969.2     3.677      3.5838     4.1265     5.0843     5.4086    
2969.4     3.4315     3.6255     4.118      5.2684     5.6865    
2969.6     2.9791     2.7705     3.5328     5.0501     5.5309    
2969.8     5.2979     4.9758     5.0812     5.5885     5.7561    
2970       4.5956     4.7042     5.0852     6.1843     6.3229    
2970.2     4.8247     4.8745     5.046      6.0402     6.2617    
2970.4     4.277      4.3762     4.931      6.1938     6.1593    
2970.6     4.6578     4.449      4.8252     5.7683     6.0083    
