~Version
 VERS              .         2.0                           : CWLS LOG ASCII STANDARD - VERSION 2.0
 WRAP              .         NO                            : ONE LINE PER DEPTH STEP
 DLM               .         SPACE                         : DELIMITING CHARACTER(SPACE TAB OR COMMA)
~Well Information
#_______________________________________________________________________________
#
#PARAMETER_NAME    .UNIT     VALUE                         : DESCRIPTION
#_______________________________________________________________________________
STRT               .m        2898                          : First reference value
STOP               .m        3121.6                        : Last reference value
STEP               .m        0.2                           : Step increment
NULL               .         -9999                         : Missing value
COMP               .                                       : Company
WELL               .         200                           : Well name
FLD                .                                       : Field
LOC                .                                       : Location
CNTY               .                                       : County
STAT               .                                       : State
CTRY               .                                       : Country
SRVC               .                                       : Service Company
DATE               .                                       : Date
API                .                                       : API number
LONG               .dega     2.052578559                   : 
HZCS               .GCS_WGS_1984 World_Mercator                : 
Cartographic_reference_system .         GCS_WGS_1984                  : 
Куст               .         2                             : 
EREF               .m        139.76                        : 
group              .         Pad2                          : 
Тип                .         Разведка                      : 
Статус             .         Не проверено                  : 
LATI               .dega     2.1856221126                  : 
Интер-р            .         Зайцев                        : 
Pad                .         2                             : 
~Parameter Information Block
#_______________________________________________________________________________
#
#PARAMETER_NAME    .UNIT     VALUE                         : DESCRIPTION
#_______________________________________________________________________________
SET                .         LAS4                          : 
TLFamily_GR        .         Russian Gamma Ray             : 
REAL_CREATION_DATE .         Wed Apr 11 2012-13_17_06      : 
TLFamily_NKTb      .         Neutron Far                   : 
TLFamily_NKTs      .         Neutron Near                  : 
group              .         INI                           : 
TLFamily_TNPH      .         Neutron Porosity              : 
TLFamily_MD        .         Measured Depth                : 
~Curve Information
#_______________________________________________________________________________
#
#LOGNAME           .UNIT     LOG_ID                        : DESCRIPTION
#_______________________________________________________________________________
MD                 .m                                      : 1 Depth 
GR                 .uR/h                                   : 5 Естественная гамма-активность породы по гамма-каротажу 
NKTb               .UE                                     : 2 ННК-т, большой зонд 
NKTs               .UE                                     : 3 ННК-т, малый зонд 
TNPH               .v/v                                    : 4 Суммарное водородосодержание 
~Ascii
# ...
2956.4     8.3158     8.6242     1.8881     0.150643  
2956.6     8.6833     8.1968     1.851      0.156514  
2956.8     9.8141     7.129      1.7127     0.179988  
2957       11.1016    6.2456     1.6201     0.201316  
2957.2     11.1926    5.9631     1.6169     0.215676  
2957.4     10.2688    6.1302     1.6443     0.215695  
2957.6     9.3527     6.2196     1.6603     0.21192   
2957.8     9.1348     6.2158     1.6544     0.213803  
2958       9.8184     6.1869     1.6287     0.212724  
2958.2     11.0446    6.0338     1.5841     0.21229   
2958.4     12.1205    5.8953     1.5291     0.212187  
2958.6     12.5918    5.8176     1.5012     0.206622  
2958.8     11.9452    5.8701     1.5404     0.203394  
2959       10.3014    6.2684     1.6287     0.201068  
2959.2     8.8975     6.8602     1.6851     0.192173  
2959.4     8.6202     7.2841     1.7016     0.178143  
2959.6     9.0738     7.5182     1.709      0.16855   
2959.8     9.0155     7.7404     1.7146     0.161109  
2960       8.1696     7.9292     1.7529     0.154468  
2960.2     7.5437     7.9896     1.8091     0.156307  
2960.4     7.3941     8.0129     1.852      0.163896  
2960.6     7.7792     7.9864     1.8643     0.169663  
2960.8     8.529      7.7212     1.8348     0.176238  
2961       8.7991     7.6451     1.7895     0.181299  
2961.2     8.2518     7.9243     1.7805     0.170016  
2961.4     7.825      8.4286     1.8329     0.155839  
2961.6     7.5701     9.3778     1.9279     0.141924  
2961.8     7.1222     10.2031    1.9933     0.127322  
2962       6.9362     10.0601    1.9695     0.124184  
2962.2     7.1734     8.9953     1.8934     0.137182  
2962.4     7.2859     7.9495     1.8485     0.16053   
2962.6     7.6344     7.2662     1.8156     0.184789  
2962.8     8.7732     6.8413     1.7455     0.202378  
2963       10.0569    6.6883     1.6739     0.204285  
2963.2     10.5324    6.7343     1.649      0.192808  
2963.4     9.7827     6.6904     1.6517     0.186423  
2963.6     8.7554     6.52       1.6569     0.192894  
2963.8     8.4681     6.5691     1.6558     0.198781  
2964       9.3996     6.8293     1.6552     0.190784  
2964.2     10.6886    6.9704     1.6423     0.178997  
2964.4     10.8461    6.6313     1.6179     0.179842  
2964.6     9.737      6.5547     1.6293     0.191568  
2964.8     8.6053     7.2498     1.6943     0.181206  
2965       7.8844     8.3252     1.8165     0.155501  
2965.2     7.3306     9.2018     1.9416     0.143752  
2965.4     6.8502     9.69       1.958      0.138421  
2965.6     6.5739     9.6676     1.929      0.13245   
2965.8     6.654      9.1821     1.8914     0.136592  
2966       7.1851     8.7807     1.8774     0.145004  
2966.2     7.9859     8.5017     1.8677     0.152728  
2966.4     9.1075     8.2392     1.8379     0.159835  
2966.6     10.4633    7.9398     1.7683     0.164152  
2966.8     10.5089    7.5606     1.6892     0.165659  
2967       9.0323     7.4394     1.678      0.164844  
2967.2     7.615      7.7631     1.7391     0.158916  
2967.4     7.1373     8.026      1.8015     0.156121  
2967.6     7.5099     8.1158     1.8387     0.160116  
2967.8     8.1227     8.1767     1.8627     0.163072  
2968       8.6953     8.0173     1.8462     0.167174  
2968.2     9.1877     7.7331     1.8021     0.173541  
2968.4     9.2565     7.4554     1.7752     0.176587  
2968.6     8.9084     7.12       1.7523     0.18512   
2968.8     8.4346     7.2076     1.7286     0.189723  
2969       8.2489     7.5573     1.7024     0.173702  
2969.2     8.6662     7.4919     1.6744     0.161593  
2969.4     9.2558     7.2488     1.6761     0.164892  
2969.6     9.7953     6.982      1.6851     0.174242  
2969.8     10.134     6.5435     1.6661     0.190128  
2970       10.2746    6.1304     1.6295     0.209183  
2970.2     10.7346    5.96       1.636      0.21867   
2970.4     11.6685    5.9329     1.6598     0.227252  
2970.6     12.5192    6.0497     1.6227     0.227441  
2970.8     12.5278    6.1454     1.5986     0.211889  
2971       11.7676    6.1491     1.6202     0.205562  
2971.2     10.6436    6.4654     1.6715     0.205696  
2971.4     9.2611     7.2202     1.7532     0.189081  
2971.6     8.3781     7.928      1.8357     0.170386  
2971.8     8.2614     8.1272     1.8531     0.164253  
2972       8.9537     7.5854     1.8244     0.171667  
2972.2     10.8499    6.7946     1.7682     0.196729  
2972.4     12.8196    6.3099     1.6701     0.218468  
2972.6     13.5237    6.0643     1.5979     0.217399  
2972.8     13.5034    5.9647     1.5729     0.213556  
2973       13.1101    6.099      1.5744     0.207678  
2973.2     12.4857    6.2261     1.5955     0.198888  
2973.4     12.351     6.1738     1.5977     0.201213  
2973.6     12.5664    6.1686     1.5847     0.204615  
2973.8     12.617     6.2206     1.5902     0.200609  
2974       12.6083    6.2907     1.5952     0.197496  
2974.2     12.7505    6.4501     1.5945     0.195265  
2974.4     12.8559    6.7268     1.5881     0.183658  
2974.6     12.9189    6.7046     1.5833     0.173906  
2974.8     12.9703    6.4395     1.5813     0.181226  
2975       12.9363    6.3144     1.5864     0.191671  
2975.2     13.032     6.301      1.5622     0.194513  
2975.4     13.0629    6.1853     1.5486     0.192639  
2975.6     13.1023    5.9855     1.5513     0.198087  
2975.8     13.2979    5.7565     1.5545     0.209799  
2976       13.1809    5.646      1.5509     0.221873  
2976.2     13.0602    5.6679     1.5562     0.22346   
2976.4     13.0697    5.7755     1.5755     0.220196  
2976.6     13.3871    5.8029     1.573      0.219397  
2976.8     13.4882    5.8466     1.5504     0.218276  
2977       13.3724    5.8699     1.5477     0.209989  
2977.2     12.9701    5.7454     1.5682     0.212264  
2977.4     12.5548    5.7604     1.5841     0.222627  
2977.6     12.5435    5.8515     1.5831     0.220614  
2977.8     12.4814    5.8747     1.575      0.217458  
2978       11.9612    5.9564     1.5691     0.213413  
2978.2     11.4015    5.9681     1.5636     0.208403  
2978.4     11.3408    5.9619     1.5428     0.208059  
2978.6     11.5805    5.9314     1.5179     0.203631  
2978.8     11.9188    5.6641     1.5016     0.204809  
2979       12.5329    5.3042     1.5028     0.221822  
2979.2     13.1844    5.2588     1.5162     0.239059  
2979.4     13.6246    5.5816     1.5277     0.231748  
2979.6     13.6081    5.7378     1.5358     0.215231  
2979.8     12.9998    5.5908     1.5356     0.216686  
2980       12.2484    5.3254     1.5101     0.230076  
2980.2     11.9778    5.1316     1.4694     0.241948  
2980.4     12.2756    5.2542     1.4744     0.236233  
2980.6     12.3965    5.696      1.5266     0.220306  
2980.8     11.9456    6.5006     1.6004     0.19673   
2981       11.784     6.9716     1.645      0.175814  
2981.2     12.2865    6.7724     1.6218     0.175193  
2981.4     13.0915    6.0007     1.5412     0.195119  
2981.6     13.8911    5.5181     1.4523     0.217537  
2981.8     14.2       5.4672     1.4397     0.208923  
2982       14.3288    5.1282     1.4289     0.217027  
2982.2     14.7932    4.885      1.4162     0.23778   
2982.4     15.6457    4.8225     1.4128     0.2446    
2982.6     16.409     4.7533     1.4085     0.247246  
2982.8     16.6925    4.6251     1.4112     0.253371  
2983       16.9155    4.4327     1.4156     0.267201  
2983.2     17.2844    4.325      1.4027     0.284324  
2983.4     17.3074    4.4772     1.3776     0.280687  
2983.6     16.6874    4.7116     1.3749     0.254071  
2983.8     15.8666    4.754      1.408      0.24035   
2984       15.5877    4.6811     1.4356     0.252277  
2984.2     15.3593    4.6542     1.4336     0.262829  
2984.4     15.1554    4.5039     1.4293     0.268134  
2984.6     15.2249    4.3938     1.4418     0.282035  
2984.8     15.4601    4.5439     1.4592     0.284842  
2985       15.3668    4.7148     1.4768     0.27241   
2985.2     14.3877    4.8129     1.4991     0.266457  
2985.4     13.2009    4.9784     1.5027     0.263757  
