~Version
 VERS              .         2.0                           : CWLS LOG ASCII STANDARD - VERSION 2.0
 WRAP              .         NO                            : ONE LINE PER DEPTH STEP
 DLM               .         SPACE                         : DELIMITING CHARACTER(SPACE TAB OR COMMA)
~Well Information
#_______________________________________________________________________________
#
#PARAMETER_NAME    .UNIT     VALUE                         : DESCRIPTION
#_______________________________________________________________________________
STRT               .m        2898                          : First reference value
STOP               .m        3121.6                        : Last reference value
STEP               .m        0.2                           : Step increment
NULL               .         -9999                         : Missing value
COMP               .                                       : Company
WELL               .         200                           : Well name
FLD                .                                       : Field
LOC                .                                       : Location
CNTY               .                                       : County
STAT               .                                       : State
CTRY               .                                       : Country
SRVC               .                                       : Service Company
DATE               .                                       : Date
API                .                                       : API number
LONG               .dega     2.052578559                   : 
HZCS               .GCS_WGS_1984 World_Mercator                : 
Cartographic_reference_system .         GCS_WGS_1984                  : 
Куст               .         2                             : 
EREF               .m        139.76                        : 
group              .         Pad2                          : 
Тип                .         Разведка                      : 
Статус             .         Не проверено                  : 
LATI               .dega     2.1856221126                  : 
Интер-р            .         Зайцев                        : 
Pad                .         2                             : 
~Parameter Information Block
#_______________________________________________________________________________
#
#PARAMETER_NAME    .UNIT     VALUE                         : DESCRIPTION
#_______________________________________________________________________________
SET                .         LAS5                          : 
REAL_CREATION_DATE .         Wed Apr 11 2012-13_17_07      : 
TLFamily_RK20      .         Resistivity 20                : 
TLFamily_RK10      .         Resistivity 10                : 
group              .         INI                           : 
TLFamily_RK05      .         Resistivity 05                : 
TLFamily_RK07      .         Resistivity 07                : 
TLFamily_RK14      .         Resistivity 14                : 
TLFamily_MD        .         Measured Depth                : 
~Curve Information
#_______________________________________________________________________________
#
#LOGNAME           .UNIT     LOG_ID                        : DESCRIPTION
#_______________________________________________________________________________
MD                 .m                                      : 1 Depth 
RK05               .Ohmm                                   : 2 ВИКИЗ, зонд 0,5 м 
RK07               .Ohmm                                   : 3 ВИКИЗ, зонд 0,7 м 
RK10               .Ohmm                                   : 4 ВИКИЗ, зонд 1 м 
RK14               .Ohmm                                   : 5 ВИКИЗ, зонд 1,4 м 
RK20               .Ohmm                                   : 6 ВИКИЗ, зонд 2 м 
~Ascii
2898.0     3.5643     26264.29   24444446   24444456   24444496  
2898.2     4.1699     4.8021     20000000   20000000   20000000  
2898.4     4.2751     3.9248     5182.308   20000002   8.4145    
2898.6     4.2056     4.0376     4.4785     80000048   20000034  
2898.8     4.1184     3.8809     4.4969     1.1265     80000000  
2899       4.3036     4.0196     4.6162     4.4504     0.0595    
2899.2     3.7544     3.5696     4.3741     4.7853     0.021     
2899.4     3.4012     3.4786     4.1329     4.6076     2.7423    
2899.6     3.4061     3.2884     3.9351     4.5205     4.3211    
2899.8     3.1758     3.2051     3.8515     4.4797     4.4202    
2900       3.147      3.0132     3.6416     4.2703     4.3349    
2900.2     2.9119     2.9717     3.4513     4.1406     4.1957    
2900.4     2.7691     2.5489     3.1945     3.9133     4.0638    
2900.6     3.3034     2.6313     2.9643     3.8798     4.0217    
2900.8     3.1488     3.0692     3.3402     3.9858     4.1379    
2901       2.4999     2.2899     2.7049     3.625      4.1502    
2901.2     2.9092     2.5349     2.8307     3.6        3.7846    
2901.4     2.8548     2.6225     2.9698     3.8244     3.8939    
2901.6     3.3777     3.0418     3.2751     4.0168     4.0486    
2901.8     3.288      2.9893     3.2911     4.1323     4.1562    
2902       3.0168     2.8567     3.1628     4.0395     4.079     
2902.2     2.9818     2.6972     3.0184     3.8807     3.9641    
2902.4     3.0557     2.7659     3.1424     3.9159     3.9245    
2902.6     3.0155     2.746      3.0808     3.9658     4.0224    
2902.8     2.8191     2.6199     2.9681     3.8966     4.0077    
2903       3.0209     2.7418     2.9673     3.8367     4.0335    
2903.2     2.7607     2.641      2.9545     3.8602     4.044     
2903.4     2.9374     2.6568     3.0097     3.7722     4.0325    
2903.6     3.2428     2.9578     3.2967     4.0594     4.0957    
2903.8     3.3896     3.1744     3.4654     4.2955     4.2891    
2904       3.089      3.0732     3.4149     4.2578     4.3279    
2904.2     2.866      2.7257     3.0827     4.0101     4.1631    
2904.4     2.6104     2.5412     2.8573     3.8098     4.0417    
2904.6     2.3833     2.318      2.7452     3.7103     4.0088    
2904.8     2.8126     2.5097     2.9719     3.9086     4.1399    
2905       3.3413     3.0903     3.4857     4.436      4.5038    
2905.2     3.8319     3.5029     3.9052     4.8561     4.8847    
2905.4     9.7484     5.7334     5.1756     5.495      5.3301    
2905.6     3.1817     4.5836     5.0318     6.0903     5.5482    
2905.8     2.3193     2.2049     2.613      3.729      4.4896    
2906       2.4247     2.2284     2.6864     3.5362     3.6669    
2906.2     2.7824     2.5206     2.8709     3.8153     3.9039    
2906.4     3.1087     2.7785     3.1056     4.0225     4.1464    
2906.6     3.4502     3.2257     3.4784     4.289      4.4091    
2906.8     3.6483     3.4887     3.7725     4.5198     4.6475    
2907       3.5395     3.4784     3.8106     4.7225     4.7312    
2907.2     2.9851     2.968      3.4229     4.4411     4.6379    
2907.4     2.9145     2.8629     3.2749     4.2088     4.4357    
2907.6     3.2396     2.7385     3.1723     4.189      4.3942    
2907.8     3.044      3.0193     3.4212     4.4123     4.5488    
2908       3.657      3.3665     3.5544     4.4493     4.692     
2908.2     3.8911     3.7401     4.0222     4.8511     4.8255    
2908.4     3.6441     3.6864     4.0937     5.0765     5.0358    
2908.6     3.3146     3.2744     3.6595     4.7536     4.8931    
2908.8     3.2294     3.0675     3.4577     4.498      4.6128    
2909       3.1055     2.9925     3.341      4.4126     4.5198    
2909.2     2.9084     2.7039     3.0504     4.21       4.5024    
2909.4     2.736      2.75       3.0312     4.1257     4.4443    
2909.6     3.2055     3.0372     3.2347     4.1999     4.5182    
2909.8     3.1082     2.9719     3.2768     4.2791     4.5503    
2910       3.1674     2.9913     3.3624     4.2436     4.4956    
2910.2     3.2376     3.1113     3.4905     4.3608     4.5013    
2910.4     3.2418     3.0319     3.3968     4.3364     4.4587    
2910.6     3.2165     3.0779     3.4197     4.2892     4.4761    
2910.8     3.1024     3.0031     3.3517     4.2618     4.4526    
2911       3.0003     2.8348     3.187      4.1863     4.39      
2911.2     2.9723     2.7957     3.123      4.127      4.3394    
2911.4     2.9904     2.7744     3.0997     4.1066     4.3449    
2911.6     2.9956     2.8035     3.1402     4.0797     4.3764    
2911.8     3.0705     2.8638     3.1597     4.074      4.3773    
2912       3.2855     2.9159     3.2142     4.1218     4.3428    
2912.2     3.5096     3.1941     3.4386     4.2411     4.4196    
2912.4     3.7225     3.3264     3.574      4.4186     4.5351    
2912.6     3.5722     3.3182     3.6184     4.5459     4.6161    
2912.8     2.9654     2.6867     2.9964     4.2521     4.5338    
2913       3.0144     2.6959     2.9376     3.8976     4.382     
2913.2     3.208      2.7736     3.016      3.9413     4.2621    
2913.4     3.3902     3.0818     3.2819     4.1146     4.2924    
2913.6     3.6844     3.1598     3.3783     4.2176     4.362     
2913.8     3.7175     3.2683     3.4406     4.3771     4.3917    
2914       3.5346     3.186      3.3659     4.2599     4.3998    
2914.2     3.454      3.101      3.332      4.1437     4.3373    
2914.4     2.8794     2.8171     3.1215     4.0997     4.2292    
2914.6     3.233      2.7679     3.0123     3.9707     4.169     
2914.8     3.4139     3.026      3.257      4.1227     4.2622    
2915       3.4958     3.1658     3.354      4.2046     4.4076    
2915.2     3.5957     3.1841     3.3803     4.2862     4.4018    
2915.4     3.6038     3.2895     3.5135     4.43       4.3847    
2915.6     3.676      3.3624     3.5782     4.492      4.4716    
2915.8     3.37       3.1572     3.4309     4.4489     4.4382    
2916       3.248      2.9142     3.1944     4.2119     4.3643    
2916.2     3.3496     3.0628     3.2919     4.2142     4.4064    
2916.4     3.2612     3.0042     3.2301     4.1533     4.3553    
2916.6     3.3859     2.9731     3.2475     4.1088     4.3013    
2916.8     3.5561     3.2049     3.4646     4.3116     4.3601    
2917       3.8045     3.4073     3.6719     4.5232     4.5082    
2917.2     3.7911     3.4647     3.7407     4.6187     4.6059    
2917.4     3.4507     3.2128     3.5362     4.537      4.5832    
2917.6     2.9474     2.8271     3.1697     4.2592     4.4161    
2917.8     2.9213     2.6664     3.0252     4.0163     4.3006    
2918       3.0646     2.8047     3.0951     4.0551     4.2766    
2918.2     3.3672     2.9555     3.2191     4.1949     4.3612    
2918.4     3.7774     3.4155     3.6492     4.4691     4.5578    
2918.6     3.9925     3.7016     3.8761     4.7087     4.7437    
2918.8     3.8777     3.7659     3.9404     4.7739     4.841     
2919       3.5757     3.3813     3.6625     4.6196     4.7207    
2919.2     2.9912     2.8577     3.2409     4.4039     4.4779    
2919.4     2.8729     2.7313     3.0722     4.1826     4.3351    
2919.6     2.8367     2.7386     3.0025     4.049      4.2693    
2919.8     2.9005     2.6898     2.9391     3.8792     4.1643    
2920       3.1639     2.9276     3.1637     4.0406     4.2158    
2920.2     3.3037     3.1677     3.4656     4.2916     4.3947    
2920.4     3.4694     3.1601     3.5506     4.4119     4.5412    
2920.6     3.2327     3.1903     3.4662     4.4533     4.4651    
2920.8     2.9399     2.8012     3.1186     4.1562     4.2782    
2921       2.8672     2.7245     3.0313     4.0249     4.2278    
2921.2     2.8039     2.6717     2.993      4.0432     4.2705    
2921.4     3.297      2.7573     3.0927     4.0742     4.3378    
2921.6     3.3406     3.2565     3.5584     4.4011     4.5756    
2921.8     3.2145     3.0555     3.3179     4.2694     4.5572    
2922       3.1039     3.0121     3.3268     4.2173     4.3769    
2922.2     3.0205     2.877      3.2628     4.1798     4.3394    
