~Version
 VERS              .         2.0                           : CWLS LOG ASCII STANDARD - VERSION 2.0
 WRAP              .         NO                            : ONE LINE PER DEPTH STEP
 DLM               .         SPACE                         : DELIMITING CHARACTER(SPACE TAB OR COMMA)
~Well Information
#_______________________________________________________________________________
#
#PARAMETER_NAME    .UNIT     VALUE                         : DESCRIPTION
#_______________________________________________________________________________
STRT               .m        2898                          : First reference value
STOP               .m        3121.6                        : Last reference value
STEP               .m        0.2                           : Step increment
NULL               .         -9999                         : Missing value
COMP               .                                       : Company
WELL               .         200                           : Well name
FLD                .                                       : Field
LOC                .                                       : Location
CNTY               .                                       : County
STAT               .                                       : State
CTRY               .                                       : Country
SRVC               .                                       : Service Company
DATE               .                                       : Date
API                .                                       : API number
LONG               .dega     2.052578559                   : 
HZCS               .GCS_WGS_1984 World_Mercator                : 
Cartographic_reference_system .         GCS_WGS_1984                  : 
Куст               .         2                             : 
EREF               .m        139.76                        : 
group              .         Pad2                          : 
Тип                .         Разведка                      : 
Статус             .         Не проверено                  : 
LATI               .dega     2.1856221126                  : 
Интер-р            .         Зайцев                        : 
Pad                .         2                             : 
~Parameter Information Block
#_______________________________________________________________________________
#
#PARAMETER_NAME    .UNIT     VALUE                         : DESCRIPTION
#_______________________________________________________________________________
SET                .         LAS5                          : 
REAL_CREATION_DATE .         Wed Apr 11 2012-13_17_07      : 
TLFamily_RK20      .         Resistivity 20                : 
TLFamily_RK10      .         Resistivity 10                : 
group              .         INI                           : 
TLFamily_RK05      .         Resistivity 05                : 
TLFamily_RK07      .         Resistivity 07                : 
TLFamily_RK14      .         Resistivity 14                : 
TLFamily_MD        .         Measured Depth                : 
~Curve Information
#_______________________________________________________________________________
#
#LOGNAME           .UNIT     LOG_ID                        : DESCRIPTION
#_______________________________________________________________________________
MD                 .m                                      : 1 Depth 
RK05               .Ohmm                                   : 2 ВИКИЗ, зонд 0,5 м 
RK07               .Ohmm                                   : 3 ВИКИЗ, зонд 0,7 м 
RK10               .Ohmm                                   : 4 ВИКИЗ, зонд 1 м 
RK14               .Ohmm                                   : 5 ВИКИЗ, зонд 1,4 м 
RK20               .Ohmm                                   : 6 ВИКИЗ, зонд 2 м 
~Ascii
# ...
2995       3.4675     3.2762     3.6719     4.7174     4.8911    
2995.2     3.0989     3.0805     3.5872     4.6736     4.937     
2995.4     3.5285     3.131      3.6967     4.782      5.0273    
2995.6     3.8633     3.5516     4.0837     5.2915     5.3449    
2995.8     3.9503     3.5842     4.1075     5.4778     5.718     
2996       3.7571     3.4632     4.0297     5.5429     5.9317    
2996.2     3.1596     2.8512     3.4614     5.2242     5.8857    
2996.4     7.5617     4.0851     4.7743     6.2479     6.6152    
2996.6     13.2768    11.095     10.9892    11.0145    9.368399999999999
2996.8     2.993      5.2831     5.9615     8.6951     8.944000000000001
2997       4.8198     3.2136     3.5981     5.0982     6.2263    
2997.2     22.4122    14.2606    10.0791    8.8451     6.5369    
2997.4     7.0848     7.534      7.6542     9.779400000000001 7.8377    
2997.6     4.56       4.1613     4.5922     5.9635     6.2863    
2997.8     3.7446     3.6855     4.1978     5.6781     5.807     
2998       4.557      4.2722     4.5372     5.8926     6.0506    
2998.2     4.77       5.0105     5.7197     7.0577     6.8243    
2998.4     4.5978     4.591      5.4755     7.2562     7.2054    
2998.6     4.4815     4.2863     5.0913     6.9191     6.9837    
2998.8     4.6908     4.4775     5.1936     6.9136     6.9794    
2999       4.5915     4.3326     5.0221     6.8192     7.2846    
2999.2     4.3774     4.4162     4.9086     6.6605     7.3255    
2999.4     4.0211     4.0477     4.6826     6.3291     7.038     
2999.6     3.9305     3.7582     4.1293     5.8174     6.524     
2999.8     4.2907     3.9457     4.2293     5.6543     6.3481    
3000       4.1015     3.7774     4.1175     5.4973     6.1546    
3000.2     3.8123     3.501      3.9675     5.2927     5.8425    
3000.4     4.4427     3.944      4.3744     5.6372     6.0072    
3000.6     3.9581     3.851      4.4457     5.7357     6.1429    
3000.8     4.5231     4.0245     4.4726     5.699      6.2065    
3001       4.2611     4.0017     4.5353     6.006      6.3573    
3001.2     4.1689     4.0808     4.7135     6.15       6.4457    
3001.4     4.367      4.2557     4.8688     6.2823     6.6778    
3001.6     3.9328     4.1497     4.8342     6.3918     6.7197    
3001.8     4.4857     4.369      4.9308     6.3977     6.641     
3002       4.441      4.1447     4.9099     6.57       6.9154    
3002.2     4.669      4.3948     5.0933     6.6795     7.0539    
3002.4     4.1909     4.358      5.033      6.83       7.1968    
3002.6     4.0967     4.0195     4.7085     6.4549     7.169     
3002.8     4.3058     3.864      4.3496     6.2811     7.0745    
3003       4.8219     4.3602     4.7812     6.4032     7.1836    
3003.2     4.6679     4.3286     4.9116     6.3969     7.2169    
3003.4     4.769      4.3141     4.9302     6.4441     6.9675    
3003.6     4.4508     4.2558     4.8702     6.4962     6.8226    
3003.8     4.7674     4.5126     5.0422     6.4589     6.8837    
3004       4.3951     3.9533     4.7578     6.5573     6.9327    
3004.2     5.0479     4.9803     5.5516     6.8035     7.0413    
3004.4     4.7198     4.5758     5.2773     6.9683     7.1397    
3004.6     4.2095     4.2301     4.9482     6.5394     6.7911    
3004.8     4.2976     4.2477     4.7722     6.2313     6.5471    
3005       4.0045     3.9322     4.4112     5.7532     6.3048    
3005.2     3.05       3.5252     3.9395     5.5142     6.1379    
3005.4     4.0915     3.1326     3.7199     5.3745     6.1523    
3005.6     4.791      4.1897     5.0606     7.1354     7.1542    
3005.8     5.9397     5.0733     5.3978     7.2478     8.0085    
3006       5.6289     5.6158     5.8721     7.458      8.0574    
3006.2     4.575      4.7341     5.3826     6.9669     7.6448    
3006.4     5.4086     5.038      5.6595     6.9989     7.0886    
3006.6     4.8932     4.7021     5.3577     6.9153     7.0391    
3006.8     4.6842     4.5637     5.2281     6.739      6.9985    
3007       4.6819     4.4582     5.1658     7.0033     7.1548    
3007.2     4.4034     4.4449     5.1538     7.1862     7.3919    
3007.4     4.8893     4.4195     5.1122     7.1342     7.5988    
3007.6     4.9767     4.7243     5.5132     7.3866     7.8719    
3007.8     5.2803     5.0385     5.793      8.0471     8.710100000000001
3008       4.9888     5.0102     5.923      8.874700000000001 9.701499999999999
3008.2     5.2927     5.3683     6.5534     9.690200000000001 10.6014   
3008.4     4.9978     5.312      6.31       10.347     11.9669   
3008.6     6.0344     5.9835     6.984      10.0055    12.2648   
3008.8     6.0077     6.5035     7.7238     10.5648    11.9548   
3009       5.6894     5.8907     7.0596     10.0307    10.3348   
3009.2     5.6175     5.6862     6.8325     9.473599999999999 9.852     
3009.4     5.732      5.3069     6.505      9.175100000000001 9.5221    
3009.6     5.5179     5.4664     6.4627     9.121      9.410299999999999
3009.8     4.944      4.9748     5.8688     8.7112     9.4473    
3010       5.9393     5.1111     6.0199     8.6067     9.581799999999999
3010.2     6.4018     6.144      7.0121     9.8194     10.2785   
3010.4     6.2576     6.0552     6.8809     9.6479     10.5555   
3010.6     5.6776     5.9589     6.781      9.5465     10.5023   
3010.8     5.7863     6.1748     6.9747     9.728400000000001 10.6854   
3011       5.698      6.1704     6.4858     9.308199999999999 10.6408   
3011.2     5.1362     5.7771     6.3218     8.5686     10.1802   
3011.4     5.1997     5.3268     5.88       7.8917     9.415699999999999
3011.6     6.0414     5.718      6.3409     8.4107     9.147600000000001
3011.8     6.3611     6.0946     6.8772     9.0922     9.4407    
3012       6.1686     5.9682     6.8727     9.2097     9.5861    
3012.2     6.4027     5.9721     6.7672     9.293699999999999 9.703799999999999
3012.4     6.7026     6.4535     7.1987     9.737299999999999 10.0691   
3012.6     6.1824     6.1248     6.9415     9.5761     10.1229   
3012.8     6.1789     5.9825     6.7944     9.146699999999999 9.718999999999999
3013       5.6301     5.7155     6.5327     9.020200000000001 9.6273    
3013.2     4.8404     5.2292     6.0719     8.603999999999999 9.625     
3013.4     5.118      5.0973     6.2666     9.026199999999999 10.1801   
3013.6     6.5321     6.4889     7.0521     9.8893     11.038    
3013.8     6.1394     6.5593     7.0923     9.476000000000001 11.2584   
3014       6.3821     6.2653     6.8698     9.089      10.8444   
3014.2     6.2513     6.159      6.6526     8.9582     9.672499999999999
3014.4     5.1299     5.5408     6.1562     8.267099999999999 8.8615    
3014.6     5.4088     5.3604     6.1856     8.228899999999999 8.807700000000001
3014.8     5.6257     5.5744     6.8602     9.602600000000001 9.730700000000001
3015       6.7351     6.4531     7.7189     10.2398    10.149    
3015.2     6.6007     6.4056     7.4519     10.1394    10.0135   
3015.4     5.4817     5.7053     6.2636     8.4062     8.6511    
3015.6     3.5937     4.1534     4.7173     6.679      7.269     
3015.8     3.7349     3.7509     4.2782     5.6434     6.3528    
3016       4.1248     3.6428     4.0596     5.5639     6.356     
3016.2     3.8116     3.8633     4.4431     6.0209     7.0337    
3016.4     5.3181     4.5059     4.8987     6.4573     7.3239    
3016.6     5.536      5.1722     5.6071     7.4436     7.6872    
3016.8     5.038      4.9187     5.4736     7.0853     7.6742    
3017       5.2378     5.1569     5.6902     7.0631     7.5673    
3017.2     4.956      4.6613     5.366      6.745      7.0114    
3017.4     4.5621     4.7903     5.3011     6.5762     6.7392    
3017.6     3.9937     3.467      4.0403     5.7406     6.032     
3017.8     3.7047     3.7906     4.2198     5.5583     5.7465    
3018       3.8458     3.2928     3.8432     5.4829     6.0097    
3018.2     4.7051     4.0068     4.2922     6.0182     6.6395    
3018.4     3.9855     3.936      4.3186     5.9241     6.8018    
3018.6     4.9317     4.1173     4.5744     5.8903     6.8737    
