~Version
 VERS              .         2.0                           : CWLS LOG ASCII STANDARD - VERSION 2.0
 WRAP              .         NO                            : ONE LINE PER DEPTH STEP
 DLM               .         SPACE                         : DELIMITING CHARACTER(SPACE TAB OR COMMA)
~Well Information
#_______________________________________________________________________________
#
#PARAMETER_NAME    .UNIT     VALUE                         : DESCRIPTION
#_______________________________________________________________________________
STRT               .m        2898                          : First reference value
STOP               .m        3121.6                        : Last reference value
STEP               .m        0.2                           : Step increment
NULL               .         -9999                         : Missing value
COMP               .                                       : Company
WELL               .         200                           : Well name
FLD                .                                       : Field
LOC                .                                       : Location
CNTY               .                                       : County
STAT               .                                       : State
CTRY               .                                       : Country
SRVC               .                                       : Service Company
DATE               .                                       : Date
API                .                                       : API number
LONG               .dega     2.052578559                   : 
HZCS               .GCS_WGS_1984 World_Mercator                : 
Cartographic_reference_system .         GCS_WGS_1984                  : 
Куст               .         2                             : 
EREF               .m        139.76                        : 
group              .         Pad2                          : 
Тип                .         Разведка                      : 
Статус             .         Не проверено                  : 
LATI               .dega     2.1856221126                  : 
Интер-р            .         Зайцев                        : 
Pad                .         2                             : 
~Parameter Information Block
#_______________________________________________________________________________
#
#PARAMETER_NAME    .UNIT     VALUE                         : DESCRIPTION
#_______________________________________________________________________________
SET                .         LAS5                          : 
REAL_CREATION_DATE .         Wed Apr 11 2012-13_17_07      : 
TLFamily_RK20      .         Resistivity 20                : 
TLFamily_RK10      .         Resistivity 10                : 
group              .         INI                           : 
TLFamily_RK05      .         Resistivity 05                : 
TLFamily_RK07      .         Resistivity 07                : 
TLFamily_RK14      .         Resistivity 14                : 
TLFamily_MD        .         Measured Depth                : 
~Curve Information
#_______________________________________________________________________________
#
#LOGNAME           .UNIT     LOG_ID                        : DESCRIPTION
#_______________________________________________________________________________
MD                 .m                                      : 1 Depth 
RK05               .Ohmm                                   : 2 ВИКИЗ, зонд 0,5 м 
RK07               .Ohmm                                   : 3 ВИКИЗ, зонд 0,7 м 
RK10               .Ohmm                                   : 4 ВИКИЗ, зонд 1 м 
RK14               .Ohmm                                   : 5 ВИКИЗ, зонд 1,4 м 
RK20               .Ohmm                                   : 6 ВИКИЗ, зонд 2 м 
~Ascii
# ...
3067       11.8439    12.3001    12.8265    18.7031    13.7447   
3067.2     9.742      9.3956     9.0718     13.6025    12.1162   
3067.4     2.8936     4.4951     5.5371     9.612399999999999 14.2657   
3067.6     3.5771     3.3973     4.489      7.6672     8.059699999999999
3067.8     3.3104     3.4619     4.2878     7.7874     7.5556    
3068       3.3526     3.5043     4.4436     7.3358     8.7493    
3068.2     3.7897     3.3857     4.8586     7.46       9.4831    
3068.4     3.6728     3.4361     4.8129     7.9821     9.0322    
3068.6     3.5519     3.5037     4.8837     7.3763     8.690899999999999
3068.8     3.9423     4.1392     5.1952     7.1458     8.6152    
3069       4.8355     4.1567     4.9018     7.1827     7.9549    
3069.2     4.2743     4.2188     4.7448     6.8231     7.3193    
3069.4     3.9879     3.9677     4.554      6.1046     7.8696    
3069.6     4.8239     4.083      4.8762     6.208      6.7628    
3069.8     5.2695     5.0814     5.0093     6.2755     6.2864    
3070       3.7613     3.7946     3.6808     4.9516     5.4119    
3070.2     3.9102     1.434      2.2632     3.511      4.6399    
3070.4     3.9428     4.8119     4.8859     5.2734     5.3754    
3070.6     2.6649     2.7015     3.242      4.5919     5.5899    
3070.8     3.9161     4.1858     3.9538     5.133      5.9134    
3071       4.2787     4.6208     4.6563     6.2557     7.0091    
3071.2     5.8403     5.4791     5.9726     7.1995     7.7147    
3071.4     6.0936     6.3188     6.5569     8.519500000000001 8.645300000000001
3071.6     5.7109     5.0559     5.4088     6.8297     7.1952    
3071.8     4.5405     4.705      4.8542     5.7402     6.2925    
3072       4.0527     3.8995     4.2138     5.6542     5.5856    
3072.2     4.7535     4.3519     4.8277     5.8572     5.5427    
3072.4     4.0234     3.7511     4.258      5.6596     6.011     
3072.6     3.7258     3.613      3.7545     5.1874     5.4756    
3072.8     3.5564     3.3019     3.7387     4.7581     5.3427    
3073       3.9806     3.5701     3.9704     5.4678     5.8899    
3073.2     4.022      3.9962     4.3205     5.7603     6.1067    
3073.4     4.7257     4.1609     4.5308     5.681      6.4694    
3073.6     4.632      4.0914     4.4851     5.9421     6.7582    
3073.8     3.9574     4.1562     4.513      6.1207     6.4743    
3074       3.9546     3.8209     4.7727     6.3311     6.9104    
3074.2     3.086      3.7112     4.7597     6.5021     7.3241    
3074.4     4.4504     4.5004     5.0559     7.1735     7.1711    
3074.6     4.3474     4.3188     5.183      6.8605     7.134     
3074.8     3.8088     4.0227     4.4227     6.5767     7.2815    
3075       4.5747     2.9336     3.9462     6.5972     7.0562    
3075.2     6.0637     5.7813     6.6095     7.4819     7.5799    
3075.4     4.7431     5.2201     5.6012     8.0421     8.237500000000001
3075.6     4.0871     4.0003     4.306      5.3874     6.3328    
3075.8     3.6933     3.3837     3.6979     5.1667     5.9209    
3076       4.3697     4.3304     4.9216     6.4849     6.7644    
3076.2     4.6184     4.4555     5.1678     6.8317     7.3729    
3076.4     4.3395     3.7668     4.1836     5.8886     6.5098    
3076.6     5.4258     4.9257     4.8872     5.7635     6.2257    
3076.8     4.9173     4.8153     4.7209     5.8505     5.9631    
3077       3.7429     3.9343     4.1909     5.2027     5.3659    
3077.2     3.3389     3.2382     3.7297     4.9037     5.2577    
3077.4     4.1996     4.0103     4.2913     5.6362     5.9599    
3077.6     4.6769     4.0357     4.6146     5.8296     6.2382    
3077.8     5.0198     4.8105     5.22       6.7268     7.1035    
3078       5.1518     4.8749     5.5606     6.9941     7.2434    
3078.2     4.6226     4.784      5.1495     6.9094     7.4762    
3078.4     4.9267     4.5684     5.285      6.7493     7.0743    
3078.6     4.1779     4.6927     5.186      6.779      7.0763    
3078.8     5.852      5.07       5.5313     7.0495     7.34      
3079       5.0682     5.2385     5.9505     7.522      7.3567    
3079.2     4.6023     4.6241     5.1846     7.1171     7.4899    
3079.4     4.1052     4.3123     4.8711     6.2076     6.631     
3079.6     5.2996     4.4161     4.6914     6.21       6.7577    
3079.8     4.8663     4.67       5.0464     6.4784     6.5995    
3080       3.4978     3.7726     4.3296     6.1325     6.7176    
3080.2     4.3252     3.8098     4.4049     5.4729     6.1996    
3080.4     3.998      4.248      4.5614     5.6712     6.2304    
3080.6     4.5186     4.0392     4.2423     5.5044     6.1107    
3080.8     4.7927     4.5165     4.9057     6.0034     6.3113    
3081       4.5472     4.5566     4.9914     6.0663     6.2169    
3081.2     4.8365     4.6518     5.1406     6.2413     6.431     
3081.4     4.8712     4.7361     5.2423     6.3086     6.462     
3081.6     5.3139     4.8596     5.2203     6.5331     6.5931    
3081.8     5.6016     5.2092     5.3874     6.5973     6.6391    
3082       4.725      4.5169     5.1647     6.577      6.7257    
3082.2     4.7756     4.6618     5.2217     6.3874     6.7322    
3082.4     5.0754     4.7375     5.3853     6.8004     6.9331    
3082.6     5.0978     5.0075     5.34       6.5762     6.7411    
3082.8     4.8408     4.857      5.176      6.3764     7.0794    
3083       4.1303     5.0208     5.164      6.5727     7.0132    
3083.2     4.5409     4.1291     4.7108     6.7114     7.5498    
3083.4     5.0285     4.8157     5.7465     7.9819     8.235799999999999
3083.6     5.9288     5.0775     6.3741     8.7599     10.0686   
3083.8     8.8069     7.9818     8.279400000000001 11.6167    12.4802   
3084       3.6217     5.2937     7.1367     11.192     12.9975   
3084.2     7.8843     8.8789     8.853300000000001 11.6449    13.2687   
3084.4     4.4042     4.9547     5.7899     8.2342     10.0938   
3084.6     0.1001     0.4708     0.7014     2.1601     4.5337    
3084.8     100000000.0000000 80000000.0000000 80000000   80000000   18.8963   
3085       3.5376     20000012.0000000 20000064   100000000  2988.098  
3085.2     6.7344     16.3845    27.7482    78.15649999999999 2082.812  
3085.4     5.674      4.219      15.1142    30.6136    26.3976   
3085.6     4.318      4.0305     6.0353     14.7253    18.424    
3085.8     7.0639     6.5933     7.4184     15.8853    16.4578   
3086       6.9243     6.1384     6.8633     12.1572    15.5657   
3086.2     5.2621     4.9038     5.5269     7.4409     10.1001   
3086.4     5.1316     5.0181     5.1468     6.6693     8.3956    
3086.6     3.8546     4.1368     4.1551     5.4518     6.1256    
3086.8     3.4184     3.1212     3.3174     4.236      4.7301    
3087       2.8641     2.8256     3.0458     3.9        4.3126    
3087.2     2.7008     2.5644     2.8411     3.4202     3.766     
3087.4     2.3433     2.3208     2.4647     3.1729     3.5276    
3087.6     1.919      1.9046     2.1965     2.8668     3.2313    
3087.8     2.3697     2.1938     2.4856     3.0088     3.2899    
3088       2.8337     2.454      2.6789     3.2776     3.62      
3088.2     2.9133     2.745      3.079      3.6103     4.0098    
3088.4     3.5152     3.0968     3.0583     3.651      4.0892    
3088.6     2.4262     2.3114     2.6937     3.4283     3.9166    
3088.8     3.6347     3.1035     3.4369     3.9756     3.9318    
3089       4.637      4.173      4.3153     4.773      4.5537    
3089.2     4.1352     3.9102     4.5166     4.8827     4.6448    
3089.4     3.0119     2.9789     3.3451     4.3975     4.4097    
3089.6     3.0303     3.1044     3.4443     4.2569     4.258     
3089.8     3.3754     3.3771     3.5968     4.3099     4.6009    
3090       3.7054     3.3866     3.7325     4.5238     4.418     
3090.2     3.4679     3.3453     3.6085     4.0426     4.2519    
3090.4     3.0376     2.9184     3.1135     3.7883     4.0357    
3090.6     2.8257     2.6479     2.9284     3.4392     3.6575    
3090.8     2.535      2.3975     2.747      3.336      3.459     
