~Version
 VERS              .         2.0                           : CWLS LOG ASCII STANDARD - VERSION 2.0
 WRAP              .         NO                            : ONE LINE PER DEPTH STEP
 DLM               .         SPACE                         : DELIMITING CHARACTER(SPACE TAB OR COMMA)
~Well Information
#_______________________________________________________________________________
#
#PARAMETER_NAME    .UNIT     VALUE                         : DESCRIPTION
#_______________________________________________________________________________
STRT               .m        2898                          : First reference value
STOP               .m        3121.6                        : Last reference value
STEP               .m        0.2                           : Step increment
NULL               .         -9999                         : Missing value
COMP               .                                       : Company
WELL               .         200                           : Well name
FLD                .                                       : Field
LOC                .                                       : Location
CNTY               .                                       : County
STAT               .                                       : State
CTRY               .                                       : Country
SRVC               .                                       : Service Company
DATE               .                                       : Date
API                .                                       : API number
LONG               .dega     2.052578559                   : 
HZCS               .GCS_WGS_1984 World_Mercator                : 
Cartographic_reference_system .         GCS_WGS_1984                  : 
Куст               .         2                             : 
EREF               .m        139.76                        : 
group              .         Pad2                          : 
Тип                .         Разведка                      : 
Статус             .         Не проверено                  : 
LATI               .dega     2.1856221126                  : 
Интер-р            .         Зайцев                        : 
Pad                .         2                             : 
~Parameter Information Block
#_______________________________________________________________________________
#
#PARAMETER_NAME    .UNIT     VALUE                         : DESCRIPTION
#_______________________________________________________________________________
SET                .         LAS3                          : 
TLFamily_GGKB      .         Density Large                 : 
REAL_CREATION_DATE .         Wed Apr 11 2012-13_17_06      : 
TLFamily_GGK       .         Bulk Density                  : 
TLFamily_GGKS      .         Density Small                 : 
group              .         INI                           : 
TLFamily_MD        .         Measured Depth                : 
~Curve Information
#_______________________________________________________________________________
#
#LOGNAME           .UNIT     LOG_ID                        : DESCRIPTION
#_______________________________________________________________________________
MD                 .m                                      : 1 Depth 
GGK                .g/cm3                                  : 4 Объемная плотность по ГГК-П 
GGKB               .imp/min                                : 2 Большой зонд плотностного гамма-гамма каротажа ГГК-П 
GGKS               .imp/min                                : 3 Малый зонд плотностного гамма-гамма каротажа ГГК-П 
~Ascii
# ...
3043.6     2.3948     18597.87   28357.91  
3043.8     2.4175     18380.23   28515.83  
3044       2.4405     18374.07   29098.96  
3044.2     2.4498     18674.88   29645.37  
3044.4     2.5107     18085.19   30057.12  
3044.6     2.4818     18106.99   29612.34  
3044.8     2.4797     18050.22   29405.4   
3045       2.4787     18205.95   29629.71  
3045.2     2.452      18188.07   29072.83  
3045.4     2.4486     18249.14   28969.26  
3045.6     2.4813     17796.74   28841.88  
3045.8     2.4578     17571.17   28260.62  
3046       2.4563     17811.82   28485.77  
3046.2     2.503      17518.56   28889.82  
3046.4     2.5497     16975.55   28925.28  
3046.6     2.6364     16138.92   29605.69  
3046.8     2.6504     17118.05   31715.42  
3047       2.5281     17504.95   29615.67  
3047.2     2.5258     17554.8    29747.24  
3047.4     2.5325     18340.46   31512.86  
3047.6     2.6062     18859.84   33635.45  
3047.8     2.6141     17792.47   32170.72  
3048       2.5938     17080.58   30077.59  
3048.2     2.5849     16367.71   28831.69  
3048.4     2.581      16624.67   29642.32  
3048.6     2.5331     18087.87   31282.01  
3048.8     2.5298     19470.82   33316.36  
3049       2.5484     20024.99   34185.14  
3049.2     2.5434     19290.66   32948.13  
3049.4     2.5356     19005.9    32073.79  
3049.6     2.5515     18272.76   31234.88  
3049.8     2.5455     17477.53   29739.31  
3050       2.5273     17155.42   28994.61  
3050.2     2.5005     17401.45   28951.36  
3050.4     2.5519     17502.93   29859.41  
3050.6     2.6148     16453.82   29549.92  
3050.8     2.617      16306.83   29602.6   
3051       2.6549     16680.74   31238.69  
3051.2     2.7126     16606.71   32084.07  
3051.4     2.6227     15968.35   28991.87  
3051.6     2.6225     16293.65   29930.37  
3051.8     2.6274     17228.2    31808.4   
3052       2.5806     18116.53   32050.34  
3052.2     2.5512     18444.1    31957.32  
3052.4     2.5201     19741.88   32971.87  
3052.6     2.4892     21041.84   34653.74  
3052.8     2.4795     20967.93   34175.18  
3053       2.4458     21063.69   33444.99  
3053.2     2.459      21210.35   34109.63  
3053.4     2.4795     21383.86   34779.82  
3053.6     2.4988     20946.48   34542.38  
3053.8     2.4791     20790.34   33721.63  
3054       2.489      20234.34   32990.26  
3054.2     2.4928     19271.53   31367     
3054.4     2.5219     18601.62   31180.8   
3054.6     2.5267     17971.26   30022.56  
3054.8     2.5262     16845.95   28190.43  
3055       2.5441     16710.11   29061.41  
3055.2     2.5412     17649.59   30601.98  
3055.4     2.5522     18864.48   32787.64  
3055.6     2.5494     19641.8    33966.87  
3055.8     2.5799     19880.27   34989.28  
3056       2.6226     19820.83   35954.59  
3056.2     2.5624     19554.93   33888.04  
3056.4     2.53       19626.87   33385.73  
3056.6     2.5232     19845.28   33349.44  
3056.8     2.5374     19422.15   32886.88  
3057       2.5127     19178.43   32240.08  
3057.2     2.4928     19676.08   32394.22  
3057.4     2.5121     19819.96   33200.54  
3057.6     2.5114     20011.38   33451.99  
3057.8     2.5229     19757.12   33112.43  
3058       2.4844     19580.94   32097.41  
3058.2     2.4888     19883.6    32672.78  
3058.4     2.5453     19690.3    33546.08  
3058.6     2.5953     19137.74   34021.65  
3058.8     2.5593     19258.11   33347.83  
3059       2.5567     19041.77   32969.04  
3059.2     2.5618     19256.45   34003.71  
3059.4     2.5907     19778.24   35246.52  
3059.6     2.6119     20251.11   36713.6   
3059.8     2.5156     20474.85   34295.96  
3060       2.4922     20489.7    33577.57  
3060.2     2.4975     19892.19   32716.88  
3060.4     2.4845     19604.15   31952.38  
3060.6     2.5137     18861.27   31179.4   
3060.8     2.5463     18086.87   30939.4   
3061       2.5568     18346.89   32008.8   
3061.2     2.5287     19597.64   33570.28  
3061.4     2.5195     20792.77   35268.12  
3061.6     2.4562     21426.92   34231.4   
3061.8     2.4284     21509.08   33738.73  
3062       2.4615     21056.99   33628.11  
3062.2     2.4352     20884.15   32942.22  
3062.4     2.4626     20862.3    33411.11  
3062.6     2.5035     20387.31   33772.29  
3062.8     2.515      20146.16   33626.05  
3063       2.4759     20098.26   32731.81  
3063.2     2.4701     20231.73   32783.8   
3063.4     2.4571     20717.23   33375.66  
3063.6     2.4615     21285.78   34329.06  
3063.8     2.4616     21132.94   33619.8   
3064       2.4879     19865.97   32250.04  
3064.2     2.487      19352.02   31842.49  
3064.4     2.4483     20202.61   32511.11  
3064.6     2.4073     21222.61   32795.81  
3064.8     2.4339     20915.22   32669.94  
3065       2.4716     20489.57   33193.44  
3065.2     2.4817     20185.5    32593.75  
3065.4     2.5355     18873.96   31685.9   
3065.6     2.5692     17638.23   30205.97  
3065.8     2.6254     16181.94   29345.74  
3066       2.6094     16484.3    29888.24  
3066.2     2.5757     15940.58   27610.71  
3066.4     2.5388     15122.74   25583.04  
3066.6     2.5154     14813.32   24777.04  
3066.8     2.5228     14677.77   24642.97  
3067       2.5252     14809.49   25233.54  
3067.2     2.5135     15658.2    26574.78  
3067.4     2.4889     17179.52   28678.36  
3067.6     2.4665     17804.89   28493.8   
3067.8     2.4557     16762.96   26498.8   
3068       2.5134     16052.12   26804.82  
3068.2     2.5156     16245.14   27337.92  
3068.4     2.5439     16084.25   27159.04  
3068.6     2.4873     15399.35   25379.32  
3068.8     2.4746     16110.15   26378.64  
3069       2.5086     16821.34   28304.36  
3069.2     2.4995     17531.96   29084.72  
3069.4     2.4881     17554.44   28706.76  
3069.6     2.4588     17152.64   27448.67  
3069.8     2.4629     17328.72   28072.26  
3070       2.4667     18012.38   29220.37  
3070.2     2.5295     18328.38   31147     
3070.4     2.3676     19122.73   29094.92  
3070.6     2.2231     21423.04   29559.57  
3070.8     1.9367     29227.88   33128.91  
3071       1.7507     39283.14   38709.92  
3071.2     1.7436     46801.25   42048.4   
3071.4     1.8173     41247.65   38726.61  
3071.6     2.0964     31423.56   33331.81  
3071.8     2.3678     20958.02   28789.77  
3072       2.4948     16407.51   26999.59  
3072.2     2.531      16646.42   28921.8   
3072.4     2.5639     17199.24   29913.65  
3072.6     2.5988     17135.35   30719.69  
3072.8     2.602      17692.21   31760.96  
3073       2.6899     17462.19   33306.82  
3073.2     2.5927     17517.69   31300.47  
3073.4     2.5561     18107.93   31452.69  
3073.6     2.4842     18262.06   29762.73  
3073.8     2.4749     18004.44   28629.7   
3074       2.4752     17707.84   28547.05  
3074.2     2.4553     17306.49   27610.7   
3074.4     2.4559     17019.46   27160.9   
3074.6     2.4665     16714.87   26757.31  
3074.8     2.4936     16195.64   26661.61  
3075       2.4712     16401.9    26630.21  
3075.2     2.4517     16541.24   26486.92  
3075.4     2.4001     17244.53   26457.65  
3075.6     2.4247     17240.13   26868.89  
3075.8     2.4944     16828.89   27668.73  
3076       2.4769     17111.62   27935.76  
3076.2     2.4394     17012.44   26767.74  
3076.4     2.4323     16721.11   26211.65  
3076.6     2.4492     16596.88   26429.22  
3076.8     2.4477     16743.16   26711.35  
3077       2.4657     17135.76   27831.3   
3077.2     2.4816     17803.84   29186.15  
3077.4     2.4866     17930.24   29345.61  
3077.6     2.446      17815.22   28205.48  
3077.8     2.4406     17611.43   27840.24  
3078       2.442      17587.68   27916.95  
3078.2     2.4119     18257.9    28488.85  
3078.4     2.4322     18647.44   29240.15  
3078.6     2.4871     18282.61   29849.69  
3078.8     2.4832     18069.58   29499.76  
3079       2.4719     17875.29   28854.56  
3079.2     2.4743     17674.05   28654.97  
3079.4     2.4614     17492.24   27973.87  
3079.6     2.4717     17135.95   27773.6   
3079.8     2.5006     17486.39   29111.32  
