~Version
 VERS              .         2.0                           : CWLS LOG ASCII STANDARD - VERSION 2.0
 WRAP              .         NO                            : ONE LINE PER DEPTH STEP
 DLM               .         SPACE                         : DELIMITING CHARACTER(SPACE TAB OR COMMA)
~Well Information
#_______________________________________________________________________________
#
#PARAMETER_NAME    .UNIT     VALUE                         : DESCRIPTION
#_______________________________________________________________________________
STRT               .m        2898                          : First reference value
STOP               .m        3121.6                        : Last reference value
STEP               .m        0.2                           : Step increment
NULL               .         -9999                         : Missing value
COMP               .                                       : Company
WELL               .         200                           : Well name
FLD                .                                       : Field
LOC                .                                       : Location
CNTY               .                                       : County
STAT               .                                       : State
CTRY               .                                       : Country
SRVC               .                                       : Service Company
DATE               .                                       : Date
API                .                                       : API number
LONG               .dega     2.052578559                   : 
HZCS               .GCS_WGS_1984 World_Mercator                : 
Cartographic_reference_system .         GCS_WGS_1984                  : 
Куст               .         2                             : 
EREF               .m        139.76                        : 
group              .         Pad2                          : 
Тип                .         Разведка                      : 
Статус             .         Не проверено                  : 
LATI               .dega     2.1856221126                  : 
Интер-р            .         Зайцев                        : 
Pad                .         2                             : 
~Parameter Information Block
#_______________________________________________________________________________
#
#PARAMETER_NAME    .UNIT     VALUE                         : DESCRIPTION
#_______________________________________________________________________________
SET                .         LAS3                          : 
TLFamily_GGKB      .         Density Large                 : 
REAL_CREATION_DATE .         Wed Apr 11 2012-13_17_06      : 
TLFamily_GGK       .         Bulk Density                  : 
TLFamily_GGKS      .         Density Small                 : 
group              .         INI                           : 
TLFamily_MD        .         Measured Depth                : 
~Curve Information
#_______________________________________________________________________________
#
#LOGNAME           .UNIT     LOG_ID                        : DESCRIPTION
#_______________________________________________________________________________
MD                 .m                                      : 1 Depth 
GGK                .g/cm3                                  : 4 Объемная плотность по ГГК-П 
GGKB               .imp/min                                : 2 Большой зонд плотностного гамма-гамма каротажа ГГК-П 
GGKS               .imp/min                                : 3 Малый зонд плотностного гамма-гамма каротажа ГГК-П 
~Ascii
# ...
2970.8     2.4985     17094.8    28248.34  
2971       2.4821     17156.34   28061.75  
2971.2     2.4745     17391.42   28394.44  
2971.4     2.4786     17875.16   29201.49  
2971.6     2.4753     18140.08   29433.77  
2971.8     2.5314     17690.15   29841.76  
2972       2.5112     17363.75   28868.42  
2972.2     2.4775     17156.45   27907.92  
2972.4     2.4817     17207.06   28138.66  
2972.6     2.4616     17406.98   28033.38  
2972.8     2.4699     17329.45   27915.43  
2973       2.4545     17195.61   27558.78  
2973.2     2.4278     17486.56   27464.66  
2973.4     2.4145     17679.82   27362.86  
2973.6     2.473      17293.38   27846.76  
2973.8     2.5482     16575.67   28221.19  
2974       2.5582     16163.08   27975.88  
2974.2     2.5203     16383.63   27622.88  
2974.4     2.5218     16646.55   27880.44  
2974.6     2.488      17036.21   27883.44  
2974.8     2.5264     16279.54   27237.18  
2975       2.5124     16175.23   27170.49  
2975.2     2.5055     16433.39   27272.9   
2975.4     2.5508     16024.76   27422.44  
2975.6     2.5203     16066.01   27201.98  
2975.8     2.4829     16427.61   26785.53  
2976       2.5        16436.68   27365.07  
2976.2     2.4993     16651.08   27426.97  
2976.4     2.5087     16329.79   27173.38  
2976.6     2.5265     16289.48   27542.13  
2976.8     2.5347     16482.3    28028.43  
2977       2.5637     16149.77   27931.69  
2977.2     2.5408     16060.16   27481.3   
2977.4     2.5296     16273.42   27672.49  
2977.6     2.4881     16794.9    27740.46  
2977.8     2.4714     17039.62   27540.94  
2978       2.4831     16912.72   27618.77  
2978.2     2.4839     16964.98   27726.44  
2978.4     2.503      16787.85   27813.77  
2978.6     2.5053     16660.82   27574.21  
2978.8     2.5264     16329.93   27559.17  
2979       2.5301     16250.64   27321.34  
2979.2     2.5579     15788.06   27361.91  
2979.4     2.5217     16228.26   27523.44  
2979.6     2.5289     16630.85   28189.9   
2979.8     2.5335     16741.31   28486.12  
2980       2.4895     17169.19   28335.62  
2980.2     2.4992     17051.81   27982.19  
2980.4     2.4997     16595.81   27378.98  
2980.6     2.5338     16243.83   27567.35  
2980.8     2.5266     16440.62   27827.39  
2981       2.5535     16623.75   28774.04  
2981.2     2.5778     16862.46   29708.4   
2981.4     2.6184     17235.5    31413.9   
2981.6     2.6427     17828.64   33160.04  
2981.8     2.5435     18127.62   30947.5   
2982       2.472      17977.7    29116.31  
2982.2     2.5325     17602.18   29722.54  
2982.4     2.5323     17410.59   29477.03  
2982.6     2.5456     17165.05   29355.01  
2982.8     2.5718     17193.04   30235.13  
2983       2.5638     17777.47   30950.39  
2983.2     2.5529     17465.36   30059     
2983.4     2.5122     17640.99   29494.16  
2983.6     2.525      17986.36   30423.35  
2983.8     2.5818     17450.24   30513.91  
2984       2.5639     17163.21   29927.35  
2984.2     2.5458     17596.3    30290.98  
2984.4     2.4934     17845.08   29373.89  
2984.6     2.4955     17606.91   29023.97  
2984.8     2.4844     17842.35   29211.65  
2985       2.4769     17589.32   28456.4   
2985.2     2.4863     17378.4    28566.01  
2985.4     2.4681     17704.75   28539.85  
2985.6     2.4711     17326.83   27983.91  
2985.8     2.4799     17331.91   28355.01  
2986       2.4491     17868.4    28550.82  
2986.2     2.4477     18047.79   28838.24  
2986.4     2.4071     18799.08   29066.39  
2986.6     2.4749     18279.34   29470.59  
2986.8     2.4623     18230.6    29517.68  
2987       2.4585     18914.46   30407.84  
2987.2     2.463      18961.72   30553.28  
2987.4     2.4758     19264.94   31408.19  
2987.6     2.4721     19468.37   31509.19  
2987.8     2.4738     19136.62   30949.58  
2988       2.4643     19147.33   30891.03  
2988.2     2.4388     19433.2    30861.12  
2988.4     2.4312     19699.23   30859.72  
2988.6     2.4874     19594.46   32241.28  
2988.8     2.5258     20087.14   33938.75  
2989       2.5386     19913.73   33872.37  
2989.2     2.4171     19585.65   30256.81  
2989.4     2.4541     18942.28   30088.96  
2989.6     2.4739     18727.94   30493.43  
2989.8     2.4535     19283.68   30984.21  
2990       2.4728     19683.87   31958.85  
2990.2     2.5456     19866.86   34225.48  
2990.4     2.5619     20373.96   35426.81  
2990.6     2.5439     20431.86   35028.29  
2990.8     2.4268     20515.94   32096.35  
2991       2.3668     21092.36   31933.88  
2991.2     2.3333     21917.12   31774.78  
2991.4     2.4127     21265.57   32901.04  
2991.6     2.4158     21841.03   34181.95  
2991.8     2.4282     22145.84   34487.27  
2992       2.4249     21648.26   33772.93  
2992.2     2.4228     21179.02   32737.24  
2992.4     2.4369     20178.73   31590.34  
2992.6     2.4805     19649.87   31894.96  
2992.8     2.4175     19329.61   29923.39  
2993       2.4545     18695.63   29726.4   
2993.2     2.4646     18523.06   29858.24  
2993.4     2.497      18706.04   30866.18  
2993.6     2.5318     18113.76   30453.24  
2993.8     2.5523     17740.01   30616     
2994       2.5219     17949.46   30291.88  
2994.2     2.5588     18292.92   31895.32  
2994.4     2.5624     19202.36   33717.63  
2994.6     2.4001     20031.43   30863.37  
2994.8     2.3475     20558.66   30388.77  
2995       2.3497     20703.82   30554.4   
2995.2     2.3282     20945.44   30434.5   
2995.4     2.3571     20911.05   31022.32  
2995.6     2.3542     21235.19   31666.06  
2995.8     2.3375     21878.66   31829.08  
2996       2.3787     20770.23   30913.5   
2996.2     2.3608     19513.41   28652.32  
2996.4     2.3793     17941.4    26513.88  
2996.6     2.4385     16830.22   26742.53  
2996.8     2.4059     18352.03   29053.29  
2997       2.3086     21558.66   31807.97  
2997.2     2.2847     24511.88   34927.53  
2997.4     2.3514     25294.17   37126.89  
2997.6     2.3853     24338.17   36605.09  
2997.8     2.4004     23790.61   36436.41  
2998       2.3801     23632.52   35659.09  
2998.2     2.3236     23964.86   34809.03  
2998.4     2.3118     24082.98   34373.55  
2998.6     2.3275     23612.31   34071.81  
2998.8     2.3404     22908.61   33343.63  
2999       2.3203     22450.18   32291.18  
2999.2     2.3581     22238.16   33017.13  
2999.4     2.3585     22236.07   33111.27  
2999.6     2.3005     23283.23   33526.72  
2999.8     2.3082     24393.2    34809.36  
3000       2.3352     23911.87   34821.94  
3000.2     2.3232     24090.87   34942.35  
3000.4     2.3319     24651.99   36046.81  
3000.6     2.2969     25002.48   35325.81  
3000.8     2.3292     24460.37   35333.19  
3001       2.2929     24077.34   34086.29  
3001.2     2.2457     24673.34   33718.66  
3001.4     2.2224     24780.37   33115.41  
3001.6     2.2419     24634.44   33392.27  
3001.8     2.2471     24634.25   33534.5   
3002       2.2484     24741.65   33968.77  
3002.2     2.2807     25072.69   34996.58  
3002.4     2.2956     24855.01   35145.59  
3002.6     2.3046     24837.9    35415.94  
3002.8     2.2896     25077.21   35455.18  
3003       2.2751     25504.14   35514.16  
3003.2     2.2538     25378.48   34739.29  
3003.4     2.2784     25018.85   34709.89  
3003.6     2.332      23973.23   34583.54  
3003.8     2.3513     23351.79   34269.87  
3004       2.3979     22419.71   34145.5   
3004.2     2.4082     22239.92   34405.92  
3004.4     2.3745     22910.04   34631.89  
3004.6     2.3399     23189.28   33929.63  
3004.8     2.3656     23135.08   34560.5   
3005       2.3534     23494.96   34919.58  
3005.2     2.3391     23898.28   35101.36  
3005.4     2.3098     24425.34   34960.63  
3005.6     2.3114     24295.17   34704.1   
3005.8     2.3071     23952.99   34142.18  
3006       2.3028     23845.81   33848.77  
3006.2     2.3714     22640.45   33264.5   
3006.4     2.4047     21195.07   32600.64  
3006.6     2.3475     21444.56   31514.98  
3006.8     2.3459     21288.66   31237.15  
3007       2.3894     20949.88   31803.85  
