~Version
 VERS              .         2.0                           : CWLS LOG ASCII STANDARD - VERSION 2.0
 WRAP              .         NO                            : ONE LINE PER DEPTH STEP
 DLM               .         SPACE                         : DELIMITING CHARACTER(SPACE TAB OR COMMA)
~Well Information
#_______________________________________________________________________________
#
#PARAMETER_NAME    .UNIT     VALUE                         : DESCRIPTION
#_______________________________________________________________________________
STRT               .m        2898                          : First reference value
STOP               .m        3121.6                        : Last reference value
STEP               .m        0.2                           : Step increment
NULL               .         -9999                         : Missing value
COMP               .                                       : Company
WELL               .         200                           : Well name
FLD                .                                       : Field
LOC                .                                       : Location
CNTY               .                                       : County
STAT               .                                       : State
CTRY               .                                       : Country
SRVC               .                                       : Service Company
DATE               .                                       : Date
API                .                                       : API number
LONG               .dega     2.052578559                   : 
HZCS               .GCS_WGS_1984 World_Mercator                : 
Cartographic_reference_system .         GCS_WGS_1984                  : 
Куст               .         2                             : 
EREF               .m        139.76                        : 
group              .         Pad2                          : 
Тип                .         Разведка                      : 
Статус             .         Не проверено                  : 
LATI               .dega     2.1856221126                  : 
Интер-р            .         Зайцев                        : 
Pad                .         2                             : 
~Parameter Information Block
#_______________________________________________________________________________
#
#PARAMETER_NAME    .UNIT     VALUE                         : DESCRIPTION
#_______________________________________________________________________________
SET                .         LAS4                          : 
TLFamily_GR        .         Russian Gamma Ray             : 
REAL_CREATION_DATE .         Wed Apr 11 2012-13_17_06      : 
TLFamily_NKTb      .         Neutron Far                   : 
TLFamily_NKTs      .         Neutron Near                  : 
group              .         INI                           : 
TLFamily_TNPH      .         Neutron Porosity              : 
TLFamily_MD        .         Measured Depth                : 
~Curve Information
#_______________________________________________________________________________
#
#LOGNAME           .UNIT     LOG_ID                        : DESCRIPTION
#_______________________________________________________________________________
MD                 .m                                      : 1 Depth 
GR                 .uR/h                                   : 5 Естественная гамма-активность породы по гамма-каротажу 
NKTb               .UE                                     : 2 ННК-т, большой зонд 
NKTs               .UE                                     : 3 ННК-т, малый зонд 
TNPH               .v/v                                    : 4 Суммарное водородосодержание 
~Ascii
# ...
3102.4     11.7027    6.3891     1.5489     0.185446  
3102.6     11.57      6.1314     1.5028     0.188552  
3102.8     10.7587    5.7745     1.4505     0.194343  
3103       9.7288     5.4017     1.4279     0.204993  
3103.2     9.7597     5.4131     1.4475     0.213217  
3103.4     10.4251    5.4722     1.4635     0.210784  
3103.6     10.928     5.2115     1.4532     0.219243  
3103.8     11.7002    4.8451     1.4186     0.239957  
3104       12.9857    4.725      1.4155     0.253417  
3104.2     13.5691    5.0752     1.474      0.24612   
3104.4     12.7276    5.6793     1.5393     0.224547  
3104.6     11.0069    5.9594     1.5538     0.207654  
3104.8     9.7558     5.8424     1.5203     0.207914  
3105       9.236      5.816      1.528      0.207845  
3105.2     8.9831     5.9159     1.5565     0.20568   
3105.4     8.5913     5.7831     1.5702     0.21034   
3105.6     8.2056     5.6872     1.5837     0.224286  
3105.8     7.8635     5.92       1.6039     0.223461  
3106       7.7541     6.1844     1.6135     0.21097   
3106.2     8.4653     6.0729     1.584      0.205316  
3106.4     9.5054     5.5482     1.5211     0.218215  
3106.6     10.3009    5.2487     1.4754     0.23424   
3106.8     10.609     5.2231     1.4557     0.232454  
3107       10.3469    5.0392     1.4308     0.230812  
3107.2     10.5475    4.7226     1.4025     0.246178  
3107.4     11.2467    4.8508     1.4272     0.251917  
3107.6     11.2278    5.3732     1.4965     0.231404  
3107.8     10.4946    5.5941     1.5441     0.217252  
3108       9.8252     5.5404     1.5472     0.227195  
3108.2     9.6678     5.722      1.5385     0.225286  
3108.4     9.5707     5.8384     1.5384     0.211036  
3108.6     9.9896     5.6198     1.5211     0.212916  
3108.8     10.9424    5.3344     1.479      0.226869  
3109       11.2989    5.1464     1.4602     0.232239  
3109.2     10.9721    4.9018     1.4689     0.240266  
3109.4     10.5813    4.3847     1.444      0.269025  
3109.6     8.7948     3.5296     1.3273     0.324299  
3109.8     5.6182     2.4872     1.1356     0.423445  
3110       4.3168     2.0711     0.9551     0.522596  
3110.2     5.9874     2.6555     1.0202     0.421504  
3110.4     8.5932     4.3071     1.3086     0.270891  
3110.6     9.1509     6.418      1.5995     0.187766  
3110.8     8.2458     7.2228     1.6936     0.169854  
3111       8.3805     7.3495     1.7203     0.170462  
3111.2     9.2112     6.7948     1.696      0.180502  
3111.4     10.2905    6.1566     1.6526     0.208989  
3111.6     10.8996    6.1248     1.6067     0.219745  
3111.8     10.7312    6.1591     1.5886     0.205786  
3112       10.4485    6.0648     1.5888     0.20491   
3112.2     10.3512    6.0403     1.6119     0.208713  
3112.4     10.4815    5.9527     1.6511     0.214449  
3112.6     11.1748    5.6986     1.6257     0.232371  
3112.8     11.6193    5.357      1.5606     0.244852  
3113       11.4242    4.9381     1.5027     0.256571  
3113.2     11.0874    4.6082     1.4724     0.272351  
3113.4     10.9549    4.5208     1.4585     0.285479  
3113.6     10.8726    4.8353     1.4289     0.273185  
3113.8     10.7368    5.0621     1.3896     0.237519  
3114       10.6824    4.9654     1.3848     0.224659  
3114.2     10.6266    4.8683     1.4194     0.231565  
3114.4     10.9007    4.7264     1.464      0.248311  
3114.6     11.1885    4.7961     1.4932     0.267335  
3114.8     11.0513    5.0074     1.4933     0.259249  
3115       11.1618    5.0115     1.4973     0.250239  
3115.2     11.2595    4.8939     1.4998     0.25529   
3115.4     11.2313    4.6812     1.505      0.269647  
3115.6     11.269     4.685      1.53       0.283639  
3115.8     11.5734    4.8348     1.5637     0.280962  
3116       11.6648    5.03       1.5577     0.27437   
3116.2     11.2154    5.0513     1.5453     0.258097  
3116.4     10.7236    4.8744     1.5568     0.267841  
3116.6     10.5697    4.8467     1.5636     0.280642  
3116.8     10.9582    4.897      1.5576     0.27938   
3117       11.1301    4.7352     1.5365     0.279018  
3117.2     10.906     4.4905     1.5144     0.295099  
3117.4     10.8469    4.4371     1.5127     0.303403  
3117.6     10.9263    4.3346     1.5258     0.306669  
3117.8     11.1275    4.2214     1.5348     0.324618  
3118       11.5384    4.3237     1.5447     0.330194  
3118.2     11.3213    4.5631     1.5576     0.313604  
3118.4     11.1684    4.6679     1.5494     0.297906  
3118.6     11.5122    4.6488     1.5321     0.293524  
3118.8     11.6041    4.6261     1.5248     0.291265  
3119       11.4539    4.6873     1.5256     0.289435  
3119.2     11.0798    4.7614     1.5327     0.280856  
3119.4     10.9348    4.6784     1.5403     0.283406  
3119.6     11.4923    4.7224     1.5504     0.290384  
3119.8     11.9667    4.8475     1.5579     0.283863  
3120       11.6578    4.9566     1.5543     0.275849  
3120.2     11.106     4.9249     1.5402     0.269886  
3120.4     10.8468    4.8883     1.5407     0.272933  
3120.6     11.0848    5.0728     1.5433     0.267767  
3120.8     11.2717    5.2696     1.5251     0.252093  
3121       10.9271    5.3023     1.5096     0.238301  
3121.2     3.6034     5.1401     1.5137     0.240354  
3121.4     0          5.0518     1.5293     0.250309  
3121.6     0          5.0521     1.552      0.257582  
