~Version
 VERS              .         2.0                           : CWLS LOG ASCII STANDARD - VERSION 2.0
 WRAP              .         NO                            : ONE LINE PER DEPTH STEP
 DLM               .         SPACE                         : DELIMITING CHARACTER(SPACE TAB OR COMMA)
~Well Information
#_______________________________________________________________________________
#
#PARAMETER_NAME    .UNIT     VALUE                         : DESCRIPTION
#_______________________________________________________________________________
STRT               .m        2898                          : First reference value
STOP               .m        3121.6                        : Last reference value
STEP               .m        0.2                           : Step increment
NULL               .         -9999                         : Missing value
COMP               .                                       : Company
WELL               .         200                           : Well name
FLD                .                                       : Field
LOC                .                                       : Location
CNTY               .                                       : County
STAT               .                                       : State
CTRY               .                                       : Country
SRVC               .                                       : Service Company
DATE               .                                       : Date
API                .                                       : API number
LONG               .dega     2.052578559                   : 
HZCS               .GCS_WGS_1984 World_Mercator                : 
Cartographic_reference_system .         GCS_WGS_1984                  : 
Куст               .         2                             : 
EREF               .m        139.76                        : 
group              .         Pad2                          : 
Тип                .         Разведка                      : 
Статус             .         Не проверено                  : 
LATI               .dega     2.1856221126                  : 
Интер-р            .         Зайцев                        : 
Pad                .         2                             : 
~Parameter Information Block
#_______________________________________________________________________________
#
#PARAMETER_NAME    .UNIT     VALUE                         : DESCRIPTION
#_______________________________________________________________________________
SET                .         LAS4                          : 
TLFamily_GR        .         Russian Gamma Ray             : 
REAL_CREATION_DATE .         Wed Apr 11 2012-13_17_06      : 
TLFamily_NKTb      .         Neutron Far                   : 
TLFamily_NKTs      .         Neutron Near                  : 
group              .         INI                           : 
TLFamily_TNPH      .         Neutron Porosity              : 
TLFamily_MD        .         Measured Depth                : 
~Curve Information
#_______________________________________________________________________________
#
#LOGNAME           .UNIT     LOG_ID                        : DESCRIPTION
#_______________________________________________________________________________
MD                 .m                                      : 1 Depth 
GR                 .uR/h                                   : 5 Естественная гамма-активность породы по гамма-каротажу 
NKTb               .UE                                     : 2 ННК-т, большой зонд 
NKTs               .UE                                     : 3 ННК-т, малый зонд 
TNPH               .v/v                                    : 4 Суммарное водородосодержание 
~Ascii
2898.0     9.7511     4.2872     1.2274     0.243412  
2898.2     10.0085    4.6178     1.2462     0.225956  
2898.4     10.7439    4.7868     1.275      0.209743  
2898.6     11.0048    4.7819     1.3013     0.212285  
2898.8     10.7531    4.6504     1.3143     0.222645  
2899       10.5458    4.4188     1.3267     0.241361  
2899.2     10.9921    4.41       1.3209     0.257757  
2899.4     11.6109    4.5252     1.3056     0.248995  
2899.6     11.4716    4.4999     1.316      0.238727  
2899.8     11.0715    4.2857     1.3472     0.251734  
2900       11.2194    4.2274     1.3756     0.278491  
2900.2     11.2888    4.4863     1.3943     0.275926  
2900.4     11.3222    4.588      1.4068     0.260286  
2900.6     11.5585    4.5744     1.4078     0.263754  
2900.8     11.6732    4.8517     1.4084     0.257526  
2901       11.8369    5.2077     1.4236     0.228499  
2901.2     11.8519    5.075      1.4585     0.221425  
2901.4     11.1686    4.8603     1.482      0.247981  
2901.6     10.5658    4.9229     1.4698     0.25992   
2901.8     10.922     5.0945     1.4483     0.24705   
2902       11.4469    5.1968     1.4592     0.23036   
2902.2     11.5939    5.0468     1.476      0.232621  
2902.4     11.4166    4.7365     1.4631     0.255412  
2902.6     11.0705    4.6911     1.4526     0.270722  
2902.8     11.2347    4.7341     1.4626     0.261806  
2903       11.6616    4.4909     1.4535     0.272294  
2903.2     11.6014    4.4621     1.4312     0.290154  
2903.4     11.3274    4.9232     1.427      0.265596  
2903.6     11.5685    5.322      1.4389     0.226163  
2903.8     11.6479    5.1855     1.4375     0.216855  
2904       11.3704    4.75       1.4176     0.240515  
2904.2     11.3786    4.6716     1.4213     0.259698  
2904.4     11.6479    4.8315     1.451      0.253612  
2904.6     11.9894    4.8974     1.4701     0.251455  
2904.8     12.3296    4.9887     1.4632     0.25183   
2905       12.2005    5.0656     1.4546     0.243155  
2905.2     11.5371    5.1189     1.4567     0.236843  
2905.4     10.8542    5.1507     1.4651     0.233635  
2905.6     10.671     5.1708     1.4758     0.235146  
2905.8     11.0566    5.3176     1.4715     0.232843  
2906       11.4798    5.3721     1.4629     0.221707  
2906.2     11.5156    5.127      1.4561     0.225406  
2906.4     11.143     4.9416     1.464      0.243464  
2906.6     10.6068    4.8926     1.4879     0.253095  
2906.8     10.3559    5.0384     1.4856     0.255705  
2907       10.6561    5.2198     1.4748     0.241467  
2907.2     11.3749    5.2875     1.4952     0.229561  
2907.4     11.5837    5.1972     1.4996     0.234404  
2907.6     11.119     5.005      1.4804     0.245806  
2907.8     10.7828    4.8063     1.4849     0.256974  
2908       11.0657    4.6494     1.4981     0.275645  
2908.2     11.3982    4.7403     1.4897     0.280657  
2908.4     11.4991    5.0223     1.4736     0.262413  
2908.6     11.2432    5.2622     1.4565     0.23758   
2908.8     11.089     5.4159     1.4483     0.220868  
2909       11.2656    5.467      1.4445     0.211621  
2909.2     11.354     5.2638     1.4547     0.213564  
2909.4     11.1192    4.9401     1.4827     0.235802  
2909.6     10.9894    4.8522     1.4979     0.260178  
2909.8     11.0337    5.0302     1.4853     0.260767  
2910       11.1062    5.3539     1.4681     0.238874  
2910.2     11.0356    5.6817     1.4557     0.213403  
2910.4     10.6713    5.9333     1.4583     0.193687  
2910.6     10.5141    5.9803     1.4892     0.185056  
2910.8     10.6773    5.7721     1.5188     0.195292  
2911       11.2511    5.4967     1.524      0.216603  
2911.2     11.7769    5.2657     1.5198     0.232855  
2911.4     11.6091    5.1037     1.5254     0.247147  
2911.6     11.3664    5.2704     1.5473     0.250756  
2911.8     11.3004    5.663      1.5671     0.235115  
2912       11.2194    5.8831     1.5696     0.217405  
2912.2     11.0656    5.8188     1.5616     0.213978  
2912.4     10.845     5.7568     1.5474     0.217966  
2912.6     10.7659    5.7701     1.5194     0.215317  
2912.8     10.795     5.5358     1.4981     0.212518  
2913       11.2995    5.1641     1.5122     0.238712  
2913.2     11.2748    5.1892     1.5066     0.24483   
2913.4     11.0024    5.1728     1.5069     0.24226   
2913.6     10.9949    5.115      1.5252     0.24493   
2913.8     11.1765    5.0451     1.5299     0.254399  
2914       11.2304    4.9856     1.5273     0.259693  
2914.2     10.9878    4.8735     1.5297     0.265644  
2914.4     10.9789    4.9039     1.5359     0.27215   
2914.6     11.0647    5.0441     1.5313     0.26565   
2914.8     11.0889    5.2049     1.5092     0.253554  
2915       11.0629    5.3632     1.5001     0.236275  
2915.2     10.9175    5.2828     1.4995     0.229189  
2915.4     11.2653    5.0922     1.4899     0.240899  
2915.6     11.7325    5.1245     1.4875     0.24657   
2915.8     11.6378    5.2961     1.4943     0.236633  
2916       11.5075    5.3131     1.5099     0.230141  
2916.2     11.6495    5.2551     1.5079     0.237071  
2916.4     11.489     5.3533     1.4864     0.236581  
2916.6     11.3082    5.3438     1.4714     0.22448   
2916.8     11.2104    5.1079     1.475      0.229219  
2917       10.8032    4.8808     1.4872     0.250764  
2917.2     10.77      4.9986     1.4964     0.258678  
2917.4     11.394     5.2845     1.4984     0.244698  
2917.6     11.5088    5.5189     1.5088     0.226094  
2917.8     10.9265    5.6032     1.5181     0.218523  
2918       10.4146    5.6868     1.528      0.216708  
2918.2     10.6343    5.6659     1.5354     0.215016  
2918.4     11.35      5.4679     1.5256     0.223809  
2918.6     11.7991    5.4362     1.5127     0.231653  
2918.8     11.5883    5.6        1.5014     0.223659  
2919       11.1389    5.7102     1.5183     0.211195  
2919.2     11.1657    5.7128     1.5405     0.211996  
2919.4     11.4722    5.6426     1.5408     0.217803  
2919.6     11.7518    5.4011     1.5237     0.22666   
2919.8     11.7085    5.1709     1.5024     0.240348  
2920       11.1219    5.1415     1.4982     0.245039  
2920.2     10.7129    5.1703     1.511      0.242305  
2920.4     10.812     5.1056     1.5327     0.245618  
2920.6     10.7281    5.0045     1.5481     0.258262  
2920.8     10.6681    5.0749     1.5434     0.265276  
2921       10.9665    5.3032     1.5198     0.252985  
2921.2     11.0148    5.6003     1.5055     0.228997  
2921.4     10.8548    5.7613     1.5169     0.210174  
2921.6     10.8851    5.7399     1.5434     0.209031  
2921.8     11.2429    5.6613     1.5395     0.217907  
2922       11.5517    5.5089     1.5146     0.2229    
2922.2     11.4495    5.2343     1.5049     0.230794  
2922.4     11.3322    5.2131     1.5105     0.244111  
2922.6     11.2743    5.6534     1.5345     0.230868  
2922.8     11.1504    5.9791     1.5522     0.208052  
2923       11.215     6.0112     1.5341     0.203168  
2923.2     11.476     5.9152     1.5071     0.200074  
2923.4     11.3166    5.3864     1.5168     0.216678  
2923.6     10.938     5.1925     1.5277     0.239777  
2923.8     10.942     5.2551     1.5558     0.247273  
2924       11.3329    5.55       1.5837     0.241882  
2924.2     11.736     5.834      1.5688     0.226916  
2924.4     11.7759    5.7595     1.5361     0.214714  
2924.6     11.5518    5.3936     1.5174     0.222226  
2924.8     11.7854    5.0975     1.4994     0.241847  
2925       12.4882    5.0244     1.4849     0.250984  
2925.2     12.857     4.9685     1.4901     0.249089  
2925.4     12.7951    4.7887     1.4895     0.259836  
2925.6     12.9042    4.732      1.4577     0.271934  
2925.8     13.3495    4.8285     1.4112     0.260998  
2926       13.4089    4.9206     1.396      0.241447  
2926.2     12.7753    4.967      1.4316     0.232025  
2926.4     12.5619    4.9603     1.459      0.239871  
2926.6     12.9557    5.0281     1.4707     0.245865  
2926.8     13.2739    5.1505     1.4943     0.240924  
2927       13.221     5.3118     1.5278     0.238209  
