~Version
 VERS              .         2.0                           : CWLS LOG ASCII STANDARD - VERSION 2.0
 WRAP              .         NO                            : ONE LINE PER DEPTH STEP
 DLM               .         SPACE                         : DELIMITING CHARACTER(SPACE TAB OR COMMA)
~Well Information
#_______________________________________________________________________________
#
#PARAMETER_NAME    .UNIT     VALUE                         : DESCRIPTION
#_______________________________________________________________________________
STRT               .m        2898                          : First reference value
STOP               .m        3121.6                        : Last reference value
STEP               .m        0.2                           : Step increment
NULL               .         -9999                         : Missing value
COMP               .                                       : Company
WELL               .         200                           : Well name
FLD                .                                       : Field
LOC                .                                       : Location
CNTY               .                                       : County
STAT               .                                       : State
CTRY               .                                       : Country
SRVC               .                                       : Service Company
DATE               .                                       : Date
API                .                                       : API number
LONG               .dega     2.052578559                   : 
HZCS               .GCS_WGS_1984 World_Mercator                : 
Cartographic_reference_system .         GCS_WGS_1984                  : 
Куст               .         2                             : 
EREF               .m        139.76                        : 
group              .         Pad2                          : 
Тип                .         Разведка                      : 
Статус             .         Не проверено                  : 
LATI               .dega     2.1856221126                  : 
Интер-р            .         Зайцев                        : 
Pad                .         2                             : 
~Parameter Information Block
#_______________________________________________________________________________
#
#PARAMETER_NAME    .UNIT     VALUE                         : DESCRIPTION
#_______________________________________________________________________________
SET                .         LAS3                          : 
TLFamily_GGKB      .         Density Large                 : 
REAL_CREATION_DATE .         Wed Apr 11 2012-13_17_06      : 
TLFamily_GGK       .         Bulk Density                  : 
TLFamily_GGKS      .         Density Small                 : 
group              .         INI                           : 
TLFamily_MD        .         Measured Depth                : 
~Curve Information
#_______________________________________________________________________________
#
#LOGNAME           .UNIT     LOG_ID                        : DESCRIPTION
#_______________________________________________________________________________
MD                 .m                                      : 1 Depth 
GGK                .g/cm3                                  : 4 Объемная плотность по ГГК-П 
GGKB               .imp/min                                : 2 Большой зонд плотностного гамма-гамма каротажа ГГК-П 
GGKS               .imp/min                                : 3 Малый зонд плотностного гамма-гамма каротажа ГГК-П 
~Ascii
# ...
3080       2.5376     17991.67   30747.6   
3080.2     2.6123     18248.02   32999.94  
3080.4     2.6928     18332.54   35196.5   
3080.6     2.6793     18256.66   34491.46  
3080.8     2.6556     17765.35   33086.4   
3081       2.5352     17817.65   30411.38  
3081.2     2.4587     18219.78   29369.83  
3081.4     2.4687     18463.74   29695.41  
3081.6     2.5114     17977.36   29910.14  
3081.8     2.4943     17670.51   29015.14  
3082       2.5094     17417.74   29016.09  
3082.2     2.5456     17252.57   29530.05  
3082.4     2.5181     17625.43   29782.97  
3082.6     2.496      18014.03   29881.28  
3082.8     2.4547     18658.46   30048.83  
3083       2.4087     19427.4    30365.6   
3083.2     2.3104     21408.87   31524.02  
3083.4     2.2095     23476.1    33836.52  
3083.6     2.1227     27416.57   35189.01  
3083.8     1.9704     33416.22   38640.52  
3084       1.7826     44411.44   45395.36  
3084.2     1.5793     64755.18   57036.36  
3084.4     1.4332     92808.12   71022.4   
3084.6     1.3526     106370.5   73122.98  
3084.8     1.3257     108154     73161.01  
3085       1.2959     111826.4   73418.94  
3085.2     1.3564     105710.2   70995.15  
3085.4     1.4758     91085.57   66035.34  
3085.6     1.6795     71881.05   59268.77  
3085.8     1.9278     48359.5    46897.61  
3086       2.0991     31586.16   37639.48  
3086.2     2.074      33689.32   38708.6   
3086.4     2.23       24885.5    31390.51  
3086.6     2.413      19537.63   29390.01  
3086.8     2.478      18516.34   30270.59  
3087       2.5239     18912.27   31917.64  
3087.2     2.5873     18762.99   33127.78  
3087.4     2.6014     18809.45   33796.88  
3087.6     2.5432     19293.49   33132.63  
3087.8     2.502      19476.39   32275.94  
3088       2.4849     19261      31396.03  
3088.2     2.5135     18872.85   31394.45  
3088.4     2.5301     18255.22   30607.68  
3088.6     2.5568     16961.71   28715.06  
3088.8     2.5943     15291.78   26895.59  
3089       2.5647     14992.88   26617.84  
3089.2     2.5592     16899.12   29941.29  
3089.4     2.5341     18523.84   31801.89  
3089.6     2.5598     19015.76   32924.95  
3089.8     2.5791     18913.92   33235.93  
3090       2.6573     18783.34   35138.33  
3090.2     2.5958     19153.69   34288.79  
3090.4     2.6127     19568.7    35369.86  
3090.6     2.5883     19514.51   34560.32  
3090.8     2.5862     19883.21   35412.82  
3091       2.6376     20385.27   37588.03  
3091.2     2.5883     20680.61   36839.2   
3091.4     2.4932     21211.37   35023.36  
3091.6     2.421      21625.98   33850.58  
3091.8     2.3918     22070.69   33722.32  
3092       2.4034     22312.77   34236.98  
3092.2     2.4542     20506.89   33445.57  
3092.4     2.4668     18964.53   30493.3   
3092.6     2.4838     18650.78   30456.27  
3092.8     2.4986     18667.62   30732.05  
3093       2.485      18057.82   29369.61  
3093.2     2.4814     17579.86   28587.23  
3093.4     2.4812     17486.08   28501.28  
3093.6     2.4715     17336.72   28004.64  
3093.8     2.4848     16959.22   27590.21  
3094       2.5113     16768.86   28161.24  
3094.2     2.4877     17470.25   28901.77  
3094.4     2.501      18582.78   31295.41  
3094.6     2.499      19366.22   32382.28  
3094.8     2.4914     19564.23   31942.39  
3095       2.5137     18759.43   31087.17  
3095.2     2.5202     18064.59   30204.09  
3095.4     2.5455     17386.98   29486.33  
3095.6     2.5104     16528.99   27371.46  
3095.8     2.4769     16278.8    26549.76  
3096       2.4832     16360.38   26621.68  
3096.2     2.5274     16165.96   27440.54  
3096.4     2.5698     16754.43   29495.86  
3096.6     2.586      17423      31039.47  
3096.8     2.6189     17802.06   32223.67  
3097       2.5839     17598.98   31034.44  
3097.2     2.493      17221.48   28026.16  
3097.4     2.5406     16095.04   27168.17  
3097.6     2.5644     15488.04   26945.53  
3097.8     2.5609     16240.95   28853.56  
3098       2.4857     18564.22   30979.23  
3098.2     2.4525     19724.92   31631.44  
3098.4     2.4971     19928.23   32897.28  
3098.6     2.5649     19882.13   34664.21  
3098.8     2.5863     20181.33   35705.73  
3099       2.4741     20034.27   32533.18  
3099.2     2.4509     20316.87   32457.2   
3099.4     2.4181     20652.63   32257.79  
3099.6     2.4266     20830.96   32442.7   
3099.8     2.4285     20405.35   31954.54  
3100       2.4273     20204.85   31400.05  
3100.2     2.4504     19783.34   31222.44  
3100.4     2.4782     18996.19   30731.23  
3100.6     2.503      18519.58   30699.04  
3100.8     2.4883     18791.5    30951.1   
3101       2.5186     18867.78   31487.45  
3101.2     2.631      17806.55   32106.74  
3101.4     2.6596     16970.35   31705.24  
3101.6     2.5657     16823.04   29179.65  
3101.8     2.599      16606.23   29639.08  
3102       2.5129     16476.16   27442.86  
3102.2     2.5315     16154.97   27300.13  
3102.4     2.5855     15841.04   27867.55  
3102.6     2.6001     15717.2    28123.46  
3102.8     2.5637     15815.96   27347.01  
3103       2.542      16315.55   27913.33  
3103.2     2.5325     16441.75   28069.25  
3103.4     2.5053     17092.6    28668.79  
3103.6     2.5081     18136.64   30572.48  
3103.8     2.5471     18783.68   32357.79  
3104       2.5231     19201.78   32554.39  
3104.2     2.496      19871.89   32872.6   
3104.4     2.5537     19813.15   34023.91  
3104.6     2.665      19358.53   36309.62  
3104.8     2.6707     19252.98   36331.43  
3105       2.5547     19515.2    33869.92  
3105.2     2.4925     19901.02   32715.42  
3105.4     2.4785     19487.45   31453.27  
3105.6     2.5153     18648.75   31123.12  
3105.8     2.5207     18608.66   31389.21  
3106       2.5021     18965.59   31465.76  
3106.2     2.5        19055.98   31585.59  
3106.4     2.5237     18974.1    32052.69  
3106.6     2.4593     20152.02   32982.01  
3106.8     2.419      21797.32   34046.37  
3107       2.437      21455.56   33615.63  
3107.2     2.4685     20511.78   32633.15  
3107.4     2.4367     18908.47   29947.55  
3107.6     2.4344     18801.34   29662.71  
3107.8     2.4438     18739.55   29567.39  
3108       2.4371     18631.84   29536.15  
3108.2     2.4335     19109.38   30255.76  
3108.4     2.3975     19952.05   30789.17  
3108.6     2.3711     21067.39   32111.42  
3108.8     2.317      23158.46   34094.61  
3109       2.2385     26863.47   37853.18  
3109.2     2.0949     34060.57   43764.78  
3109.4     1.8119     46925.99   48999.66  
3109.6     1.6281     67357.52   61318.16  
3109.8     1.4665     93045.49   72464.9   
3110       1.4389     99167.55   66157.09  
3110.2     1.7521     67617.65   54824.03  
3110.4     2.3226     30354.84   37061.35  
3110.6     2.5143     17926.64   29344.61  
3110.8     2.4844     17828.73   29354.34  
3111       2.483      18145.41   29633.99  
3111.2     2.4979     18077.06   29893.77  
3111.4     2.5207     18203.51   30484.31  
3111.6     2.5139     17993.81   29955.23  
3111.8     2.5301     17307.11   29026.35  
3112       2.5337     16351.47   27952.26  
3112.2     2.5473     16059.03   27553.24  
3112.4     2.5882     15847.11   27945.29  
3112.6     2.5878     15678.19   27782.44  
3112.8     2.5617     15830.92   27558.39  
3113       2.5598     15987.47   27738.08  
3113.2     2.5444     16330.21   28117.6   
3113.4     2.5411     16510.63   28224.16  
3113.6     2.5246     16704.68   28309.61  
3113.8     2.5042     17104.53   28481.61  
3114       2.5203     17282.1    29088.74  
3114.2     2.5604     17343.47   30169.34  
3114.4     2.603      17821.84   32057.48  
3114.6     2.6803     17989.96   34197.97  
3114.8     2.6342     17848.82   32512.63  
3115       2.5238     16948.96   28253.52  
3115.2     2.5456     16234.81   27768.52  
3115.4     2.515      16310.45   27422.13  
3115.6     2.4804     16790.44   27566.29  
3115.8     2.4731     17208.26   27869.38  
3116       2.5092     16992.2    28217.01  
3116.2     2.5343     16735.42   28546.01  
