~Version
 VERS              .         2.0                           : CWLS LOG ASCII STANDARD - VERSION 2.0
 WRAP              .         NO                            : ONE LINE PER DEPTH STEP
 DLM               .         SPACE                         : DELIMITING CHARACTER(SPACE TAB OR COMMA)
~Well Information
#_______________________________________________________________________________
#
#PARAMETER_NAME    .UNIT     VALUE                         : DESCRIPTION
#_______________________________________________________________________________
STRT               .m        2898                          : First reference value
STOP               .m        3121.6                        : Last reference value
STEP               .m        0.2                           : Step increment
NULL               .         -9999                         : Missing value
COMP               .                                       : Company
WELL               .         200                           : Well name
FLD                .                                       : Field
LOC                .                                       : Location
CNTY               .                                       : County
STAT               .                                       : State
CTRY               .                                       : Country
SRVC               .                                       : Service Company
DATE               .                                       : Date
API                .                                       : API number
LONG               .dega     2.052578559                   : 
HZCS               .GCS_WGS_1984 World_Mercator                : 
Cartographic_reference_system .         GCS_WGS_1984                  : 
Куст               .         2                             : 
EREF               .m        139.76                        : 
group              .         Pad2                          : 
Тип                .         Разведка                      : 
Статус             .         Не проверено                  : 
LATI               .dega     2.1856221126                  : 
Интер-р            .         Зайцев                        : 
Pad                .         2                             : 
~Parameter Information Block
#_______________________________________________________________________________
#
#PARAMETER_NAME    .UNIT     VALUE                         : DESCRIPTION
#_______________________________________________________________________________
SET                .         LAS4                          : 
TLFamily_GR        .         Russian Gamma Ray             : 
REAL_CREATION_DATE .         Wed Apr 11 2012-13_17_06      : 
TLFamily_NKTb      .         Neutron Far                   : 
TLFamily_NKTs      .         Neutron Near                  : 
group              .         INI                           : 
TLFamily_TNPH      .         Neutron Porosity              : 
TLFamily_MD        .         Measured Depth                : 
~Curve Information
#_______________________________________________________________________________
#
#LOGNAME           .UNIT     LOG_ID                        : DESCRIPTION
#_______________________________________________________________________________
MD                 .m                                      : 1 Depth 
GR                 .uR/h                                   : 5 Естественная гамма-активность породы по гамма-каротажу 
NKTb               .UE                                     : 2 ННК-т, большой зонд 
NKTs               .UE                                     : 3 ННК-т, малый зонд 
TNPH               .v/v                                    : 4 Суммарное водородосодержание 
~Ascii
# ...
2927.2     13.0685    5.6493     1.5711     0.230615  
2927.4     12.2863    5.9727     1.6109     0.217428  
2927.6     11.6328    6.1528     1.6262     0.212298  
2927.8     11.5149    6.2691     1.6166     0.207041  
2928       10.9878    6.2318     1.6082     0.202492  
2928.2     10.5991    6.1775     1.6212     0.204683  
2928.4     10.5782    6.2516     1.6445     0.207637  
2928.6     10.8259    6.6503     1.6986     0.199532  
2928.8     11.2123    6.6297     1.7056     0.197462  
2929       11.921     6.4137     1.645      0.206723  
2929.2     12.4173    6.3269     1.5894     0.204045  
2929.4     12.4263    6.4133     1.575      0.193408  
2929.6     12.3613    6.4406     1.5797     0.185538  
2929.8     12.4051    6.1915     1.5847     0.191135  
2930       12.6092    5.8934     1.577      0.208047  
2930.2     12.6187    5.9669     1.5706     0.217563  
2930.4     12.5306    6.0714     1.5875     0.200995  
2930.6     12.6667    6.136      1.5943     0.20693   
2930.8     12.8923    6.2652     1.5997     0.201508  
2931       12.9893    6.3013     1.6189     0.198246  
2931.2     12.7519    6.3061     1.6358     0.201353  
2931.4     12.4804    6.3124     1.6335     0.204215  
2931.6     12.7091    6.195      1.6177     0.205171  
2931.8     12.9352    6.0715     1.6005     0.210858  
2932       12.4708    6.2584     1.6056     0.207405  
2932.2     11.9766    6.5525     1.6523     0.193866  
2932.4     12.0524    6.744      1.7039     0.191632  
2932.6     12.3807    6.981      1.7203     0.191667  
2932.8     12.3056    7.1611     1.7219     0.184327  
2933       12.0764    7.0992     1.7207     0.181039  
2933.2     11.8405    6.8994     1.7293     0.187539  
2933.4     11.5011    6.8287     1.7361     0.19641   
2933.6     10.8879    6.8976     1.7165     0.196961  
2933.8     10.4733    6.9441     1.7308     0.188761  
2934       10.6817    7.0777     1.7722     0.190443  
2934.2     10.2998    7.5704     1.7909     0.186942  
2934.4     9.5297     8.5669     1.8159     0.162392  
2934.6     8.8347     9.7848     1.9103     0.131239  
2934.8     8.6567     10.7264    1.9938     0.114586  
2935       9.51       10.7238    1.9581     0.111153  
2935.2     9.896      9.7119     1.8786     0.118433  
2935.4     10.0561    8.1168     1.7986     0.142948  
2935.6     10.864     7.0434     1.732      0.180323  
2935.8     11.6053    6.9219     1.7023     0.194729  
2936       10.5975    7.2525     1.7638     0.183171  
2936.2     9.2116     7.8371     1.8421     0.175304  
2936.4     9.299      8.3161     1.8504     0.164935  
2936.6     10.9164    8.0024     1.7811     0.160574  
2936.8     11.9484    7.1405     1.6633     0.172048  
2937       11.5458    6.2404     1.5842     0.190628  
2937.2     10.868     5.874      1.5666     0.211625  
2937.4     10.3933    6.1224     1.582      0.209394  
2937.6     10.5874    6.3393     1.5886     0.196441  
2937.8     11.2309    6.1718     1.5725     0.195044  
2938       11.024     5.9234     1.5608     0.206348  
2938.2     10.2357    6.0968     1.5788     0.208104  
2938.4     10.2051    6.4154     1.6108     0.19598   
2938.6     10.8465    6.4004     1.6258     0.191846  
2938.8     11.9816    6.1349     1.613      0.204025  
2939       12.6782    5.9563     1.5576     0.212465  
2939.2     12.0942    5.65       1.546      0.214989  
2939.4     11.2791    5.6003     1.5679     0.227081  
2939.6     10.6159    5.9379     1.605      0.222154  
2939.8     9.6102     6.2493     1.6478     0.208816  
2940       8.7447     6.3029     1.6762     0.206759  
2940.2     8.6732     6.2581     1.6827     0.214113  
2940.4     9.1863     6.3577     1.6696     0.214628  
2940.6     9.6898     6.4528     1.6509     0.205494  
2940.8     9.6607     6.4655     1.6454     0.199809  
2941       9.3328     6.4601     1.6406     0.198284  
2941.2     9.0737     6.4782     1.6271     0.198241  
2941.4     8.8114     6.6956     1.6384     0.19098   
2941.6     9.2113     6.7622     1.6611     0.182565  
2941.8     10.6182    6.4422     1.6538     0.192935  
2942       11.9156    6.0882     1.6035     0.209827  
2942.2     12.7457    5.8084     1.5413     0.216237  
2942.4     13.3496    5.5712     1.5091     0.219239  
2942.6     13.2952    5.827      1.5296     0.217042  
2942.8     12.1834    6.5658     1.6033     0.192119  
2943       10.6678    7.001      1.6771     0.174093  
2943.2     9.501      7.0487     1.6825     0.178253  
2943.4     8.7664     6.9363     1.6667     0.180514  
2943.6     8.1753     6.6892     1.6814     0.185369  
2943.8     8.0164     6.4738     1.6851     0.200189  
2944       8.3608     6.4164     1.6527     0.207534  
2944.2     8.6973     6.3879     1.6192     0.202208  
2944.4     8.7296     6.5295     1.6104     0.195004  
2944.6     8.9834     6.892      1.6331     0.181976  
2944.8     9.573      7.1317     1.6667     0.171205  
2945       9.631      7.1024     1.6807     0.172495  
2945.2     9.0152     6.922      1.6601     0.179454  
2945.4     8.4119     6.7194     1.6263     0.184977  
2945.6     8.3818     6.6726     1.6194     0.185134  
2945.8     8.8866     6.7244     1.6598     0.183386  
2946       9.2823     6.8912     1.7043     0.186515  
2946.2     9.2248     7.0283     1.6921     0.185964  
2946.4     9.102      6.8511     1.6459     0.183147  
2946.6     9.6924     6.542      1.6203     0.187914  
2946.8     11.1057    6.4724     1.6392     0.19291   
2947       12.2416    6.4265     1.6444     0.197151  
2947.2     12.6621    6.2459     1.6078     0.203756  
2947.4     12.2279    6.0766     1.5603     0.20617   
2947.6     10.892     6.0075     1.5459     0.204188  
2947.8     9.5694     6.1897     1.582      0.199482  
2948       8.9791     6.5382     1.6365     0.192443  
2948.2     9.2049     6.81       1.6596     0.186799  
2948.4     9.4832     6.9827     1.6589     0.182085  
2948.6     8.9645     7.3356     1.6805     0.172718  
2948.8     8.5345     7.563      1.7215     0.160896  
2949       8.9079     7.1333     1.7124     0.170273  
2949.2     9.6143     6.5303     1.6482     0.193664  
2949.4     9.8322     6.3881     1.6116     0.201366  
2949.6     9.2629     6.6266     1.6335     0.190037  
2949.8     8.7013     6.9617     1.6641     0.182995  
2950       8.4398     7.4061     1.7023     0.171619  
2950.2     8.092      7.9359     1.764      0.160654  
2950.4     7.7078     8.618      1.846      0.148807  
2950.6     7.5463     8.7207     1.8618     0.144026  
2950.8     7.7715     7.8286     1.7918     0.158096  
2951       8.1748     7.039      1.718      0.184526  
2951.2     8.6075     6.9867     1.6855     0.189668  
2951.4     9.0822     7.0065     1.6541     0.18035   
2951.6     9.4868     6.7274     1.6128     0.180208  
2951.8     10.0582    6.389      1.585      0.18741   
2952       11.1608    6.1297     1.5684     0.197137  
2952.2     12.3387    6.0204     1.5606     0.203725  
2952.4     12.9426    6.0625     1.5758     0.204272  
2952.6     13.0914    6.1838     1.5991     0.20222   
2952.8     12.9306    6.1871     1.618      0.202209  
2953       12.5405    6.1205     1.6289     0.20935   
2953.2     12.2074    6.269      1.6275     0.210373  
2953.4     12.3313    6.304      1.62       0.201772  
2953.6     13.1757    6.0698     1.6059     0.206242  
2953.8     13.784     5.996      1.579      0.214735  
2954       13.4665    6.034      1.552      0.207941  
2954.2     13.0141    5.9774     1.5546     0.202674  
2954.4     12.9869    5.9559     1.5688     0.206662  
2954.6     12.9257    6.1153     1.5808     0.206275  
2954.8     12.9361    6.3374     1.6007     0.196752  
2955       12.8027    6.3286     1.6042     0.195264  
2955.2     12.4435    6.252      1.5958     0.199091  
2955.4     12.2649    6.0763     1.5959     0.202309  
2955.6     12.0792    5.8634     1.5912     0.214658  
2955.8     11.1904    6.1347     1.5992     0.217771  
2956       9.7262     7.0226     1.6784     0.188981  
2956.2     8.6193     8.0334     1.8071     0.161446  
