~Version
 VERS              .         2.0                           : CWLS LOG ASCII STANDARD - VERSION 2.0
 WRAP              .         NO                            : ONE LINE PER DEPTH STEP
 DLM               .         SPACE                         : DELIMITING CHARACTER(SPACE TAB OR COMMA)
~Well Information
#_______________________________________________________________________________
#
#PARAMETER_NAME    .UNIT     VALUE                         : DESCRIPTION
#_______________________________________________________________________________
STRT               .m        2898                          : First reference value
STOP               .m        3121.6                        : Last reference value
STEP               .m        0.2                           : Step increment
NULL               .         -9999                         : Missing value
COMP               .                                       : Company
WELL               .         200                           : Well name
FLD                .                                       : Field
LOC                .                                       : Location
CNTY               .                                       : County
STAT               .                                       : State
CTRY               .                                       : Country
SRVC               .                                       : Service Company
DATE               .                                       : Date
API                .                                       : API number
LONG               .dega     2.052578559                   : 
HZCS               .GCS_WGS_1984 World_Mercator                : 
Cartographic_reference_system .         GCS_WGS_1984                  : 
Куст               .         2                             : 
EREF               .m        139.76                        : 
group              .         Pad2                          : 
Тип                .         Разведка                      : 
Статус             .         Не проверено                  : 
LATI               .dega     2.1856221126                  : 
Интер-р            .         Зайцев                        : 
Pad                .         2                             : 
~Parameter Information Block
#_______________________________________________________________________________
#
#PARAMETER_NAME    .UNIT     VALUE                         : DESCRIPTION
#_______________________________________________________________________________
SET                .         LAS5                          : 
REAL_CREATION_DATE .         Wed Apr 11 2012-13_17_07      : 
TLFamily_RK20      .         Resistivity 20                : 
TLFamily_RK10      .         Resistivity 10                : 
group              .         INI                           : 
TLFamily_RK05      .         Resistivity 05                : 
TLFamily_RK07      .         Resistivity 07                : 
TLFamily_RK14      .         Resistivity 14                : 
TLFamily_MD        .         Measured Depth                : 
~Curve Information
#_______________________________________________________________________________
#
#LOGNAME           .UNIT     LOG_ID                        : DESCRIPTION
#_______________________________________________________________________________
MD                 .m                                      : 1 Depth 
RK05               .Ohmm                                   : 2 ВИКИЗ, зонд 0,5 м 
RK07               .Ohmm                                   : 3 ВИКИЗ, зонд 0,7 м 
RK10               .Ohmm                                   : 4 ВИКИЗ, зонд 1 м 
RK14               .Ohmm                                   : 5 ВИКИЗ, зонд 1,4 м 
RK20               .Ohmm                                   : 6 ВИКИЗ, зонд 2 м 
~Ascii
# ...
2922.4     3.1884     2.9783     3.3901     4.261      4.4005    
2922.6     3.2294     3.1137     3.4788     4.4306     4.5348    
2922.8     3.2079     2.9995     3.3792     4.3633     4.5837    
2923       3.0264     2.9375     3.2583     4.2327     4.5143    
2923.2     2.9887     2.7966     3.11       4.0276     4.3408    
2923.4     3.0574     2.7867     3.0818     3.9672     4.2135    
2923.6     2.9402     2.7464     3.0728     3.9597     4.202     
2923.8     3.1292     2.8853     3.174      4.0342     4.2885    
2924       3.2173     2.9131     3.2333     4.1939     4.3785    
2924.2     3.4007     3.1662     3.47       4.3532     4.495     
2924.4     3.4558     3.1838     3.4589     4.3929     4.5476    
2924.6     2.9801     2.8586     3.1952     4.1803     4.4174    
2924.8     2.561      2.4875     2.7611     3.767      4.0475    
2925       2.3051     2.1332     2.4417     3.34       3.6977    
2925.2     2.602      2.3441     2.5739     3.3377     3.6133    
2925.4     2.6327     2.3722     2.6009     3.4376     3.6382    
2925.6     2.533      2.3432     2.5712     3.3778     3.5725    
2925.8     2.6113     2.3919     2.5451     3.3071     3.518     
2926       2.6068     2.3746     2.6424     3.2986     3.4443    
2926.2     2.6485     2.3428     2.6234     3.3097     3.4542    
2926.4     2.7959     2.4884     2.6675     3.3713     3.4625    
2926.6     2.7072     2.447      2.6635     3.3769     3.5315    
2926.8     2.9772     2.5028     2.7844     3.4663     3.6219    
2927       3.4462     2.9804     3.2267     3.9299     3.89      
2927.2     3.6931     3.2045     3.473      4.3725     4.2254    
2927.4     4.0536     3.4576     3.6753     4.5823     4.4728    
2927.6     4.1241     3.7066     3.898      4.7629     4.6422    
2927.8     3.8508     3.517      3.7156     4.6965     4.6998    
2928       4.0725     3.4192     3.6789     4.7068     4.7404    
2928.2     4.3456     3.8834     4.0789     5.036      4.939     
2928.4     4.0925     3.6108     3.9002     5.1021     5.107     
2928.6     4.9482     4.196      4.2461     5.2374     5.2219    
2928.8     4.3341     3.873      4.1005     5.3902     5.3225    
2929       3.4197     3.3303     3.6062     4.8737     5.199     
2929.2     3.1896     2.938      3.3051     4.4776     4.911     
2929.4     3.683      3.1818     3.4798     4.5978     4.8845    
2929.6     3.8526     3.4672     3.7907     4.9031     5.0306    
2929.8     4.0341     3.6978     3.9549     5.051      5.1897    
2930       4.0739     3.7409     4.0577     5.0414     5.2708    
2930.2     3.9639     3.6685     4.0362     5.061      5.2704    
2930.4     4.2061     3.8184     4.1967     5.1264     5.2634    
2930.6     4.4884     4.0785     4.3906     5.3445     5.4052    
2930.8     3.6954     3.4002     3.9172     5.1501     5.2541    
2931       3.5945     3.4235     3.7193     4.949      5.0393    
2931.2     3.2333     3.1517     3.5377     4.691      5         
2931.4     3.7353     3.4428     3.7467     4.7475     4.981     
2931.6     3.3653     3.3834     3.7472     4.906      5.1059    
2931.8     3.2401     2.9949     3.4084     4.6014     4.969     
2932       3.8864     3.7806     4.1465     5.077      5.1589    
2932.2     3.9765     3.7716     4.2188     5.4048     5.5948    
2932.4     3.7818     3.9514     4.4038     5.3904     5.7008    
2932.6     3.794      3.6819     4.1401     5.2595     5.5767    
2932.8     3.6446     3.6773     4.161      5.2784     5.444     
2933       4.2339     3.8773     4.308      5.4199     5.648     
2933.2     5.186      5.0363     5.3365     6.3397     6.2657    
2933.4     3.1782     3.4884     4.0759     5.9599     6.3981    
2933.6     4.504      3.8531     4.2888     5.57       6.1728    
2933.8     4.7576     4.512      4.9563     6.3583     6.7008    
2934       5.0734     4.706      4.9742     6.4528     7.1664    
2934.2     4.7281     4.4942     5.1102     6.7905     7.382     
2934.4     5.7717     5.1347     5.8814     7.7003     8.1015    
2934.6     7.2608     7.4862     8.0908     9.7349     9.4831    
2934.8     15.8814    8.8796     8.5808     10.8573    10.7712   
2935       5.8264     8.0687     8.400700000000001 11.0924    10.471    
2935.2     4.72       4.6912     5.2013     7.5149     8.577400000000001
2935.4     5.6453     4.9359     5.2975     6.838      7.2829    
2935.6     3.5806     4.0553     4.7129     6.7003     7.2077    
2935.8     3.4362     3.6215     4.2906     6.1247     6.9431    
2936       5.9857     4.8742     5.6703     7.1819     7.426     
2936.2     6.9923     6.4524     6.8245     8.5953     8.3803    
2936.4     6.1469     5.6338     6.0129     7.6395     8.047000000000001
2936.6     3.2931     4.0176     4.641      6.2654     6.9564    
2936.8     3.4749     3.5231     4.0192     5.2297     5.9542    
2937       3.7877     3.6092     4.2044     5.2767     5.6582    
2937.2     3.7623     4.0344     4.3348     5.3299     5.6193    
2937.4     3.5778     3.4755     4.0519     5.3245     5.5705    
2937.6     2.9525     3.1551     3.8955     5.2704     5.504     
2937.8     3.9056     3.6871     4.1361     5.2227     5.6249    
2938       5.4603     4.4607     4.7435     5.7333     5.7433    
2938.2     4.4029     4.8987     5.4579     5.8855     5.857     
2938.4     3.2062     3.2675     4.0041     5.3421     5.6956    
2938.6     3.5138     3.4806     3.9779     4.8965     5.4021    
2938.8     3.5522     3.3613     3.8735     4.96       5.2724    
2939       3.6743     3.544      4.0183     5.0284     5.2198    
2939.2     4.1112     3.82       4.2757     5.38       5.4282    
2939.4     4.2848     3.9699     4.4572     5.511      5.5385    
2939.6     5.5378     4.6411     5.014      5.9147     5.7691    
2939.8     5.1916     5.0969     5.4892     6.4342     6.1004    
2940       4.0684     4.5189     4.957      5.991      5.9552    
2940.2     3.4349     3.6548     4.3405     5.434      5.5173    
2940.4     3.4365     3.7234     4.3914     5.4333     5.5077    
2940.6     3.6858     3.9703     4.4872     5.4433     5.6222    
2940.8     4.0662     3.8804     4.4128     5.4385     5.4848    
2941       3.4428     3.4393     4.0312     5.0897     5.2647    
2941.2     4.1902     3.9411     4.3749     5.1847     5.1411    
2941.4     3.6283     4.0315     4.5186     5.4475     5.1785    
2941.6     3.2904     3.3988     4.0563     4.9943     5.0375    
2941.8     2.3556     2.8967     3.6486     4.7272     4.8635    
2942       2.9214     2.4628     2.9623     4.0182     4.6005    
2942.2     3.4638     3.2875     3.7197     4.5587     4.7077    
2942.4     3.1731     3.1726     3.6159     4.6397     4.9882    
2942.6     3.2437     3.1486     3.8599     5.1644     5.3552    
2942.8     5.3339     4.8739     5.1004     5.7486     5.711     
2943       4.2513     3.9849     4.6793     5.7996     5.7255    
2943.2     3.9559     4.1924     4.5751     5.2594     5.2516    
2943.4     3.5007     4.1462     4.5074     5.1187     5.1938    
2943.6     2.9675     3.5459     4.128      4.7264     5.129     
2943.8     2.475      2.7725     3.4633     4.5364     4.9926    
2944       3.039      3.0734     3.6135     4.5246     5.0033    
2944.2     2.6652     2.9707     3.5535     4.7066     5.3068    
2944.4     3.8056     3.8698     4.2224     4.861      5.5367    
2944.6     3.3098     3.7193     4.283      5.2688     5.9141    
2944.8     3.5824     3.2912     4.0154     5.074      5.8931    
2945       3.2216     3.7525     4.4654     5.1751     6.0289    
2945.2     4.0665     4.5355     4.673      5.4013     6.2005    
2945.4     2.6365     3.0437     3.8073     5.0339     5.8976    
2945.6     4.2168     3.1996     3.8773     5.3682     5.8517    
2945.8     8.0715     7.3127     7.1182     6.6417     6.3493    
2946       4.1127     5.349      5.2851     5.7762     6.2112    
2946.2     3.1664     3.393      3.929      5.0961     5.7643    
2946.4     3.4028     3.1823     3.6718     4.6922     5.3945    
