~Version
 VERS              .         2.0                           : CWLS LOG ASCII STANDARD - VERSION 2.0
 WRAP              .         NO                            : ONE LINE PER DEPTH STEP
 DLM               .         SPACE                         : DELIMITING CHARACTER(SPACE TAB OR COMMA)
~Well Information
#_______________________________________________________________________________
#
#PARAMETER_NAME    .UNIT     VALUE                         : DESCRIPTION
#_______________________________________________________________________________
STRT               .m        2898                          : First reference value
STOP               .m        3121.6                        : Last reference value
STEP               .m        0.2                           : Step increment
NULL               .         -9999                         : Missing value
COMP               .                                       : Company
WELL               .         200                           : Well name
FLD                .                                       : Field
LOC                .                                       : Location
CNTY               .                                       : County
STAT               .                                       : State
CTRY               .                                       : Country
SRVC               .                                       : Service Company
DATE               .                                       : Date
API                .                                       : API number
LONG               .dega     2.052578559                   : 
HZCS               .GCS_WGS_1984 World_Mercator                : 
Cartographic_reference_system .         GCS_WGS_1984                  : 
Куст               .         2                             : 
EREF               .m        139.76                        : 
group              .         Pad2                          : 
Тип                .         Разведка                      : 
Статус             .         Не проверено                  : 
LATI               .dega     2.1856221126                  : 
Интер-р            .         Зайцев                        : 
Pad                .         2                             : 
~Parameter Information Block
#_______________________________________________________________________________
#
#PARAMETER_NAME    .UNIT     VALUE                         : DESCRIPTION
#_______________________________________________________________________________
SET                .         LAS3                          : 
TLFamily_GGKB      .         Density Large                 : 
REAL_CREATION_DATE .         Wed Apr 11 2012-13_17_06      : 
TLFamily_GGK       .         Bulk Density                  : 
TLFamily_GGKS      .         Density Small                 : 
group              .         INI                           : 
TLFamily_MD        .         Measured Depth                : 
~Curve Information
#_______________________________________________________________________________
#
#LOGNAME           .UNIT     LOG_ID                        : DESCRIPTION
#_______________________________________________________________________________
MD                 .m                                      : 1 Depth 
GGK                .g/cm3                                  : 4 Объемная плотность по ГГК-П 
GGKB               .imp/min                                : 2 Большой зонд плотностного гамма-гамма каротажа ГГК-П 
GGKS               .imp/min                                : 3 Малый зонд плотностного гамма-гамма каротажа ГГК-П 
~Ascii
# ...
2934.4     2.4844     17685.56   29026.29  
2934.6     2.4663     18106.6    29379.1   
2934.8     2.4431     18608.15   29559.75  
2935       2.4444     18717      29756.31  
2935.2     2.4559     19026.48   30447.21  
2935.4     2.4947     18781.01   30909.66  
2935.6     2.5432     18817.26   32162.7   
2935.8     2.605      18563.9    33182.37  
2936       2.6239     18277.63   33334.9   
2936.2     2.4975     18549.15   30688.83  
2936.4     2.4608     18814.74   30311.74  
2936.6     2.488      18824.78   30788.68  
2936.8     2.4956     18653.74   30768.69  
2937       2.52       18504.92   30889.33  
2937.2     2.5273     18425.68   31318.57  
2937.4     2.5012     19155.47   31976.78  
2937.6     2.4852     19632.74   32056.79  
2937.8     2.4998     19085      31460.43  
2938       2.5359     18623.84   31571.78  
2938.2     2.6031     18285.25   32762.2   
2938.4     2.5881     18660.59   33110.29  
2938.6     2.6363     18274.56   33361.74  
2938.8     2.5061     18118.12   30091.57  
2939       2.5434     17668.99   30191.72  
2939.2     2.5817     18114.15   32095.56  
2939.4     2.685      18117.46   34495.86  
2939.6     2.6291     18143.65   33269.8   
2939.8     2.6102     18776.07   34193.5   
2940       2.4841     19910.91   32814.54  
2940.2     2.447      20085.09   31881.1   
2940.4     2.4467     20239.37   32213.26  
2940.6     2.4307     20169.84   31581.51  
2940.8     2.4578     20015.88   32132.92  
2941       2.4341     20507.35   32496.73  
2941.2     2.41       21074.63   32520.85  
2941.4     2.474      20410      32793.04  
2941.6     2.4985     19918.62   33026.13  
2941.8     2.4934     19943.54   32489.12  
2942       2.6113     18399.21   32740.76  
2942.2     2.6367     17896.11   32969.28  
2942.4     2.4637     17891.76   28885.7   
2942.6     2.4465     18373.94   29358.2   
2942.8     2.4744     18607.87   30281.31  
2943       2.4734     19155.78   31215.71  
2943.2     2.4746     19652.44   32284.52  
2943.4     2.4254     21082.65   33349.28  
2943.6     2.4172     22005.76   34205.13  
2943.8     2.4701     21725.16   35010.79  
2944       2.4754     21427.17   34810.4   
2944.2     2.4739     21483.58   34845.84  
2944.4     2.477      21619.72   35193.25  
2944.6     2.4764     21367.45   34586.63  
2944.8     2.4837     21047.15   34281.57  
2945       2.4855     20531.43   33420.74  
2945.2     2.4796     20318.29   33254.95  
2945.4     2.4526     21135.99   34171.27  
2945.6     2.4397     22565.47   35940.37  
2945.8     2.4284     22764.32   35454.99  
2946       2.3807     21823.95   32699.16  
2946.2     2.3678     21370.62   31924.5   
2946.4     2.3692     21168.15   31596.36  
2946.6     2.3731     20825.05   31132.39  
2946.8     2.4309     20091.72   31554.21  
2947       2.4704     19297.47   30880.05  
2947.2     2.4717     18496.72   29843.16  
2947.4     2.4494     18341.59   29233.36  
2947.6     2.4705     18515.97   30123.43  
2947.8     2.4274     19496.15   30982.38  
2948       2.4009     20755.6    31980.37  
2948.2     2.4406     20759.5    32696.32  
2948.4     2.4973     20194.42   33206.56  
2948.6     2.4952     20194.27   33499.44  
2948.8     2.4886     20701.09   33912.95  
2949       2.5246     20197.26   33917.7   
2949.2     2.4432     19859.84   31358.85  
2949.4     2.46       19754.39   31886.19  
2949.6     2.443      20301.39   32160.08  
2949.8     2.4768     20133.74   32717.11  
2950       2.4844     20302.02   33346.98  
2950.2     2.51       20635.25   34419.04  
2950.4     2.5157     20504.64   34274.22  
2950.6     2.4467     20208.55   32037.3   
2950.8     2.471      20078.86   32497.69  
2951       2.5109     20130.4    33564.8   
2951.2     2.5412     19803.5    33715.92  
2951.4     2.5319     19272.51   32852.01  
2951.6     2.5422     18813.16   32055.77  
2951.8     2.523      18376.52   30724.92  
2952       2.5519     17474.73   29714.6   
2952.2     2.5856     16609.79   29347.51  
2952.4     2.5612     16921.3    29451.08  
2952.6     2.5685     17109.33   29882.08  
2952.8     2.5591     17269.66   30017.86  
2953       2.5305     17442.11   29533.11  
2953.2     2.5267     17416.7    29421.14  
2953.4     2.5487     17189.18   29381.03  
2953.6     2.6372     16776.16   30698.69  
2953.8     2.6365     16657.62   30767.47  
2954       2.5058     17002.31   28358.99  
2954.2     2.4795     17339.87   28334.6   
2954.4     2.4904     17359.04   28358.73  
2954.6     2.5294     16873.57   28589.94  
2954.8     2.5002     17205.59   28630.74  
2955       2.4696     17701.35   28760.96  
2955.2     2.4772     18078.33   29555.17  
2955.4     2.4745     18423.74   29945.28  
2955.6     2.4417     18690.89   29692.5   
2955.8     2.4525     18692.82   29746.97  
2956       2.4798     19041.86   30951.21  
2956.2     2.4836     19505.33   31935.67  
2956.4     2.4894     19300.38   31504.5   
2956.6     2.5247     18735.74   31495.77  
2956.8     2.4881     18732.83   30849.78  
2957       2.4538     19342.04   31113.24  
2957.2     2.4887     19883.86   32830.2   
2957.4     2.5487     20485.98   35277.39  
2957.6     2.5401     20487.01   34922.77  
2957.8     2.4786     19896.64   31842.2   
2958       2.5165     17982.46   29774.04  
2958.2     2.4977     17415.7    28694.8   
2958.4     2.5169     17297.81   28975.17  
2958.6     2.546      17324.2    29857.79  
2958.8     2.5272     18050.68   30835.96  
2959       2.5009     19074.61   31883.83  
2959.2     2.4519     19769.68   31600.03  
2959.4     2.4498     19700.69   31400.97  
2959.6     2.4084     19892.3    30687.09  
2959.8     2.419      19706.8    30499.91  
2960       2.4289     19156.69   29992.7   
2960.2     2.4317     19209.31   30065.79  
2960.4     2.4481     18793.43   29849.56  
2960.6     2.4479     18850.91   30060.25  
2960.8     2.4818     19267.92   31661.55  
2961       2.4937     19616.47   32271.3   
2961.2     2.5142     19529.75   32742.61  
2961.4     2.5674     19711.09   34397.86  
2961.6     2.5113     19878.69   33177.95  
2961.8     2.4706     19497.35   31336.38  
2962       2.4421     18952.04   29955.47  
2962.2     2.4185     19117.1    29888.8   
2962.4     2.398      19657.22   30258.87  
2962.6     2.3648     20192.16   30166.24  
2962.8     2.3698     20134.85   30088.22  
2963       2.3973     19838.09   30260.35  
2963.2     2.4381     19488.82   30658.3   
2963.4     2.4235     19356.91   30340.31  
2963.6     2.4087     20071.71   31069.21  
2963.8     2.433      19847.33   31050.62  
2964       2.4474     19577.1    31160.42  
2964.2     2.4451     19617.46   31002.08  
2964.4     2.4287     19179.78   30004.44  
2964.6     2.4534     19058.52   30474     
2964.8     2.4543     19610.32   31510.34  
2965       2.5248     19697.53   33128.83  
2965.2     2.6106     18588.34   33785.36  
2965.4     2.5484     17726.5    30404.36  
2965.6     2.5467     17776.33   30485.88  
2965.8     2.5968     17718.63   31724.5   
2966       2.5888     18661.71   33551.32  
2966.2     2.5677     19872.78   34918.37  
2966.4     2.4815     20191.46   32862.43  
2966.6     2.5696     19513.8    33675.16  
2966.8     2.6578     18556.71   34415.02  
2967       2.5837     17918.83   31543.43  
2967.2     2.5107     17957.27   29959.74  
2967.4     2.5243     17540.91   29316.17  
2967.6     2.5511     17107.06   29582.54  
2967.8     2.4976     18085.84   30352.26  
2968       2.4702     18988.54   30733.5   
2968.2     2.4947     19100.09   31484.75  
2968.4     2.511      18857.8    31471.6   
2968.6     2.4821     19141.82   31292.25  
2968.8     2.5028     19063.39   31687.46  
2969       2.4994     19472.98   32387.32  
2969.2     2.5189     19978.77   33591.68  
2969.4     2.5737     19924.7    34809.13  
2969.6     2.555      19369.16   33188.17  
2969.8     2.577      17855.77   31681.59  
2970       2.5575     16977.68   29341.12  
2970.2     2.5346     17243.38   29442.91  
2970.4     2.4653     17490.51   28157.22  
2970.6     2.4873     17229.37   28161.1   
