~Version
 VERS              .         2.0                           : CWLS LOG ASCII STANDARD - VERSION 2.0
 WRAP              .         NO                            : ONE LINE PER DEPTH STEP
 DLM               .         SPACE                         : DELIMITING CHARACTER(SPACE TAB OR COMMA)
~Well Information
#_______________________________________________________________________________
#
#PARAMETER_NAME    .UNIT     VALUE                         : DESCRIPTION
#_______________________________________________________________________________
STRT               .m        2898                          : First reference value
STOP               .m        3121.6                        : Last reference value
STEP               .m        0.2                           : Step increment
NULL               .         -9999                         : Missing value
COMP               .                                       : Company
WELL               .         200                           : Well name
FLD                .                                       : Field
LOC                .                                       : Location
CNTY               .                                       : County
STAT               .                                       : State
CTRY               .                                       : Country
SRVC               .                                       : Service Company
DATE               .                                       : Date
API                .                                       : API number
LONG               .dega     2.052578559                   : 
HZCS               .GCS_WGS_1984 World_Mercator                : 
Cartographic_reference_system .         GCS_WGS_1984                  : 
Куст               .         2                             : 
EREF               .m        139.76                        : 
group              .         Pad2                          : 
Тип                .         Разведка                      : 
Статус             .         Не проверено                  : 
LATI               .dega     2.1856221126                  : 
Интер-р            .         Зайцев                        : 
Pad                .         2                             : 
~Parameter Information Block
#_______________________________________________________________________________
#
#PARAMETER_NAME    .UNIT     VALUE                         : DESCRIPTION
#_______________________________________________________________________________
SET                .         LAS5                          : 
REAL_CREATION_DATE .         Wed Apr 11 2012-13_17_07      : 
TLFamily_RK20      .         Resistivity 20                : 
TLFamily_RK10      .         Resistivity 10                : 
group              .         INI                           : 
TLFamily_RK05      .         Resistivity 05                : 
TLFamily_RK07      .         Resistivity 07                : 
TLFamily_RK14      .         Resistivity 14                : 
TLFamily_MD        .         Measured Depth                : 
~Curve Information
#_______________________________________________________________________________
#
#LOGNAME           .UNIT     LOG_ID                        : DESCRIPTION
#_______________________________________________________________________________
MD                 .m                                      : 1 Depth 
RK05               .Ohmm                                   : 2 ВИКИЗ, зонд 0,5 м 
RK07               .Ohmm                                   : 3 ВИКИЗ, зонд 0,7 м 
RK10               .Ohmm                                   : 4 ВИКИЗ, зонд 1 м 
RK14               .Ohmm                                   : 5 ВИКИЗ, зонд 1,4 м 
RK20               .Ohmm                                   : 6 ВИКИЗ, зонд 2 м 
~Ascii
# ...
3043       2.2391     2.0457     2.2403     2.9154     3.315     
3043.2     2.7961     2.5951     2.8305     3.4782     3.7673    
3043.4     2.5814     2.5511     2.7574     3.4934     3.6947    
3043.6     2.3729     2.3117     2.5687     3.2119     3.3094    
3043.8     2.3792     2.2488     2.5442     3.1874     3.1955    
3044       2.3301     2.1694     2.4817     3.1767     3.2214    
3044.2     2.2838     2.0602     2.2982     3.0968     3.1686    
3044.4     2.2307     2.0826     2.2388     3.036      3.1825    
3044.6     2.2568     2.1675     2.3533     2.9937     3.3102    
3044.8     2.1591     2.1084     2.3395     3.0123     3.2749    
3045       2.1721     2.0995     2.3769     3.0345     3.1424    
3045.2     2.2133     2.0128     2.3038     2.9961     3.0916    
3045.4     2.5915     2.1717     2.4117     3.038      3.0951    
3045.6     2.5395     2.364      2.4826     3.1234     3.1396    
3045.8     2.0392     1.9143     2.0744     2.7722     3.0528    
3046       1.9837     1.8601     2.133      2.7755     3.0545    
3046.2     4.6336     3.9754     4.0167     4.3917     3.9686    
3046.4     2.3795     2.6236     2.7911     3.9202     3.9352    
3046.6     2.0715     1.8636     2.0534     2.7223     3.0209    
3046.8     2.6748     1.8974     2.1073     2.8649     2.9995    
3047       2.4243     2.3018     2.6445     3.3651     3.6402    
3047.2     3.0266     2.7918     2.7077     3.3755     3.8086    
3047.4     2.9859     3.1773     3.3838     3.8912     4.0318    
3047.6     3.3291     3.5521     4.2944     4.7116     4.4552    
3047.8     3.9776     3.9805     4.7298     5.5928     4.9239    
3048       4.6877     4.7485     5.0367     5.6155     5.743     
3048.2     4.9708     4.7614     4.9557     5.7623     5.961     
3048.4     6.1847     6.1228     6.2466     6.5181     5.9055    
3048.6     4.0705     4.8401     5.4426     6.2615     5.667     
3048.8     3.9701     3.5615     4.1493     5.105      5.324     
3049       3.9534     3.5262     4.0345     4.9614     5.4003    
3049.2     2.9801     2.9797     3.3537     4.7062     5.586     
3049.4     3.8262     3.6092     4.01       5.1879     5.8912    
3049.6     5.2676     4.2145     5.1461     7.1896     7.4788    
3049.8     5.1205     5.5553     6.6716     9.003600000000001 9.2028    
3050       6.6737     5.1521     5.814      8.933400000000001 10.044    
3050.2     8.0958     7.9882     9.3185     10.2522    10.478    
3050.4     9.2321     9.9234     10.489     12.5864    12.259    
3050.6     6.9915     8.8084     13.5428    19.4897    14.8747   
3050.8     6.9373     7.9175     11.6804    16.7139    13.7996   
3051       8.5649     7.7306     10.9772    14.7535    12.5826   
3051.2     11.5817    8.6439     10.2284    16.1533    12.2656   
3051.4     24.2508    9.336      10.7       16.0314    14.8825   
3051.6     4.5632     6.335      9.821300000000001 15.2982    15.2859   
3051.8     5.5588     6.2196     7.8849     13.1687    16.9013   
3052       7.378      8.2998     12.7335    19.7357    22.4368   
3052.2     14.919     7.403      11.4208    22.8355    21.117    
3052.4     6.8736     7.4831     9.254099999999999 12.4444    15.0976   
3052.6     4.6339     5.2578     6.4124     9.0707     12.9705   
3052.8     4.0181     4.8573     6.3115     8.8124     11.498    
3053       4.2925     5.0831     7.0176     9.6715     10.9897   
3053.2     4.8703     5.7124     7.6721     10.523     11.306    
3053.4     3.7509     4.3755     6.5644     9.1509     10.7997   
3053.6     3.7612     4.1283     5.7708     8.148899999999999 10.5502   
3053.8     4.0295     4.3324     5.708      8.1128     9.6608    
3054       3.6556     3.8977     5.0523     7.5052     9.0061    
3054.2     4.2256     4.2259     5.3083     7.7191     9.7089    
3054.4     2.7973     3.2468     4.9073     8.023300000000001 10.4756   
3054.6     4.211      3.6916     5.4274     8.159000000000001 10.7602   
3054.8     7.4309     5.3897     6.5469     9.092000000000001 11.4261   
3055       16.6959    8.2697     8.251899999999999 10.3208    11.4529   
3055.2     10.2412    8.9461     8.142099999999999 10.1128    10.4991   
3055.4     6.7004     7.1437     6.9458     7.682      8.318300000000001
3055.6     3.9964     4.6061     5.1313     6.4672     7.1289    
3055.8     4.1193     3.5854     4.0991     5.1576     5.6507    
3056       3.9143     3.5767     4.0516     5.067      5.3807    
3056.2     3.9646     3.6729     3.9025     4.8255     5.2309    
3056.4     2.842      3.0613     3.475      4.5259     4.9632    
3056.6     3.1016     2.9582     3.2893     4.0996     4.8105    
3056.8     2.6775     2.661      3.1155     3.9523     4.4062    
3057       3.3648     2.7539     3.2701     4.0974     4.3285    
3057.2     3.5722     3.6257     3.9171     4.7323     4.7482    
3057.4     3.5316     3.7605     4.0279     4.6859     5.0339    
3057.6     3.0732     2.8835     3.4319     4.2618     4.6839    
3057.8     3.7279     3.506      3.7724     4.2449     4.2659    
3058       2.8662     3.0129     3.3778     4.1312     4.175     
3058.2     2.9504     2.7283     3.1669     3.9409     4.1023    
3058.4     2.9786     3.0748     3.6299     4.2713     4.4211    
3058.6     3.6003     3.3376     3.8495     4.4287     4.671     
3058.8     3.9342     3.3575     3.747      4.5473     4.4221    
3059       3.4688     3.5875     3.776      4.5385     4.3123    
3059.2     3.2683     2.9639     3.3841     4.1147     4.3056    
3059.4     3.866      3.4784     3.8502     4.2605     4.4296    
3059.6     3.3171     3.2023     3.6084     4.2965     4.3184    
3059.8     2.9113     2.7567     3.0863     3.9815     4.1196    
3060       2.6039     2.598      3.0448     3.9398     4.25      
3060.2     2.6707     2.6983     3.3515     4.2964     4.9882    
3060.4     2.4071     2.5383     3.6677     5.1337     5.8275    
3060.6     4.6192     3.6715     4.6183     6.1291     6.4686    
3060.8     8.2531     5.9293     6.5028     7.7538     7.6205    
3061       6.2027     6.169      6.3077     7.1736     7.2197    
3061.2     3.7963     3.8056     4.4496     5.1975     5.2282    
3061.4     2.7624     3.3931     3.9117     4.7514     4.6514    
3061.6     1.9943     2.0355     2.7684     3.7989     4.0558    
3061.8     3.0306     2.5376     3.105      3.6497     3.816     
3062       2.5716     2.2725     2.6785     3.4845     3.6648    
3062.2     3.133      2.9012     2.9717     3.4659     3.5363    
3062.4     2.4503     2.4437     2.6835     3.3263     3.5055    
3062.6     2.417      2.2131     2.6119     2.95       3.3226    
3062.8     2.5866     2.2662     2.5479     2.9175     3.1738    
3063       2.5675     2.4093     2.6237     2.9923     3.0219    
3063.2     2.5627     2.6321     2.7518     2.8117     2.7639    
3063.4     2.5451     2.2087     2.4312     2.6529     2.6711    
3063.6     2.0371     2.116      2.3313     2.5619     2.5079    
3063.8     2.7403     2.0878     2.3213     2.588      2.5213    
3064       3.5826     3.396      3.57       2.9599     2.9919    
3064.2     2.285      2.077      2.2519     2.3211     2.6111    
3064.4     1.9056     1.6938     1.9538     2.0375     2.2223    
3064.6     2.1        2.2759     2.3991     2.2088     2.0302    
3064.8     1.6907     1.5944     1.6651     1.9212     1.9336    
3065       1.632      1.7387     1.7689     1.8431     1.9416    
3065.2     1.2994     1.4692     1.6602     2.0404     2.2663    
3065.4     2.0474     1.6507     2.1243     2.3646     2.6095    
3065.6     4.509      3.3431     3.6404     3.9164     4.0622    
3065.8     6.4724     4.7024     4.8416     6.3209     7.0764    
3066       14.062     9.8042     9.042299999999999 8.5556     7.6877    
3066.2     23.6328    15.7024    10.8441    11.4791    10.8196   
3066.4     11.1423    14.5129    12.7249    14.0118    11.206    
3066.6     15.0718    15.2393    15.0683    15.3107    11.9299   
3066.8     17.4774    10.7423    12.8068    15.4578    13.0252   
