~Version
 VERS              .         2.0                           : CWLS LOG ASCII STANDARD - VERSION 2.0
 WRAP              .         NO                            : ONE LINE PER DEPTH STEP
 DLM               .         SPACE                         : DELIMITING CHARACTER(SPACE TAB OR COMMA)
~Well Information
#_______________________________________________________________________________
#
#PARAMETER_NAME    .UNIT     VALUE                         : DESCRIPTION
#_______________________________________________________________________________
STRT               .m        2898                          : First reference value
STOP               .m        3121.6                        : Last reference value
STEP               .m        0.2                           : Step increment
NULL               .         -9999                         : Missing value
COMP               .                                       : Company
WELL               .         200                           : Well name
FLD                .                                       : Field
LOC                .                                       : Location
CNTY               .                                       : County
STAT               .                                       : State
CTRY               .                                       : Country
SRVC               .                                       : Service Company
DATE               .                                       : Date
API                .                                       : API number
LONG               .dega     2.052578559                   : 
HZCS               .GCS_WGS_1984 World_Mercator                : 
Cartographic_reference_system .         GCS_WGS_1984                  : 
Куст               .         2                             : 
EREF               .m        139.76                        : 
group              .         Pad2                          : 
Тип                .         Разведка                      : 
Статус             .         Не проверено                  : 
LATI               .dega     2.1856221126                  : 
Интер-р            .         Зайцев                        : 
Pad                .         2                             : 
~Parameter Information Block
#_______________________________________________________________________________
#
#PARAMETER_NAME    .UNIT     VALUE                         : DESCRIPTION
#_______________________________________________________________________________
SET                .         LAS4                          : 
TLFamily_GR        .         Russian Gamma Ray             : 
REAL_CREATION_DATE .         Wed Apr 11 2012-13_17_06      : 
TLFamily_NKTb      .         Neutron Far                   : 
TLFamily_NKTs      .         Neutron Near                  : 
group              .         INI                           : 
TLFamily_TNPH      .         Neutron Porosity              : 
TLFamily_MD        .         Measured Depth                : 
~Curve Information
#_______________________________________________________________________________
#
#LOGNAME           .UNIT     LOG_ID                        : DESCRIPTION
#_______________________________________________________________________________
MD                 .m                                      : 1 Depth 
GR                 .uR/h                                   : 5 Естественная гамма-активность породы по гамма-каротажу 
NKTb               .UE                                     : 2 ННК-т, большой зонд 
NKTs               .UE                                     : 3 ННК-т, малый зонд 
TNPH               .v/v                                    : 4 Суммарное водородосодержание 
~Ascii
# ...
2985.6     12.5797    5.2185     1.4852     0.248041  
2985.8     12.7225    5.2507     1.4813     0.232264  
2986       13.0402    5.2058     1.4894     0.236433  
2986.2     12.9126    5.2925     1.4937     0.233998  
2986.4     12.7661    5.1888     1.4816     0.233375  
2986.6     13.2846    4.9296     1.4569     0.244057  
2986.8     14.0451    4.7118     1.454      0.256792  
2987       15.2962    4.5239     1.472      0.271456  
2987.2     18.2428    4.3588     1.4501     0.29258   
2987.4     21.4812    4.3456     1.3902     0.297277  
2987.6     22.852     4.5059     1.3626     0.272983  
2987.8     21.7068    4.605      1.4068     0.251552  
2988       20.4508    4.5029     1.4483     0.262877  
2988.2     20.6504    4.4747     1.4273     0.284971  
2988.4     21.3488    4.617      1.3808     0.271761  
2988.6     21.675     4.5966     1.3683     0.251349  
2988.8     22.7352    4.4794     1.3796     0.255852  
2989       24.5635    4.3761     1.3842     0.267334  
2989.2     25.0556    4.256      1.3772     0.27921   
2989.4     24.0975    4.2066     1.366      0.286067  
2989.6     22.9991    4.1821     1.3577     0.284783  
2989.8     21.9967    4.1041     1.3645     0.287342  
2990       21.0523    4.078      1.3689     0.296199  
2990.2     20.7783    4.0983     1.351      0.296423  
2990.4     21.6129    4.0707     1.3318     0.291389  
2990.6     22.2047    4.0501     1.333      0.288145  
2990.8     21.8276    3.9476     1.3198     0.292362  
2991       22.8277    3.7261     1.2884     0.307635  
2991.2     24.6521    3.7732     1.2874     0.311378  
2991.4     25.8192    3.8755     1.2949     0.296346  
2991.6     27.2105    3.6919     1.2916     0.301871  
2991.8     28.5182    3.5135     1.2822     0.326564  
2992       28.93      3.4777     1.2656     0.337952  
2992.2     28.2171    3.6622     1.2646     0.326549  
2992.4     27.1206    4.0251     1.2958     0.291834  
2992.6     26.2149    4.2335     1.3294     0.268607  
2992.8     25.3743    4.1177     1.3429     0.272156  
2993       24.5102    3.8299     1.3524     0.299579  
2993.2     23.333     3.759      1.369      0.327469  
2993.4     21.6213    3.9765     1.3926     0.324329  
2993.6     20.2316    4.2814     1.4073     0.301193  
2993.8     19.6858    4.5163     1.4034     0.277918  
2994       19.5166    4.5413     1.3931     0.263685  
2994.2     19.6407    4.3709     1.3774     0.26739   
2994.4     20.0716    4.084      1.3739     0.282791  
2994.6     21.6922    3.6844     1.3732     0.317097  
2994.8     25.1191    3.3983     1.3412     0.364021  
2995       28.5122    3.4523     1.2979     0.372904  
2995.2     29.7066    3.6942     1.2734     0.333477  
2995.4     29.8924    3.8178     1.2697     0.299058  
2995.6     32.1694    3.6441     1.262      0.298263  
2995.8     37.2539    3.3538     1.2453     0.328031  
2996       43.4925    3.3244     1.2523     0.349915  
2996.2     47.406     4.0134     1.3182     0.320113  
2996.4     42.0784    5.5129     1.5213     0.231667  
2996.6     30.8811    6.4842     1.6919     0.194984  
2996.8     24.7502    6.4571     1.674      0.200303  
2997       25.5301    5.8813     1.6128     0.218544  
2997.2     27.3238    5.7802     1.6873     0.228754  
2997.4     29.2866    5.6086     1.6653     0.244421  
2997.6     34.3415    4.7475     1.4575     0.27248   
2997.8     38.7087    3.9554     1.2847     0.299371  
2998       39.2247    3.6026     1.2536     0.305313  
2998.2     38.0793    3.3883     1.2669     0.324963  
2998.4     37.4061    3.2722     1.2616     0.354923  
2998.6     37.8308    3.3474     1.2423     0.356935  
2998.8     37.774     3.5415     1.255      0.330711  
2999       36.753     3.7567     1.2955     0.308612  
2999.2     35.193     3.8564     1.329      0.301307  
2999.4     32.8271    3.7383     1.3397     0.311648  
2999.6     30.3972    3.5855     1.3169     0.335944  
2999.8     29.4187    3.6677     1.2685     0.335087  
3000       29.6323    3.6886     1.2441     0.305452  
3000.2     30.2818    3.4496     1.243      0.308966  
3000.4     31.5737    3.1583     1.2362     0.346833  
3000.6     32.3981    2.9996     1.225      0.380497  
3000.8     32.2237    3.1004     1.2312     0.3857    
3001       32.4311    3.4123     1.234      0.352924  
3001.2     33.3429    3.523      1.2241     0.317977  
3001.4     34.2521    3.4435     1.2195     0.316041  
3001.6     33.5426    3.3043     1.2202     0.328305  
3001.8     32.363     3.1726     1.2426     0.347619  
3002       31.8042    3.0749     1.2497     0.373672  
3002.2     31.2311    3.0662     1.2171     0.387699  
3002.4     30.285     3.1872     1.1921     0.365541  
3002.6     29.7088    3.2371     1.208      0.338245  
3002.8     29.3442    3.0996     1.2193     0.349405  
3003       28.4698    2.9289     1.2009     0.382979  
3003.2     27.7618    2.9322     1.1838     0.391224  
3003.4     27.6011    2.9948     1.1967     0.376932  
3003.6     26.6081    3.1255     1.2175     0.368122  
3003.8     24.0558    3.262      1.2344     0.352759  
3004       21.1176    3.2983     1.2588     0.346191  
3004.2     19.7563    3.3217     1.2886     0.353343  
3004.4     20.1482    3.4419     1.2979     0.355898  
3004.6     20.8239    3.5749     1.2841     0.339032  
3004.8     20.6967    3.5903     1.2754     0.323536  
3005       20.5063    3.4807     1.2701     0.325864  
3005.2     21.1635    3.3066     1.2596     0.343832  
3005.4     21.9894    3.2533     1.244      0.360106  
3005.6     21.5384    3.3864     1.2443     0.348778  
3005.8     20.2586    3.5326     1.2546     0.326533  
3006       18.8346    3.6646     1.2606     0.315918  
3006.2     17.4652    3.8916     1.282      0.296926  
3006.4     16.3829    4.0133     1.3105     0.282011  
3006.6     15.3869    4.0572     1.3467     0.286099  
3006.8     15.061     4.184      1.4019     0.290804  
3007       15.1157    4.3169     1.4071     0.291644  
3007.2     15.1945    4.4994     1.3868     0.278689  
3007.4     15.9515    4.5674     1.3829     0.259449  
3007.6     16.5608    4.4907     1.3799     0.25978   
3007.8     16.2278    4.5336     1.3735     0.264211  
3008       15.8219    4.7544     1.4001     0.250054  
3008.2     16.4371    4.797      1.4255     0.242793  
3008.4     17.9039    4.5629     1.4088     0.257266  
3008.6     18.9009    4.4491     1.4144     0.272755  
3008.8     17.6581    4.631      1.4712     0.271411  
3009       15.8024    4.8941     1.4915     0.265402  
3009.2     15.5831    4.9471     1.4607     0.255292  
3009.4     15.8661    4.8427     1.448      0.251518  
3009.6     15.0476    4.7308     1.4565     0.256625  
3009.8     14.1639    4.6291     1.4642     0.268104  
3010       13.5615    4.7087     1.49       0.273598  
3010.2     13.1057    4.9327     1.5236     0.266527  
3010.4     13.3804    5.138      1.5398     0.257618  
3010.6     13.6878    5.3239     1.5499     0.247738  
3010.8     13.1364    5.4335     1.5532     0.238983  
3011       12.6649    5.4314     1.5217     0.236025  
3011.2     13.1514    5.299      1.475      0.232244  
3011.4     13.7594    4.9994     1.453      0.235618  
3011.6     13.7052    4.7235     1.4662     0.25302   
3011.8     13.573     4.6194     1.4876     0.27348   
3012       13.9712    4.6108     1.5052     0.283795  
3012.2     13.85      4.6952     1.5094     0.284241  
3012.4     13.3741    4.8026     1.5266     0.275693  
3012.6     13.0707    4.7667     1.538      0.275321  
3012.8     13.2177    4.6109     1.5106     0.287084  
3013       13.9189    4.4577     1.4606     0.294412  
3013.2     14.7524    4.3351     1.4209     0.293022  
3013.4     15.468     4.203      1.4126     0.293398  
3013.6     15.9431    4.0785     1.4219     0.304424  
3013.8     16.1293    4.1104     1.4178     0.3155    
3014       15.9774    4.367      1.4098     0.298785  
3014.2     15.0937    4.4882     1.4277     0.274036  
3014.4     13.9351    4.4243     1.4343     0.278135  
3014.6     13.4551    4.4277     1.4101     0.284711  
