~Version
 VERS              .         2.0                           : CWLS LOG ASCII STANDARD - VERSION 2.0
 WRAP              .         NO                            : ONE LINE PER DEPTH STEP
 DLM               .         SPACE                         : DELIMITING CHARACTER(SPACE TAB OR COMMA)
~Well Information
#_______________________________________________________________________________
#
#PARAMETER_NAME    .UNIT     VALUE                         : DESCRIPTION
#_______________________________________________________________________________
STRT               .M        2666.2                        : First reference value
STOP               .M        2778.8                        : Last reference value
STEP               .M        0.2000002                     : Step increment
NULL               .         -9999                         : Missing value
COMP               .                                       : Company
WELL               .         616                           : Well name
FLD                .                                       : Field
LOC                .                                       : Location
CNTY               .                                       : County
STAT               .                                       : State
CTRY               .                                       : Country
SRVC               .                                       : Service Company
DATE               .                                       : Date
API                .                                       : API number
PROJECT_UPGRADE_TIME .         2021-03-18T21_24_50           : 
group              .         Good                          : 
~Parameter Information Block
#_______________________________________________________________________________
#
#PARAMETER_NAME    .UNIT     VALUE                         : DESCRIPTION
#_______________________________________________________________________________
SET                .         D0400_D                       : 
OTHER              .         Прибор_ АКП4_90               : 
OTHER_2            .         Номер прибора_ 56             : 
OTHER_3            .         Режим_ АКП4_90 - все каналы   : 
OTHER_4            .         Форма_ Г-1                    : 
OTHER_5            .         Тарировки_                    : 
OTHER_6            .         TM.GRD = 0.00379*TM$.UE + 7.11: 
OTHER_7            .         MN.ATM = (8e-006*TM.GRD + 0.02)*(MN$.UE + -8*TM.GRD + -1800): 
OTHER_8            .         GK.MKR/H = GK$.UE / 57.17 + 0 : 
PROJECT_UPGRADE_TIME .         2021-03-18T21_24_49           : 
TLFamily_DEPT      .         Measured Depth                : 
TLFamily_GK        .         Gamma Ray                     : 
TLFamily_GK$       .                                       : 
TLFamily_LM        .         Casing Collar locator         : 
TLFamily_METKA     .                                       : 
TLFamily_METKA_1   .                                       : 
TLFamily_MN        .                                       : 
TLFamily_MN$       .                                       : 
TLFamily_RCOR      .                                       : 
TLFamily_SPID      .         Spontaneous Potential         : 
TLFamily_TIME      .         Time                          : 
TLFamily_TM        .         Temperature                   : 
TLFamily_TM$       .         Temperature                   : 
group              .         second                        : 
~Curve Information
#_______________________________________________________________________________
#
#LOGNAME           .UNIT     LOG_ID                        : DESCRIPTION
#_______________________________________________________________________________
DEPT               .M                                      : 1 Глубина, м -    0.0 см 
GK                 .MKR/H                                  : 12 Гамма-активность, мкр./ч -   65.0 см 
GK$                .UE                                     : 9 Гамма-активность, усл.ед. -   65.0 см 
LM                 .                                       : 8 Локатор муфт,  -   30.0 см 
METKA              .                                       : 3 Метки,  -    0.0 см 
METKA_1            .                                       : 13 Маркеры - 65 см 
MN                 .ATM                                    : 11 Давление, атм. -  140.0 см 
MN$                .UE                                     : 7 Давление, усл.ед. -  140.0 см 
RCOR               .CM/KM                                  : 5 Коррекция по ролику, см/км -    0.0 см 
SPID               .M/H                                    : 2 Скорость, м/час -    0.0 см 
TIME               .S                                      : 4 Время, сек -    0.0 см 
TM                 .GRD                                    : 10 Температура, °C -  145.0 см 
TM$                .UE                                     : 6 Температура, усл.ед. -  145.0 см 
~Ascii
# ...
2722.2     6.9        432        547        0          0          263.971    15243      0          -320       2839.66    84.49      20417     
2722.4     6.3        426        590        0          0          264.032    15246      0          -320       2837.22    84.492     20417     
2722.6     5.55       353        630        0          0          264.039    15246      0          -320       2834.77    84.497     20419     
2722.8     5.15       299        585        0          0          263.949    15242      0          -260       2832.33    84.506     20421     
2723       5.1        296        551        0          0          263.9      15240      0          -320       2829.77    84.516     20424     
2723.2     5.05       289        519        0          0          263.845    15237      0          -260       2827.32    84.525     20426     
2723.4     5.07       283        519        0          0          263.824    15236      0          -320       2824.73    84.528     20427     
2723.6     5.09       305        496        0          0          263.879    15239      0          -300       2822.29    84.531     20428     
2723.8     4.9        289        558        0          0          263.948    15242      0          -300       2819.85    84.532     20428     
2724       4.89       261        557        0          0          264.031    15246      0          -320       2817.41    84.533     20428     
2724.2     5.13       279        512        0          0          264.057    15247      0          -320       2814.96    84.54      20430     
2724.4     5.26       305        553        0          0          264.215    15255      0          -300       2812.52    84.545     20431     
2724.6     5.2        301        577        0          0          264.222    15255      0          -260       2810.07    84.547     20432     
2724.8     5.16       295        542        0          0          264.194    15254      0          -300       2807.63    84.555     20434     
2725       5.16       295        609        0          0          264.131    15251      0          -260       2805.06    84.56      20435     
2725.2     5.19       288        561        0          0          264.098    15249      0          -320       2802.61    84.566     20437     
2725.4     5.31       297        518        0          0          264.069    15248      0          -320       2800.17    84.578     20440     
2725.6     5.4        306        557        0          0          264.068    15248      0          -320       2797.72    84.585     20442     
2725.8     5.44       311        514        0          0          264.096    15249      0          -280       2795.27    84.589     20443     
2726       5.45       310        525        0          0          264.11     15250      0          -260       2792.72    84.593     20444     
2726.2     5.47       315        539        0          0          264.198    15254      0          -305       2790.29    84.599     20446     
2726.4     5.43       318        519        0          0          264.315    15260      0          -290       2787.88    84.604     20447     
2726.6     5.31       301        817        0          0          264.35     15262      0          -320       2785.36    84.608     20448     
2726.8     5.35       306        547        0          0          264.405    15264      0          -280       2782.93    84.612     20449     
2727       5.36       319        512        0          0          264.438    15266      0          -280       2780.48    84.617     20450     
2727.2     5.15       308        641        0          0          264.438    15266      0          -260       2778.04    84.623     20452     
2727.4     4.96       283        873        0          0          264.397    15264      0          -300       2775.58    84.624     20452     
2727.6     4.96       273        3900       0          0          264.37     15263      0          -320       2773.11    84.627     20453     
2727.8     5.13       298        4423       0          0          264.365    15262      0          -300       2770.55    84.634     20455     
2728       5.04       300        605        0          0          264.313    15260      0          -290       2768.17    84.634     20455     
2728.2     4.86       275        637        0          0          264.307    15260      0          -320       2765.65    84.636     20455     
2728.4     4.91       278        647        0          0          264.32     15260      0          -305       2763.25    84.638     20456     
2728.6     4.93       301        629        0          0          264.334    15261      0          -300       2760.77    84.644     20458     
2728.8     4.6        291        634        0          0          264.417    15265      0          -260       2758.33    84.65      20459     
2729       4.4        258        748        0          0          264.52     15270      0          -305       2755.9     84.653     20460     
2729.2     4.38       252        877        0          0          264.608    15274      0          -320       2753.44    84.657     20461     
2729.4     4.31       248        803        0          0          264.642    15276      0          -320       2750.99    84.665     20463     
2729.6     4.47       234        1306       0          0          264.662    15277      0          -280       2748.53    84.674     20465     
2729.8     4.78       237        9508       0          0          264.641    15276      0          -280       2746.06    84.68      20467     
2730       4.99       268        5623       1          0          264.606    15274      0          -320       2743.63    84.691     20470     
2730.2     4.96       295        665        0          0          264.599    15274      0          -320       2740.27    84.699     20472     
2730.4     4.89       285        746        0          0          264.578    15273      0          -260       2737.84    84.706     20474     
2730.6     5.01       269        727        0          0          264.563    15272      0          -300       2735.38    84.714     20476     
2730.8     5.28       296        740        0          0          264.536    15271      0          -320       2732.9     84.718     20477     
2731       5.36       304        764        0          0          264.584    15273      0          -260       2730.49    84.722     20478     
2731.2     5.43       295        758        0          0          264.638    15276      0          -300       2727.93    84.725     20479     
2731.4     5.66       329        678        0          0          264.679    15278      0          -320       2725.48    84.731     20480     
2731.6     5.55       337        624        0          0          264.789    15283      0          -280       2723.02    84.737     20482     
2731.8     5.23       312        706        0          0          264.782    15283      0          -280       2720.59    84.737     20482     
2732       5.03       291        796        0          0          264.761    15282      0          -320       2718.14    84.744     20484     
2732.2     4.98       279        736        0          0          264.726    15280      0          -280       2715.7     84.744     20484     
2732.4     5.16       275        669        0          0          264.741    15281      0          -260       2713.12    84.752     20486     
2732.6     5.5        278        703        0          0          264.76     15282      0          -305       2710.72    84.756     20487     
2732.8     6.1        330        542        0          0          264.76     15282      0          -320       2708.24    84.763     20489     
2733       6.4        347        667        0          0          264.808    15284      0          -260       2705.79    84.771     20491     
2733.2     6.3        384        694        0          0          264.842    15286      0          -290       2703.33    84.775     20492     
