~Version
 VERS              .         2.0                           : CWLS LOG ASCII STANDARD - VERSION 2.0
 WRAP              .         NO                            : ONE LINE PER DEPTH STEP
 DLM               .         SPACE                         : DELIMITING CHARACTER(SPACE TAB OR COMMA)
~Well Information
#_______________________________________________________________________________
#
#PARAMETER_NAME    .UNIT     VALUE                         : DESCRIPTION
#_______________________________________________________________________________
STRT               .M        2655.25                       : First reference value
STOP               .M        2763.850109                   : Last reference value
STEP               .M        0.2000002                     : Step increment
NULL               .         -9999                         : Missing value
COMP               .                                       : Company
WELL               .         616                           : Well name
FLD                .                                       : Field
LOC                .                                       : Location
CNTY               .                                       : County
STAT               .                                       : State
CTRY               .                                       : Country
SRVC               .                                       : Service Company
DATE               .                                       : Date
API                .                                       : API number
PROJECT_UPGRADE_TIME .         2021-03-18T21_24_50           : 
group              .         Good                          : 
~Parameter Information Block
#_______________________________________________________________________________
#
#PARAMETER_NAME    .UNIT     VALUE                         : DESCRIPTION
#_______________________________________________________________________________
SET                .         D7026_D_2                     : 
NPR                .         155                           : Номер прибора
OTHER              .         Kedr.exe версия 2.1.2.32      : 
OTHER_10           .         TM.GRD = 0.00404*TM$.UE + 0.07: 
OTHER_11           .         MN.ATM = (6.33279e-006*TM.GRD + 0.02401)*(MN$.UE + 2.72*TM.GRD + -2018): 
OTHER_12           .         GK.MKR/H = GK$.UE / 43.5489 + 0: 
OTHER_13           .         RES.SM = 0.00476*CRES.UE - 1.51709: 
OTHER_14           .         PL.GSM3 = 0 + 0 * (PL.UE / 1) +  0 * (PL.UE / 1)^2: 
OTHER_15           .         Постоянная времени ГГП = 6 сек: 
OTHER_16           .         Постоянная времени ГК = 6 сек : 
OTHER_2            .         KedrData.dll версия 3.2.2.14  : 
OTHER_3            .         LasInf.dll версия 3.2.0.13    : 
OTHER_4            .         Драйвер версия 1.2.0.5        : 
OTHER_5            .         Прибор_ КСА-M1                : 
OTHER_6            .         Номер прибора_ 155+р204       : 
OTHER_7            .         Режим_ КСА-М1 + ГГП + Резистивиметр: 
OTHER_8            .         Форма_ 223\2                  : 
OTHER_9            .         Тарировки_                    : 
PR                 .         КСА-Т7 М1                     : Тип прибора
PROJECT_UPGRADE_TIME .         2021-03-18T21_24_50           : 
PRTY               .         ПП-223_2                      : Номер партии
SRV                .         ЦКРС                          : Заказчик
SRVC               .         Лузин  А.Б.                   : Начальник партии
TLFamily_DEPT      .         Measured Depth                : 
TLFamily_LM        .         Casing Collar locator         : 
TLFamily_MN        .                                       : 
TLFamily_SPID      .         Spontaneous Potential         : 
TLFamily_TM        .         Temperature                   : 
group              .         second                        : 
~Curve Information
#_______________________________________________________________________________
#
#LOGNAME           .UNIT     LOG_ID                        : DESCRIPTION
#_______________________________________________________________________________
DEPT               .M                                      : Depth curve 
LM                 .е.ацп                                  : Локация муфт 
MN                 .атм                                    : Манометрия, атм 
SPID               .м/ч                                    : Скорость записи,м/час 
TM                 .град.С                                 : Термометрия,град.С 
~Ascii
# ...
2741.650086 60         251.28     580        49.16     
2741.850087 68         251.29     560        49.11     
2742.050087 46         251.32     510        49.08     
2742.250087 52         251.31     580        49.05     
2742.450087 52         251.35     545        49        
2742.650087 63         251.38     580        48.98     
2742.850088 54         251.38     580        48.96     
2743.050088 47         251.42     533        48.95     
2743.250088 52         251.44     580        48.95     
2743.450088 56         251.47     580        48.95     
2743.650088 49         251.5      520        48.96     
2743.850089 62         251.51     557        48.97     
2744.050089 53         251.54     580        48.99     
2744.250089 53         251.58     580        49.02     
2744.450089 58         251.61     533        49.06     
2744.650089 49         251.64     580        49.09     
2744.85009 55         251.66     580        49.12     
2745.05009 58         251.7      510        49.16     
2745.25009 44         251.73     580        49.18     
2745.45009 86         251.74     580        49.23     
2745.65009 57         251.79     510        49.27     
2745.850091 62         251.8      510        49.33     
2746.050091 70         251.85     580        49.39     
2746.250091 74.043     251.87     580        49.45     
2746.450091 6399.984   251.92     580        49.49     
2746.650091 4004.979   251.96     580        49.58     
2746.850092 990.995    251.99     540        49.67     
2747.050092 248.999    252.03     533        49.77     
2747.250092 115        252.05     580        49.9      
2747.450092 97         252.08     580        49.98     
2747.650092 74         252.11     545        50.05     
2747.850093 64         252.15     580        50.13     
2748.050093 55.001     252.18     580        50.22     
2748.250093 142        252.22     556        50.29     
2748.450093 136        252.26     580        50.37     
2748.650093 91         252.3      570        50.49     
2748.850094 61         252.35     510        50.64     
2749.050094 101        252.36     533        50.79     
2749.250094 91         252.4      580        50.84     
2749.450094 86         252.42     580        50.89     
2749.650094 51         252.48     538        50.99     
2749.850095 65         252.5      510        51.07     
2750.050095 78         252.55     533        51.18     
2750.250095 84         252.59     510        51.34     
2750.450095 106        252.64     580        51.52     
2750.650095 101        252.67     580        51.72     
2750.850096 86         252.71     530        51.8      
2751.050096 120        252.75     580        51.88     
2751.250096 106        252.76     580        51.99     
2751.450096 98         252.82     557        52.09     
2751.650096 94         252.87     580        52.27     
2751.850097 92         252.91     522        52.5      
2752.050097 73         252.95     545        52.66     
2752.250097 71         252.97     580        52.75     
2752.450097 70         253        580        52.82     
2752.650097 79         253.05     533        52.96     
2752.850098 65         253.1      533        53.18     
2753.050098 69         253.14     580        53.36     
2753.250098 69         253.18     580        53.48     
2753.450098 78         253.2      545        53.6      
2753.650098 83         253.23     580        53.71     
2753.850099 80         253.27     580        53.8      
2754.050099 72         253.32     580        53.93     
2754.250099 88         253.35     545        54.09     
2754.450099 64         253.39     522        54.29     
2754.650099 67         253.43     568        54.47     
2754.8501  44         253.47     545        54.56     
2755.0501  46         253.5      580        54.72     
2755.2501  63         253.52     580        54.92     
2755.4501  71         253.56     533        55.02     
2755.6501  97         253.6      545        55.18     
2755.850101 71         253.63     579.999    55.27     
2756.050101 86         253.66     510        55.35     
2756.250101 55.001     253.7      556        55.45     
2756.450101 195.999    253.74     580        55.62     
2756.650101 83         253.76     580        55.78     
2756.850102 102        253.8      530        55.93     
2757.050102 107        253.84     580        56.04     
2757.250102 91         253.85     580        56.17     
2757.450102 64.038     253.89     580        56.3      
2757.650102 5095.985   253.93     579.999    56.42     
2757.850103 3152.982   253.96     510        56.54     
2758.050103 784.995    254        520        56.75     
2758.250103 158.999    254.04     580        56.88     
2758.450103 91         254.06     580        56.98     
2758.650103 87         254.09     530        57.07     
2758.850104 61         254.12     580        57.19     
2759.050104 34         254.16     580        57.39     
2759.250104 30         254.21     580        57.52     
2759.450104 29         254.22     580        57.66     
2759.650104 28         254.26     580        57.78     
2759.850105 28         254.27     580        57.88     
2760.050105 29         254.3      557        57.94     
2760.250105 30         254.33     580        58.02     
2760.450105 29         254.31     530        58.08     
2760.650105 29         254.33     493.001    58.12     
2760.850106 30         254.34     580        58.22     
2761.050106 29         254.34     -9999      58.28     
2761.250106 -9999      254.34     -9999      58.31     
2761.450106 -9999      254.29     -9999      58.35     
2761.650106 -9999      254.3      -9999      58.33     
2761.850107 -9999      254.3      -9999      58.36     
2762.050107 -9999      254.3      -9999      58.39     
2762.250107 -9999      254.28     -9999      58.41     
2762.450107 -9999      254.28     -9999      58.41     
2762.650107 -9999      -9999      -9999      58.4      
2762.850108 -9999      -9999      -9999      -9999     
2763.050108 -9999      -9999      -9999      -9999     
2763.250108 -9999      -9999      -9999      -9999     
2763.450108 -9999      -9999      -9999      -9999     
2763.650108 -9999      -9999      -9999      -9999     
2763.850109 -9999      -9999      -9999      -9999     
