~Version
 VERS              .         2.0                           : CWLS LOG ASCII STANDARD - VERSION 2.0
 WRAP              .         NO                            : ONE LINE PER DEPTH STEP
 DLM               .         SPACE                         : DELIMITING CHARACTER(SPACE TAB OR COMMA)
~Well Information
#_______________________________________________________________________________
#
#PARAMETER_NAME    .UNIT     VALUE                         : DESCRIPTION
#_______________________________________________________________________________
STRT               .M        8.21                          : First reference value
STOP               .M        2780.41                       : Last reference value
STEP               .M        0.2                           : Step increment
NULL               .         -9999                         : Missing value
COMP               .                                       : Company
WELL               .         616                           : Well name
FLD                .                                       : Field
LOC                .                                       : Location
CNTY               .                                       : County
STAT               .                                       : State
CTRY               .                                       : Country
SRVC               .                                       : Service Company
DATE               .                                       : Date
API                .                                       : API number
PROJECT_UPGRADE_TIME .         2021-03-18T21_24_50           : 
group              .         Good                          : 
~Parameter Information Block
#_______________________________________________________________________________
#
#PARAMETER_NAME    .UNIT     VALUE                         : DESCRIPTION
#_______________________________________________________________________________
SET                .         ULN_2                         : 
PROJECT_UPGRADE_TIME .         2021-03-18T21_24_50           : 
TLFamily_AK4       .                                       : 
TLFamily_ALFAK     .                                       : 
TLFamily_AMPL      .                                       : 
TLFamily_DEPTH     .         Measured Depth                : 
TLFamily_DK1       .                                       : 
TLFamily_DK2       .                                       : 
TLFamily_DTK       .         Compressional Slowness        : 
TLFamily_QCBL      .                                       : 
TLFamily_T1        .         Travel Time 1                 : 
TLFamily_T2        .         Travel Time 2                 : 
group              .         prim                          : 
~Curve Information
#_______________________________________________________________________________
#
#LOGNAME           .UNIT     LOG_ID                        : DESCRIPTION
#_______________________________________________________________________________
DEPTH              .M                                      : 0 Depth curve 
AK4                .                                       : 2 Амплитуда - Волна по колонне - Канал1 
ALFAK              .дБ/м                                   : 1 Затухание - Волна по колонне 
AMPL               .                                       : 8 Коэффициент усиления ВС 
DK1                .дБ                                     : 3 Кривая ослабления - Волна по колонне - Канал1 
DK2                .дБ                                     : 4 Кривая ослабления - Волна по колонне - Канал2 
DTK                .мкс/м                                  : 5 ДельтаТ - Волна по породе 
QCBL               .                                       : 9 Контакт цемент-колонна 
T1                 .мкс                                    : 6 Время пробега - Волна по породе - Канал1 
T2                 .мкс                                    : 7 Время пробега - Волна по породе - Канал2 
~Ascii
# ...
2037.61    5971.744   15.641     1          12.526     20.346     174.312    2          344        431.156   
2037.81    6127.823   14.713     1          12.3       19.657     174.283    2          343.305    430.446   
2038.01    6410.097   15.69      1          11.962     19.807     174.095    2          342.267    429.313   
2038.21    7248.253   15.767     1          11.4       19.283     171.865    2          342.852    428.783   
2038.41    7806.135   16.014     1          10.136     18.143     171.177    2          343.36     428.948   
2038.61    7876.76    15.349     1          10.027     17.702     172.427    2          343.382    429.594   
2038.81    6958.312   14.192     1          10.711     17.807     174.652    2          342.846    430.171   
2039.01    6211.641   13.194     1          12.25      18.847     175.935    2          342.252    430.219   
2039.21    5797.723   12.989     1          12.796     19.23      174.944    2          342.808    430.279   
2039.41    5439.471   16.203     1          13.581     20.486     176.54     2          344.887    433.269   
2039.61    4592.672   15.191     1          15.307     21.706     169.844    2          347.322    434.492   
2039.81    3761.165   15.227     1          16.82      23.297     168.168    2          349.304    435.635   
2040.01    3179.754   14.009     1          18.061     25.045     164.2      2          349.671    433.906   
2040.21    3455.154   18.86      1          17.505     26.538     170.314    2          349.389    434.546   
2040.41    3930.712   24.731     1          16.535     28.503     171.359    2          349.412    435.147   
2040.61    4796.065   29.892     1          14.632     29.201     173.582    2          347.538    435.441   
2040.81    5819.258   31.601     1          12.84      28.64      175.314    2          346.086    434.855   
2041.01    6771.579   30.956     1          11.512     26.99      175.584    2          343.505    432.354   
2041.21    8307.005   29.371     1          9.112      23.798     174.348    2          343.642    430.815   
2041.41    9507.563   26.621     1          7.524      20.834     170.868    2          344.114    429.548   
2041.61    10611.82   22.121     1          6.535      17.596     171.127    2          344.701    430.264   
2041.81    11144.74   19.339     1          6.718      16.387     172.099    2          344.692    430.74    
2042.01    11861.8    18.565     1          6.572      15.854     173.317    2          344.731    431.389   
2042.21    12459.17   19.107     1          6.142      15.696     173.379    2          345.289    431.977   
2042.41    13063.03   19.322     1          5.722      15.383     173.476    2          345.273    432.01    
2042.61    12988.14   18.378     1          5.773      14.963     174.397    2          344.745    431.943   
2042.81    12881.42   17.565     1          5.845      14.628     175.26     2          344.182    431.811   
2043.01    12686.62   17.1       1          5.974      14.524     174.986    2          344.193    431.685   
2043.21    12697.39   17.429     1          5.967      14.681     173.853    2          344.255    431.181   
2043.41    12622.87   17.419     1          6.018      14.728     173.16     2          344.183    430.762   
2043.61    12752.78   17.712     1          5.932      14.788     173.375    2          344.111    430.798   
2043.81    12898.79   17.598     1          5.833      14.632     174.568    2          343.996    431.28    
2044.01    13157.4    17.76      1          5.657      14.537     175.408    2          344.001    431.704   
2044.21    13123.39   17.509     1          5.68       14.434     174.198    2          344.567    431.666   
2044.41    12860.11   17.366     1          5.862      14.545     171.977    2          345.218    431.206   
2044.61    12105.25   17.192     1          6.406      15.002     169.792    2          345.909    430.804   
2044.81    11529.75   17.416     1          6.814      15.523     170.093    2          345.885    430.931   
2045.01    10950.01   17.652     1          7.258      16.084     171.533    2          345.863    431.629   
2045.21    10778.1    17.906     1          7.398      16.351     174.793    2          345.321    432.718   
2045.41    10085.08   17.605     1          7.982      16.784     176.498    2          344.789    433.064   
2045.61    9311.391   17.808     1          8.706      17.61      177.235    2          344.261    432.905   
2045.81    8525.125   17.741     1          9.447      18.318     175.316    2          344.678    432.359   
2046.01    7849.146   17.602     1          10.156     18.957     173.684    2          345.289    432.091   
2046.21    7668.748   17.879     1          10.355     19.294     172.399    2          345.933    432.085   
2046.41    7443.337   18.424     1          10.607     19.819     172.562    2          345.919    432.036   
2046.61    7626.165   19.816     1          10.397     20.305     173.567    2          345.369    432.027   
2046.81    7740.84    20.894     1          10.269     20.716     175.796    2          344.799    432.578   
2047.01    8050.604   21.645     1          9.928      20.751     177.355    2          344.408    433.085   
2047.21    7894.084   20.617     1          10.107     20.415     191.9      2          344.316    440.266   
2047.41    7661.344   19.039     1          10.374     19.893     204.093    2          344.833    446.87    
2047.61    7008.896   17.2       1          11.147     19.747     216.508    2          345.181    453.242   
2047.81    6523.043   16.612     1          11.785     20.091     215.389    2          345.112    452.613   
2048.01    6230.365   17.641     1          12.16      20.98      214.336    2          344.392    451.377   
2048.21    5837.036   17.764     1          12.753     21.635     212.989    2          344.074    450.533   
2048.41    5345.289   18.084     1          13.583     22.625     211.603    2          344.807    449.903   
2048.61    4578.517   17.089     1          14.873     23.417     211.425    2          344.826    449.833   
2048.81    4352.772   18.181     1          15.278     24.368     210.128    2          345.34     449.734   
2049.01    4717.261   18.776     1          14.641     24.029     206.264    2          346.048    449.179   
2049.21    5154.886   18.138     1          13.835     22.903     201.321    2          347.416    448.076   
2049.41    5669.676   16.535     1          12.982     21.25      196.928    2          348.25     446.714   
2049.61    6078.495   14.914     1          12.403     19.861     193.196    2          348.746    445.343   
2049.81    6762.336   14.304     1          11.474     18.626     191.936    2          349.382    445.349   
2050.01    7761.262   15.177     1          10.284     17.872     189.319    2          350.558    445.216   
2050.21    8026.827   16.178     1          9.371      17.458     186.447    2          351.128    444.351   
2050.41    8625.032   15.383     1          8.521      16.16      181.621    2          351.081    441.755   
2050.61    7853.532   14.238     1          9.492      16.455     188.587    2          351.797    443.367   
2050.81    6796.284   13.904     1          11.657     16.951     194.649    2          354.1      448.701   
2051.01    5160.789   12.695     1          14.076     18.816     197.089    2          356.036    451.993   
2051.21    3968.371   11.151     1          16.215     20.293     190.355    2          356.021    451.199   
2051.41    4343.463   11.801     1          15.867     21.836     185.57     2          355.755    448.539   
2051.61    4716.513   17.819     1          15.348     23.132     186.368    2          354.545    447.729   
2051.81    5460.171   20.684     1          13.763     22.973     188.734    2          353.229    447.595   
2052.01    5414.382   18.891     1          13.523     21.705     187.95     2          351.986    445.961   
