~Version
 VERS              .         2.0                           : CWLS LOG ASCII STANDARD - VERSION 2.0
 WRAP              .         NO                            : ONE LINE PER DEPTH STEP
 DLM               .         SPACE                         : DELIMITING CHARACTER(SPACE TAB OR COMMA)
~Well Information
#_______________________________________________________________________________
#
#PARAMETER_NAME    .UNIT     VALUE                         : DESCRIPTION
#_______________________________________________________________________________
STRT               .M        44.8                          : First reference value
STOP               .M        2755.2                        : Last reference value
STEP               .M        0.2                           : Step increment
NULL               .         -9999                         : Missing value
COMP               .                                       : Company
WELL               .         616                           : Well name
FLD                .                                       : Field
LOC                .                                       : Location
CNTY               .                                       : County
STAT               .                                       : State
CTRY               .                                       : Country
SRVC               .                                       : Service Company
DATE               .                                       : Date
API                .                                       : API number
PROJECT_UPGRADE_TIME .         2021-03-18T21_24_50           : 
group              .         Good                          : 
~Parameter Information Block
#_______________________________________________________________________________
#
#PARAMETER_NAME    .UNIT     VALUE                         : DESCRIPTION
#_______________________________________________________________________________
SET                .         D4390_D_2                     : 
COMM               .                                       : 
OTHER              .         Запись производится в присутствии: 
OTHER_10           .         Максимальная температура      : 
OTHER_100          .         GK.FLT = 0.1*GR.UR/H[-1] + (1-0.1)*GR.UR/H[0]: 
OTHER_11           .         Тип промывочной жидкости      : 
OTHER_12           .         Сопротивление ПЖ (Ом*м) при 20°C: 
OTHER_13           .         Плотность ПЖ(г/см3)           : 
OTHER_14           .         Вязкость ПЖ(с)                : 
OTHER_15           .         Водоотдача ПЖ(см3/30мин)      : 
OTHER_16           .         Уровень ПЖ                    : 
OTHER_17           .         Нефть ПЖ (%)                  : 
OTHER_18           .         Барит ПЖ (%)                  : 
OTHER_19           .         Гематит ПЖ (%)                : 
OTHER_2            .         Заказчик ННСН  ЦДНГ-1         : 
OTHER_20           .         КМЦ ПЖ (%)                    : 
OTHER_21           .         Разгазирование ПЖ (да,нет)    : 
OTHER_22           .         Подъемник                     : 
OTHER_23           .         Лаборатория                   : 
OTHER_24           .         Тип кабеля                    : 
OTHER_25           .         Длина кабеля (м)              : 
OTHER_26           .         Цена последней метки          : 
OTHER_27           .         Цена контрольной метки        : 
OTHER_28           .         Диаметр долота (мм)           : 
OTHER_29           .         Глубина бурения (м)           : 
OTHER_3            .         Площадь                       : 
OTHER_30           .         Искусственный забой (м)       : 
OTHER_31           .         Диаметр колонны (мм)          : 
OTHER_32           .         Толщина колонны (мм)          : 
OTHER_33           .         Башмак колонны (м)            : 
OTHER_34           .         Диаметр НКТ (мм)              : 
OTHER_35           .         Толщина НКТ (мм)              : 
OTHER_36           .         Воронка НКТ (м)               : 
OTHER_37           .         Дата цементожа                : 
OTHER_38           .         Тип, количество(т) и плотность цемента: 
OTHER_39           .         Интервалы перфорации (м)      : 
OTHER_4            .         Категория                     : 
OTHER_40           .         Направление, диаметр (мм)     : 
OTHER_41           .         Направление, глубина (м)      : 
OTHER_42           .         Кондуктор, диаметр (мм)       : 
OTHER_43           .         Кондуктор, глубина (м)        : 
OTHER_44           .         Техническая колонна, диаметр (мм): 
OTHER_45           .         Техническая колонна, глубина (м): 
OTHER_46           .         Эксплуатационная колонна, диаметр (мм): 
OTHER_47           .         Эксплуатационная колонна, глубина (м): 
OTHER_48           .         Программа Кедр-02 версия 3.4  : 
OTHER_49           .         Операционная система Windows NT 5.1 build 2600 Service Pack 2: 
OTHER_5            .         Назначение исследований       : 
OTHER_50           .         Программное обеспечение станции MONITOR-386EX 25/12/99 15_08_10   BGF V54 20/09/05 15_32_17   3.3__BGF_9030071: 
OTHER_51           .         Kedr.exe версия 3.4.2.74      : 
OTHER_52           .         KedrData.dll версия 3.4.2.29  : 
OTHER_53           .         Мнемоники версия 3.18 S       : 
OTHER_54           .         Драйвер версия 2.1.1.4        : 
OTHER_55           .         LasInf.dll 4.3.0.35           : 
OTHER_56           .         Прибор_ КСА-Т4                : 
OTHER_57           .         Номер прибора_ 160            : 
OTHER_58           .         Режим_ КСА-Т4                 : 
OTHER_59           .         Форма_ С.А.Б.                 : 
OTHER_6            .         Альтитуда стола ротора        : 
OTHER_60           .         Тарировки_                    : 
OTHER_61           .         <_techsia_sc_> Дата тарировки температуры 25.05.2010: 
OTHER_62           .         Ручной ввод коэффициентов     : 
OTHER_63           .         TM.DEGC = 0.00402*RTM.E.ACP + -0.994: 
OTHER_64           .         <_techsia_sc_> Дата тарировки давления 25.05.2010: 
OTHER_65           .         Ручной ввод коэффициентов     : 
OTHER_66           .         MN.ATM = (2.27521e-006*TM.DEGC + 0.02078)*(RMN.E.ACP + 6.2*TM.DEGC + -1688): 
OTHER_67           .         <_techsia_sc_> Дата тарировки ГК 25.05.2010: 
OTHER_68           .         Ручной ввод коэффициентов     : 
OTHER_69           .         GR.UR/H = RGR.IMP/MIN / 45.5144: 
OTHER_7            .         Вид исследований 3  6         : 
OTHER_70           .         GK.FLT = 0.1*GR.UR/H[-1] + (1-0.1)*GR.UR/H[0]: 
OTHER_71           .         <_techsia_sc_> Дата тарировки температуры 25.05.2010: 
OTHER_72           .         Ручной ввод коэффициентов     : 
OTHER_73           .         TM.DEGC = 0.00402*RTM.E.ACP + -0.994: 
OTHER_74           .         <_techsia_sc_> Дата тарировки давления 25.05.2010: 
OTHER_75           .         Ручной ввод коэффициентов     : 
OTHER_76           .         MN.ATM = (2.27521e-006*TM.DEGC + 0.02078)*(RMN.E.ACP + 6.2*TM.DEGC + -1688): 
OTHER_77           .         <_techsia_sc_> Дата тарировки ГК 25.05.2010: 
OTHER_78           .         Ручной ввод коэффициентов     : 
OTHER_79           .         GR.UR/H = RGR.IMP/MIN / 45.5144: 
OTHER_8            .         Начало бурения интервала каротажа: 
OTHER_80           .         GK.FLT = 0.1*GR.UR/H[-1] + (1-0.1)*GR.UR/H[0]: 
OTHER_81           .         <_techsia_sc_> Дата тарировки температуры 25.05.2010: 
OTHER_82           .         Ручной ввод коэффициентов     : 
OTHER_83           .         TM.DEGC = 0.00402*RTM.E.ACP + -0.994: 
OTHER_84           .         <_techsia_sc_> Дата тарировки давления 25.05.2010: 
OTHER_85           .         Ручной ввод коэффициентов     : 
OTHER_86           .         MN.ATM = (2.27521e-006*TM.DEGC + 0.02078)*(RMN.E.ACP + 6.2*TM.DEGC + -1688): 
OTHER_87           .         <_techsia_sc_> Дата тарировки ГК 25.05.2010: 
OTHER_88           .         Ручной ввод коэффициентов     : 
OTHER_89           .         GR.UR/H = RGR.IMP/MIN / 45.5144: 
OTHER_9            .         Окончание бурения интервала каротажа: 
OTHER_90           .         GK.FLT = 0.1*GR.UR/H[-1] + (1-0.1)*GR.UR/H[0]: 
OTHER_91           .         <_techsia_sc_> Дата тарировки температуры 25.05.2010: 
OTHER_92           .         Ручной ввод коэффициентов     : 
OTHER_93           .         TM.DEGC = 0.00402*RTM.E.ACP + -0.994: 
OTHER_94           .         <_techsia_sc_> Дата тарировки давления 25.05.2010: 
OTHER_95           .         Ручной ввод коэффициентов     : 
OTHER_96           .         MN.ATM = (2.27521e-006*TM.DEGC + 0.02078)*(RMN.E.ACP + 6.2*TM.DEGC + -1688): 
OTHER_97           .         <_techsia_sc_> Дата тарировки ГК 25.05.2010: 
OTHER_98           .         Ручной ввод коэффициентов     : 
OTHER_99           .         GR.UR/H = RGR.IMP/MIN / 45.5144: 
PROJECT_UPGRADE_TIME .         2021-03-18T21_24_50           : 
PRTY               .         ПП-601-1                      : N партии
SRVC               .         Барковский                    : Начальник партии
TLFamily_DEPT      .         Measured Depth                : 
TLFamily_LM        .         Casing Collar locator         : 
TLFamily_METKA     .                                       : 
TLFamily_MN        .                                       : 
TLFamily_TM        .         Temperature                   : 
group              .         second                        : 
~Curve Information
#_______________________________________________________________________________
#
#LOGNAME           .UNIT     LOG_ID                        : DESCRIPTION
#_______________________________________________________________________________
DEPT               .M                                      : Depth curve 
LM                 .е.ацп                                  : Локатор муфт,е.ацп 
METKA              .е.ацп                                  : Магнитные метки,е.ацп 
MN                 .атм                                    : 12 Давление, атм. -  160.0 см 
TM                 .град.C                                 : Термограмма по стволу скважины,град.C 
~Ascii
# ...
2556       370.03     0          229.598    67.236    
2556.2     531.994    0          229.625    67.241    
2556.4     499.996    0          229.633    67.245    
2556.6     478.99     0          229.656    67.252    
2556.8     425.987    0          229.681    67.258    
2557       353.023    0          229.699    67.258    
2557.2     477.999    0          229.72     67.263    
2557.4     470.995    0          229.732    67.266    
2557.6     445.995    0          229.763    67.269    
2557.8     420.997    0          229.777    67.27     
2558       405.118    0          229.785    67.279    
2558.2     1046.853   0          229.81     67.284    
2558.4     5695.638   0          229.829    67.289    
2558.6     3719.771   0          229.84     67.293    
2558.8     2469.853   0          229.866    67.298    
2559       1668.894   0          229.893    67.3      
2559.2     1090.966   0          229.898    67.308    
2559.4     904.988    0          229.924    67.313    
2559.6     840.979    0          229.938    67.318    
2559.8     727.989    0          229.955    67.326    
2560       665.978    0          229.981    67.333    
2560.2     546.062    0          230.004    67.34     
2560.4     882.023    0          230.014    67.345    
2560.6     1007.051   0          230.039    67.35     
2560.8     1283.951   0          230.066    67.359    
2561       1017       0          230.092    67.364    
2561.2     1015.984   0          230.081    67.369    
2561.4     929.962    0          230.114    67.373    
2561.6     724.978    0          230.142    67.378    
2561.8     605.99     0          230.139    67.383    
2562       552.002    0          230.177    67.388    
2562.2     562.98     0          230.172    67.396    
2562.4     454.02     0          230.202    67.398    
2562.6     564.985    0          230.234    67.403    
2562.8     482.001    0          230.264    67.408    
2563       490.003    0          230.267    67.414    
2563.2     503.996    0          230.275    67.421    
2563.4     484.021    0          230.301    67.422    
2563.6     598.997    0          230.311    67.427    
2563.8     583.983    0          230.332    67.432    
2564       494.006    0          230.359    67.434    
2564.2     527.011    0          230.385    67.441    
2564.4     587.993    0          230.41     67.442    
2564.6     551.017    0          230.419    67.447    
2564.8     642.044    2          230.44     67.451    
2565       883.015    0          230.456    67.456    
2565.2     962.048    0          230.471    67.459    
2565.4     1221.991   0          230.478    67.463    
2565.6     1170.963   0          230.526    67.468    
2565.8     969.062    0          230.531    67.471    
2566       1307.946   0          230.548    67.474    
2566.2     1014.992   0          230.577    67.479    
2566.4     972.963    0          230.591    67.479    
2566.6     769.997    0          230.591    67.483    
2566.8     754.978    0          230.611    67.484    
2567       633.007    0          230.636    67.489    
2567.2     669.984    0          230.655    67.491    
2567.4     580.982    0          230.666    67.494    
2567.6     481.031    0          230.706    67.495    
2567.8     647.979    0          230.72     67.5      
2568       531.987    0          230.724    67.505    
2568.2     459.002    0          230.742    67.51     
2568.4     473.102    0          230.768    67.511    
2568.6     6455.583   0          230.785    67.516    
2568.8     4189.566   0          230.828    67.521    
2569       1833.891   0          230.834    67.525    
2569.2     1239.94    0          230.86     67.53     
2569.4     913.97     0          230.872    67.535    
2569.6     749.979    0          230.891    67.54     
2569.8     634.007    0          230.896    67.545    
2570       673.979    0          230.921    67.547    
2570.2     561.977    0          230.947    67.551    
2570.4     436.988    0          230.972    67.555    
2570.6     373.004    0          230.999    67.556    
2570.8     393.006    0          231.004    67.561    
2571       423.99     0          231.016    67.566    
2571.2     368.005    0          231.024    67.567    
2571.4     394.027    0          231.044    67.571    
2571.6     540.981    0          231.065    67.571    
2571.8     438.985    0          231.108    67.573    
2572       359.999    0          231.116    67.578    
2572.2     354        0          231.13     67.579    
2572.4     352.011    0          231.146    67.584    
2572.6     408.996    0          231.173    67.587    
2572.8     384.996    0          231.194    67.587    
2573       364.007    0          231.203    67.591    
2573.2     399.997    0          231.228    67.591    
2573.4     384.015    0          231.237    67.595    
2573.6     464.01     0          231.26     67.597    
2573.8     520.036    0          231.284    67.599    
2574       712.974    0          231.301    67.603    
2574.2     572.981    0          231.329    67.604    
2574.4     468.03     0          231.343    67.607    
2574.6     631.98     0          231.346    67.607    
2574.8     524.028    2          231.371    67.61     
2575       675.994    0          231.386    67.615    
2575.2     642.997    0          231.401    67.616    
2575.4     627.029    0          231.427    67.619    
2575.6     782.054    0          231.45     67.621    
2575.8     1073.971   0          231.457    67.623    
2576       916.958    0          231.483    67.627    
2576.2     690.979    0          231.493    67.628    
2576.4     575.005    0          231.515    67.633    
2576.6     600.021    0          231.549    67.635    
2576.8     713.027    0          231.557    67.639    
2577       860.983    0          231.58     67.641    
2577.2     768.979    0          231.606    67.646    
2577.4     653.984    0          231.632    67.647    
2577.6     567.985    0          231.643    67.652    
2577.8     489.021    0          231.661    67.656    
2578       602.075    0          231.668    67.657    
2578.2     1005.807   0          231.707    67.66     
2578.4     5367.651   0          231.718    67.663    
2578.6     3478.782   0          231.744    67.668    
2578.8     2299.859   0          231.77     67.673    
2579       1534.851   0          231.774    67.678    
2579.2     726.973    0          231.801    67.68     
2579.4     582.987    0          231.827    67.687    
2579.6     512.988    0          231.837    67.688    
2579.8     446.999    0          231.857    67.693    
2580       440.993    0          231.882    67.698    
2580.2     400.992    0          231.903    67.702    
2580.4     357.994    0          231.903    67.708    
2580.6     325.994    0          231.931    67.712    
2580.8     296.008    0          231.964    67.713    
2581       338.012    0          231.968    67.718    
2581.2     405.015    0          231.989    67.722    
2581.4     486.992    0          232        67.727    
2581.6     444.989    0          232.026    67.732    
2581.8     384.997    0          232.051    67.737    
2582       368.993    0          232.076    67.742    
2582.2     332.006    0          232.083    67.747    
2582.4     366.006    0          232.108    67.752    
2582.6     399.985    0          232.133    67.76     
2582.8     319.001    0          232.16     67.762    
2583       322.998    0          232.164    67.77     
2583.2     311.993    0          232.171    67.775    
2583.4     273.016    0          232.197    67.78     
2583.6     356.996    0          232.222    67.785    
2583.8     338.014    0          232.248    67.789    
2584       411.982    1          232.275    67.794    
2584.2     314.011    0          232.294    67.799    
2584.4     375.977    0          232.306    67.804    
2584.6     251.001    0          232.317    67.813    
2584.8     254.037    0          232.336    67.816    
2585       451.025    2          232.363    67.818    
