~Version
 VERS              .         2.0                           : CWLS LOG ASCII STANDARD - VERSION 2.0
 WRAP              .         NO                            : ONE LINE PER DEPTH STEP
 DLM               .         SPACE                         : DELIMITING CHARACTER(SPACE TAB OR COMMA)
~Well Information
#_______________________________________________________________________________
#
#PARAMETER_NAME    .UNIT     VALUE                         : DESCRIPTION
#_______________________________________________________________________________
STRT               .M        2659.2                        : First reference value
STOP               .M        2769.000055                   : Last reference value
STEP               .M        0.2000001                     : Step increment
NULL               .         -9999                         : Missing value
COMP               .                                       : Company
WELL               .         616                           : Well name
FLD                .                                       : Field
LOC                .                                       : Location
CNTY               .                                       : County
STAT               .                                       : State
CTRY               .                                       : Country
SRVC               .                                       : Service Company
DATE               .                                       : Date
API                .                                       : API number
PROJECT_UPGRADE_TIME .         2021-03-18T21_24_50           : 
group              .         Good                          : 
~Parameter Information Block
#_______________________________________________________________________________
#
#PARAMETER_NAME    .UNIT     VALUE                         : DESCRIPTION
#_______________________________________________________________________________
SET                .         D1165_D                       : 
OTHER              .         Программное обеспечение станции MONITOR-386EX 25/12/99 15_08_10   BGF V52 22/08/01 16_56_30   3.2_BGF_N_3070031: 
OTHER_10           .         Тарировки_                    : 
OTHER_11           .         TM.GRD = 0.00403*TM$.UE + -1.19: 
OTHER_12           .         MN.ATM = (7.1e-006*TM.GRD + 0.02017)*(MN$.UE + -3.03*TM.GRD + -1833): 
OTHER_13           .         Id error                      : 
OTHER_2            .         Kedr.exe версия 3.4.2.51      : 
OTHER_3            .         KedrData.dll версия 3.4.2.24  : 
OTHER_4            .         Драйвер версия 2.1.1.8        : 
OTHER_5            .         Мнемоники версия 3.3 S        : 
OTHER_6            .         Прибор_ КСА-М1                : 
OTHER_7            .         Номер прибора_ 265            : 
OTHER_8            .         Режим_ КСА-М1                 : 
OTHER_9            .         Форма_ ТЕРМОМЕТР              : 
PROJECT_UPGRADE_TIME .         2021-03-18T21_24_49           : 
TLFamily_DEPT      .         Measured Depth                : 
TLFamily_GK        .         Gamma Ray                     : 
TLFamily_GK$       .                                       : 
TLFamily_LM        .         Casing Collar locator         : 
TLFamily_METKA     .                                       : 
TLFamily_MN        .                                       : 
TLFamily_MN$       .                                       : 
TLFamily_RCOR      .                                       : 
TLFamily_SPID      .         Spontaneous Potential         : 
TLFamily_STD       .                                       : 
TLFamily_TENS      .         Cable Tension                 : 
TLFamily_TIME      .         Time                          : 
TLFamily_TM        .         Temperature                   : 
TLFamily_TM$       .         Temperature                   : 
TLFamily_VGD       .         Gas Volume                    : 
group              .         prim                          : 
~Curve Information
#_______________________________________________________________________________
#
#LOGNAME           .UNIT     LOG_ID                        : DESCRIPTION
#_______________________________________________________________________________
DEPT               .M                                      : 1 Глубина, м -    0.0 см 
GK                 .MKR/H                                  : 15 Гамма-активность, мкр./ч -  110.0 см 
GK$                .UE                                     : 12 Гамма-активность, усл.ед. -  110.0 см 
LM                 .                                       : 10 Локатор муфт,  -   20.0 см 
METKA              .                                       : 3 Метки,  -    0.0 см 
MN                 .ATM                                    : 14 Давление, атм. -  160.0 см 
MN$                .UE                                     : 8 Давление, усл.ед. -  160.0 см 
RCOR               .CM/KM                                  : 5 Коррекция по ролику, см/км -    0.0 см 
SPID               .M/H                                    : 2 Скорость, м/час -    0.0 см 
STD                .                                       : 11 Приток,  -  170.0 см 
TENS               .T                                      : 6 Натяжение кабеля, т -    0.0 см 
TIME               .S                                      : 4 Время, сек -    0.0 см 
TM                 .GRD                                    : 13 Температура, °C -  180.0 см 
TM$                .UE                                     : 7 Температура, усл.ед. -  180.0 см 
VGD                .                                       : 9 Влагомер,  -  170.0 см 
~Ascii
# ...
2678.80001 8.95       382        1          0          349.784    18926      -1400      602        31555      0          21103.01   86.08      21655      6511      
2679.00001 8.93       381        1          0          349.211    18898      -1400      597        31558      0          21104.21   86.088     21657      6511      
2679.20001 8.92       381        1          0          348.862    18881      -1400      592        31556      0          21105.46   86.088     21657      6512      
2679.40001 8.95       385        1          0          350.94     18981      -1400      589        31561      0          21106.64   86.092     21658      6511      
2679.60001 9.15       395        1          0          349.7      18922      -1400      600        31567      0          21107.83   86.096     21659      6512      
2679.80001 9.41       420        1          0          349.897    18931      -1400      598        31568      0          21109.09   86.1       21660      6512      
2680.00001 9.74       423        1          2          351.521    19009      -1400      594        31570      0          21110.28   86.104     21661      6512      
2680.20001 9.78       415        1          0          349.435    18909      -1400      596        31572      0          21111.53   86.107     21662      6512      
2680.400011 9.55       404        1          0          350.215    18946      -1400      594        31578      0          21112.72   86.116     21664      6512      
2680.600011 9.48       404        1          0          352.285    19046      -1400      581        31579      0          21113.97   86.12      21665      6513      
2680.800011 8.75       359        1          0          349.497    18912      -1400      586        31584      0          21115.16   86.12      21665      6513      
2681.000011 8.51       359        1          0          350.32     18951      -1400      595        31582      0          21116.35   86.128     21667      6512      
2681.200011 8.81       385        1          0          351.986    19031      -1400      591        31586      0          21117.6    86.128     21667      6511      
2681.400011 8.94       385        1          0          349.578    18916      -1400      588        31589      0          21118.83   86.132     21668      6513      
2681.600011 9.37       409        67         0          350.255    18948      -1400      597        31597      0          21120.04   86.136     21669      6513      
2681.800011 9.51       409        400        0          351.799    19022      -1400      599        31598      0          21121.19   86.136     21669      6512      
2682.000011 9.05       374        1          0          349.395    18907      -1400      589        31604      0          21122.49   86.143     21671      6514      
2682.200011 8.84       374        1          0          350.384    18954      -1400      592        31605      0          21123.66   86.146     21671      6513      
2682.400012 8.74       371        1          0          351.642    19015      -1400      593        31605      0          21124.89   86.152     21673      6512      
2682.600012 8.7        371        1          0          349.774    18925      -1400      594        31605      0          21126.11   86.156     21674      6513      
2682.800012 9.02       394        1          0          349.648    18919      -1400      595        31606      0          21127.33   86.16      21675      6512      
2683.000012 9.15       394        1          0          351.537    19010      -1400      596        31612      0          21128.5    86.16      21675      6513      
2683.200012 9.45       413        1          0          349.735    18923      -1400      595        31613      0          21129.71   86.164     21676      6513      
2683.400012 9.58       414        1          0          349.311    18903      -1400      589        31610      0          21130.95   86.172     21678      6514      
2683.600012 9.72       415        1          0          350.483    18959      -1400      597        31605      0          21132.15   86.176     21679      6513      
2683.800012 9.85       415        1          0          352.276    19045      -1400      600        31607      0          21133.36   86.18      21680      6514      
2684.000012 9.97       416        1          0          351.702    19018      -1400      595        31610      0          21134.6    86.187     21682      6514      
2684.200012 9.81       416        1          0          351.129    18990      -1400      591        31612      0          21135.83   86.192     21683      6513      
2684.400013 9.7        411        1          0          350.556    18962      -1400      594        31615      0          21137.02   86.197     21684      6513      
2684.600013 9.64       411        1          0          349.708    18922      -1400      590        31617      0          21138.23   86.202     21685      6513      
2684.800013 9.91       442        1          0          350.84     18976      -1400      593        31619      0          21139.46   86.205     21686      6514      
2685.000013 10.19      442        1          0          352.477    19055      -1400      589        31619      0          21140.7    86.209     21687      6514      
2685.200013 10.16      425        1          0          350.185    18945      -1400      592        31622      0          21141.91   86.213     21688      6514      
2685.400013 9.93       420        1          0          350.673    18968      -1400      589        31624      0          21143.15   86.22      21690      6513      
2685.600013 9.64       397        1          0          352.519    19057      -1400      586        31627      0          21144.37   86.221     21690      6515      
2685.800013 9.4        397        1          0          350.513    18960      -1400      590        31627      0          21145.58   86.225     21691      6514      
2686.000013 9.48       418        1          0          350.826    18975      -1400      588        31629      0          21146.79   86.233     21693      6514      
2686.200013 9.73       421        1          0          352.599    19061      -1400      584        31628      0          21148.05   86.233     21693      6514      
2686.400014 9.94       438        1          0          350.567    18963      -1400      583        31636      0          21149.3    86.237     21694      6515      
2686.600014 10.84      479        1          0          350.971    18982      -1400      593        31636      0          21150.48   86.241     21695      6514      
2686.800014 10.99      466        1          0          352.524    19057      -1400      593        31637      0          21151.7    86.242     21695      6515      
2687.000014 10.93      466        1          0          350.062    18938      -1400      580        31639      0          21152.94   86.249     21697      6516      
2687.200014 10.51      417        1          0          351.073    18987      -1400      580        31651      0          21154.18   86.256     21699      6516      
2687.400014 9.6        392        1          0          352.085    19036      -1400      585        31658      0          21155.38   86.257     21699      6516      
2687.600014 9.19       378        1          0          349.806    18926      -1400      579        31659      0          21156.69   86.258     21699      6516      
2687.800014 8.29       337        1          0          350.594    18964      -1400      591        31657      0          21157.88   86.265     21701      6517      
2688.000014 7.74       304        1          0          351.715    19018      -1400      591        31654      0          21159.12   86.269     21702      6516      
2688.200014 7.22       298        1          0          350.118    18941      -1400      588        31655      0          21160.32   86.269     21702      6518      
2688.400015 7.05       298        1          0          350.53     18961      -1400      584        31656      0          21161.57   86.273     21703      6516      
