~Version
 VERS              .         2.0                           : CWLS LOG ASCII STANDARD - VERSION 2.0
 WRAP              .         NO                            : ONE LINE PER DEPTH STEP
 DLM               .         SPACE                         : DELIMITING CHARACTER(SPACE TAB OR COMMA)
~Well Information
#_______________________________________________________________________________
#
#PARAMETER_NAME    .UNIT     VALUE                         : DESCRIPTION
#_______________________________________________________________________________
STRT               .M        2648.8                        : First reference value
STOP               .M        2754.8                        : Last reference value
STEP               .M        0.2                           : Step increment
NULL               .         -9999                         : Missing value
COMP               .                                       : Company
WELL               .         616                           : Well name
FLD                .                                       : Field
LOC                .                                       : Location
CNTY               .                                       : County
STAT               .                                       : State
CTRY               .                                       : Country
SRVC               .                                       : Service Company
DATE               .                                       : Date
API                .                                       : API number
PROJECT_UPGRADE_TIME .         2021-03-18T21_24_50           : 
group              .         Good                          : 
~Parameter Information Block
#_______________________________________________________________________________
#
#PARAMETER_NAME    .UNIT     VALUE                         : DESCRIPTION
#_______________________________________________________________________________
SET                .         D7019_D                       : 
OTHER              .         Kedr.exe версия 2.1.2.32      : 
OTHER_10           .         TM.GRD = 0.00404*TM$.UE + 0.07: 
OTHER_11           .         MN.ATM = (6.33279e-006*TM.GRD + 0.02401)*(MN$.UE + 2.72*TM.GRD + -2018): 
OTHER_12           .         GK.MKR/H = GK$.UE / 43.5489 + 0: 
OTHER_13           .         RES.SM = 0.00476*CRES.UE - 1.51709: 
OTHER_14           .         PL.GSM3 = 0 + 0 * (PL.UE / 1) +  0 * (PL.UE / 1)^2: 
OTHER_15           .         Постоянная времени ГГП = 6 сек: 
OTHER_16           .         Постоянная времени ГК = 6 сек : 
OTHER_2            .         KedrData.dll версия 3.2.2.14  : 
OTHER_3            .         LasInf.dll версия 3.2.0.13    : 
OTHER_4            .         Драйвер версия 1.2.0.5        : 
OTHER_5            .         Прибор_ КСА-M1                : 
OTHER_6            .         Номер прибора_ 155+р204       : 
OTHER_7            .         Режим_ КСА-М1 + ГГП + Резистивиметр: 
OTHER_8            .         Форма_ 223\2                  : 
OTHER_9            .         Тарировки_                    : 
PROJECT_UPGRADE_TIME .         2021-03-18T21_24_50           : 
TLFamily_CRES      .                                       : 
TLFamily_DEPT      .         Measured Depth                : 
TLFamily_GK        .         Gamma Ray                     : 
TLFamily_GK$       .                                       : 
TLFamily_LM        .         Casing Collar locator         : 
TLFamily_METKA     .                                       : 
TLFamily_MN        .                                       : 
TLFamily_MN$       .                                       : 
TLFamily_PL        .                                       : 
TLFamily_PL_2      .                                       : 
TLFamily_RCOR      .                                       : 
TLFamily_RES       .         Mud Resistivity               : 
TLFamily_SPID      .         Spontaneous Potential         : 
TLFamily_STD       .                                       : 
TLFamily_TIME      .         Time                          : 
TLFamily_TM        .         Temperature                   : 
TLFamily_TM$       .         Temperature                   : 
TLFamily_VGD       .         Gas Volume                    : 
group              .         prim                          : 
~Curve Information
#_______________________________________________________________________________
#
#LOGNAME           .UNIT     LOG_ID                        : DESCRIPTION
#_______________________________________________________________________________
DEPT               .M                                      : 1 Глубина, м -    0.0 см 
CRES               .UE                                     : 9 Проводимость, усл.ед. -  222.0 см 
GK                 .MKR/H                                  : 16 Гамма-активность, мкр./ч -  106.0 см 
GK$                .UE                                     : 13 Гамма-активность, усл.ед. -  106.0 см 
LM                 .                                       : 11 Локатор муфт,  -   16.0 см 
METKA              .                                       : 3 Метки,  -    0.0 см 
MN                 .ATM                                    : 15 Давление, атм. -  160.0 см 
MN$                .UE                                     : 7 Давление, усл.ед. -  160.0 см 
PL                 .UE                                     : 10 Плотность, усл.ед. -  270.0 см 
PL_2               .GSM3                                   : 18 Плотность, г./см3 -  270.0 см 
RCOR               .CM/KM                                  : 5 Коррекция по ролику, см/км -    0.0 см 
RES                .SM                                     : 17 Проводимость,  -  222.0 см 
SPID               .M/H                                    : 2 Скорость, м/час -    0.0 см 
STD                .                                       : 12 Приток,  -  170.0 см 
TIME               .S                                      : 4 Время, сек -    0.0 см 
TM                 .GRD                                    : 14 Температура, °C -  180.0 см 
TM$                .UE                                     : 6 Температура, усл.ед. -  180.0 см 
VGD                .                                       : 8 Влагомер,  -  170.0 см 
~Ascii
2648.8     -9999      -9999      -9999      -9999      -9999      -9999      -9999      -9999      -9999      -9999      -9999      -9999      -9999      -9999      -9999      -9999      -9999     
2649       -9999      -9999      -9999      38         0          -9999      -9999      -9999      -9999      0          -9999      150        -9999      10268.56   -9999      -9999      -9999     
2649.2     -9999      -9999      -9999      37         0          -9999      -9999      -9999      -9999      0          -9999      450        -9999      10270.45   -9999      -9999      -9999     
2649.4     -9999      -9999      -9999      298        0          -9999      -9999      -9999      -9999      0          -9999      580        -9999      10271.76   -9999      -9999      -9999     
2649.6     -9999      -9999      -9999      213        0          -9999      -9999      -9999      -9999      0          -9999      590        -9999      10272.99   -9999      -9999      -9999     
2649.8     -9999      -9999      -9999      234        0          -9999      -9999      -9999      -9999      0          -9999      510        -9999      10274.25   -9999      -9999      -9999     
2650       -9999      9.61       421        213        0          -9999      -9999      -9999      -9999      0          -9999      580        -9999      10274.95   -9999      -9999      -9999     
2650.2     -9999      9.8        432        202        1          -9999      -9999      -9999      -9999      0          -9999      580        -9999      10276.06   -9999      -9999      -9999     
2650.4     -9999      10.02      445        240        0          -9999      -9999      -9999      -9999      0          -9999      580        -9999      10277.35   -9999      -9999      -9999     
2650.6     -9999      10.03      425        225        0          243.672    11901      -9999      -9999      0          -9999      580        9691       10278.67   -9999      -9999      6647      
2650.8     -9999      9.85       421        411        0          243.663    11901      -9999      -9999      0          -9999      580        9705       10279.99   49.503     12236      6646      
2651       -9999      9.78       421        311        0          243.645    11900      -9999      -9999      0          -9999      533        9712       10281.25   49.497     12234      6644      
2651.2     1265       9.75       423        168        0          243.637    11900      -9999      -9999      0          4.5043     580        9712       10282.57   49.491     12233      6647      
2651.4     1266       9.73       423        140        0          243.662    11901      -9999      -9999      0          4.5091     580        9708       10283.88   49.483     12231      6640      
2651.6     1265       9.81       434        2281       0          243.705    11903      14         0          0          4.5037     545        9703       10285.15   49.487     12232      6644      
2651.8     1264       9.89       434        2912       0          243.735    11904      14         0          0          4.4995     522        9701       10286.48   49.487     12232      6643      
2652       1267       9.75       416        2904       0          243.736    11904      14         0          0          4.5138     568        9697       10287.8    49.49      12233      6645      
2652.2     1267       9.65       416        1414       0          243.74     11904      15         0          0          4.5138     557        9696       10289.07   49.491     12233      6645      
2652.4     1265       9.44       398        3800       0          243.735    11904      14         0          0          4.503      580        9696       10290.4    49.491     12233      6645      
2652.6     1265       9.29       398        2656       0          243.766    11905      14         0          0          4.5019     580        9694       10291.72   49.483     12231      6645      
2652.8     1263       9.33       409        907        0          243.781    11906      14         0          0          4.4956     568        9692       10292.99   49.477     12229      6646      
2653       1266       9.36       409        261        0          243.813    11907      14         0          0          4.5083     580        9690       10294.3    49.467     12227      6644      
2653.2     1263       9.55       424        2468       0          243.816    11907      15         0          0          4.4964     557        9688       10295.57   49.463     12226      6638      
2653.4     1264       9.62       420        1586       0          243.832    11908      13         0          0          4.5011     510        9687       10296.89   49.457     12224      6642      
2653.6     1266       9.61       418        412        0          243.847    11909      13         0          0          4.5091     556        9685       10298.22   49.452     12223      6622      
2653.8     1264       9.61       420        218        0          243.849    11909      14         0          0          4.5012     580        9684       10299.5    49.441     12220      6633      
2654       1264       9.72       428        156        0          243.847    11909      15         0          0          4.4972     522        9681       10300.79   49.425     12217      6638      
2654.2     1265       9.74       421        126        0          243.894    11911      14         0          0          4.5034     580        9678       10302.09   49.412     12213      6644      
2654.4     1264       9.67       418        139        0          243.897    11911      15         0          0          4.4996     533        9677       10303.37   49.398     12210      6644      
2654.6     1264       9.64       419        160        0          243.928    11913      14         0          0          4.4995     540        9674       10304.65   49.39      12208      6641      
2654.8     1264       9.63       419        956        0          243.913    11912      15         0          0          4.4995     580        9673       10305.95   49.376     12204      6645      
2655       1264       9.7        436        1975       0          243.959    11914      15         0          0          4.4988     580        9669       10307.27   49.355     12199      6646      
2655.2     1264       9.88       439        554        0          243.95     11914      13         0          0          4.5003     545        9665       10308.58   49.342     12196      6646      
2655.4     1265       10.02      446        196        0          243.992    11915      14         0          0          4.5027     510        9663       10309.85   49.332     12194      6644      
2655.6     1263       10.13      446        134        0          243.923    11913      14         0          0          4.4964     580        9660       10311.17   49.323     12191      6649      
2655.8     1264       9.92       410        128        0          244        11916      14         0          0          4.4995     580        9660       10312.48   49.314     12189      6649      
2656       1263       9.67       410        110        0          244.01     11916      14         0          0          4.4934     510        9659       10313.78   49.309     12188      6647      
2656.2     1262       9.17       370        139        0          244.038    11918      15         0          0          4.49       580        9657       10315.07   49.293     12184      6640      
2656.4     1261       8.84       370        98         0          244.026    11917      13         0          0          4.4843     580        9656       10316.38   49.275     12179      6647      
2656.6     1261       8.29       321        120        0          244.069    11919      14         0          0          4.4853     580        9651       10317.64   49.258     12175      6649      
2656.8     1261       7.83       321        128        0          244.091    11920      14         0          0          4.4846     510        9650       10318.97   49.245     12172      6649      
