~Version
 VERS              .         2.0                           : CWLS LOG ASCII STANDARD - VERSION 2.0
 WRAP              .         NO                            : ONE LINE PER DEPTH STEP
 DLM               .         SPACE                         : DELIMITING CHARACTER(SPACE TAB OR COMMA)
~Well Information
#_______________________________________________________________________________
#
#PARAMETER_NAME    .UNIT     VALUE                         : DESCRIPTION
#_______________________________________________________________________________
STRT               .M        2714.4                        : First reference value
STOP               .M        2769                          : Last reference value
STEP               .M        0.2000004                     : Step increment
NULL               .         -9999                         : Missing value
COMP               .                                       : Company
WELL               .         616                           : Well name
FLD                .                                       : Field
LOC                .                                       : Location
CNTY               .                                       : County
STAT               .                                       : State
CTRY               .                                       : Country
SRVC               .                                       : Service Company
DATE               .                                       : Date
API                .                                       : API number
PROJECT_UPGRADE_TIME .         2021-03-18T21_24_50           : 
group              .         Good                          : 
~Parameter Information Block
#_______________________________________________________________________________
#
#PARAMETER_NAME    .UNIT     VALUE                         : DESCRIPTION
#_______________________________________________________________________________
SET                .         D1163_D                       : 
OTHER              .         Программное обеспечение станции MONITOR-386EX 25/12/99 15_08_10   BGF V52 22/08/01 16_56_30   3.2_BGF_N_3070031: 
OTHER_10           .         Тарировки_                    : 
OTHER_11           .         TM.GRD = 0.00403*TM$.UE + -1.19: 
OTHER_12           .         MN.ATM = (7.1e-006*TM.GRD + 0.02017)*(MN$.UE + -3.03*TM.GRD + -1833): 
OTHER_13           .         Id error                      : 
OTHER_2            .         Kedr.exe версия 3.4.2.51      : 
OTHER_3            .         KedrData.dll версия 3.4.2.24  : 
OTHER_4            .         Драйвер версия 2.1.1.8        : 
OTHER_5            .         Мнемоники версия 3.3 S        : 
OTHER_6            .         Прибор_ КСА-М1                : 
OTHER_7            .         Номер прибора_ 265            : 
OTHER_8            .         Режим_ КСА-М1                 : 
OTHER_9            .         Форма_ ТЕРМОМЕТР              : 
PROJECT_UPGRADE_TIME .         2021-03-18T21_24_49           : 
TLFamily_DEPT      .         Measured Depth                : 
TLFamily_GK        .         Gamma Ray                     : 
TLFamily_GK$       .                                       : 
TLFamily_LM        .         Casing Collar locator         : 
TLFamily_METKA     .                                       : 
TLFamily_MN        .                                       : 
TLFamily_MN$       .                                       : 
TLFamily_RCOR      .                                       : 
TLFamily_SPID      .         Spontaneous Potential         : 
TLFamily_STD       .                                       : 
TLFamily_TENS      .         Cable Tension                 : 
TLFamily_TIME      .         Time                          : 
TLFamily_TM        .         Temperature                   : 
TLFamily_TM$       .         Temperature                   : 
TLFamily_VGD       .         Gas Volume                    : 
group              .         prim                          : 
~Curve Information
#_______________________________________________________________________________
#
#LOGNAME           .UNIT     LOG_ID                        : DESCRIPTION
#_______________________________________________________________________________
DEPT               .M                                      : 1 Глубина, м -    0.0 см 
GK                 .MKR/H                                  : 15 Гамма-активность, мкр./ч -  110.0 см 
GK$                .UE                                     : 12 Гамма-активность, усл.ед. -  110.0 см 
LM                 .                                       : 10 Локатор муфт,  -   20.0 см 
METKA              .                                       : 3 Метки,  -    0.0 см 
MN                 .ATM                                    : 14 Давление, атм. -  160.0 см 
MN$                .UE                                     : 8 Давление, усл.ед. -  160.0 см 
RCOR               .CM/KM                                  : 5 Коррекция по ролику, см/км -    0.0 см 
SPID               .M/H                                    : 2 Скорость, м/час -    0.0 см 
STD                .                                       : 11 Приток,  -  170.0 см 
TENS               .T                                      : 6 Натяжение кабеля, т -    0.0 см 
TIME               .S                                      : 4 Время, сек -    0.0 см 
TM                 .GRD                                    : 13 Температура, °C -  180.0 см 
TM$                .UE                                     : 7 Температура, усл.ед. -  180.0 см 
VGD                .                                       : 9 Влагомер,  -  170.0 см 
~Ascii
# ...
2734       8.55       387        1          0          253.516    14289      -1400      -309       32372      0          18448.54   89.708     22555      6492      
2734.2     7.62       361        1          0          253.516    14289      -1400      -315       32372      0          18446.14   89.711     22556      6492      
2734.4     6.51       281        1          0          253.536    14290      -1400      -323       32372      0          18443.86   89.711     22556      6492      
2734.6     6.78       264        1          0          253.557    14291      -1400      -316       32372      0          18441.68   89.713     22557      6492      
2734.8     8.02       332        1          0          253.578    14292      -1400      -319       32372      0          18439.49   89.719     22558      6491      
2735       8.59       378        1          0          253.599    14293      -1400      -318       32373      0          18437.1    89.719     22558      6491      
2735.2     7.35       316        1          0          253.625    14294      -1400      -317       32373      0          18434.81   89.723     22559      6491      
2735.4     7.09       297        1          0          253.63     14295      -1400      -315       32372      0          18432.64   89.723     22559      6491      
2735.6     7.95       338        1212       0          253.646    14295      -1400      -320       32372      0          18430.34   89.727     22560      6490      
2735.8     8.26       347        2226       0          253.683    14297      -1400      -320       32373      0          18428.05   89.731     22561      6491      
2736       8.49       355        1          0          253.703    14298      -1400      -320       32373      0          18425.77   89.735     22562      6490      
2736.2     8.82       366        1          0          253.724    14299      -1400      -315       32373      0          18423.52   89.735     22562      6490      
2736.4     9.27       390        1          0          253.745    14300      -1400      -315       32373      0          18421.3    89.739     22563      6490      
2736.6     9.15       407        1          0          253.766    14301      -1400      -305       32373      0          18419.01   89.739     22563      6489      
2736.8     8.3        363        1          0          253.787    14302      -1400      -306       32373      0          18416.83   89.739     22563      6490      
2737       7.81       329        1          0          253.808    14303      -1400      -315       32373      0          18414.43   89.743     22564      6489      
2737.2     8.41       352        1          0          253.829    14304      -1400      -312       32373      0          18412.26   89.747     22565      6489      
2737.4     9.15       392        1          0          253.849    14305      -1400      -317       32373      0          18409.97   89.751     22566      6488      
2737.6     9.03       388        1          0          253.891    14307      -1400      -319       32373      0          18407.68   89.755     22567      6488      
2737.8     8.67       378        1          0          253.912    14308      -1400      -318       32373      0          18405.39   89.755     22567      6487      
2738       8.34       359        1          0          253.928    14309      -1400      -317       32373      0          18403.21   89.759     22568      6487      
2738.2     8.23       356        1          0          253.933    14309      -1400      -315       32373      0          18400.93   89.763     22569      6486      
2738.4     8.48       347        1          0          253.954    14310      -1400      -318       32373      0          18398.53   89.763     22569      6487      
2738.6     8.95       377        1          0          253.995    14312      -1400      -317       32372      0          18396.35   89.771     22571      6486      
2738.8     9.32       391        1          0          253.996    14312      -1400      -315       32373      0          18394.06   89.771     22571      6487      
2739       9.51       411        1          0          254.032    14314      -1400      -314       32372      0          18391.88   89.773     22572      6486      
2739.2     9.17       396        1          0          254.058    14315      -1400      -317       32372      0          18389.48   89.775     22572      6486      
2739.4     8.78       376        1          0          254.058    14315      -1400      -314       32373      0          18387.31   89.775     22572      6485      
2739.6     8.65       375        1          0          254.079    14316      -1400      -302       32373      0          18385.02   89.78      22573      6485      
2739.8     7.99       343        1          0          254.1      14317      -1400      -311       32372      0          18382.73   89.788     22575      6484      
2740       7.78       334        1          2          254.121    14318      -1400      -319       32373      0          18380.11   89.789     22576      6484      
2740.2     7.96       330        1          0          254.142    14319      -1400      -310       32372      0          18377.94   89.795     22577      6483      
2740.4     8.19       345        1          0          254.163    14320      -1400      -319       32373      0          18375.65   89.795     22577      6484      
2740.6     8.21       357        1          0          254.184    14321      -1400      -318       32373      0          18373.36   89.8       22578      6484      
2740.8     8.09       345        1          0          254.204    14322      -1400      -316       32372      0          18371.08   89.807     22580      6484      
2741       8.27       345        1          0          254.225    14323      -1400      -314       32373      0          18368.89   89.81      22581      6483      
2741.2     9          375        1          0          254.246    14324      -1400      -318       32373      0          18366.49   89.809     22581      6483      
2741.4     9.34       400        1          0          254.251    14324      -1400      -317       32372      0          18364.21   89.815     22582      6482      
2741.6     9.27       399        1          0          254.283    14326      -1400      -315       32372      0          18362.03   89.818     22583      6481      
2741.8     9.05       386        1          0          254.293    14326      -1400      -316       32373      0          18359.85   89.819     22583      6481      
2742       9.18       394        1          0          254.309    14327      -1400      -317       32373      0          18357.46   89.821     22583      6480      
2742.2     8.98       386        1          0          254.33     14328      -1400      -317       32373      0          18355.23   89.826     22585      6481      
2742.4     8.6        366        1          0          254.371    14330      -1400      -321       32373      0          18352.97   89.828     22585      6480      
2742.6     8.96       372        1          0          254.372    14330      -1400      -322       32373      0          18350.66   89.832     22586      6480      
2742.8     9.16       388        1          0          254.392    14331      -1400      -317       32372      0          18348.47   89.836     22587      6480      
2743       9.13       397        1          0          254.413    14332      -1400      -315       32372      0          18346.17   89.836     22587      6479      
2743.2     8.77       388        1          0          254.434    14333      -1400      -319       32373      0          18343.99   89.836     22587      6480      
2743.4     8.22       356        1          0          254.45     14334      -1400      -318       32372      0          18341.64   89.84      22588      6479      
2743.6     7.93       341        1          0          254.46     14334      -1400      -316       32373      0          18339.38   89.844     22589      6478      
