~Version
 VERS              .         2.0                           : CWLS LOG ASCII STANDARD - VERSION 2.0
 WRAP              .         NO                            : ONE LINE PER DEPTH STEP
 DLM               .         SPACE                         : DELIMITING CHARACTER(SPACE TAB OR COMMA)
~Well Information
#_______________________________________________________________________________
#
#PARAMETER_NAME    .UNIT     VALUE                         : DESCRIPTION
#_______________________________________________________________________________
STRT               .M        3.4                           : First reference value
STOP               .M        832.4                         : Last reference value
STEP               .M        0.2                           : Step increment
NULL               .         -9999                         : Missing value
COMP               .                                       : Company
WELL               .         616                           : Well name
FLD                .                                       : Field
LOC                .                                       : Location
CNTY               .                                       : County
STAT               .                                       : State
CTRY               .                                       : Country
SRVC               .                                       : Service Company
DATE               .                                       : Date
API                .                                       : API number
PROJECT_UPGRADE_TIME .         2021-03-18T21_24_50           : 
group              .         Good                          : 
~Parameter Information Block
#_______________________________________________________________________________
#
#PARAMETER_NAME    .UNIT     VALUE                         : DESCRIPTION
#_______________________________________________________________________________
SET                .         ULN                           : 
PROJECT_UPGRADE_TIME .         2021-03-18T21_24_50           : 
TLFamily_AK4       .                                       : 
TLFamily_ALFAK     .                                       : 
TLFamily_AMPL      .                                       : 
TLFamily_DEPTH     .         Measured Depth                : 
TLFamily_DK1       .                                       : 
TLFamily_DK2       .                                       : 
TLFamily_DTK       .         Compressional Slowness        : 
TLFamily_QCBL      .                                       : 
TLFamily_T1        .         Travel Time 1                 : 
TLFamily_T2        .         Travel Time 2                 : 
group              .         prim                          : 
~Curve Information
#_______________________________________________________________________________
#
#LOGNAME           .UNIT     LOG_ID                        : DESCRIPTION
#_______________________________________________________________________________
DEPTH              .M                                      : 0 Depth curve 
AK4                .                                       : 2 Амплитуда - Волна по колонне - Канал1 
ALFAK              .дБ/м                                   : 1 Затухание - Волна по колонне 
AMPL               .                                       : 8 Коэффициент усиления ВС 
DK1                .дБ                                     : 3 Кривая ослабления - Волна по колонне - Канал1 
DK2                .дБ                                     : 4 Кривая ослабления - Волна по колонне - Канал2 
DTK                .мкс/м                                  : 5 ДельтаТ - Волна по породе 
QCBL               .                                       : 9 Контакт цемент-колонна 
T1                 .мкс                                    : 6 Время пробега - Волна по породе - Канал1 
T2                 .мкс                                    : 7 Время пробега - Волна по породе - Канал2 
~Ascii
# ...
105.6      22048.86   14         1          3.565      10.565     194.67     2          362.018    459.353   
105.8      21912.12   13.832     1          3.619      10.535     195.239    2          361.899    459.519   
106        21952.49   13.734     1          3.604      10.47      196.119    2          361.366    459.426   
106.2      21933.44   13.784     1          3.611      10.503     195.23     2          361.209    458.824   
106.4      22046.54   14.058     1          3.566      10.595     194.739    2          360.793    458.163   
106.6      22177.52   13.641     1          3.515      10.336     193.79     2          361.279    458.175   
106.8      22444.18   13.534     1          3.412      10.179     195.632    2          360.891    458.708   
107        22402.45   13.509     1          3.428      10.183     194.624    2          361.505    458.818   
107.2      22158.13   14.298     1          3.524      10.673     195.322    2          361.619    459.281   
107.4      21837.57   13.888     1          3.649      10.593     194.403    2          362.233    459.435   
107.6      22115.75   13.585     1          3.54       10.333     195.765    2          362.153    460.036   
107.8      22653.27   13.005     1          3.334      9.836      197.263    2          361.459    460.091   
108        22985.81   12.972     1          3.204      9.69       198.193    2          360.884    459.98    
108.2      23032.59   12.963     1          3.187      9.668      198.94     2          360.376    459.847   
108.4      22789.1    13.03      1          3.278      9.793      197.689    2          361.039    459.884   
108.6      22669.41   13.206     1          3.324      9.927      196.905    2          361.563    460.016   
108.8      22319.96   13.39      1          3.46       10.156     196.892    2          362.2      460.646   
109        22009.03   13.798     1          3.582      10.481     196.813    2          362.292    460.699   
109.2      21779.27   14.225     1          3.672      10.784     196.502    2          362.405    460.656   
109.4      21555.29   14.419     1          3.763      10.972     194.347    2          362.83     460.004   
109.6      21331.31   14.453     1          3.853      11.08      193.31     2          363.256    459.912   
109.8      21236.36   14.76      1          3.892      11.272     193.47     2          363.727    460.462   
110        21242.95   15.132     1          3.889      11.455     193.473    2          363.961    460.698   
110.2      21249.55   15.122     1          3.886      11.447     194.615    2          364.196    461.504   
110.4      21445.39   14.876     1          3.808      11.246     194.365    2          364.297    461.479   
110.6      21980.55   14.418     1          3.596      10.805     196.486    2          363.596    461.839   
110.8      22712.41   14.529     1          3.31       10.574     197.878    2          362.199    461.138   
111        23125.99   14.162     1          3.151      10.232     199.436    2          360.891    460.609   
111.2      23322.68   14.277     1          3.077      10.216     199.927    2          360.194    460.158   
111.4      23174.32   13.688     1          3.133      9.977      199.948    2          360.664    460.638   
111.6      23005.56   13.674     1          3.197      10.033     199.492    2          361.355    461.102   
111.8      22838.66   13.607     1          3.259      10.063     198.703    2          361.859    461.211   
112        22970.68   13.385     1          3.21       9.902      197.192    2          362.04     460.636   
112.2      23123.08   12.96      1          3.152      9.632      196.492    2          361.999    460.245   
112.4      23273.63   12.748     1          3.096      9.469      196.934    2          362.146    460.613   
112.6      23273.63   12.781     1          3.096      9.486      198.224    2          362.146    461.258   
112.8      22974.41   13.09      1          3.209      9.755      198.123    2          362.697    461.759   
113        22675.18   13.264     1          3.323      9.955      197.205    2          363.248    461.851   
113.2      22176.78   13.964     1          3.516      10.497     195.932    2          364.029    461.996   
113.4      21319.17   14.245     1          3.869      10.992     194.6      2          364.702    462.002   
113.6      19937.12   15.862     1          4.118      12.049     195.748    2          365.553    463.427   
113.8      18229.82   18.38      1          4.894      14.084     196.494    2          367.893    465.661   
114        17470.55   19.599     1          5.248      15.047     197.584    2          370.55     468.863   
114.2      17235.71   19.153     1          5.707      15.283     195.298    2          373.027    470.198   
114.4      17614.82   16.895     1          5.515      13.963     192.569    2          374.386    470.671   
114.6      18615.74   15.728     1          5.539      13.403     192.993    2          373.757    470.254   
114.8      20528.07   15.868     1          4.719      12.653     199.327    2          370.599    470.262   
115        22350.9    15.91      1          3.943      11.898     203.595    2          366.843    468.525   
115.2      23589.46   18.023     1          2.98       11.992     202.203    2          364.081    465.068   
115.4      23916.61   16.095     1          2.86       10.908     197.457    2          363.85     462.463   
115.6      24210.42   14.786     1          2.753      10.146     195.976    2          363.588    461.576   
115.8      23759.66   12.057     1          2.919      8.947      198.24     2          363.665    462.785   
116        23308.9    12.942     1          3.085      9.556      196.771    2          363.742    462.128   
116.2      22394.73   14.028     1          3.434      10.448     196.158    2          363.869    461.948   
116.4      21362.91   13.987     1          3.855      10.849     194.892    2          363.93     461.377   
116.6      20840.99   14.004     1          4.06       11.062     195.49     2          364.053    461.798   
116.8      20815.8    13.894     1          4.07       11.017     194.197    2          364.157    461.256   
117        21531.27   14.78      1          3.772      11.162     193.025    2          364.155    460.668   
117.2      21736.84   15.25      1          3.69       11.315     192.243    2          364.092    460.214   
117.4      21942.4    15.392     1          3.607      11.303     192.544    2          364.028    460.301   
117.6      21767.34   14.801     1          3.677      11.078     193.621    2          363.492    460.303   
117.8      21300.89   13.923     1          3.868      10.83      193.346    2          363.59     460.263   
118        21230.48   13.56      1          3.896      10.676     193.322    2          363.524    460.185   
118.2      21335.14   13.955     1          3.854      10.832     193.314    2          363.995    460.653   
118.4      21851.96   14.506     1          3.643      10.896     194.744    2          363.342    460.714   
118.6      21949.71   14.271     1          3.604      10.74      195.507    2          362.859    460.613   
118.8      20973.68   12.838     1          4.023      10.443     194.673    2          362.867    460.204   
119        19876.88   11.947     1          4.49       10.464     193.278    2          363.366    460.006   
119.2      18803.1    11.527     1          4.948      10.712     192.53     2          363.857    460.122   
119.4      18803.1    12.802     1          4.948      11.349     192.301    2          363.857    460.008   
119.6      18040.24   13.245     1          5.324      11.947     192.327    2          363.178    459.342   
119.8      17277.38   13.732     1          5.7        12.566     192.388    2          362.5      458.694   
120        16514.52   14.702     1          6.075      13.426     192.703    2          361.821    458.173   
