~Version
 VERS              .         2.0                           : CWLS LOG ASCII STANDARD - VERSION 2.0
 WRAP              .         NO                            : ONE LINE PER DEPTH STEP
 DLM               .         SPACE                         : DELIMITING CHARACTER(SPACE TAB OR COMMA)
~Well Information
#_______________________________________________________________________________
#
#PARAMETER_NAME    .UNIT     VALUE                         : DESCRIPTION
#_______________________________________________________________________________
STRT               .M        2338.9                        : First reference value
STOP               .M        2799.2                        : Last reference value
STEP               .M        0.1                           : Step increment
NULL               .         -9999                         : Missing value
COMP               .                                       : Company
WELL               .         616                           : Well name
FLD                .                                       : Field
LOC                .                                       : Location
CNTY               .                                       : County
STAT               .                                       : State
CTRY               .                                       : Country
SRVC               .                                       : Service Company
DATE               .                                       : Date
API                .                                       : API number
PROJECT_UPGRADE_TIME .         2021-03-18T21_24_50           : 
group              .         Good                          : 
~Parameter Information Block
#_______________________________________________________________________________
#
#PARAMETER_NAME    .UNIT     VALUE                         : DESCRIPTION
#_______________________________________________________________________________
SET                .         D2662_D                       : 
OTHER              .         Программное обеспечение станции MONITOR-386EX 25/12/99 15_08_10   BGF V50 26/12/00 07_26_01   3.1_SNGF___BGF_N_092085: 
OTHER_10           .         Тарировки_                    : 
OTHER_11           .         IK1.GRD = IK1$.UE - -5.96     : 
OTHER_12           .         IK5.GRD = IK5$.UE - -0.74     : 
OTHER_13           .         IK4.GRD = IK4$.UE - -0.9      : 
OTHER_14           .         IK3.GRD = IK3$.UE - -1.28     : 
OTHER_15           .         IK2.GRD = IK2$.UE - -3.55     : 
OTHER_2            .         Kedr.exe версия 3.3.2.32      : 
OTHER_3            .         KedrData.dll версия 3.3.2.17  : 
OTHER_4            .         Драйвер версия 2.1.0.4        : 
OTHER_5            .         Мнемоники версия 3.3 S        : 
OTHER_6            .         Прибор_ Викиз                 : 
OTHER_7            .         Номер прибора_ 0006012        : 
OTHER_8            .         Режим_ Викиз                  : 
OTHER_9            .         Форма_ ВИКИЗ                  : 
PROJECT_UPGRADE_TIME .         2021-03-18T21_24_49           : 
TLFamily_DEPT      .         Measured Depth                : 
TLFamily_IK1       .         Extra Shallow Resistivity     : 
TLFamily_IK1$      .         Extra Shallow Resistivity     : 
TLFamily_IK2       .         Shallow Resistivity           : 
TLFamily_IK2$      .         Shallow Resistivity           : 
TLFamily_IK3       .         Medium Resistivity            : 
TLFamily_IK3$      .         Medium Resistivity            : 
TLFamily_IK4       .         Deep Resistivity              : 
TLFamily_IK4$      .         Deep Resistivity              : 
TLFamily_IK5       .         Resistivity 20                : 
TLFamily_IK5$      .         Resistivity 20                : 
TLFamily_METKA     .                                       : 
TLFamily_PS        .         Spontaneous Potential         : 
TLFamily_RCOR      .                                       : 
TLFamily_SPID      .         Spontaneous Potential         : 
TLFamily_TENS      .         Cable Tension                 : 
TLFamily_TIME      .         Time                          : 
group              .         prim                          : 
~Curve Information
#_______________________________________________________________________________
#
#LOGNAME           .UNIT     LOG_ID                        : DESCRIPTION
#_______________________________________________________________________________
DEPT               .M                                      : 1 Глубина, м -    0.0 см 
IK1                .GRD                                    : 13 3Ф0.5, град. -  226.0 см 
IK1$               .UE                                     : 7 3Ф0.5, усл.ед. -  226.0 см 
IK2                .GRD                                    : 17 3Ф0.7, град. -  240.0 см 
IK2$               .UE                                     : 11 3Ф0.7, усл.ед. -  240.0 см 
IK3                .GRD                                    : 16 3Ф1.0, град. -  260.0 см 
IK3$               .UE                                     : 10 3Ф1.0, усл.ед. -  260.0 см 
IK4                .GRD                                    : 15 3Ф1.4, град. -  288.0 см 
IK4$               .UE                                     : 9 3Ф1.4, усл.ед. -  288.0 см 
IK5                .GRD                                    : 14 3Ф2.0, град. -  328.0 см 
IK5$               .UE                                     : 8 3Ф2.0, усл.ед. -  328.0 см 
METKA              .                                       : 3 Метки,  -    0.0 см 
PS                 .mV                                     : 12 ПС, мВ -  372.0 см 
RCOR               .CM/KM                                  : 5 Коррекция по ролику, см/км -    0.0 см 
SPID               .M/H                                    : 2 Скорость, м/час -    0.0 см 
TENS               .T                                      : 6 Натяжение кабеля, т -    0.0 см 
TIME               .S                                      : 4 Время, сек -    0.0 см 
~Ascii
# ...
2734.5     9.36       3.4        10.52      6.97       11.87      10.59      12.17      11.27      12.19      11.45      0          274.72     -317       -1743      0          34709.54  
2734.6     9.32       3.36       10.49      6.94       11.86      10.58      12.16      11.26      12.2       11.46      0          273.93     -317       -1747      0          34709.34  
2734.7     9.21       3.25       10.4       6.85       11.82      10.54      12.14      11.24      12.19      11.45      0          273.61     -317       -1751      0          34709.14  
2734.8     9.07       3.11       10.32      6.77       11.79      10.51      12.14      11.24      12.17      11.43      0          273.41     -317       -1756      0          34708.95  
2734.9     9          3.04       10.31      6.76       11.82      10.54      12.17      11.27      12.17      11.43      0          273.25     -317       -1764      0          34708.72  
2735       8.98       3.02       10.34      6.79       11.88      10.6       12.23      11.33      12.19      11.45      0          273.19     -317       -1773      0          34708.52  
2735.1     8.98       3.02       10.39      6.84       11.95      10.67      12.31      11.41      12.22      11.48      0          273.17     -317       -1776      0          34708.33  
2735.2     9.02       3.06       10.46      6.91       12.06      10.78      12.39      11.49      12.28      11.54      0          273.22     -317       -1772      0          34708.09  
2735.3     9.08       3.12       10.56      7.01       12.16      10.88      12.47      11.57      12.31      11.57      0          273.2      -317       -1768      0          34707.91  
2735.4     9.16       3.2        10.65      7.1        12.26      10.98      12.54      11.64      12.35      11.61      0          272.99     -317       -1762      0          34707.71  
2735.5     9.29       3.33       10.76      7.21       12.37      11.09      12.62      11.72      12.38      11.64      0          272.77     -317       -1755      0          34707.49  
2735.6     9.37       3.41       10.88      7.33       12.45      11.17      12.67      11.77      12.4       11.66      0          272.69     -317       -1746      0          34707.3   
2735.7     9.44       3.48       10.97      7.42       12.52      11.24      12.7       11.8       12.42      11.68      0          272.67     -317       -1750      0          34707.12  
2735.8     9.49       3.53       11.04      7.49       12.56      11.28      12.71      11.81      12.43      11.69      0          272.81     -317       -1755      0          34706.93  
2735.9     9.52       3.56       11.1       7.55       12.59      11.31      12.72      11.82      12.45      11.71      0          273        -317       -1762      0          34706.7   
2736       9.56       3.6        11.15      7.6        12.63      11.35      12.73      11.83      12.46      11.72      0          273.16     -317       -1770      0          34706.5   
2736.1     9.54       3.58       11.16      7.61       12.67      11.39      12.75      11.85      12.49      11.75      0          273.17     -317       -1780      0          34706.3   
2736.2     9.49       3.53       11.15      7.6        12.7       11.42      12.79      11.89      12.56      11.82      0          273.63     -317       -1780      0          34706.09  
2736.3     9.47       3.51       11.16      7.61       12.76      11.48      12.86      11.96      12.64      11.9       0          274.17     -317       -1777      0          34705.88  
2736.4     9.5        3.54       11.2       7.65       12.85      11.57      13         12.1       12.76      12.02      0          274.47     -317       -1775      0          34705.7   
2736.5     9.6        3.64       11.28      7.73       13         11.72      13.17      12.27      12.93      12.19      0          274.8      -317       -1770      0          34705.47  
2736.6     9.74       3.78       11.41      7.86       13.15      11.87      13.37      12.47      13.1       12.36      0          275.27     -317       -1765      0          34705.28  
2736.7     9.85       3.89       11.54      7.99       13.31      12.03      13.56      12.66      13.28      12.54      0          275.79     -317       -1759      0          34705.09  
2736.8     10         4.04       11.69      8.14       13.49      12.21      13.8       12.9       13.48      12.74      0          276.29     -317       -1751      0          34704.88  
2736.9     10.17      4.21       11.86      8.31       13.68      12.4       13.99      13.09      13.67      12.93      0          276.73     -317       -1742      0          34704.68  
2737       10.34      4.38       12.06      8.51       13.85      12.57      14.18      13.28      13.84      13.1       0          277.24     -317       -1737      0          34704.47  
2737.1     10.55      4.59       12.23      8.68       14.02      12.74      14.36      13.46      13.99      13.25      0          277.55     -317       -1739      0          34704.29  
2737.2     10.75      4.79       12.39      8.84       14.15      12.87      14.5       13.6       14.15      13.41      0          277.71     -317       -1742      0          34704.07  
2737.3     10.93      4.97       12.52      8.97       14.24      12.96      14.59      13.69      14.25      13.51      0          277.49     -317       -1744      0          34703.88  
2737.4     10.98      5.02       12.54      8.99       14.25      12.97      14.64      13.74      14.33      13.59      0          277.06     -317       -1748      0          34703.67  
2737.5     10.95      4.99       12.49      8.94       14.23      12.95      14.65      13.75      14.4       13.66      0          276.61     -317       -1754      0          34703.43  
2737.6     10.92      4.96       12.46      8.91       14.21      12.93      14.66      13.76      14.45      13.71      0          276.21     -317       -1759      0          34703.25  
2737.7     10.88      4.92       12.45      8.9        14.2       12.92      14.67      13.77      14.49      13.75      0          276.19     -317       -1767      0          34703.04  
2737.8     10.84      4.88       12.46      8.91       14.21      12.93      14.68      13.78      14.54      13.8       0          276.41     -317       -1777      0          34702.81  
2737.9     10.84      4.88       12.52      8.97       14.22      12.94      14.69      13.79      14.57      13.83      0          277.11     -317       -1789      0          34702.63  
2738       10.83      4.87       12.54      8.99       14.22      12.94      14.7       13.8       14.6       13.86      0          277.99     -317       -1804      0          34702.42  
2738.1     10.85      4.89       12.55      9          14.23      12.95      14.69      13.79      14.62      13.88      0          278.88     -317       -1803      0          34702.23  
2738.2     10.93      4.97       12.58      9.03       14.23      12.95      14.67      13.77      14.65      13.91      0          279.74     -317       -1786      0          34701.99  
2738.3     11.03      5.07       12.6       9.05       14.22      12.94      14.65      13.75      14.67      13.93      0          280.71     -317       -1768      0          34701.81  
2738.4     11.15      5.19       12.61      9.06       14.21      12.93      14.6       13.7       14.68      13.94      0          281.81     -317       -1762      0          34701.62  
2738.5     11.27      5.31       12.61      9.06       14.16      12.88      14.57      13.67      14.69      13.95      0          283.11     -317       -1753      0          34701.4   
2738.6     11.39      5.43       12.63      9.08       14.14      12.86      14.54      13.64      14.7       13.96      0          284.53     -317       -1746      0          34701.21  
2738.7     11.56      5.6        12.69      9.14       14.12      12.84      14.53      13.63      14.73      13.99      0          285.38     -317       -1750      0          34701.02  
