~Version
 VERS              .         2.0                           : CWLS LOG ASCII STANDARD - VERSION 2.0
 WRAP              .         NO                            : ONE LINE PER DEPTH STEP
 DLM               .         SPACE                         : DELIMITING CHARACTER(SPACE TAB OR COMMA)
~Well Information
#_______________________________________________________________________________
#
#PARAMETER_NAME    .UNIT     VALUE                         : DESCRIPTION
#_______________________________________________________________________________
STRT               .M        827.6                         : First reference value
STOP               .M        1707.2                        : Last reference value
STEP               .M        0.2                           : Step increment
NULL               .         -9999                         : Missing value
COMP               .                                       : Company
WELL               .         616                           : Well name
FLD                .                                       : Field
LOC                .                                       : Location
CNTY               .                                       : County
STAT               .                                       : State
CTRY               .                                       : Country
SRVC               .                                       : Service Company
DATE               .                                       : Date
API                .                                       : API number
PROJECT_UPGRADE_TIME .         2021-03-18T21_24_50           : 
group              .         Good                          : 
~Parameter Information Block
#_______________________________________________________________________________
#
#PARAMETER_NAME    .UNIT     VALUE                         : DESCRIPTION
#_______________________________________________________________________________
SET                .         616_8                         : 
CONF               .         00                            : 
END                .         0                             : 
ERR                .         0                             : 
GS00               .M        1705.33                       : 
GS01               .M        0825.11                       : 
MM00               .M        0210.00                       : 
NOKG               .         0                             : 
NPR                .         980615                        : 
PART               .         Бутенко                       : 
PROJECT_UPGRADE_TIME .         2021-03-18T21_24_49           : 
PRZK               .         Шакиров                       : 
TLFamily_AZIMUTH   .         True Dip Azimuth              : 
TLFamily_DEPTH     .         Measured Depth                : 
TLFamily_METKA     .                                       : 
TLFamily_ROLL      .                                       : 
TLFamily_SPEED     .         Spontaneous Potential         : 
TLFamily_ZENIT     .                                       : 
VPRG               .         310                           : 
WAY                .         UP                            : 
group              .         prim                          : 
~Curve Information
#_______________________________________________________________________________
#
#LOGNAME           .UNIT     LOG_ID                        : DESCRIPTION
#_______________________________________________________________________________
DEPTH              .M                                      :  
AZIMUTH            .DEG                                    :  
METKA              .                                       :  
ROLL               .DEG                                    :  
SPEED              .M/H                                    :  
ZENIT              .DEG                                    :  
~Ascii
# ...
1291.2     330.38     0          158.03     576        33.88     
1291.4     275.3      0          158.56     648        32.73     
1291.6     316.68     0          158.7      612        34.72     
1291.8     342.01     0          158.64     612        32.64     
1292       1.14       1          158.45     648        33.92     
1292.2     30.87      0          158.18     324        33.26     
1292.4     322.9      0          157.72     648        33.62     
1292.6     241.99     0          156.96     612        33.7      
1292.8     220.12     0          156.81     648        33.21     
1293       187.88     0          157.16     612        33.78     
1293.2     120.96     0          157.29     612        33.22     
1293.4     19.65      0          156.7      612        34.5      
1293.6     5.72       0          156.07     648        33.2      
1293.8     355.63     0          156.05     648        34.44     
1294       3.74       0          156.21     648        34.05     
1294.2     357.47     0          156.66     612        33.83     
1294.4     4.59       0          157.32     648        34.24     
1294.6     10.39      0          157.78     612        33.91     
1294.8     20         0          156.89     648        34.43     
1295       37.77      0          156.21     612        33.35     
1295.2     9.14       0          155.42     648        33.09     
1295.4     14.25      0          154.11     612        33.96     
1295.6     17.45      0          152.17     612        32.49     
1295.8     11.66      0          149.99     648        33.15     
1296       12.96      0          148.52     612        32.57     
1296.2     8.72       0          146.31     648        32.71     
1296.4     9.28       0          140.36     648        32.23     
1296.6     6.02       0          142.4      648        33.44     
1296.8     4.06       0          151.97     612        31.95     
1297       3.29       0          156.08     612        33.07     
1297.2     13.43      0          156.55     648        33.62     
1297.4     7.34       0          156.58     612        32.87     
1297.6     13.08      0          156.72     648        33.64     
1297.8     0.47       0          156.55     612        33.55     
1298       4.65       0          156.11     648        32.7      
1298.2     5.66       0          156.41     648        34.1      
1298.4     1.7        0          157.3      612        33.02     
1298.6     11.74      0          157.93     648        33.59     
1298.8     8.27       0          158.24     612        33.14     
1299       6.7        0          157.86     648        33.28     
1299.2     3.8        0          157.28     612        33.93     
1299.4     10.57      0          157.32     612        32.27     
1299.6     6          0          157.47     648        33.87     
1299.8     2.95       0          157.11     612        32.69     
1300       3.74       0          156.56     612        33.53     
1300.2     5.57       0          156.16     648        33.02     
1300.4     6.88       0          156.15     612        33.6      
1300.6     358.88     0          156.68     648        33.25     
1300.8     11.22      1          156.55     972        33.04     
1301       358.36     0          156.09     972        33.57     
1301.2     351.91     0          155.75     612        33.43     
1301.4     7.41       0          156        612        32.62     
1301.6     2.92       0          156.39     648        34.18     
1301.8     3.38       0          157.22     612        32.78     
1302       357.74     0          157.82     648        33.68     
1302.2     6          1          158.19     648        33.01     
1302.4     5.16       0          159.05     612        33.79     
1302.6     9.18       0          159.85     648        33.36     
1302.8     2.77       0          160.24     648        33.02     
1303       353.13     0          160.57     648        34.08     
1303.2     2.61       0          160.69     612        33.07     
1303.4     357.77     0          160.42     612        33.4      
1303.6     0.86       0          160.17     648        33.3      
1303.8     354.62     0          159.83     612        33.03     
1304       0.36       0          159.33     648        33.95     
1304.2     354.44     0          158.89     648        32.38     
1304.4     347.03     0          158.59     648        34.23     
1304.6     7.48       0          158.69     576        32.96     
1304.8     8.67       0          158.84     648        33.45     
1305       12.25      0          158.71     612        33.22     
1305.2     360        0          158.3      648        33.42     
1305.4     19.73      0          157.79     612        34.07     
1305.6     10.98      0          158.08     612        32.76     
1305.8     8.57       0          158.43     648        33.79     
1306       8.28       0          158.73     648        33.81     
1306.2     357.48     0          159.09     612        33.58     
1306.4     347.47     0          159.59     648        34.01     
1306.6     11.25      0          159.64     612        33.57     
1306.8     108.29     0          159.16     612        34.43     
1307       115.88     0          158.84     612        32.69     
1307.2     359.34     0          157.81     648        33.48     
1307.4     7.07       0          156.33     648        33.14     
1307.6     14.62      0          156.67     612        32.98     
1307.8     17         0          158.17     648        33.26     
1308       356.31     0          158.84     648        32.17     
1308.2     31.49      0          157.09     612        33.73     
1308.4     30.28      0          153.67     612        32.14     
1308.6     20.68      0          150.41     648        32.9      
1308.8     7.25       0          148.44     612        32.26     
1309       6.61       0          151.3      576        33.06     
1309.2     17.34      0          156.72     648        33.37     
1309.4     19.38      0          159.25     612        32.84     
1309.6     28.64      0          159.61     648        33.6      
1309.8     20.76      0          159.64     612        33.19     
1310       32.08      0          159.9      648        32.91     
1310.2     3.12       0          159.9      648        33.78     
1310.4     4.18       0          159.63     612        32.73     
1310.6     5.52       0          159.52     648        33.74     
1310.8     20.04      0          159.53     612        32.46     
1311       356.81     0          159.42     648        33.83     
1311.2     2.94       0          159.44     576        32.82     
1311.4     0.99       0          159.37     648        33.05     
1311.6     349.07     0          159.28     612        33.41     
1311.8     352.08     0          159.34     648        32.82     
1312       15.07      0          159.17     648        33.7      
1312.2     15.55      1          159.02     648        32.89     
1312.4     343.94     0          159.28     612        33.13     
1312.6     15.17      0          159.92     612        34.13     
1312.8     13.62      0          160.69     648        32.4      
1313       32.82      0          160.88     612        33.99     
1313.2     47.21      0          160.67     612        33.02     
1313.4     38.15      0          160.69     648        33.66     
1313.6     2.76       0          160.9      576        32.99     
1313.8     38.1       0          161.05     612        33.23     
1314       17.98      0          160.99     648        33.79     
1314.2     337.53     0          161.29     648        32.92     
1314.4     344.44     0          161.52     648        33.75     
1314.6     11.35      0          161.47     612        32.89     
1314.8     21.74      0          161.79     648        33.67     
1315       59.26      0          162.14     612        33.17     
1315.2     50.35      0          163.28     648        32.67     
1315.4     39.81      0          168.84     612        34.03     
