~Version
 VERS              .         2.0                           : CWLS LOG ASCII STANDARD - VERSION 2.0
 WRAP              .         NO                            : ONE LINE PER DEPTH STEP
 DLM               .         SPACE                         : DELIMITING CHARACTER(SPACE TAB OR COMMA)
~Well Information
#_______________________________________________________________________________
#
#PARAMETER_NAME    .UNIT     VALUE                         : DESCRIPTION
#_______________________________________________________________________________
STRT               .M        2669.6                        : First reference value
STOP               .M        2776.19984                    : Last reference value
STEP               .M        0.1999997                     : Step increment
NULL               .         -9999                         : Missing value
COMP               .                                       : Company
WELL               .         616                           : Well name
FLD                .                                       : Field
LOC                .                                       : Location
CNTY               .                                       : County
STAT               .                                       : State
CTRY               .                                       : Country
SRVC               .                                       : Service Company
DATE               .                                       : Date
API                .                                       : API number
PROJECT_UPGRADE_TIME .         2021-03-18T21_24_50           : 
group              .         Good                          : 
~Parameter Information Block
#_______________________________________________________________________________
#
#PARAMETER_NAME    .UNIT     VALUE                         : DESCRIPTION
#_______________________________________________________________________________
SET                .         D1805_D                       : 
OTHER              .         Программное обеспечение станции MONITOR-386EX 25/12/99 15_08_10   BGF V52 22/08/01 16_56_30   3.1_SNGF___BGF_N_092049: 
OTHER_10           .         Тарировки_                    : 
OTHER_11           .         TM.GRD = 0.00403*TM$.UE + -1.07: 
OTHER_12           .         MN.ATM = (9.34907e-006*TM.GRD + 0.02171)*(MN$.UE + -7.93*TM.GRD + -1787): 
OTHER_13           .         GK.MKR/H = LM. / 42.4676      : 
OTHER_14           .         GK.FLT = 0.1*GK.MKR/H[-1] + (1-0.1)*GK.MKR/H[0]: 
OTHER_2            .         Kedr.exe версия 3.4.2.51      : 
OTHER_3            .         KedrData.dll версия 3.4.2.24  : 
OTHER_4            .         Драйвер версия 2.1.1.3        : 
OTHER_5            .         Мнемоники версия 3.3 S        : 
OTHER_6            .         Прибор_ КСА-Т4                : 
OTHER_7            .         Номер прибора_ 03             : 
OTHER_8            .         Режим_ КСА-Т4                 : 
OTHER_9            .         Форма_ КВА.                   : 
PROJECT_UPGRADE_TIME .         2021-03-18T21_24_49           : 
TLFamily_DEPT      .         Measured Depth                : 
TLFamily_GK        .         Gamma Ray                     : 
TLFamily_GK$       .                                       : 
TLFamily_GK_2      .         Gamma Ray                     : 
TLFamily_LM        .         Casing Collar locator         : 
TLFamily_METKA     .                                       : 
TLFamily_MN        .                                       : 
TLFamily_MN$       .                                       : 
TLFamily_RCOR      .                                       : 
TLFamily_SPID      .         Spontaneous Potential         : 
TLFamily_TENS      .         Cable Tension                 : 
TLFamily_TIME      .         Time                          : 
TLFamily_TM        .         Temperature                   : 
TLFamily_TM$       .         Temperature                   : 
group              .         prim                          : 
~Curve Information
#_______________________________________________________________________________
#
#LOGNAME           .UNIT     LOG_ID                        : DESCRIPTION
#_______________________________________________________________________________
DEPT               .M                                      : 1 Глубина, м -    0.0 см 
GK                 .MKR/H                                  : 13 Гамма-активность, мкр./ч -  110.0 см 
GK$                .UE                                     : 10 Гамма-активность, усл.ед. -  110.0 см 
GK_2               .FLT                                    : 14 Гамма-активность фильтрованная, мкр./ч -  110.0 см 
LM                 .                                       : 9 Локатор муфт,  -   20.0 см 
METKA              .                                       : 3 Метки,  -    0.0 см 
MN                 .ATM                                    : 12 Давление, атм. -  160.0 см 
MN$                .UE                                     : 8 Давление, усл.ед. -  160.0 см 
RCOR               .CM/KM                                  : 5 Коррекция по ролику, см/км -    0.0 см 
SPID               .M/H                                    : 2 Скорость, м/час -    0.0 см 
TENS               .T                                      : 6 Натяжение кабеля, т -    0.0 см 
TIME               .S                                      : 4 Время, сек -    0.0 см 
TM                 .GRD                                    : 11 Температура, °C -  170.0 см 
TM$                .UE                                     : 7 Температура, усл.ед. -  170.0 см 
~Ascii
# ...
2700.799953 8.58       364        8.65       236        0          328.217    16993      -643       540        0.03       3432.66    55.874     14130     
2700.999953 8.48       360        8.48       224        0          327.313    16952      -643       547        0.03       3433.91    55.874     14130     
2701.199953 8.57       364        8.57       227        0          327.835    16976      -643       539        0.01       3435.3     55.874     14130     
2701.399952 8.57       364        8.57       221        0          328.02     16984      -643       548        0.03       3436.56    55.874     14130     
2701.599952 10.08      428        9.96       231        0          326.86     16932      -643       543        0.03       3437.88    55.87      14129     
2701.799952 10.08      428        10.08      160        0          327.94     16981      -643       548        0.02       3439.2     55.866     14128     
2701.999951 9.73       413        9.75       193        0          327.949    16981      -643       551        0.03       3440.53    55.862     14127     
2702.199951 9.56       406        9.62       209        0          328.294    16997      -643       538        0.02       3441.91    55.858     14126     
2702.399951 9.23       392        9.24       210        0          327.257    16950      -643       535        0.03       3443.17    55.858     14126     
2702.59995 9.7        412        9.53       181        0          327.859    16977      -643       544        0.03       3444.56    55.854     14125     
2702.79995 10.62      451        10.59      210        0          328.297    16997      -643       536        0.03       3445.81    55.854     14125     
2702.99995 10.62      451        10.62      175        0          328.171    16991      -643       546        0.02       3447.14    55.854     14125     
2703.19995 10.62      451        10.62      147        0          329.029    17030      -643       548        0.01       3448.47    55.851     14124     
2703.399949 10.62      451        10.62      223        0          327.234    16949      -643       539        0.03       3449.76    55.854     14125     
2703.599949 10.62      451        10.62      3189       0          327.882    16978      -643       546        0.01       3451.06    55.85      14124     
2703.799949 10.31      438        10.4       1273       0          328.557    17008      -643       534        0.02       3452.45    55.846     14123     
2703.999948 10.31      438        10.32      383        0          327.994    16983      -643       533        0.01       3453.78    55.85      14124     
2704.199948 9.7        412        9.77       215        0          328.026    16984      -643       542        0.02       3455.1     55.847     14123     
2704.399948 9.7        412        9.7        172        0          326.883    16933      -643       535        0.01       3456.42    55.846     14123     
2704.599947 10.74      456        10.61      165        0          327.971    16982      -643       545        0.03       3457.74    55.846     14123     
2704.799947 10.74      456        10.73      201        0          328.48     17005      -643       547        0.03       3459       55.846     14123     
2704.999947 10.48      445        10.49      174        0          328.296    16997      -643       542        0.01       3460.35    55.842     14122     
2705.199947 10.48      445        10.48      148        0          328.21     16993      -643       550        0.03       3461.65    55.842     14122     
2705.399946 10.15      431        10.16      192        0          327.273    16951      -643       543        0.01       3463.03    55.842     14122     
2705.599946 10.15      431        10.15      172        0          327.994    16983      -643       541        0.01       3464.36    55.842     14122     
2705.799946 11.18      475        11.14      165        0          328.113    16988      -643       548        0.01       3465.68    55.838     14121     
2705.999945 11.48      488        11.37      160        0          328.526    17007      -643       539        0.01       3467       55.838     14121     
2706.199945 11.68      496        11.67      163        0          328.633    17012      -643       549        0.03       3468.27    55.834     14120     
2706.399945 11.38      483        11.49      179        0          328.073    16987      -643       550        0.03       3469.66    55.834     14120     
2706.599944 11.3       480        11.31      148        0          328.275    16996      -643       543        0.01       3470.92    55.834     14120     
2706.799944 10.9       463        10.99      168        0          327.914    16979      -643       552        0.03       3472.3     55.828     14118     
2706.999944 10.9       463        10.9       141        0          328.604    17010      -643       538        0.03       3473.62    55.83      14119     
2707.199944 10.9       463        10.9       144        0          329.21     17038      -643       544        0.03       3474.95    55.826     14118     
2707.399943 10.9       463        10.9       109        0          328.741    17017      -643       544        0.01       3476.27    55.826     14118     
2707.599943 11         467        10.98      118        0          329.193    17037      -643       542        0.01       3477.53    55.822     14117     
2707.799943 11         467        11         173        0          327.489    16960      -643       540        0.03       3478.88    55.822     14117     
2707.999942 10.34      439        10.38      157        0          328.529    17007      -643       537        0.03       3480.19    55.817     14116     
2708.199942 10.34      439        10.34      163        0          329.121    17034      -643       535        0.03       3481.47    55.817     14116     
2708.399942 10.41      442        10.4       158        0          329.239    17039      -643       533        0.03       3482.89    55.813     14115     
2708.599942 10.41      442        10.41      139        0          328.927    17025      -643       529        0.02       3484.18    55.809     14114     
2708.799941 11.16      474        11.1       180        1          326.997    16938      -643       538        -0.03      3485.55    55.805     14113     
2708.999941 11.21      476        11.19      144        0          329.097    17033      -643       539        0.01       3486.81    55.805     14113     
2709.199941 11.47      487        11.46      156        0          328.649    17012      -643       545        0.01       3488.14    55.805     14113     
2709.39994 11.47      487        11.47      170        0          329.025    17029      -643       550        0.01       3489.46    55.8       14112     
2709.59994 11.96      508        11.95      170        0          328.675    17014      -643       548        0.03       3490.72    55.793     14110     
2709.79994 12.1       514        12.06      166        0          327.406    16957      -643       542        0.02       3492.11    55.793     14110     
2709.999939 12.1       514        12.1       163        2          329.173    17036      -643       527        0.03       3493.44    55.789     14109     
2710.199939 12.48      530        12.34      151        0          328.367    17000      -649       543        0.01       3495.18    55.787     14108     
2710.399939 12.48      530        12.48      140        0          328.929    17025      -649       540        0.01       3496.47    55.781     14107     
2710.599939 12.27      521        12.35      201        0          329.02     17029      -649       546        0.03       3497.8     55.774     14105     
2710.799938 12.27      521        12.27      185        0          328.347    16999      -649       538        0.01       3499.12    55.777     14106     
2710.999938 11.84      503        11.9       130        0          329.137    17034      -649       548        0.01       3500.39    55.77      14104     
