~Version
 VERS              .         2.0                           : CWLS LOG ASCII STANDARD - VERSION 2.0
 WRAP              .         NO                            : ONE LINE PER DEPTH STEP
 DLM               .         SPACE                         : DELIMITING CHARACTER(SPACE TAB OR COMMA)
~Well Information
#_______________________________________________________________________________
#
#PARAMETER_NAME    .UNIT     VALUE                         : DESCRIPTION
#_______________________________________________________________________________
STRT               .M        2659.4                        : First reference value
STOP               .M        2769.4                        : Last reference value
STEP               .M        0.2                           : Step increment
NULL               .         -9999                         : Missing value
COMP               .                                       : Company
WELL               .         616                           : Well name
FLD                .                                       : Field
LOC                .                                       : Location
CNTY               .                                       : County
STAT               .                                       : State
CTRY               .                                       : Country
SRVC               .                                       : Service Company
DATE               .                                       : Date
API                .                                       : API number
PROJECT_UPGRADE_TIME .         2021-03-18T21_24_50           : 
group              .         Good                          : 
~Parameter Information Block
#_______________________________________________________________________________
#
#PARAMETER_NAME    .UNIT     VALUE                         : DESCRIPTION
#_______________________________________________________________________________
SET                .         D1171_D                       : 
OTHER              .         Программное обеспечение станции MONITOR-386EX 25/12/99 15_08_10   BGF V52 22/08/01 16_56_30   3.2_BGF_N_3070031: 
OTHER_10           .         Тарировки_                    : 
OTHER_11           .         TM.GRD = 0.00403*TM$.UE + -1.19: 
OTHER_12           .         MN.ATM = (7.1e-006*TM.GRD + 0.02017)*(MN$.UE + -3.03*TM.GRD + -1833): 
OTHER_13           .         Id error                      : 
OTHER_2            .         Kedr.exe версия 3.4.2.51      : 
OTHER_3            .         KedrData.dll версия 3.4.2.24  : 
OTHER_4            .         Драйвер версия 2.1.1.8        : 
OTHER_5            .         Мнемоники версия 3.3 S        : 
OTHER_6            .         Прибор_ КСА-М1                : 
OTHER_7            .         Номер прибора_ 265            : 
OTHER_8            .         Режим_ КСА-М1                 : 
OTHER_9            .         Форма_ ТЕРМОМЕТР              : 
PROJECT_UPGRADE_TIME .         2021-03-18T21_24_49           : 
TLFamily_DEPT      .         Measured Depth                : 
TLFamily_GK        .         Gamma Ray                     : 
TLFamily_GK$       .                                       : 
TLFamily_LM        .         Casing Collar locator         : 
TLFamily_METKA     .                                       : 
TLFamily_MN        .                                       : 
TLFamily_MN$       .                                       : 
TLFamily_RCOR      .                                       : 
TLFamily_SPID      .         Spontaneous Potential         : 
TLFamily_STD       .                                       : 
TLFamily_TENS      .         Cable Tension                 : 
TLFamily_TIME      .         Time                          : 
TLFamily_TM        .         Temperature                   : 
TLFamily_TM$       .         Temperature                   : 
TLFamily_VGD       .         Gas Volume                    : 
group              .         prim                          : 
~Curve Information
#_______________________________________________________________________________
#
#LOGNAME           .UNIT     LOG_ID                        : DESCRIPTION
#_______________________________________________________________________________
DEPT               .M                                      : 1 Глубина, м -    0.0 см 
GK                 .MKR/H                                  : 15 Гамма-активность, мкр./ч -  110.0 см 
GK$                .UE                                     : 12 Гамма-активность, усл.ед. -  110.0 см 
LM                 .                                       : 10 Локатор муфт,  -   20.0 см 
METKA              .                                       : 3 Метки,  -    0.0 см 
MN                 .ATM                                    : 14 Давление, атм. -  160.0 см 
MN$                .UE                                     : 8 Давление, усл.ед. -  160.0 см 
RCOR               .CM/KM                                  : 5 Коррекция по ролику, см/км -    0.0 см 
SPID               .M/H                                    : 2 Скорость, м/час -    0.0 см 
STD                .                                       : 11 Приток,  -  170.0 см 
TENS               .T                                      : 6 Натяжение кабеля, т -    0.0 см 
TIME               .S                                      : 4 Время, сек -    0.0 см 
TM                 .GRD                                    : 13 Температура, °C -  180.0 см 
TM$                .UE                                     : 7 Температура, усл.ед. -  180.0 см 
VGD                .                                       : 9 Влагомер,  -  170.0 см 
~Ascii
# ...
2737.8     7.2        309        1          0          262.596    14726      -1400      604        32375      0          28067.79   89.557     22518      6559      
2738       7.83       379        1          0          262.605    14726      -1400      600        32374      0          28069.03   89.574     22522      6558      
2738.2     8.53       379        1          0          262.629    14727      -1400      598        32375      0          28070.21   89.587     22525      6559      
2738.4     8.79       383        1          0          262.576    14725      -1400      603        32375      0          28071.4    89.598     22528      6558      
2738.6     8.92       384        1          0          262.659    14729      -1400      599        32375      0          28072.62   89.613     22532      6559      
2738.8     8.85       371        1          0          262.669    14729      -1400      601        32375      0          28073.8    89.627     22535      6559      
2739       8.73       371        1          0          262.69     14730      -1400      606        32375      0          28074.97   89.642     22539      6559      
2739.2     8.69       370        1          0          262.711    14731      -1400      603        32374      0          28076.11   89.65      22541      6558      
2739.4     8.67       370        1          0          262.72     14731      -1400      602        32374      0          28077.36   89.662     22544      6559      
2739.6     8.66       370        1          0          262.747    14733      -1400      606        32375      0          28078.56   89.67      22546      6558      
2739.8     8.57       365        1          0          262.753    14733      -1400      603        32374      0          28079.74   89.676     22547      6558      
2740       8.55       365        1          2          262.774    14734      -1400      602        32375      0          28080.97   89.687     22550      6558      
2740.2     8.53       364        1          0          262.774    14734      -1400      596        32375      0          28082.18   89.694     22552      6558      
2740.4     8.54       366        1          0          262.795    14735      -1400      598        32375      0          28083.33   89.705     22555      6558      
2740.6     8.77       380        1          0          262.816    14736      -1400      599        32374      0          28084.5    89.712     22556      6558      
2740.8     8.85       380        1          0          262.837    14737      -1400      594        32375      0          28085.75   89.715     22557      6557      
2741       8.78       373        1          0          262.838    14737      -1400      601        32374      0          28086.94   89.723     22559      6558      
2741.2     8.74       373        1          0          262.859    14738      -1400      602        32375      0          28088.09   89.733     22562      6558      
2741.4     8.56       360        1          0          262.88     14739      -1400      606        32375      0          28089.33   89.743     22564      6557      
2741.6     8.47       360        1          0          262.88     14739      -1400      600        32375      0          28090.5    89.747     22565      6558      
2741.8     8.5        366        1          0          262.901    14740      -1400      609        32375      0          28091.68   89.754     22567      6558      
2742       8.54       366        1          0          262.928    14741      -1400      604        32375      0          28092.86   89.759     22568      6558      
2742.2     8.34       350        1          0          262.943    14742      -1400      605        32375      0          28094.08   89.764     22569      6558      
2742.4     8.24       350        1          0          262.964    14743      -1400      608        32374      0          28095.28   89.771     22571      6558      
2742.6     8.32       361        1          0          262.985    14744      -1400      610        32374      0          28096.45   89.779     22573      6558      
2742.8     8.4        361        1          0          263.006    14745      -1400      607        32374      0          28097.68   89.783     22574      6558      
2743       8.6        382        1          0          263.027    14746      -1400      609        32374      0          28098.85   89.788     22575      6558      
2743.2     8.82       382        1          0          263.062    14748      -1400      611        32375      0          28100.04   89.795     22577      6558      
2743.4     8.92       384        1          0          263.068    14748      -1400      607        32374      0          28101.18   89.799     22578      6558      
2743.6     8.99       386        1          0          263.074    14748      -1400      602        32374      0          28102.44   89.802     22579      6558      
2743.8     9.02       386        1          0          263.11     14750      -1400      604        32375      0          28103.61   89.807     22580      6558      
2744       9.31       404        1          0          263.11     14750      -1400      608        32374      0          28104.75   89.811     22581      6558      
2744.2     9.39       402        1          0          263.131    14751      -1400      606        32374      0          28106.01   89.811     22581      6558      
2744.4     9.35       399        1          0          263.14     14751      -1400      602        32375      0          28107.15   89.819     22583      6558      
2744.6     9.34       399        1          0          263.155    14752      -1400      600        32376      0          28108.39   89.816     22582      6558      
2744.8     9.22       392        1          0          263.173    14753      -1400      605        32374      0          28109.57   89.832     22586      6558      
2745       9.19       392        1          0          263.194    14754      -1400      590        32374      0          28110.77   89.836     22587      6558      
2745.2     8.74       360        1          0          263.215    14755      -1400      595        32374      0          28111.96   89.84      22588      6557      
2745.4     8.52       360        1          0          263.236    14756      -1400      598        32374      0          28113.15   89.844     22589      6557      
2745.6     8.14       333        1          0          263.257    14757      -1400      603        32374      0          28114.4    89.849     22590      6556      
2745.8     7.9        333        1          0          263.271    14758      -1400      597        32374      0          28115.57   89.856     22592      6557      
2746       7.94       341        1          0          263.299    14759      -1400      599        32374      0          28116.72   89.86      22593      6557      
2746.2     7.96       341        1          0          263.302    14759      -1400      606        32374      0          28117.92   89.864     22594      6557      
2746.4     7.51       302        1          0          263.32     14760      -1400      603        32375      0          28119.1    89.872     22596      6556      
2746.6     7.21       302        1          0          263.341    14761      -1400      602        32375      0          28120.33   89.875     22597      6556      
2746.8     7.12       303        1          0          263.383    14763      -1400      606        32375      0          28121.51   89.878     22598      6556      
2747       7.1        303        1          0          263.383    14763      -1400      606        32374      0          28122.73   89.884     22599      6556      
2747.2     7.1        304        1          0          263.404    14764      -1400      607        32375      0          28123.92   89.888     22600      6556      
2747.4     7.12       305        1          0          263.425    14765      -1400      606        32374      0          28125.1    89.892     22601      6556      
