~Version
 VERS              .         2.0                           : CWLS LOG ASCII STANDARD - VERSION 2.0
 WRAP              .         NO                            : ONE LINE PER DEPTH STEP
 DLM               .         SPACE                         : DELIMITING CHARACTER(SPACE TAB OR COMMA)
~Well Information
#_______________________________________________________________________________
#
#PARAMETER_NAME    .UNIT     VALUE                         : DESCRIPTION
#_______________________________________________________________________________
STRT               .M        2648.2                        : First reference value
STOP               .M        2758.600166                   : Last reference value
STEP               .M        0.2000003                     : Step increment
NULL               .         -9999                         : Missing value
COMP               .                                       : Company
WELL               .         616                           : Well name
FLD                .                                       : Field
LOC                .                                       : Location
CNTY               .                                       : County
STAT               .                                       : State
CTRY               .                                       : Country
SRVC               .                                       : Service Company
DATE               .                                       : Date
API                .                                       : API number
PROJECT_UPGRADE_TIME .         2021-03-18T21_24_50           : 
group              .         Good                          : 
~Parameter Information Block
#_______________________________________________________________________________
#
#PARAMETER_NAME    .UNIT     VALUE                         : DESCRIPTION
#_______________________________________________________________________________
SET                .         D7020_D                       : 
OTHER              .         Kedr.exe версия 2.1.2.32      : 
OTHER_10           .         TM.GRD = 0.00404*TM$.UE + 0.07: 
OTHER_11           .         MN.ATM = (6.33279e-006*TM.GRD + 0.02401)*(MN$.UE + 2.72*TM.GRD + -2018): 
OTHER_12           .         GK.MKR/H = GK$.UE / 43.5489 + 0: 
OTHER_13           .         RES.SM = 0.00476*CRES.UE - 1.51709: 
OTHER_14           .         PL.GSM3 = 0 + 0 * (PL.UE / 1) +  0 * (PL.UE / 1)^2: 
OTHER_15           .         Постоянная времени ГГП = 6 сек: 
OTHER_16           .         Постоянная времени ГК = 6 сек : 
OTHER_2            .         KedrData.dll версия 3.2.2.14  : 
OTHER_3            .         LasInf.dll версия 3.2.0.13    : 
OTHER_4            .         Драйвер версия 1.2.0.5        : 
OTHER_5            .         Прибор_ КСА-M1                : 
OTHER_6            .         Номер прибора_ 155+р204       : 
OTHER_7            .         Режим_ КСА-М1 + ГГП + Резистивиметр: 
OTHER_8            .         Форма_ 223\2                  : 
OTHER_9            .         Тарировки_                    : 
PROJECT_UPGRADE_TIME .         2021-03-18T21_24_50           : 
TLFamily_CRES      .                                       : 
TLFamily_DEPT      .         Measured Depth                : 
TLFamily_GK        .         Gamma Ray                     : 
TLFamily_GK$       .                                       : 
TLFamily_LM        .         Casing Collar locator         : 
TLFamily_METKA     .                                       : 
TLFamily_MN        .                                       : 
TLFamily_MN$       .                                       : 
TLFamily_PL        .                                       : 
TLFamily_PL_2      .                                       : 
TLFamily_RCOR      .                                       : 
TLFamily_RES       .         Mud Resistivity               : 
TLFamily_SPID      .         Spontaneous Potential         : 
TLFamily_STD       .                                       : 
TLFamily_TIME      .         Time                          : 
TLFamily_TM        .         Temperature                   : 
TLFamily_TM$       .         Temperature                   : 
TLFamily_VGD       .         Gas Volume                    : 
group              .         prim                          : 
~Curve Information
#_______________________________________________________________________________
#
#LOGNAME           .UNIT     LOG_ID                        : DESCRIPTION
#_______________________________________________________________________________
DEPT               .M                                      : 1 Глубина, м -    0.0 см 
CRES               .UE                                     : 9 Проводимость, усл.ед. -  222.0 см 
GK                 .MKR/H                                  : 16 Гамма-активность, мкр./ч -  106.0 см 
GK$                .UE                                     : 13 Гамма-активность, усл.ед. -  106.0 см 
LM                 .                                       : 11 Локатор муфт,  -   16.0 см 
METKA              .                                       : 3 Метки,  -    0.0 см 
MN                 .ATM                                    : 15 Давление, атм. -  160.0 см 
MN$                .UE                                     : 7 Давление, усл.ед. -  160.0 см 
PL                 .UE                                     : 10 Плотность, усл.ед. -  270.0 см 
PL_2               .GSM3                                   : 18 Плотность, г./см3 -  270.0 см 
RCOR               .CM/KM                                  : 5 Коррекция по ролику, см/км -    0.0 см 
RES                .SM                                     : 17 Проводимость,  -  222.0 см 
SPID               .M/H                                    : 2 Скорость, м/час -    0.0 см 
STD                .                                       : 12 Приток,  -  170.0 см 
TIME               .S                                      : 4 Время, сек -    0.0 см 
TM                 .GRD                                    : 14 Температура, °C -  180.0 см 
TM$                .UE                                     : 6 Температура, усл.ед. -  180.0 см 
VGD                .                                       : 8 Влагомер,  -  170.0 см 
~Ascii
# ...
2722.000111 1227       6.91       310        112        0          250.215    12189      14         0          0          4.3211     575        9015       11648.05   46.055     11382      6654      
2722.200111 1231       6.98       303        98         0          250.237    12190      14         0          0          4.3425     580        9013       11649.3    46.045     11380      6653      
2722.400111 1232       6.97       303        111        0          250.283    12192      13         0          0          4.3496     580        9011       11650.61   46.025     11375      6654      
2722.600112 1233       7.11       322        85         0          250.355    12195      14         0          0          4.352      556        9011       11651.92   46.006     11370      6655      
2722.800112 1234       7.25       322        118        0          250.369    12196      14         0          0          4.3568     580        9009       11653.23   45.997     11368      6655      
2723.000112 1234       7.4        335        215        0          250.322    12194      14         0          0          4.3552     580        9008       11654.54   45.986     11365      6655      
2723.200112 1234       7.54       335        2528       0          250.305    12193      14         0          0          4.3568     568        9008       11655.8    45.991     11367      6655      
2723.400113 1236       7.65       339        1019       0          250.377    12196      14         0          0          4.3663     580        9008       11657.11   45.993     11367      6653      
2723.600113 1236       7.72       339        265        0          250.402    12197      14         0          0          4.3679     569        9008       11658.42   45.985     11365      6654      
2723.800113 1236       7.6        324        137        0          250.419    12198      13         0          0          4.3663     522        9009       11659.73   45.989     11366      6654      
2724.000114 1237       7.52       324        312        0          250.475    12200      14         0          0          4.371      545        9010       11661.05   45.991     11367      6655      
2724.200114 1236       7.38       312        504        0          250.452    12199      14         0          0          4.3679     580        9012       11662.3    45.989     11366      6655      
2724.400114 1237       7.27       312        111        0          250.46     12199      15         0          0          4.3726     580        9012       11663.61   45.999     11369      6654      
2724.600115 1239       7.39       329        259        0          250.478    12200      15         0          0          4.3805     534        9010       11664.92   45.998     11368      6652      
2724.800115 1240       7.5        335        219        0          250.528    12202      13         0          0          4.3853     533        9012       11666.23   46.009     11371      6653      
2725.000115 1241       7.94       366        90         0          250.553    12203      13         0          0          4.3901     580        9013       11667.54   46.021     11374      6654      
2725.200115 1241       8.17       366        79         0          250.579    12204      13         0          0          4.3901     580        9014       11668.79   46.031     11377      6654      
2725.400116 1241       8.22       360        79         0          250.559    12203      13         0          0          4.3909     580        9014       11670.1    46.04      11379      6654      
2725.600116 1243       8.16       339        4444       0          250.593    12205      14         0          0          4.3996     510        9017       11671.44   46.046     11380      6655      
2725.800116 1244       7.5        298        5742       0          250.607    12205      14         0          0          4.4043     580        9020       11672.74   46.055     11383      6656      
2726.000117 1246       7.03       263        1420       0          250.681    12208      14         0          0          4.4131     533        9023       11673.99   46.067     11385      6653      
2726.200117 1246       6.47       257        392        0          250.674    12208      14         0          0          4.4131     580        9027       11675.3    46.078     11388      6654      
2726.400117 1246       6.25       272        131        0          250.709    12209      14         0          0          4.4155     580        9028       11676.61   46.087     11390      6652      
2726.600118 1247       6.43       288        81         0          250.71     12209      13         0          0          4.4203     522        9030       11677.86   46.104     11395      6653      
2726.800118 1250       6.65       319        61         0          250.737    12210      14         0          0          4.4329     580        9035       11679.17   46.114     11397      6652      
2727.000118 1251       6.99       319        63         0          250.764    12211      14         0          0          4.4361     568        9037       11680.49   46.135     11402      6652      
2727.200118 1251       7.18       322        71         0          250.768    12211      14         0          0          4.4377     580        9041       11681.8    46.156     11408      6652      
2727.400119 1254       7.29       322        60         0          250.799    12212      15         0          0          4.4504     533        9045       11683.05   46.185     11415      6652      
2727.600119 1253       7.4        334        68         0          250.823    12213      14         0          0          4.4472     580        9050       11684.37   46.207     11420      6652      
2727.800119 1256       7.53       334        69         0          250.871    12215      15         0          0          4.4615     510        9055       11685.68   46.235     11427      6654      
2728.00012 1256       7.89       374        69         0          250.886    12215      14         0          0          4.4605     557        9062       11686.99   46.292     11441      6651      
2728.20012 1257       8.24       374        61         0          250.917    12216      13         0          0          4.4662     580        9069       11688.24   46.344     11454      6652      
2728.40012 1258       8.28       360        59         0          250.948    12217      15         0          0          4.4726     522        9079       11689.54   46.395     11467      6653      
2728.600121 1260       8.28       360        85         0          250.975    12218      14         0          0          4.4821     568        9088       11690.86   46.447     11480      6652      
2728.800121 1261       7.85       306        87         0          250.985    12218      14         0          0          4.4845     580        9098       11692.14   46.496     11492      6651      
2729.000121 1262       7.44       306        89         0          251.016    12219      13         0          0          4.4916     533        9107       11693.42   46.541     11503      6652      
2729.200122 1267       7.81       367        77         0          251.049    12220      13         0          0          4.5138     580        9118       11694.74   46.595     11516      6651      
2729.400122 1268       8.12       367        71         0          251.086    12221      14         0          0          4.5186     580        9129       11695.98   46.659     11532      6651      
2729.600122 1269       9.39       468        66         0          251.103    12221      14         0          0          4.5234     580        9142       11697.31   46.752     11555      6651      
2729.800122 1272       10.05      468        70         0          251.152    12223      14         0          0          4.5376     580        9157       11698.57   46.824     11573      6652      
2730.000123 1274       10.99      529        78         0          251.182    12224      14         0          0          4.5456     580        9172       11699.88   46.888     11589      6652      
