~Version
 VERS              .         2.0                           : CWLS LOG ASCII STANDARD - VERSION 2.0
 WRAP              .         NO                            : ONE LINE PER DEPTH STEP
 DLM               .         SPACE                         : DELIMITING CHARACTER(SPACE TAB OR COMMA)
~Well Information
#_______________________________________________________________________________
#
#PARAMETER_NAME    .UNIT     VALUE                         : DESCRIPTION
#_______________________________________________________________________________
STRT               .M        2658.8                        : First reference value
STOP               .M        2765.199894                   : Last reference value
STEP               .M        0.1999998                     : Step increment
NULL               .         -9999                         : Missing value
COMP               .                                       : Company
WELL               .         616                           : Well name
FLD                .                                       : Field
LOC                .                                       : Location
CNTY               .                                       : County
STAT               .                                       : State
CTRY               .                                       : Country
SRVC               .                                       : Service Company
DATE               .                                       : Date
API                .                                       : API number
PROJECT_UPGRADE_TIME .         2021-03-18T21_24_50           : 
group              .         Good                          : 
~Parameter Information Block
#_______________________________________________________________________________
#
#PARAMETER_NAME    .UNIT     VALUE                         : DESCRIPTION
#_______________________________________________________________________________
SET                .         D7023_D_2                     : 
NPR                .         155                           : Номер прибора
OTHER              .         Kedr.exe версия 2.1.2.32      : 
OTHER_10           .         TM.GRD = 0.00404*TM$.UE + 0.07: 
OTHER_11           .         MN.ATM = (6.33279e-006*TM.GRD + 0.02401)*(MN$.UE + 2.72*TM.GRD + -2018): 
OTHER_12           .         GK.MKR/H = GK$.UE / 43.5489 + 0: 
OTHER_13           .         RES.SM = 0.00476*CRES.UE - 1.51709: 
OTHER_14           .         PL.GSM3 = 0 + 0 * (PL.UE / 1) +  0 * (PL.UE / 1)^2: 
OTHER_15           .         Постоянная времени ГГП = 6 сек: 
OTHER_16           .         Постоянная времени ГК = 6 сек : 
OTHER_2            .         KedrData.dll версия 3.2.2.14  : 
OTHER_3            .         LasInf.dll версия 3.2.0.13    : 
OTHER_4            .         Драйвер версия 1.2.0.5        : 
OTHER_5            .         Прибор_ КСА-M1                : 
OTHER_6            .         Номер прибора_ 155+р204       : 
OTHER_7            .         Режим_ КСА-М1 + ГГП + Резистивиметр: 
OTHER_8            .         Форма_ 223\2                  : 
OTHER_9            .         Тарировки_                    : 
PR                 .         КСА-Т7 М1                     : Тип прибора
PROJECT_UPGRADE_TIME .         2021-03-18T21_24_50           : 
PRTY               .         ПП-223_2                      : Номер партии
SRV                .         ЦКРС                          : Заказчик
SRVC               .         Лузин  А.Б.                   : Начальник партии
TLFamily_DEPT      .         Measured Depth                : 
TLFamily_LM        .         Casing Collar locator         : 
TLFamily_MN        .                                       : 
TLFamily_SPID      .         Spontaneous Potential         : 
TLFamily_TM        .         Temperature                   : 
group              .         second                        : 
~Curve Information
#_______________________________________________________________________________
#
#LOGNAME           .UNIT     LOG_ID                        : DESCRIPTION
#_______________________________________________________________________________
DEPT               .M                                      : Depth curve 
LM                 .е.ацп                                  : Локация муфт 
MN                 .атм                                    : Манометрия, атм 
SPID               .м/ч                                    : Скорость записи,м/час 
TM                 .град.С                                 : Термометрия,град.С 
~Ascii
# ...
2745.199914 85.003     367.18     579.993    48.81     
2745.399913 96.996     367.52     554.007    48.87     
2745.599913 81.003     369.3      579.982    48.93     
2745.799913 93.998     367.38     510.018    49.02     
2745.999913 87.007     368.3      579.997    49.09     
2746.199913 114.996    367.75     570.003    49.17     
2746.399912 102.111    368.5      580        49.26     
2746.599912 4532.279   369.94     580        49.33     
2746.799912 1657.689   370.41     580        49.43     
2746.999912 416.936    371.09     579.988    49.56     
2747.199912 162.99     370.28     533.003    49.67     
2747.399911 124.994    370.99     544.994    49.79     
2747.599911 102        370.24     521.015    49.89     
2747.799911 101.999    370.81     580        49.97     
2747.999911 99.004     369.9      579.991    50.04     
2748.199911 115.009    369.76     544.994    50.16     
2748.39991 148.997    368.93     522.015    50.28     
2748.59991 135.992    368.1      580        50.39     
2748.79991 104.991    368.52     579.991    50.51     
2748.99991 69.01      370.61     544.991    50.6      
2749.19991 109.01     367.97     510.018    50.73     
2749.399909 148.991    367.35     579.982    50.85     
2749.599909 113.996    369.53     510.018    50.98     
2749.799909 100        369.79     580        51.12     
2749.999909 100        371.36     580        51.23     
2750.199909 101.001    371.73     579.982    51.33     
2750.399908 104.009    372.57     510.018    51.47     
2750.599908 137.992    371.11     580        51.62     
2750.799908 105.002    371.99     580        51.71     
2750.999908 113.997    371.42     580        51.81     
2751.199908 102.998    371.66     579.985    51.96     
2751.399907 97         370.87     522.015    52.15     
2751.599907 98.006     370.51     580        52.27     
2751.799907 122.999    371.05     579.994    52.38     
2751.999907 120.994    372.75     556.991    52.6      
2752.199907 97.002     372.15     522.015    52.72     
2752.399906 104.003    373.37     580        52.89     
2752.599906 115.003    371.76     579.994    53.04     
2752.799906 126.996    371.46     557.006    53.23     
2752.999906 110.002    370.63     580        53.33     
2753.199906 118.007    370.72     579.985    53.51     
2753.399905 146        370.13     522.015    53.64     
2753.599905 145.989    369.83     579.982    53.73     
2753.799905 104.006    369.69     510.018    53.86     
2753.999905 125.993    369.49     580        53.99     
2754.199905 96.998     370.27     579.982    54.11     
2754.399904 88.998     371.52     510.009    54.24     
2754.599904 81.994     371.77     545.009    54.33     
2754.799904 57.006     371.88     579.982    54.47     
2754.999904 80         372.27     510.018    54.61     
2755.199904 79.005     372.56     579.99     54.73     
2755.399903 99.003     373.3      540.01     54.86     
2755.599903 111.003    373.24     579.997    55.03     
2755.799903 121.001    373.75     568.003    55.2      
2755.999903 126        372.73     580        55.32     
2756.199903 125.992    372.5      579.991    55.47     
2756.399902 95.036     371.42     545.009    55.79     
2756.599902 237.967    371.58     580        56.01     
2756.799902 106.011    371.41     579.982    56.25     
2756.999902 147.99     371.39     510.018    56.47     
2757.199902 110.003    370.91     579.997    56.57     
2757.399901 123.085    370.88     567.985    56.7      
2757.599901 462.047    370.31     510.015    56.81     
2757.799901 4623.278   371.71     568.003    56.92     
2757.999901 1754.669   372.05     579.994    57.1      
2758.199901 438.925    372.15     556.991    57.26     
2758.3999  141.989    373.59     521.999    57.42     
2758.5999  98.003     373.51     520.015    57.55     
2758.7999  110.991    373.67     579.991    57.7      
2758.9999  74.003     374.41     545.009    57.89     
2759.1999  86.99      374.71     579.982    58.1      
2759.399899 47.998     374.66     510        58.27     
2759.599899 42         373.74     510.018    58.43     
2759.799899 41.999     373.34     580        58.5      
2759.999899 39.999     372.62     579.991    58.57     
2760.199899 35.001     372.25     545.009    58.66     
2760.399898 38.998     371.58     580        58.77     
2760.599898 32         371.07     580        58.87     
2760.799898 31.001     371.33     580        58.98     
2760.999898 34         370.76     579.991    59.07     
2761.199898 33.001     372.09     545.009    59.21     
2761.399897 34.999     372.35     580        59.31     
2761.599897 33         373.96     579.985    59.36     
2761.799897 33.999     372.2      522.007    59.35     
2761.999897 32         371.77     550.008    59.36     
2762.199897 32         371.71     579.982    59.37     
2762.399896 32         371.63     510.003    59.39     
2762.599896 32         372.67     522.015    59.43     
2762.799896 31.001     372.59     -9999      59.44     
2762.999896 -9999      373.44     -9999      59.47     
2763.199896 -9999      374.35     -9999      59.49     
2763.399895 -9999      373.86     -9999      59.46     
2763.599895 -9999      374.27     -9999      59.42     
2763.799895 -9999      374.79     -9999      59.44     
2763.999895 -9999      374.8      -9999      59.49     
2764.199895 -9999      374.98     -9999      59.51     
2764.399894 -9999      -9999      -9999      59.51     
2764.599894 -9999      -9999      -9999      -9999     
2764.799894 -9999      -9999      -9999      -9999     
2764.999894 -9999      -9999      -9999      -9999     
2765.199894 -9999      -9999      -9999      -9999     
