~Version
 VERS              .         2.0                           : CWLS LOG ASCII STANDARD - VERSION 2.0
 WRAP              .         NO                            : ONE LINE PER DEPTH STEP
 DLM               .         SPACE                         : DELIMITING CHARACTER(SPACE TAB OR COMMA)
~Well Information
#_______________________________________________________________________________
#
#PARAMETER_NAME    .UNIT     VALUE                         : DESCRIPTION
#_______________________________________________________________________________
STRT               .M        3.4                           : First reference value
STOP               .M        832.4                         : Last reference value
STEP               .M        0.2                           : Step increment
NULL               .         -9999                         : Missing value
COMP               .                                       : Company
WELL               .         616                           : Well name
FLD                .                                       : Field
LOC                .                                       : Location
CNTY               .                                       : County
STAT               .                                       : State
CTRY               .                                       : Country
SRVC               .                                       : Service Company
DATE               .                                       : Date
API                .                                       : API number
PROJECT_UPGRADE_TIME .         2021-03-18T21_24_50           : 
group              .         Good                          : 
~Parameter Information Block
#_______________________________________________________________________________
#
#PARAMETER_NAME    .UNIT     VALUE                         : DESCRIPTION
#_______________________________________________________________________________
SET                .         ULN                           : 
PROJECT_UPGRADE_TIME .         2021-03-18T21_24_50           : 
TLFamily_AK4       .                                       : 
TLFamily_ALFAK     .                                       : 
TLFamily_AMPL      .                                       : 
TLFamily_DEPTH     .         Measured Depth                : 
TLFamily_DK1       .                                       : 
TLFamily_DK2       .                                       : 
TLFamily_DTK       .         Compressional Slowness        : 
TLFamily_QCBL      .                                       : 
TLFamily_T1        .         Travel Time 1                 : 
TLFamily_T2        .         Travel Time 2                 : 
group              .         prim                          : 
~Curve Information
#_______________________________________________________________________________
#
#LOGNAME           .UNIT     LOG_ID                        : DESCRIPTION
#_______________________________________________________________________________
DEPTH              .M                                      : 0 Depth curve 
AK4                .                                       : 2 Амплитуда - Волна по колонне - Канал1 
ALFAK              .дБ/м                                   : 1 Затухание - Волна по колонне 
AMPL               .                                       : 8 Коэффициент усиления ВС 
DK1                .дБ                                     : 3 Кривая ослабления - Волна по колонне - Канал1 
DK2                .дБ                                     : 4 Кривая ослабления - Волна по колонне - Канал2 
DTK                .мкс/м                                  : 5 ДельтаТ - Волна по породе 
QCBL               .                                       : 9 Контакт цемент-колонна 
T1                 .мкс                                    : 6 Время пробега - Волна по породе - Канал1 
T2                 .мкс                                    : 7 Время пробега - Волна по породе - Канал2 
~Ascii
# ...
280.8      22457.55   12.454     1          3.408      9.635      197.71     2          362.346    461.201   
281        22090.54   13.689     1          3.551      10.396     197.521    2          362.421    461.182   
281.2      21443.45   14.041     1          3.808      10.829     195.26     2          363.072    460.702   
281.4      21306.75   16.533     1          3.864      12.13      194.375    2          365.991    460.674   
281.6      21364.3    19.676     1          3.841      13.717     192.844    2          371.254    462.534   
281.8      21701.93   24.041     1          3.704      15.763     190.107    2          375.941    465.853   
282        22802.76   26.37      1          3.286      16.51      185.16     2          378.847    468.79    
282.2      23709.35   27.327     1          2.947      16.611     181.749    2          379.409    470.284   
282.4      24615.94   27.11      1          2.608      16.163     181.751    2          379.972    470.848   
282.6      24615.94   26.318     1          2.608      15.768     182.973    2          379.972    471.459   
282.8      23880.29   26.327     1          2.88       16.044     187.505    2          375.398    471.08    
283        22960.06   21.991     1          3.225      14.22      194.322    2          370.108    469.198   
283.2      22039.82   16.904     1          3.569      12.021     197.025    2          364.818    465.26    
283.4      21855.23   11.222     1          3.642      9.253      196.333    2          364.102    462.269   
283.6      21855.23   10.591     1          3.642      8.937      193.455    2          364.102    460.83    
283.8      21855.23   10.918     1          3.642      9.101      193.179    2          364.102    460.692   
284        21363.11   11.734     1          3.561      9.428      194.349    2          363.519    460.694   
284.2      20378.87   11.665     1          3.981      9.813      192.418    2          364.015    460.225   
284.4      19394.63   12.39      1          4.401      10.596     191.475    2          364.511    460.249   
284.6      18902.51   14.112     1          4.902      11.958     189.079    2          365.59     460.13    
284.8      18037.21   15.14      1          5.33       12.9       188.84     2          365.711    460.132   
285        17171.91   15.794     1          5.758      13.655     188.675    2          365.833    460.171   
285.2      17342.11   16.636     1          5.681      13.999     189.396    2          366.037    460.735   
285.4      18377.6    18.007     1          5.176      14.179     190.128    2          366.119    461.184   
285.6      20618.18   18.848     1          4.176      13.6       192.365    2          366.096    462.279   
285.8      21823.26   17.148     1          3.682      12.256     193.176    2          365.99     462.579   
286        23044.53   15.74      1          3.181      11.051     196.061    2          365.223    463.254   
286.2      23060.71   14.49      1          3.175      10.42      196.678    2          364.561    462.901   
286.4      23076.9    14.597     1          3.169      10.468     196.665    2          363.9      462.233   
286.6      21688.56   14.139     1          3.746      10.815     195.077    2          364.018    461.557   
286.8      20300.22   13.719     1          4.322      11.181     194.214    2          364.135    461.243   
287        18911.88   13.322     1          4.898      11.559     193.715    2          364.253    461.111   
287.2      19536.67   13.804     1          4.624      11.527     190.344    2          364.797    459.969   
287.4      20161.45   14.387     1          4.351      11.545     188.458    2          365.341    459.57    
287.6      20786.24   14.604     1          4.077      11.379     188.379    2          365.884    460.075   
287.8      21258.86   15.062     1          3.886      11.417     191.65     2          365.369    461.195   
288        21731.49   14.442     1          3.695      10.916     193.632    2          364.854    461.67    
288.2      22538.25   13.322     1          3.376      10.037     194.026    2          364.872    461.886   
288.4      22245.58   12.023     1          3.244      9.256      194.402    2          364.845    462.047   
288.6      21326.12   11.207     1          3.628      9.232      193.318    2          365.49     462.15    
288.8      20072.51   11.462     1          4.14       9.871      192.956    2          365.601    462.08    
289        19442.48   13.222     1          4.658      11.269     189.247    2          366.865    461.489   
289.2      17916.55   13.967     1          5.435      12.418     188.198    2          366.635    460.734   
289.4      16390.63   14.871     1          6.212      13.648     187.079    2          366.405    459.945   
289.6      14867.93   15.106     1          6.988      14.541     187.343    2          365.583    459.255   
289.8      14014.15   16.031     1          7.535      15.551     184.574    2          366.405    458.693   
290        13160.36   18.68      1          8.083      17.423     180.696    2          367.228    457.576   
290.2      11368.69   21.455     1          9.382      20.109     180.07     2          367.341    457.377   
290.4      8649.467   20.511     1          12.53      22.785     185.415    2          365.45     458.158   
290.6      5179.713   14.756     1          17.943     25.321     196.654    2          359.1      457.427   
290.8      2647.844   10.846     1          22.605     28.027     205.334    2          353.459    456.126   
291        1897.311   11.354     1          24.87      30.547     206.223    2          349        452.112   
291.2      2091.794   14.776     1          24.094     31.482     201.482    2          349        449.741   
291.4      3021.573   15.525     1          22.437     30.963     196.952    2          349        447.477   
291.6      3908.231   16.643     1          19.9       28.985     195.035    2          349.482    447       
291.8      4600.405   15.588     1          18.139     26.697     194.07     2          349.965    447       
292        3917.393   10.907     1          18.842     24.296     183.766    2          355.117    447       
292.2      3277.502   7.328      1          20.425     24.089     174.426    2          359.787    447       
292.4      2637.611   6.884      1          22.009     25.451     172.241    2          364.456    450.577   
292.6      2637.611   11.289     1          22.009     27.653     178.13     2          364.456    453.522   
292.8      2637.611   13.782     1          22.009     28.899     186.796    2          364.456    457.855   
293        2748.305   15.737     1          21.665     29.534     183.253    2          365.115    457.995   
293.2      2918.107   18.287     1          21.154     30.297     182.159    2          363.405    458.766   
293.4      3149.847   20.74      1          20.477     30.847     187.764    2          359.325    457.488   
293.6      3270.893   22.296     1          20.143     31.291     198.037    2          354.586    456.634   
293.8      3332.83    23.539     1          19.976     31.722     205.94     2          352.216    455.187   
294        3351.873   27.195     1          19.927     33.5       201.433    2          351.415    452.131   
294.2      3370.916   27.556     1          19.878     33.631     197.312    2          350.613    449.269   
294.4      3365.901   26.5       1          19.891     33.141     194.919    2          349.54     447       
294.6      3341.844   24.679     1          19.953     32.293     195.459    2          349.27     447       
294.8      2885.809   23.096     1          21.45      32.998     196        2          349        447       
295        2301.985   23.349     1          23.623     35.298     196        2          349        447       
295.2      1477.676   19.723     1          26.293     37.445     196        2          349        447       
