~Version
 VERS              .         2.0                           : CWLS LOG ASCII STANDARD - VERSION 2.0
 WRAP              .         NO                            : ONE LINE PER DEPTH STEP
 DLM               .         SPACE                         : DELIMITING CHARACTER(SPACE TAB OR COMMA)
~Well Information
#_______________________________________________________________________________
#
#PARAMETER_NAME    .UNIT     VALUE                         : DESCRIPTION
#_______________________________________________________________________________
STRT               .M        138.6                         : First reference value
STOP               .M        217                           : Last reference value
STEP               .M        0.2                           : Step increment
NULL               .         -9999                         : Missing value
COMP               .                                       : Company
WELL               .         616                           : Well name
FLD                .                                       : Field
LOC                .                                       : Location
CNTY               .                                       : County
STAT               .                                       : State
CTRY               .                                       : Country
SRVC               .                                       : Service Company
DATE               .                                       : Date
API                .                                       : API number
PROJECT_UPGRADE_TIME .         2021-03-18T21_24_50           : 
group              .         Good                          : 
~Parameter Information Block
#_______________________________________________________________________________
#
#PARAMETER_NAME    .UNIT     VALUE                         : DESCRIPTION
#_______________________________________________________________________________
SET                .         D1349_D                       : 
OTHER              .         Программное обеспечение станции MONITOR-386EX 25/12/99 15_08_10   BGF V52 22/08/01 16_56_30   3.1_SNGF__BGF_								111238: 
OTHER_10           .         Тарировки_                    : 
OTHER_11           .         <_techsia_sc_> Постоянная времени фильтра  0.5 сек, kf=0.181269: 
OTHER_12           .         TM.GRD = 0.00428968*TM$.UE + -0.3284: 
OTHER_13           .         GK.MKR/H = GK$.UE / 40.16     : 
OTHER_14           .         NKT. = NKT$.UE / 1            : 
OTHER_2            .         Kedr.exe версия 3.3.2.43      : 
OTHER_3            .         KedrData.dll версия 3.3.2.22  : 
OTHER_4            .         Драйвер версия 2.1.1.3        : 
OTHER_5            .         Мнемоники версия 3.3 S        : 
OTHER_6            .         Прибор_ РК4-38                : 
OTHER_7            .         Номер прибора_ 35с            : 
OTHER_8            .         Режим_ РК4-38                 : 
OTHER_9            .         Форма_ 3                      : 
PROJECT_UPGRADE_TIME .         2021-03-18T21_24_49           : 
TLFamily_DEPT      .         Measured Depth                : 
TLFamily_GK        .         Gamma Ray                     : 
TLFamily_GK$       .                                       : 
TLFamily_LM        .         Casing Collar locator         : 
TLFamily_METKA     .                                       : 
TLFamily_NKT       .         Neutron Far                   : 
TLFamily_NKT$      .         Neutron Far                   : 
TLFamily_RCOR      .                                       : 
TLFamily_SPID      .         Spontaneous Potential         : 
TLFamily_TENS      .         Cable Tension                 : 
TLFamily_TIME      .         Time                          : 
TLFamily_TM        .         Temperature                   : 
TLFamily_TM$       .         Temperature                   : 
group              .         prim                          : 
~Curve Information
#_______________________________________________________________________________
#
#LOGNAME           .UNIT     LOG_ID                        : DESCRIPTION
#_______________________________________________________________________________
DEPT               .M                                      : 1 Глубина, м -    0.0 см 
GK                 .MKR/H                                  : 12 Гамма-активность, мкр./ч -   23.0 см 
GK$                .UE                                     : 10 Гамма-активность, усл.ед. -   23.0 см 
LM                 .                                       : 8 Локатор муфт,  -  180.0 см 
METKA              .                                       : 3 Метки,  -    0.0 см 
NKT                .                                       : 13 НКТ, прив. -  160.0 см 
NKT$               .UE                                     : 9 НКТ, усл.ед. -  160.0 см 
RCOR               .CM/KM                                  : 5 Коррекция по ролику, см/км -    0.0 см 
SPID               .M/H                                    : 2 Скорость, м/час -    0.0 см 
TENS               .T                                      : 6 Натяжение кабеля, т -    0.0 см 
TIME               .S                                      : 4 Время, сек -    0.0 см 
TM                 .GRD                                    : 11 Температура, °C -  193.0 см 
TM$                .UE                                     : 7 Температура, усл.ед. -  193.0 см 
~Ascii
# ...
194.6      2.76       111        149        0          0          0          7013       -303       0          1041.17    0.418      174       
194.8      2.79       108        110        0          0.001      0          7013       -304       0          1038.81    0.367      162       
195        3.13       120        106        0          0.004      0          7013       -307       0          1036.59    0.415      173       
195.2      3.57       143        145        0          0.015      0          7013       -311       0          1034.19    0.391      168       
195.4      3.6        148        122        0          0.078      0          7013       -306       0          1031.9     0.345      157       
195.6      3.29       142        134        0          0.359      0          7013       -309       0          1029.6     0.384      166       
195.8      3.22       130        136        0          0.571      1          7013       -308       0          1027.21    0.276      141       
196        3.36       127        169        0          0          0          7013       -300       0          1024.91    0.282      142       
196.2      3.47       140        113        0          0          0          7013       -310       0          1022.57    0.281      142       
196.4      3.27       143        147        0          0          0          7013       -319       0          1020.33    0.319      151       
196.6      2.88       128        162        0          0          0          7013       -298       0          1017.93    0.238      132       
196.8      2.44       102        119        0          0          0          7013       -304       0          1015.68    0.272      140       
197        2.4        90         134        0          0          0          7013       -305       0          1013.34    0.214      126       
197.2      2.68       104        92         0          0          0          7013       -309       0          1010.95    0.204      124       
197.4      2.88       116        110        0          0          0          7013       -308       0          1008.73    0.246      134       
197.6      2.83       115        96         0          0          0          7013       -312       0          1006.36    0.191      121       
197.8      2.77       111        142        0          0          0          7013       -315       0          1004.01    0.186      120       
198        2.78       111        117        0          0          0          7013       -311       0          1001.69    0.176      118       
198.2      2.85       115        94         0          0          0          7013       -312       0          999.38     0.156      113       
198.4      2.83       114        106        0          0          0          7013       -313       0          997.08     0.198      123       
198.6      2.76       114        120        0          0          0          7013       -317       0          994.59     0.158      114       
198.8      2.78       109        98         0          0          0          7013       -314       0          992.49     0.146      111       
199        2.97       110        212        0          0          0          7013       -315       0          990.07     0.145      110       
199.2      3.18       122        176        0          0          0          7013       -306       0          987.67     0.186      120       
199.4      3.28       134        123        0          0          0          7013       -305       0          985.47     0.173      117       
199.6      3.2        130        129        0          0          0          7013       -307       0          983.08     0.201      123       
199.8      3.25       124        174        0          0          0          7013       -304       0          980.78     0.186      120       
200        3.47       144        146        2          0          0          7013       -293       0          978.54     0.186      120       
200.2      3.16       137        181        0          0          0          7013       -303       0          976.53     0.165      115       
200.4      2.7        105        886        0          0          0          7013       -296       0          975.39     0.186      120       
200.6      2.77       105        7668       0          0          0          7013       -301       0          973.15     0.182      119       
200.8      3.06       115        1735       0          0          0          7013       -304       0          970.76     0.156      113       
201        3.32       136        126        0          0          0          7013       -311       0          968.41     0.159      114       
201.2      3.19       130        123        0          0          0          7013       -304       0          966.22     0.159      114       
201.4      3.09       124        114        0          0          0          7013       -309       0          963.87     0.156      113       
201.6      3.1        125        131        0          0          0          7013       -311       0          961.48     0.131      107       
201.8      3.08       123        107        0          0          0          7013       -310       0          959.08     0.15       111       
202        3.13       127        119        0          0          0          7013       -314       0          956.84     0.146      111       
202.2      3          121        124        0          0          0          7013       -304       0          954.44     0.117      104       
202.4      2.96       121        178        0          0          0          7013       -302       0          952.05     0.116      104       
202.6      3.01       117        213        0          0          0          7013       -315       0          949.85     0.101      100       
202.8      3.07       122        252        0          0          0          7013       -318       0          947.41     0.036      85        
203        3.15       123        183        0          0          0          7013       -313       0          945.09     0.049      88        
203.2      3.28       128        220        0          0          0          7013       -313       0          942.85     0.077      94        
203.4      3.27       137        185        0          0          0          7013       -318       0          940.53     0.092      98        
203.6      3.07       130        184        0          0          0          7013       -310       0          938.18     0.089      97        
203.8      2.83       110        165        0          0          0          7013       -308       0          935.89     0.011      79        
204        2.94       121        120        0          0          0          7013       -309       0          933.59     0.058      90        
204.2      2.82       114        164        0          0          0          7013       -308       0          931.2      0.068      92        
204.4      2.8        108        159        0          0          0          7013       -305       0          928.91     0.058      90        
204.6      3.09       122        189        0          0          0          7013       -309       0          926.51     0.052      89        
204.8      3.25       128        160        0          0          0          7013       -308       0          924.22     0.086      97        
205        3.49       139        154        0          0          0          7013       -307       0          921.75     0.072      93        
205.2      3.61       147        152        0          0          0          7013       -312       0          919.58     0.077      95        
205.4      3.42       144        159        0          0          0          7013       -314       0          917.18     0.084      96        
205.6      3.09       140        157        0          0          0          7013       -309       0          914.79     0.071      93        
