~Version
 VERS              .         2.0                           : CWLS LOG ASCII STANDARD - VERSION 2.0
 WRAP              .         NO                            : ONE LINE PER DEPTH STEP
 DLM               .         SPACE                         : DELIMITING CHARACTER(SPACE TAB OR COMMA)
~Well Information
#_______________________________________________________________________________
#
#PARAMETER_NAME    .UNIT     VALUE                         : DESCRIPTION
#_______________________________________________________________________________
STRT               .M        2659.2                        : First reference value
STOP               .M        2769.000055                   : Last reference value
STEP               .M        0.2000001                     : Step increment
NULL               .         -9999                         : Missing value
COMP               .                                       : Company
WELL               .         616                           : Well name
FLD                .                                       : Field
LOC                .                                       : Location
CNTY               .                                       : County
STAT               .                                       : State
CTRY               .                                       : Country
SRVC               .                                       : Service Company
DATE               .                                       : Date
API                .                                       : API number
PROJECT_UPGRADE_TIME .         2021-03-18T21_24_50           : 
group              .         Good                          : 
~Parameter Information Block
#_______________________________________________________________________________
#
#PARAMETER_NAME    .UNIT     VALUE                         : DESCRIPTION
#_______________________________________________________________________________
SET                .         D1165_D                       : 
OTHER              .         Программное обеспечение станции MONITOR-386EX 25/12/99 15_08_10   BGF V52 22/08/01 16_56_30   3.2_BGF_N_3070031: 
OTHER_10           .         Тарировки_                    : 
OTHER_11           .         TM.GRD = 0.00403*TM$.UE + -1.19: 
OTHER_12           .         MN.ATM = (7.1e-006*TM.GRD + 0.02017)*(MN$.UE + -3.03*TM.GRD + -1833): 
OTHER_13           .         Id error                      : 
OTHER_2            .         Kedr.exe версия 3.4.2.51      : 
OTHER_3            .         KedrData.dll версия 3.4.2.24  : 
OTHER_4            .         Драйвер версия 2.1.1.8        : 
OTHER_5            .         Мнемоники версия 3.3 S        : 
OTHER_6            .         Прибор_ КСА-М1                : 
OTHER_7            .         Номер прибора_ 265            : 
OTHER_8            .         Режим_ КСА-М1                 : 
OTHER_9            .         Форма_ ТЕРМОМЕТР              : 
PROJECT_UPGRADE_TIME .         2021-03-18T21_24_49           : 
TLFamily_DEPT      .         Measured Depth                : 
TLFamily_GK        .         Gamma Ray                     : 
TLFamily_GK$       .                                       : 
TLFamily_LM        .         Casing Collar locator         : 
TLFamily_METKA     .                                       : 
TLFamily_MN        .                                       : 
TLFamily_MN$       .                                       : 
TLFamily_RCOR      .                                       : 
TLFamily_SPID      .         Spontaneous Potential         : 
TLFamily_STD       .                                       : 
TLFamily_TENS      .         Cable Tension                 : 
TLFamily_TIME      .         Time                          : 
TLFamily_TM        .         Temperature                   : 
TLFamily_TM$       .         Temperature                   : 
TLFamily_VGD       .         Gas Volume                    : 
group              .         prim                          : 
~Curve Information
#_______________________________________________________________________________
#
#LOGNAME           .UNIT     LOG_ID                        : DESCRIPTION
#_______________________________________________________________________________
DEPT               .M                                      : 1 Глубина, м -    0.0 см 
GK                 .MKR/H                                  : 15 Гамма-активность, мкр./ч -  110.0 см 
GK$                .UE                                     : 12 Гамма-активность, усл.ед. -  110.0 см 
LM                 .                                       : 10 Локатор муфт,  -   20.0 см 
METKA              .                                       : 3 Метки,  -    0.0 см 
MN                 .ATM                                    : 14 Давление, атм. -  160.0 см 
MN$                .UE                                     : 8 Давление, усл.ед. -  160.0 см 
RCOR               .CM/KM                                  : 5 Коррекция по ролику, см/км -    0.0 см 
SPID               .M/H                                    : 2 Скорость, м/час -    0.0 см 
STD                .                                       : 11 Приток,  -  170.0 см 
TENS               .T                                      : 6 Натяжение кабеля, т -    0.0 см 
TIME               .S                                      : 4 Время, сек -    0.0 см 
TM                 .GRD                                    : 13 Температура, °C -  180.0 см 
TM$                .UE                                     : 7 Температура, усл.ед. -  180.0 см 
VGD                .                                       : 9 Влагомер,  -  170.0 см 
~Ascii
# ...
2718.000029 7.78       345        1          0          355.019    19175      -1400      632        31908      0          21332.71   86.929     21866      6544      
2718.200029 8.61       403        1          0          354.637    19157      -1400      634        31911      0          21333.85   86.932     21867      6545      
2718.40003 9.15       403        1          0          354.258    19138      -1400      641        31913      0          21334.94   86.939     21868      6544      
2718.60003 9.22       389        1          0          354.563    19153      -1400      635        31919      0          21336.1    86.946     21870      6545      
2718.80003 9.01       381        1          0          356.965    19269      -1400      636        31916      0          21337.19   86.95      21871      6545      
2719.00003 8.95       381        1          0          354.494    19150      -1400      637        31916      0          21338.34   86.958     21873      6545      
2719.20003 7.5        286        1          0          355.392    19193      -1400      637        31918      0          21339.47   86.962     21874      6545      
2719.40003 6.97       286        1          0          356.349    19239      -1400      638        31919      0          21340.6    86.97      21876      6545      
2719.60003 6.26       238        1          0          354.022    19127      -1400      639        31924      0          21341.74   86.974     21877      6545      
2719.80003 5.8        238        1          0          354.859    19167      -1400      639        31922      0          21342.83   86.979     21878      6545      
2720.00003 5.67       240        1          2          354.903    19169      -1400      633        31924      0          21344.04   86.988     21881      6546      
2720.20003 5.63       240        1          0          355.437    19195      -1400      630        31927      0          21345.14   86.994     21882      6547      
2720.400031 5.6        237        1          0          354.699    19160      -1400      632        31933      0          21346.3    87.002     21884      6545      
2720.600031 5.56       237        1          0          355.254    19186      -1400      629        31937      0          21347.48   87.011     21886      6546      
2720.800031 5.55       237        1          0          357.14     19276      -1400      626        31957      0          21348.59   87.083     21904      6545      
2721.000031 5.45       231        1          0          354.633    19155      -1400      629        32008      0          21349.69   87.289     21955      6545      
2721.200031 5.35       222        1          0          355.503    19196      -1400      637        32060      0          21350.78   87.485     22004      6543      
2721.400031 4.99       205        1          0          356.042    19222      -1400      627        32125      0          21351.99   87.696     22056      6543      
2721.600031 4.86       205        1          0          354.212    19133      -1400      630        32195      0          21353.08   87.881     22102      6543      
2721.800031 5.13       228        1          0          355.191    19180      -1400      632        32257      0          21354.24   88.042     22142      6542      
2722.000031 5.26       228        1          0          355.062    19174      -1400      629        32304      0          21355.38   88.131     22164      6543      
2722.200032 5.42       241        1          0          355.843    19211      -1400      628        32346      0          21356.48   88.195     22180      6543      
2722.400032 5.57       241        1          0          355.024    19172      -1400      623        32385      0          21357.63   88.256     22195      6542      
2722.600032 5.52       232        1          0          355.644    19201      -1400      630        32373      0          21358.73   88.311     22209      6539      
2722.800032 5.46       232        1          0          357.432    19287      -1400      624        32374      0          21359.92   88.381     22226      6539      
2723.000032 5.45       234        1          0          354.938    19167      -1400      627        32373      0          21361.03   88.446     22242      6539      
2723.200032 5.48       235        1          0          355.76     19206      -1400      630        32373      0          21362.13   88.517     22260      6539      
2723.400032 5.49       235        1          0          356.314    19233      -1400      633        32374      0          21363.27   88.579     22275      6539      
2723.600032 5.62       244        1          0          354.853    19162      -1400      629        32374      0          21364.39   88.633     22288      6538      
2723.800032 5.68       244        1          0          355.384    19188      -1400      631        32374      0          21365.52   88.688     22302      6539      
2724.000032 5.89       263        1          0          355.083    19173      -1400      633        32373      0          21366.63   88.724     22311      6539      
2724.200032 6.06       263        1          0          356.965    19264      -1400      643        32374      0          21367.83   88.756     22319      6540      
2724.400033 5.91       243        1          0          355.453    19191      -1400      634        32373      0          21368.92   88.776     22324      6538      
2724.600033 5.76       243        1          0          355.925    19214      -1400      646        32373      0          21370.02   88.784     22326      6539      
2724.800033 5.65       235        1          0          357.723    19300      -1400      645        32374      0          21371.16   88.778     22324      6540      
2725.000033 5.52       233        1          0          355.198    19179      -1400      633        32373      0          21372.29   88.756     22319      6540      
2725.200033 5.47       233        1          0          356.05     19220      -1400      635        32374      0          21373.41   88.721     22310      6540      
2725.400033 5.52       237        1          0          356.051    19220      -1400      636        32373      0          21374.55   88.69      22303      6541      
2725.600033 5.53       237        2126       0          355.948    19215      -1400      635        32373      0          21375.72   88.631     22288      6541      
2725.800033 5.08       206        620        0          355.528    19195      -1400      631        32374      0          21376.82   88.566     22272      6540      
2726.000033 4.9        206        1          0          355.666    19202      -1400      634        32374      0          21377.91   88.468     22248      6540      
2726.200033 5.12       229        1          0          357.793    19305      -1400      636        32373      0          21379.06   88.384     22227      6542      
2726.400034 5.27       229        1          0          355.64     19201      -1400      626        32373      0          21380.18   88.319     22211      6541      
2726.600034 5.61       265        1          0          356.218    19229      -1400      629        32375      0          21381.31   88.267     22198      6541      
2726.800034 6.08       270        1          0          358.023    19316      -1400      632        32373      0          21382.44   88.226     22188      6541      
2727.000034 5.95       235        1          0          355.485    19194      -1400      632        32374      0          21383.62   88.203     22182      6542      
2727.200034 5.66       235        1          0          356.168    19227      -1400      629        32374      0          21384.71   88.203     22182      6541      
2727.400034 5.55       235        1          0          356.491    19242      -1400      633        32374      0          21385.8    88.21      22184      6541      
2727.600034 5.48       233        1          0          356.704    19252      -1400      634        32374      0          21386.95   88.23      22189      6542      
