~Version
 VERS              .         2.0                           : CWLS LOG ASCII STANDARD - VERSION 2.0
 WRAP              .         NO                            : ONE LINE PER DEPTH STEP
 DLM               .         SPACE                         : DELIMITING CHARACTER(SPACE TAB OR COMMA)
~Well Information
#_______________________________________________________________________________
#
#PARAMETER_NAME    .UNIT     VALUE                         : DESCRIPTION
#_______________________________________________________________________________
STRT               .M        2310.8                        : First reference value
STOP               .M        2792.2                        : Last reference value
STEP               .M        0.2                           : Step increment
NULL               .         -9999                         : Missing value
COMP               .                                       : Company
WELL               .         616                           : Well name
FLD                .                                       : Field
LOC                .                                       : Location
CNTY               .                                       : County
STAT               .                                       : State
CTRY               .                                       : Country
SRVC               .                                       : Service Company
DATE               .                                       : Date
API                .                                       : API number
PROJECT_UPGRADE_TIME .         2021-03-18T21_24_50           : 
group              .         Good                          : 
~Parameter Information Block
#_______________________________________________________________________________
#
#PARAMETER_NAME    .UNIT     VALUE                         : DESCRIPTION
#_______________________________________________________________________________
SET                .         D2660_D                       : 
OTHER              .         Программное обеспечение станции MONITOR-386EX 25/12/99 15_08_10   BGF V50 26/12/00 07_26_01   3.1_SNGF___BGF_N_092085: 
OTHER_10           .         Тарировки_                    : 
OTHER_2            .         Kedr.exe версия 3.3.2.32      : 
OTHER_3            .         KedrData.dll версия 3.3.2.17  : 
OTHER_4            .         Драйвер версия 2.1.0.1        : 
OTHER_5            .         Мнемоники версия 3.3 S        : 
OTHER_6            .         Прибор_ ПС                    : 
OTHER_7            .         Номер прибора_ 348\072        : 
OTHER_8            .         Режим_ ПС                     : 
OTHER_9            .         Форма_ ПС                     : 
PROJECT_UPGRADE_TIME .         2021-03-18T21_24_49           : 
TLFamily_DEPT      .         Measured Depth                : 
TLFamily_METKA     .                                       : 
TLFamily_PS        .         Spontaneous Potential         : 
TLFamily_RCOR      .                                       : 
TLFamily_SPID      .         Spontaneous Potential         : 
TLFamily_TENS      .         Cable Tension                 : 
TLFamily_TIME      .         Time                          : 
group              .         prim                          : 
~Curve Information
#_______________________________________________________________________________
#
#LOGNAME           .UNIT     LOG_ID                        : DESCRIPTION
#_______________________________________________________________________________
DEPT               .M                                      : 1 Глубина, м -    0.0 см 
METKA              .                                       : 3 Метки,  -    0.0 см 
PS                 .mV                                     : 7 ПС, мВ - 1210.0 см 
RCOR               .CM/KM                                  : 5 Коррекция по ролику, см/км -    0.0 см 
SPID               .M/H                                    : 2 Скорость, м/час -    0.0 см 
TENS               .T                                      : 6 Натяжение кабеля, т -    0.0 см 
TIME               .S                                      : 4 Время, сек -    0.0 см 
~Ascii
# ...
2435.6     0          528.79     -394       -2101      0          30488.93  
2435.8     0          507.1      -394       -2050      0          30488.56  
2436       0          486.35     -394       -2049      0          30488.25  
2436.2     0          477.69     -394       -2045      0          30487.9   
2436.4     0          473.5      -394       -2014      0          30487.55  
2436.6     0          469.47     -394       -2005      0          30487.19  
2436.8     0          466.86     -394       -2106      0          30486.85  
2437       0          464.97     -394       -2084      0          30486.49  
2437.2     0          464.87     -394       -2050      0          30486.15  
2437.4     0          462.15     -394       -2050      0          30485.8   
2437.6     0          462.2      -394       -2050      0          30485.46  
2437.8     0          460.9      -394       -2050      0          30485.1   
2438       0          461.8      -394       -2048      0          30484.76  
2438.2     0          463        -394       -2038      0          30484.41  
2438.4     0          468.96     -394       -1988      0          30484.06  
2438.6     0          481.36     -394       -2035      0          30483.71  
2438.8     0          505.53     -394       -2101      0          30483.36  
2439       0          515.38     -394       -2053      0          30483     
2439.2     0          517.21     -394       -2051      0          30482.66  
2439.4     0          516.98     -394       -2055      0          30482.31  
2439.6     0          517.64     -394       -2082      0          30481.97  
2439.8     1          517.61     -394       -2109      0          30481.61  
2440       0          518.76     -392       -2105      0          30481.22  
2440.2     0          519.66     -392       -2083      0          30480.89  
2440.4     0          518.14     -392       -2049      0          30480.53  
2440.6     0          513.97     -392       -2047      0          30480.2   
2440.8     0          508.7      -392       -2029      0          30479.86  
2441       0          515.47     -392       -1987      0          30479.51  
2441.2     0          520.65     -392       -2026      0          30479.17  
2441.4     0          525.62     -392       -2051      0          30478.82  
2441.6     0          519.78     -392       -2055      0          30478.43  
2441.8     0          501.08     -392       -2080      0          30478.08  
2442       0          492.32     -392       -2090      0          30477.77  
2442.2     0          489.4      -392       -1988      0          30477.39  
2442.4     0          498.4      -392       -2023      0          30477.06  
2442.6     0          516.28     -392       -2110      0          30476.71  
2442.8     0          510.91     -392       -2108      0          30476.34  
2443       0          491.05     -392       -2098      0          30476.02  
2443.2     0          487.39     -392       -2045      0          30475.66  
2443.4     0          494.01     -392       -2021      0          30475.32  
2443.6     0          515.48     -392       -1990      0          30474.97  
2443.8     0          521.6      -392       -2040      0          30474.63  
2444       0          522.37     -392       -2030      0          30474.27  
2444.2     0          507.24     -392       -1994      0          30473.92  
2444.4     0          501.7      -392       -2075      0          30473.54  
2444.6     0          490.88     -392       -2109      0          30473.22  
2444.8     0          489.88     -392       -2100      0          30472.85  
2445       0          489.85     -392       -2053      0          30472.53  
2445.2     0          492.75     -392       -1991      0          30472.18  
2445.4     0          502.31     -392       -2047      0          30471.84  
2445.6     0          515.07     -392       -2050      0          30471.49  
2445.8     0          516.59     -392       -2050      0          30471.14  
2446       0          527.11     -392       -2050      0          30470.77  
2446.2     0          524.57     -392       -2051      0          30470.44  
2446.4     0          526.79     -392       -2053      0          30470.09  
2446.6     0          530.52     -392       -2073      0          30469.73  
2446.8     0          533.85     -392       -2092      0          30469.39  
2447       0          532.86     -392       -1993      0          30469.04  
2447.2     0          530.26     -392       -2018      0          30468.7   
2447.4     0          519.46     -392       -2104      0          30468.35  
2447.6     0          514.87     -392       -2073      0          30467.99  
2447.8     0          519.87     -392       -2050      0          30467.64  
2448       0          502.98     -392       -2050      0          30467.3   
2448.2     0          496.35     -392       -2049      0          30466.96  
2448.4     0          501.72     -392       -2041      0          30466.61  
2448.6     0          520.5      -392       -1990      0          30466.27  
2448.8     0          529.06     -392       -2020      0          30465.93  
2449       0          532.26     -392       -2105      0          30465.57  
2449.2     0          533.19     -392       -2071      0          30465.2   
2449.4     0          535.08     -392       -2050      0          30464.88  
2449.6     0          536.48     -392       -2050      0          30464.53  
2449.8     1          536.32     -392       -2050      0          30464.18  
2450       0          534.61     -392       -2050      0          30463.83  
2450.2     0          530.57     -392       -2053      0          30463.47  
2450.4     0          524.4      -392       -2067      0          30463.13  
2450.6     0          509.48     -392       -2104      0          30462.77  
2450.8     0          499.72     -392       -2073      0          30462.42  
2451       0          497.41     -392       -2037      0          30462.08  
2451.2     0          485.16     -392       -1985      0          30461.74  
2451.4     0          482.47     -392       -2008      0          30461.4   
2451.6     0          484.65     -392       -2058      0          30461.05  
2451.8     0          496.03     -392       -2104      0          30460.68  
2452       0          514.41     -392       -2091      0          30460.34  
2452.2     0          524.92     -392       -2050      0          30460     
2452.4     0          526.72     -392       -2050      0          30459.65  
2452.6     0          528.39     -392       -2050      0          30459.32  
2452.8     0          529.41     -392       -2053      0          30458.96  
2453       0          529.79     -392       -2069      0          30458.64  
2453.2     0          530.45     -392       -2103      0          30458.28  
2453.4     0          529.08     -392       -2061      0          30457.92  
2453.6     0          528.97     -392       -2049      0          30457.56  
2453.8     0          529.57     -392       -2045      0          30457.23  
2454       0          530.1      -392       -2020      0          30456.89  
2454.2     0          531.67     -392       -1994      0          30456.52  
2454.4     0          529.01     -392       -2053      0          30456.2   
2454.6     0          518.71     -392       -2073      0          30455.82  
2454.8     0          500.66     -392       -2110      0          30455.46  
2455       0          495.1      -392       -2108      0          30455.14  
2455.2     0          497.3      -392       -2095      0          30454.79  
2455.4     0          506.57     -392       -2050      0          30454.45  
2455.6     0          521.92     -392       -2050      0          30454.1   
2455.8     0          513.82     -392       -2050      0          30453.76  
2456       0          520.95     -392       -2047      0          30453.41  
2456.2     0          525.42     -392       -2030      0          30453.06  
