~Version
 VERS              .         2.0                           : CWLS LOG ASCII STANDARD - VERSION 2.0
 WRAP              .         NO                            : ONE LINE PER DEPTH STEP
 DLM               .         SPACE                         : DELIMITING CHARACTER(SPACE TAB OR COMMA)
~Well Information
#_______________________________________________________________________________
#
#PARAMETER_NAME    .UNIT     VALUE                         : DESCRIPTION
#_______________________________________________________________________________
STRT               .M        2648.8                        : First reference value
STOP               .M        2754.8                        : Last reference value
STEP               .M        0.2                           : Step increment
NULL               .         -9999                         : Missing value
COMP               .                                       : Company
WELL               .         616                           : Well name
FLD                .                                       : Field
LOC                .                                       : Location
CNTY               .                                       : County
STAT               .                                       : State
CTRY               .                                       : Country
SRVC               .                                       : Service Company
DATE               .                                       : Date
API                .                                       : API number
PROJECT_UPGRADE_TIME .         2021-03-18T21_24_50           : 
group              .         Good                          : 
~Parameter Information Block
#_______________________________________________________________________________
#
#PARAMETER_NAME    .UNIT     VALUE                         : DESCRIPTION
#_______________________________________________________________________________
SET                .         D7019_D                       : 
OTHER              .         Kedr.exe версия 2.1.2.32      : 
OTHER_10           .         TM.GRD = 0.00404*TM$.UE + 0.07: 
OTHER_11           .         MN.ATM = (6.33279e-006*TM.GRD + 0.02401)*(MN$.UE + 2.72*TM.GRD + -2018): 
OTHER_12           .         GK.MKR/H = GK$.UE / 43.5489 + 0: 
OTHER_13           .         RES.SM = 0.00476*CRES.UE - 1.51709: 
OTHER_14           .         PL.GSM3 = 0 + 0 * (PL.UE / 1) +  0 * (PL.UE / 1)^2: 
OTHER_15           .         Постоянная времени ГГП = 6 сек: 
OTHER_16           .         Постоянная времени ГК = 6 сек : 
OTHER_2            .         KedrData.dll версия 3.2.2.14  : 
OTHER_3            .         LasInf.dll версия 3.2.0.13    : 
OTHER_4            .         Драйвер версия 1.2.0.5        : 
OTHER_5            .         Прибор_ КСА-M1                : 
OTHER_6            .         Номер прибора_ 155+р204       : 
OTHER_7            .         Режим_ КСА-М1 + ГГП + Резистивиметр: 
OTHER_8            .         Форма_ 223\2                  : 
OTHER_9            .         Тарировки_                    : 
PROJECT_UPGRADE_TIME .         2021-03-18T21_24_50           : 
TLFamily_CRES      .                                       : 
TLFamily_DEPT      .         Measured Depth                : 
TLFamily_GK        .         Gamma Ray                     : 
TLFamily_GK$       .                                       : 
TLFamily_LM        .         Casing Collar locator         : 
TLFamily_METKA     .                                       : 
TLFamily_MN        .                                       : 
TLFamily_MN$       .                                       : 
TLFamily_PL        .                                       : 
TLFamily_PL_2      .                                       : 
TLFamily_RCOR      .                                       : 
TLFamily_RES       .         Mud Resistivity               : 
TLFamily_SPID      .         Spontaneous Potential         : 
TLFamily_STD       .                                       : 
TLFamily_TIME      .         Time                          : 
TLFamily_TM        .         Temperature                   : 
TLFamily_TM$       .         Temperature                   : 
TLFamily_VGD       .         Gas Volume                    : 
group              .         prim                          : 
~Curve Information
#_______________________________________________________________________________
#
#LOGNAME           .UNIT     LOG_ID                        : DESCRIPTION
#_______________________________________________________________________________
DEPT               .M                                      : 1 Глубина, м -    0.0 см 
CRES               .UE                                     : 9 Проводимость, усл.ед. -  222.0 см 
GK                 .MKR/H                                  : 16 Гамма-активность, мкр./ч -  106.0 см 
GK$                .UE                                     : 13 Гамма-активность, усл.ед. -  106.0 см 
LM                 .                                       : 11 Локатор муфт,  -   16.0 см 
METKA              .                                       : 3 Метки,  -    0.0 см 
MN                 .ATM                                    : 15 Давление, атм. -  160.0 см 
MN$                .UE                                     : 7 Давление, усл.ед. -  160.0 см 
PL                 .UE                                     : 10 Плотность, усл.ед. -  270.0 см 
PL_2               .GSM3                                   : 18 Плотность, г./см3 -  270.0 см 
RCOR               .CM/KM                                  : 5 Коррекция по ролику, см/км -    0.0 см 
RES                .SM                                     : 17 Проводимость,  -  222.0 см 
SPID               .M/H                                    : 2 Скорость, м/час -    0.0 см 
STD                .                                       : 12 Приток,  -  170.0 см 
TIME               .S                                      : 4 Время, сек -    0.0 см 
TM                 .GRD                                    : 14 Температура, °C -  180.0 см 
TM$                .UE                                     : 6 Температура, усл.ед. -  180.0 см 
VGD                .                                       : 8 Влагомер,  -  170.0 см 
~Ascii
# ...
2698       1216       10.92      485        102        0          247.882    12092      14         0          0          4.2711     580        9069       10589.01   46.331     11451      6642      
2698.2     1216       11.3       513        117        0          247.898    12092      14         0          0          4.2687     510        9069       10590.25   46.322     11448      6656      
2698.4     1215       11.54      513        111        0          247.937    12094      14         0          0          4.2655     580        9068       10591.57   46.32      11448      6646      
2698.6     1214       11.04      459        92         0          247.957    12095      14         0          0          4.2624     521        9069       10592.89   46.312     11446      6663      
2698.8     1214       10.79      459        126        0          247.957    12095      15         0          0          4.2615     510        9068       10594.15   46.308     11445      6660      
2699       1216       10.63      455        3580       0          247.988    12096      13         0          0          4.2692     580        9070       10595.46   46.304     11444      6663      
2699.2     1216       10.55      457        1468       0          247.996    12096      13         0          0          4.2711     550        9070       10596.73   46.3       11443      6667      
2699.4     1216       10.59      463        382        0          248.036    12098      15         0          0          4.2711     580        9071       10598.02   46.294     11442      6662      
2699.6     1214       10.75      496        105        0          248.035    12098      14         0          0          4.2616     522        9070       10599.33   46.289     11440      6662      
2699.8     1213       11.15      504        98         0          248.058    12099      13         0          0          4.2568     580        9072       10600.62   46.284     11439      6656      
2700       1214       11.37      507        96         0          248.094    12101      12         0          0          4.26       557        9073       10601.89   46.275     11437      6664      
2700.2     1215       11.57      512        89         1          248.101    12101      14         0          0          4.2644     580        9072       10603.8    46.271     11436      6661      
2700.4     1214       11.6       499        86         0          248.128    12102      13         0          0          4.2615     580        9072       10605.04   46.263     11434      6652      
2700.6     1214       11.49      496        84         0          248.152    12103      14         0          0          4.2615     580        9075       10606.35   46.255     11432      6651      
2700.8     1214       11.31      473        80         0          248.165    12104      13         0          0          4.2615     560        9075       10607.65   46.25      11431      6647      
2701       1213       11.09      473        97         0          248.196    12105      13         0          0          4.2568     580        9075       10608.92   46.245     11429      6653      
2701.2     1213       10.51      426        94         0          248.203    12105      14         0          0          4.2568     580        9075       10610.23   46.243     11429      6650      
2701.4     1213       10.15      426        95         0          248.222    12106      14         0          0          4.2568     580        9074       10611.54   46.234     11427      6657      
2701.6     1212       9.88       418        92         0          248.246    12107      14         0          0          4.2544     580        9069       10612.85   46.227     11425      6659      
2701.8     1212       9.91       458        86         0          248.317    12110      14         0          0          4.2528     580        9064       10614.16   46.224     11424      6661      
2702       1213       11.09      538        96         0          248.292    12109      14         0          0          4.2568     580        9061       10615.47   46.213     11421      6653      
2702.2     1212       11.73      538        101        0          248.315    12110      14         0          0          4.252      510        9054       10616.76   46.204     11419      6664      
2702.4     1211       13.23      646        2526       0          248.339    12111      14         0          0          4.2481     580        9050       10618.05   46.195     11417      6655      
2702.6     1211       13.86      606        3267       0          248.327    12110      14         0          0          4.2489     580        9045       10619.3    46.191     11416      6657      
2702.8     1212       13.44      567        938        0          248.387    12113      14         0          0          4.252      580        9044       10620.62   46.195     11417      6649      
2703       1212       13.17      555        265        0          248.39     12113      12         0          0          4.252      580        9041       10621.92   46.187     11415      6659      
2703.2     1211       12.97      555        130        0          248.434    12115      14         0          0          4.2473     580        9038       10623.23   46.179     11413      6654      
2703.4     1211       12.88      561        80         0          248.433    12115      13         0          0          4.2496     522        9035       10624.54   46.174     11412      6643      
2703.6     1211       12.91      564        126        0          248.46     12116      13         0          0          4.248      510        9034       10625.85   46.17      11411      6660      
2703.8     1212       12.17      408        5671       0          248.48     12117      13         0          0          4.252      580        9035       10627.13   46.162     11409      6663      
2704       1211       10.77      408        3513       0          248.504    12118      14         0          0          4.2473     580        9033       10628.44   46.158     11408      6666      
2704.2     1211       9.16       283        927        0          248.524    12119      14         0          0          4.2473     510        9032       10629.76   46.152     11406      6663      
2704.4     1211       7.83       283        247        0          248.552    12120      14         0          0          4.2473     580        9031       10631.01   46.152     11406      6662      
2704.6     1211       7.37       317        89         0          248.551    12120      13         0          0          4.2473     510        9031       10632.39   46.146     11405      6659      
2704.8     1210       7.33       317        56         0          248.571    12121      14         0          0          4.2425     510        9030       10633.64   46.142     11404      6660      
2705       1210       7.55       348        64         0          248.603    12122      14         0          0          4.2433     580        9030       10634.95   46.139     11403      6663      
2705.2     1210       7.76       348        79         0          248.622    12123      14         0          0          4.2433     568        9033       10636.27   46.133     11402      6654      
2705.4     1210       8.76       441        66         0          248.637    12124      14         0          0          4.2425     510        9031       10637.56   46.128     11401      6660      
2705.6     1208       9.46       441        62         0          248.669    12125      13         0          0          4.2338     580        9033       10638.88   46.115     11397      6665      
2705.8     1208       11.23      615        61         0          248.668    12125      14         0          0          4.2337     510        9031       10640.13   46.114     11397      6665      
2706       1209       12.67      615        55         0          248.717    12127      14         0          0          4.2378     510        9029       10641.44   46.111     11396      6665      
