~Version
 VERS              .         2.0                           : CWLS LOG ASCII STANDARD - VERSION 2.0
 WRAP              .         NO                            : ONE LINE PER DEPTH STEP
 DLM               .         SPACE                         : DELIMITING CHARACTER(SPACE TAB OR COMMA)
~Well Information
#_______________________________________________________________________________
#
#PARAMETER_NAME    .UNIT     VALUE                         : DESCRIPTION
#_______________________________________________________________________________
STRT               .M        2700.4                        : First reference value
STOP               .M        2799                          : Last reference value
STEP               .M        0.2000002                     : Step increment
NULL               .         -9999                         : Missing value
COMP               .                                       : Company
WELL               .         616                           : Well name
FLD                .                                       : Field
LOC                .                                       : Location
CNTY               .                                       : County
STAT               .                                       : State
CTRY               .                                       : Country
SRVC               .                                       : Service Company
DATE               .                                       : Date
API                .                                       : API number
PROJECT_UPGRADE_TIME .         2021-03-18T21_24_50           : 
group              .         Good                          : 
~Parameter Information Block
#_______________________________________________________________________________
#
#PARAMETER_NAME    .UNIT     VALUE                         : DESCRIPTION
#_______________________________________________________________________________
SET                .         D2658_D                       : 
OTHER              .         Программное обеспечение станции MONITOR-386EX 25/12/99 15_08_10   BGF V50 26/12/00 07_26_01   3.1_SNGF___BGF_N_092085: 
OTHER_10           .         Тарировки_                    : 
OTHER_11           .         <_techsia_sc_> Постоянная времени фильтра ПС  0.5 сек, kf=0.139292: 
OTHER_2            .         Kedr.exe версия 3.3.2.32      : 
OTHER_3            .         KedrData.dll версия 3.3.2.17  : 
OTHER_4            .         Драйвер версия 2.1.0.7        : 
OTHER_5            .         Мнемоники версия 3.3 S        : 
OTHER_6            .         Прибор_ К1a-723м              : 
OTHER_7            .         Номер прибора_ 348/72         : 
OTHER_8            .         Режим_ K1A-723M               : 
OTHER_9            .         Форма_ БКЗ                    : 
PROJECT_UPGRADE_TIME .         2021-03-18T21_24_49           : 
TLFamily_BK        .         Lateral Log Resistivity       : 
TLFamily_DEPT      .         Measured Depth                : 
TLFamily_GZ1       .         Extra Shallow Resistivity     : 
TLFamily_GZ2       .         Shallow Resistivity           : 
TLFamily_GZ3       .         Medium Resistivity            : 
TLFamily_GZ4       .         Deep Resistivity              : 
TLFamily_GZ5       .         Extra Deep Resistivity        : 
TLFamily_GZ6       .         Medium Resistivity Inverted   : 
TLFamily_IBK       .                                       : 
TLFamily_IK        .         Conductivity                  : 
TLFamily_IPR       .                                       : 
TLFamily_METKA     .                                       : 
TLFamily_PS        .         Spontaneous Potential         : 
TLFamily_PZ        .         Potential Resistivity         : 
TLFamily_RCOR      .                                       : 
TLFamily_RES       .         Mud Resistivity               : 
TLFamily_SPID      .         Spontaneous Potential         : 
TLFamily_TENS      .         Cable Tension                 : 
TLFamily_TIME      .         Time                          : 
TLFamily_UBK       .         Uranium Concentration         : 
group              .         prim                          : 
~Curve Information
#_______________________________________________________________________________
#
#LOGNAME           .UNIT     LOG_ID                        : DESCRIPTION
#_______________________________________________________________________________
DEPT               .M                                      : 1 Глубина, м -    0.0 см 
BK                 .OHMM                                   : 20 БК, Ом*м - 1768.0 см 
GZ1                .OHMM                                   : 12 A0.4M0.1N, Ом*м - 1295.0 см 
GZ2                .OHMM                                   : 11 A1.0M0.1N, Ом*м - 1355.0 см 
GZ3                .OHMM                                   : 9 A2.0M0.5N, Ом*м - 1475.0 см 
GZ4                .OHMM                                   : 8 A4.0M0.5N, Ом*м - 1025.0 см 
GZ5                .OHMM                                   : 7 A8.0M1.0N, Ом*м - 1450.0 см 
GZ6                .OHMM                                   : 10 N0.5M2.0A, Ом*м - 1025.0 см 
IBK                .A                                      : 18 Ток БК, А - 1768.0 см 
IK                 .MSM/M                                  : 14 ИК, мСм/м - 1961.0 см 
IPR                .MA                                     : 17 Ток прибора, мA -    0.0 см 
METKA              .                                       : 3 Метки,  -    0.0 см 
PS                 .mV                                     : 16 ПС, мВ - 1210.0 см 
PZ                 .OHMM                                   : 13 N11M0.5A, Ом*м - 1225.0 см 
RCOR               .CM/KM                                  : 5 Коррекция по ролику, см/км -    0.0 см 
RES                .OHMM                                   : 15 Резистивиметр, Ом*м -  600.0 см 
SPID               .M/H                                    : 2 Скорость, м/час -    0.0 см 
TENS               .T                                      : 6 Натяжение кабеля, т -    0.0 см 
TIME               .S                                      : 4 Время, сек -    0.0 см 
UBK                .V                                      : 19 Напр. БК, В - 1768.0 см 
~Ascii
# ...
2730       16.83      25.1       30.6       14.5       15.2       7.9        17.2       0.024      66.3       427.6      0          523.8      28.5       -268       2.761      -1798      0          28291.52   1.727     
2730.2     16.93      24.3       30.5       14.9       15.2       8          17         0.024      67         424        0          524.13     28.5       -268       2.763      -1804      0          28291.14   1.726     
2730.4     17.86      24.5       31.3       16.2       15.3       8.2        16.8       0.023      67.6       426.5      0          524.08     28.4       -268       2.761      -1816      0          28290.75   1.719     
2730.6     17.85      25         31.8       18.3       15.2       8.5        16.3       0.023      68.2       424.683    0          524.27     28         -268       2.762      -1837      0          28290.33   1.712     
2730.8     17.03      25.3       31.5       19.4       14.9       8.8        16.1       0.024      69.4       428        0          524.79     27.7       -268       2.763      -1875      0          28289.92   1.697     
2731       16.88      25         31         19.7       14.8       9.5        15.8       0.024      70.3       426        0          524.64     27.5       -268       2.761      -1840      0          28289.54   1.69      
2731.2     17.21      25         31.1       19.8       14.4       10.1       15.3       0.023      70.6       426.667    0          524.25     27.2       -268       2.763      -1823      0          28289.2    1.685     
2731.4     16.52      24.8       31.2       19.8       14.3       10.7       14.9       0.024      71.7       426        0          524.27     27         -268       2.764      -1847      0          28288.77   1.671     
2731.6     16.68      24.7       31         19.8       14         11.4       14.6       0.024      73.6       427.19     0          525        26.8       -268       2.762      -1838      0          28288.38   1.659     
2731.8     16.42      24.8       30.9       19.8       13.7       11.6       14.4       0.024      74.9       428        0          525.06     26.5       -268       2.763      -1821      0          28288.05   1.639     
2732       16.29      24.3       30.3       19.4       13.6       12         14.1       0.024      76.8       428        0          524.79     26.1       -268       2.758      -1792      0          28287.62   1.631     
2732.2     16.76      24.5       30.3       19.1       13.7       12.3       13.6       0.023      77.5       427        0          525.27     25.6       -268       2.758      -1793      0          28287.22   1.63      
2732.4     16.43      24.6       30.1       18.8       13.6       12.7       13.4       0.023      78.7       424        0          525.14     25.4       -268       2.758      -1795      0          28286.89   1.617     
2732.6     15.92      24.5       29.5       18.5       13.9       12.8       13.2       0.024      80.3       424        0          525.29     25.2       -268       2.762      -1799      0          28286.42   1.594     
2732.8     15.27      24.2       29.2       18.1       14         13.2       13         0.024      81.5       428        0          524.81     25.1       -268       2.764      -1806      0          28286.04   1.575     
2733       14.24      23.3       28.1       17.9       14.3       13.6       13         0.026      82.1       428        0          525.22     24.9       -268       2.762      -1775      0          28285.66   1.547     
2733.2     16.73      23.2       28.2       17.6       14.3       13.8       12.7       0.022      86.3       428        0          524.38     24.1       -268       2.762      -1759      0          28285.24   1.519     
2733.4     16.69      23.5       28.2       17.4       14.3       14         12.1       0.021      87.3       424        0          524.2      22.9       -268       2.766      -1778      0          28284.84   1.493     
2733.6     15.41      24.3       28.4       17         14.1       14.1       11.6       0.023      85.7       428        0          524.32     21.6       -268       2.763      -1768      0          28284.45   1.485     
2733.8     14.56      23.8       27.5       16.4       13.9       14.2       11.5       0.024      86.8       425.333    0          524.83     21         -268       2.762      -1779      0          28284.05   1.48      
2734       14.49      23.4       27.4       16.1       13.7       14.5       11.3       0.024      91.3       424        0          524.61     21.3       -268       2.762      -1810      0          28283.62   1.473     
2734.2     12.5       23         27.2       15.9       13.4       14.8       11.2       0.028      92.4       425        0          524.14     22.1       -268       2.761      -1824      0          28283.2    1.463     
2734.4     11.31      21.2       25.4       15.2       13.3       15.2       11.4       0.03       93.7       427.5      0          524.11     23         -268       2.76       -1795      0          28282.81   1.442     
2734.6     13.46      18.7       22.2       14.5       13.3       15.6       11.4       0.025      94.9       425.488    0          523.34     23         -268       2.76       -1773      0          28282.41   1.419     
2734.8     15.83      19.7       22.4       14.7       13.8       16.1       11.1       0.021      94.3       426.996    0          522.66     22.1       -268       2.76       -1765      0          28282.03   1.398     
2735       15.54      21.6       22.9       15         14.2       16.7       10.6       0.021      94.2       426        0          522.15     21.2       -268       2.762      -1791      0          28281.66   1.387     
2735.2     14.79      23.1       23.4       14.9       14.3       16.9       10.2       0.022      96         427.333    0          522.05     20.6       -268       2.759      -1814      0          28281.23   1.38      
2735.4     13.26      23.3       23.7       14.7       14.3       17.2       10         0.025      95.9       428        0          521.36     20.7       -268       2.759      -1822      0          28280.83   1.378     
2735.6     12.44      21.9       23.7       14.7       14.4       17.4       10         0.026      97.9       426        0          521.17     20.9       -268       2.76       -1793      0          28280.43   1.378     
2735.8     12.46      21         24         14.1       14.5       17.5       10         0.026      100.2      428        0          521.04     20.8       -268       2.764      -1792      0          28280.08   1.361     
2736       12.86      19.7       22.8       14.1       14.8       17.6       9.9        0.024      103.6      428        0          521.16     20.2       -268       2.756      -1794      0          28279.63   1.322     
2736.2     14.93      20.3       22.8       14         14.9       17.3       9.6        0.02       106.6      426        0          521.39     19.1       -268       2.759      -1797      0          28279.24   1.277     
2736.4     13.75      21.7       23.1       13.9       14.4       16.4       8.9        0.021      109.5      426        0          521.75     17.3       -268       2.762      -1802      0          28278.9    1.245     
2736.6     13.23      22         22.4       13.4       13.6       15.6       8.1        0.022      112.7      426.512    0          522.22     15.7       -268       2.761      -1812      0          28278.46   1.221     
2736.8     12.31      21.6       22.3       13         12.5       14.7       7.5        0.023      117.4      426        0          523.34     14.9       -268       2.765      -1815      0          28278.06   1.214     
2737       10.97      21.2       22.2       12.6       11.6       13.9       7.2        0.026      121.6      427.333    0          524.78     15.1       -268       2.763      -1780      0          28277.71   1.203     
2737.2     8.84       19.3       20.6       11.8       10.8       13.1       7.3        0.032      124.6      426        0          526.21     15.9       -268       2.757      -1763      0          28277.25   1.185     
