~Version
 VERS              .         2.0                           : CWLS LOG ASCII STANDARD - VERSION 2.0
 WRAP              .         NO                            : ONE LINE PER DEPTH STEP
 DLM               .         SPACE                         : DELIMITING CHARACTER(SPACE TAB OR COMMA)
~Well Information
#_______________________________________________________________________________
#
#PARAMETER_NAME    .UNIT     VALUE                         : DESCRIPTION
#_______________________________________________________________________________
STRT               .M        10.2                          : First reference value
STOP               .M        2753.6                        : Last reference value
STEP               .M        0.2                           : Step increment
NULL               .         -9999                         : Missing value
COMP               .                                       : Company
WELL               .         616                           : Well name
FLD                .                                       : Field
LOC                .                                       : Location
CNTY               .                                       : County
STAT               .                                       : State
CTRY               .                                       : Country
SRVC               .                                       : Service Company
DATE               .                                       : Date
API                .                                       : API number
PROJECT_UPGRADE_TIME .         2021-03-18T21_24_50           : 
group              .         Good                          : 
~Parameter Information Block
#_______________________________________________________________________________
#
#PARAMETER_NAME    .UNIT     VALUE                         : DESCRIPTION
#_______________________________________________________________________________
SET                .         D7028_D                       : 
OTHER              .         Kedr.exe версия 2.1.2.32      : 
OTHER_10           .         TM.GRD = 0.00404*TM$.UE + 0.07: 
OTHER_11           .         MN.ATM = (6.33279e-006*TM.GRD + 0.02401)*(MN$.UE + 2.72*TM.GRD + -2018): 
OTHER_12           .         GK.MKR/H = GK$.UE / 43.5489 + 0: 
OTHER_13           .         RES.SM = 0.00476*CRES.UE - 1.51709: 
OTHER_14           .         PL.GSM3 = 0 + 0 * (PL.UE / 1) +  0 * (PL.UE / 1)^2: 
OTHER_15           .         Постоянная времени ГГП = 6 сек: 
OTHER_16           .         Постоянная времени ГК = 6 сек : 
OTHER_2            .         KedrData.dll версия 3.2.2.14  : 
OTHER_3            .         LasInf.dll версия 3.2.0.13    : 
OTHER_4            .         Драйвер версия 1.2.0.5        : 
OTHER_5            .         Прибор_ КСА-M1                : 
OTHER_6            .         Номер прибора_ 155+р204       : 
OTHER_7            .         Режим_ КСА-М1 + ГГП + Резистивиметр: 
OTHER_8            .         Форма_ 223\2                  : 
OTHER_9            .         Тарировки_                    : 
PROJECT_UPGRADE_TIME .         2021-03-18T21_24_50           : 
TLFamily_CRES      .                                       : 
TLFamily_DEPT      .         Measured Depth                : 
TLFamily_GK        .         Gamma Ray                     : 
TLFamily_GK$       .                                       : 
TLFamily_LM        .         Casing Collar locator         : 
TLFamily_METKA     .                                       : 
TLFamily_MN        .                                       : 
TLFamily_MN$       .                                       : 
TLFamily_PL        .                                       : 
TLFamily_PL_2      .                                       : 
TLFamily_RCOR      .                                       : 
TLFamily_RES       .         Mud Resistivity               : 
TLFamily_SPID      .         Spontaneous Potential         : 
TLFamily_STD       .                                       : 
TLFamily_TIME      .         Time                          : 
TLFamily_TM        .         Temperature                   : 
TLFamily_TM$       .         Temperature                   : 
TLFamily_VGD       .         Gas Volume                    : 
group              .         prim                          : 
~Curve Information
#_______________________________________________________________________________
#
#LOGNAME           .UNIT     LOG_ID                        : DESCRIPTION
#_______________________________________________________________________________
DEPT               .M                                      : 1 Глубина, м -    0.0 см 
CRES               .UE                                     : 9 Проводимость, усл.ед. -  222.0 см 
GK                 .MKR/H                                  : 16 Гамма-активность, мкр./ч -  106.0 см 
GK$                .UE                                     : 13 Гамма-активность, усл.ед. -  106.0 см 
LM                 .                                       : 11 Локатор муфт,  -   16.0 см 
METKA              .                                       : 3 Метки,  -    0.0 см 
MN                 .ATM                                    : 15 Давление, атм. -  160.0 см 
MN$                .UE                                     : 7 Давление, усл.ед. -  160.0 см 
PL                 .UE                                     : 10 Плотность, усл.ед. -  270.0 см 
PL_2               .GSM3                                   : 18 Плотность, г./см3 -  270.0 см 
RCOR               .CM/KM                                  : 5 Коррекция по ролику, см/км -    0.0 см 
RES                .SM                                     : 17 Проводимость,  -  222.0 см 
SPID               .M/H                                    : 2 Скорость, м/час -    0.0 см 
STD                .                                       : 12 Приток,  -  170.0 см 
TIME               .S                                      : 4 Время, сек -    0.0 см 
TM                 .GRD                                    : 14 Температура, °C -  180.0 см 
TM$                .UE                                     : 6 Температура, усл.ед. -  180.0 см 
VGD                .                                       : 8 Влагомер,  -  170.0 см 
~Ascii
# ...
2019.2     1236       8.35       378        279        0          181.391    9310       14         0          0          4.3663     -1843      10966      20162.47   56.106     13870      6620      
2019.4     1236       8.27       378        243        0          181.395    9310       14         0          0          4.3663     -1790      10968      20162.09   56.109     13871      6620      
2019.6     1236       8.19       373        275        0          181.42     9311       14         0          0          4.3663     -1802      10969      20161.7    56.11      13871      6624      
2019.8     1236       8.09       372        292        1          181.445    9312       14         0          0          4.3663     -1860      10970      20161.29   56.114     13872      6624      
2020       1236       8          372        303        0          181.465    9313       14         0          0          4.3663     -1820      10968      20160.75   56.118     13873      6627      
2020.2     1236       7.86       372        216        0          181.469    9313       14         0          0          4.3663     -1790      10970      20160.26   56.121     13874      6625      
2020.4     1236       7.7        372        241        0          181.495    9314       14         0          0          4.3663     -1790      10972      20159.86   56.122     13874      6624      
2020.6     1236       7.52       372        300        0          181.519    9315       14         0          0          4.3663     -1849      10973      20159.46   56.126     13875      6622      
2020.8     1236       7.26       315        292        0          181.54     9316       14         0          0          4.3665     -1860      10973      20159.07   56.13      13876      6622      
2021       1237       7.27       312        320        0          181.545    9316       14         0          0          4.371      -1860      10974      20158.66   56.137     13878      6623      
2021.2     1237       7.31       312        258        0          181.569    9317       14         0          0          4.371      -1860      10975      20158.27   56.138     13878      6630      
2021.4     1237       7.34       312        197        0          181.595    9318       14         0          0          4.3703     -1860      10975      20157.86   56.142     13879      6632      
2021.6     1236       7.38       312        196        0          181.628    9320       14         0          0          4.3663     -1797      10975      20157.47   56.146     13880      6622      
2021.8     1236       7.43       312        257        0          181.639    9320       14         0          0          4.3663     -1850      10977      20157.09   56.149     13881      6620      
2022       1236       7.5        322        333        0          181.66     9321       14         0          0          4.3663     -1860      10976      20156.68   56.153     13882      6623      
2022.2     1236       7.52       330        363        0          181.664    9321       14         0          0          4.3663     -1797      10977      20156.29   56.157     13883      6630      
2022.4     1236       7.51       330        286        0          181.685    9322       14         0          0          4.3663     -1790      10978      20155.89   56.161     13884      6630      
2022.6     1236       7.49       330        249        0          181.711    9323       14         0          0          4.3663     -1790      10978      20155.49   56.161     13884      6628      
2022.8     1235       7.47       330        221        0          181.735    9324       14         0          0          4.3627     -1790      10979      20155.11   56.165     13885      6625      
2023       1236       7.45       330        212        0          181.762    9325       14         0          0          4.3651     -1790      10980      20154.69   56.169     13886      6618      
2023.2     1237       7.42       336        227        0          181.764    9325       14         0          0          4.37       -1856      10981      20154.31   56.177     13888      6618      
2023.4     1237       7.35       339        265        0          181.785    9326       14         0          0          4.371      -1860      10982      20153.89   56.178     13888      6620      
2023.6     1237       7.25       339        255        0          181.812    9327       14         0          0          4.371      -1860      10982      20153.51   56.181     13889      6626      
2023.8     1237       7.13       339        287        0          181.835    9328       14         0          0          4.371      -1790      10983      20153.11   56.182     13889      6633      
2024       1237       6.97       339        260        0          181.838    9328       14         0          0          4.371      -1790      10983      20152.71   56.185     13890      6635      
2024.2     1236       6.78       339        252        0          181.862    9329       14         0          0          4.3671     -1790      10984      20152.31   56.189     13891      6628      
2024.4     1236       6.54       301        287        0          181.886    9330       14         0          0          4.3663     -1857      10985      20151.91   56.193     13892      6621      
2024.6     1237       6.45       284        353        0          181.911    9331       14         0          0          4.3701     -1790      10985      20151.53   56.197     13893      6623      
2024.8     1237       6.44       284        396        0          181.913    9331       14         0          0          4.371      -1790      10986      20151.13   56.202     13894      6624      
2025       1237       6.42       284        272        0          181.938    9332       14         0          0          4.371      -1794      10986      20150.73   56.206     13895      6619      
2025.2     1237       6.4        284        262        0          181.961    9333       14         0          0          4.371      -1860      10986      20150.33   56.206     13895      6620      
2025.4     1237       6.37       284        308        0          181.987    9334       14         0          0          4.371      -1856      10988      20149.93   56.21      13896      6622      
2025.6     1237       6.33       284        268        0          182.012    9335       14         0          0          4.371      -1797      10989      20149.53   56.214     13897      6622      
2025.8     1237       6.29       264        324        0          182.012    9335       14         0          0          4.371      -1860      10989      20149.14   56.218     13898      6622      
2026       1238       6.34       256        393        0          182.038    9336       14         0          0          4.3753     -1853      10991      20148.72   56.218     13898      6622      
2026.2     1238       6.45       256        534        0          182.062    9337       14         0          0          4.3758     -1797      10991      20148.34   56.222     13899      6622      
2026.4     1238       6.58       256        447        0          182.087    9338       14         0          0          4.3758     -1860      10992      20147.94   56.226     13900      6621      
2026.6     1237       6.75       256        279        0          182.088    9338       14         0          0          4.3713     -1860      10991      20147.54   56.23      13901      6621      
2026.8     1237       6.95       256        254        0          182.113    9339       14         0          0          4.371      -1850      10992      20147.14   56.23      13901      6621      
2027       1237       7.2        289        224        0          182.137    9340       14         0          0          4.371      -1797      10993      20146.76   56.238     13903      6623      
2027.2     1237       7.33       298        233        0          182.139    9340       14         0          0          4.371      -1860      10994      20146.38   56.242     13904      6623      
