~Version
 VERS              .         2.0                           : CWLS LOG ASCII STANDARD - VERSION 2.0
 WRAP              .         NO                            : ONE LINE PER DEPTH STEP
 DLM               .         SPACE                         : DELIMITING CHARACTER(SPACE TAB OR COMMA)
~Well Information
#_______________________________________________________________________________
#
#PARAMETER_NAME    .UNIT     VALUE                         : DESCRIPTION
#_______________________________________________________________________________
STRT               .M        2647.6                        : First reference value
STOP               .M        2757.2                        : Last reference value
STEP               .M        0.1999997                     : Step increment
NULL               .         -9999                         : Missing value
COMP               .                                       : Company
WELL               .         616                           : Well name
FLD                .                                       : Field
LOC                .                                       : Location
CNTY               .                                       : County
STAT               .                                       : State
CTRY               .                                       : Country
SRVC               .                                       : Service Company
DATE               .                                       : Date
API                .                                       : API number
PROJECT_UPGRADE_TIME .         2021-03-18T21_24_50           : 
group              .         Good                          : 
~Parameter Information Block
#_______________________________________________________________________________
#
#PARAMETER_NAME    .UNIT     VALUE                         : DESCRIPTION
#_______________________________________________________________________________
SET                .         D7017_D                       : 
OTHER              .         Kedr.exe версия 2.1.2.32      : 
OTHER_10           .         TM.GRD = 0.00404*TM$.UE + 0.07: 
OTHER_11           .         MN.ATM = (6.33279e-006*TM.GRD + 0.02401)*(MN$.UE + 2.72*TM.GRD + -2018): 
OTHER_12           .         GK.MKR/H = GK$.UE / 43.5489 + 0: 
OTHER_13           .         RES.SM = 0.00476*CRES.UE - 1.51709: 
OTHER_14           .         PL.GSM3 = 0 + 0 * (PL.UE / 1) +  0 * (PL.UE / 1)^2: 
OTHER_15           .         Постоянная времени ГГП = 6 сек: 
OTHER_16           .         Постоянная времени ГК = 6 сек : 
OTHER_2            .         KedrData.dll версия 3.2.2.14  : 
OTHER_3            .         LasInf.dll версия 3.2.0.13    : 
OTHER_4            .         Драйвер версия 1.2.0.5        : 
OTHER_5            .         Прибор_ КСА-M1                : 
OTHER_6            .         Номер прибора_ 155+р204       : 
OTHER_7            .         Режим_ КСА-М1 + ГГП + Резистивиметр: 
OTHER_8            .         Форма_ 223\2                  : 
OTHER_9            .         Тарировки_                    : 
PROJECT_UPGRADE_TIME .         2021-03-18T21_24_50           : 
TLFamily_CRES      .                                       : 
TLFamily_DEPT      .         Measured Depth                : 
TLFamily_GK        .         Gamma Ray                     : 
TLFamily_GK$       .                                       : 
TLFamily_LM        .         Casing Collar locator         : 
TLFamily_METKA     .                                       : 
TLFamily_MN        .                                       : 
TLFamily_MN$       .                                       : 
TLFamily_PL        .                                       : 
TLFamily_PL_2      .                                       : 
TLFamily_RCOR      .                                       : 
TLFamily_RES       .         Mud Resistivity               : 
TLFamily_SPID      .         Spontaneous Potential         : 
TLFamily_STD       .                                       : 
TLFamily_TIME      .         Time                          : 
TLFamily_TM        .         Temperature                   : 
TLFamily_TM$       .         Temperature                   : 
TLFamily_VGD       .         Gas Volume                    : 
group              .         prim                          : 
~Curve Information
#_______________________________________________________________________________
#
#LOGNAME           .UNIT     LOG_ID                        : DESCRIPTION
#_______________________________________________________________________________
DEPT               .M                                      : 1 Глубина, м -    0.0 см 
CRES               .UE                                     : 9 Проводимость, усл.ед. -  222.0 см 
GK                 .MKR/H                                  : 16 Гамма-активность, мкр./ч -  106.0 см 
GK$                .UE                                     : 13 Гамма-активность, усл.ед. -  106.0 см 
LM                 .                                       : 11 Локатор муфт,  -   16.0 см 
METKA              .                                       : 3 Метки,  -    0.0 см 
MN                 .ATM                                    : 15 Давление, атм. -  160.0 см 
MN$                .UE                                     : 7 Давление, усл.ед. -  160.0 см 
PL                 .UE                                     : 10 Плотность, усл.ед. -  270.0 см 
PL_2               .GSM3                                   : 18 Плотность, г./см3 -  270.0 см 
RCOR               .CM/KM                                  : 5 Коррекция по ролику, см/км -    0.0 см 
RES                .SM                                     : 17 Проводимость,  -  222.0 см 
SPID               .M/H                                    : 2 Скорость, м/час -    0.0 см 
STD                .                                       : 12 Приток,  -  170.0 см 
TIME               .S                                      : 4 Время, сек -    0.0 см 
TM                 .GRD                                    : 14 Температура, °C -  180.0 см 
TM$                .UE                                     : 6 Температура, усл.ед. -  180.0 см 
VGD                .                                       : 8 Влагомер,  -  170.0 см 
~Ascii
# ...
2737.8     1370       11.06      457        172        0          251.664    12218      14         0          0          5.0057     -300       10141      7903.71    51.462     12721      6678      
2738       1369       11         480        138        0          251.722    12219      13         0          0          4.9992     -260       10187      7900.93    51.697     12779      6679      
2738.2     1376       10.92      467        221        0          251.755    12220      14         0          0          5.0327     -260       10216      7898.15    51.909     12832      6679      
2738.4     1377       11.44      491        160        0          251.779    12220      13         0          0          5.0374     -260       10242      7895.39    52.024     12860      6678      
2738.6     1362       11.8       508        166        0          251.79     12220      13         0          0          4.9654     -260       10272      7892.47    52.202     12904      6680      
2738.8     1382       11.78      528        175        0          251.811    12220      14         0          0          5.0612     -260       10287      7889.7     52.291     12926      6679      
2739       1371       10.9       515        179        0          251.822    12220      14         0          0          5.0072     -260       10309      7886.92    52.449     12965      6680      
2739.2     1380       10.26      448        152        0          251.859    12221      14         0          0          5.0518     -260       10326      7884.16    52.529     12985      6677      
2739.4     1386       10.75      437        195        0          251.87     12221      14         0          0          5.0819     -260       10346      7881.37    52.629     13010      6678      
2739.6     1386       11.01      483        179        0          251.901    12221      13         0          0          5.0806     -260       10375      7878.6     52.707     13029      6677      
2739.8     1380       10.59      477        206        1          251.943    12223      13         0          0          5.0512     -260       10404      7875.82    52.882     13072      6677      
2740       1398       9.67       422        226        0          251.959    12222      14         0          0          5.1374     -280       10424      7871.21    52.959     13091      6678      
2740.2     1395       9.76       410        205        0          251.983    12223      13         0          0          5.1231     -320       10459      7868.43    53.138     13136      6677      
2740.4     1402       10.15      447        187        0          252.025    12223      13         0          0          5.1564     -260       10498      7865.73    53.2       13151      6676      
2740.6     1401       9.99       436        162        0          252.041    12223      13         0          0          5.1517     -190       10538      7862.94    53.515     13229      6675      
2740.8     1409       10.32      423        202        0          252.091    12224      13         0          0          5.1882     -236       10573      7860.23    53.636     13259      6673      
2741       1406       10.78      460        195        0          252.128    12225      14         0          0          5.1771     -260       10608      7857.33    53.834     13308      6672      
2741.2     1389       10.33      457        164        0          252.161    12225      14         0          0          5.0944     -260       10638      7854.55    53.931     13332      6670      
2741.4     1412       10.05      449        189        0          252.178    12225      13         0          0          5.2056     -320       10666      7851.65    54.182     13394      6671      
2741.6     1414       9.84       435        225        0          252.236    12226      13         0          0          5.2153     -260       10691      7848.86    54.311     13426      6671      
2741.8     1419       10.07      428        243        0          252.281    12227      14         0          0          5.237      -260       10740      7846.1     54.56      13488      6669      
2742       1422       9.91       435        239        0          252.288    12226      13         0          0          5.2532     -260       10771      7843.32    54.723     13528      6667      
2742.2     1417       9.73       409        199        0          252.348    12228      14         0          0          5.2277     -260       10799      7840.42    54.865     13563      6669      
2742.4     1432       10.43      453        191        0          252.365    12228      14         0          0          5.2992     -190       10827      7837.58    55.04      13607      6669      
2742.6     1406       10.51      454        239        0          252.404    12229      14         0          0          5.1741     -260       10851      7834.8     55.17      13639      6667      
2742.8     1437       10.53      464        182        0          252.444    12230      13         0          0          5.323      -260       10876      7831.97    55.282     13666      6667      
2743       1439       10.07      466        258        0          252.46     12230      13         0          0          5.3341     -260       10899      7829.19    55.405     13697      6666      
2743.2     1413       9.5        430        241        0          252.513    12231      14         0          0          5.2089     -260       10933      7826.27    55.523     13726      6664      
2743.4     1445       9.17       410        205        0          252.578    12232      13         0          0          5.3611     -320       10974      7823.51    55.741     13780      6663      
2743.6     1445       8.85       383        211        0          252.625    12233      14         0          0          5.3612     -260       11020      7820.72    56.048     13856      6661      
2743.8     1449       8.94       394        183        0          252.641    12233      14         0          0          5.3784     -260       11051      7817.96    56.218     13898      6661      
2744       1455       8.65       386        181        0          252.677    12234      14         0          0          5.4103     -260       11073      7815.18    56.34      13928      6660      
2744.2     1438       8.51       353        228        0          252.715    12234      14         0          0          5.3276     -280       11105      7812.28    56.426     13950      6660      
2744.4     1458       9.11       381        198        0          252.736    12235      14         0          0          5.4246     -300       11135      7809.5     56.624     13999      6657      
2744.6     1464       9.76       402        238        0          252.788    12236      14         0          0          5.4501     -236       11165      7806.73    56.759     14032      6658      
2744.8     1449       10.06      436        199        0          252.828    12237      14         0          0          5.3812     -260       11185      7803.93    56.901     14067      6658      
2745       1470       9.23       413        221        0          252.876    12238      14         0          0          5.4801     -260       11217      7801.14    57.022     14097      6655      
2745.2     1457       8.4        378        241        0          252.919    12239      14         0          0          5.4182     -260       11241      7798.35    57.196     14140      6654      
2745.4     1474       7.62       348        240        0          252.936    12239      14         0          0          5.5007     -260       11268      7795.42    57.337     14175      6652      
2745.6     1474       6.93       303        219        0          252.998    12241      14         0          0          5.5008     -260       11295      7792.7     57.47      14208      6651      
2745.8     1455       7.09       285        231        0          253.014    12241      13         0          0          5.4064     -300       11320      7789.97    57.571     14233      6651      
