~Version
 VERS              .         2.0                           : CWLS LOG ASCII STANDARD - VERSION 2.0
 WRAP              .         NO                            : ONE LINE PER DEPTH STEP
 DLM               .         SPACE                         : DELIMITING CHARACTER(SPACE TAB OR COMMA)
~Well Information
#_______________________________________________________________________________
#
#PARAMETER_NAME    .UNIT     VALUE                         : DESCRIPTION
#_______________________________________________________________________________
STRT               .M        3.4                           : First reference value
STOP               .M        832.4                         : Last reference value
STEP               .M        0.2                           : Step increment
NULL               .         -9999                         : Missing value
COMP               .                                       : Company
WELL               .         616                           : Well name
FLD                .                                       : Field
LOC                .                                       : Location
CNTY               .                                       : County
STAT               .                                       : State
CTRY               .                                       : Country
SRVC               .                                       : Service Company
DATE               .                                       : Date
API                .                                       : API number
PROJECT_UPGRADE_TIME .         2021-03-18T21_24_50           : 
group              .         Good                          : 
~Parameter Information Block
#_______________________________________________________________________________
#
#PARAMETER_NAME    .UNIT     VALUE                         : DESCRIPTION
#_______________________________________________________________________________
SET                .         ULN                           : 
PROJECT_UPGRADE_TIME .         2021-03-18T21_24_50           : 
TLFamily_AK4       .                                       : 
TLFamily_ALFAK     .                                       : 
TLFamily_AMPL      .                                       : 
TLFamily_DEPTH     .         Measured Depth                : 
TLFamily_DK1       .                                       : 
TLFamily_DK2       .                                       : 
TLFamily_DTK       .         Compressional Slowness        : 
TLFamily_QCBL      .                                       : 
TLFamily_T1        .         Travel Time 1                 : 
TLFamily_T2        .         Travel Time 2                 : 
group              .         prim                          : 
~Curve Information
#_______________________________________________________________________________
#
#LOGNAME           .UNIT     LOG_ID                        : DESCRIPTION
#_______________________________________________________________________________
DEPTH              .M                                      : 0 Depth curve 
AK4                .                                       : 2 Амплитуда - Волна по колонне - Канал1 
ALFAK              .дБ/м                                   : 1 Затухание - Волна по колонне 
AMPL               .                                       : 8 Коэффициент усиления ВС 
DK1                .дБ                                     : 3 Кривая ослабления - Волна по колонне - Канал1 
DK2                .дБ                                     : 4 Кривая ослабления - Волна по колонне - Канал2 
DTK                .мкс/м                                  : 5 ДельтаТ - Волна по породе 
QCBL               .                                       : 9 Контакт цемент-колонна 
T1                 .мкс                                    : 6 Время пробега - Волна по породе - Канал1 
T2                 .мкс                                    : 7 Время пробега - Волна по породе - Канал2 
~Ascii
# ...
762.6      5101.044   10.233     1          16.335     21.452     196        2          349        447.001   
762.8      4711.704   9.405      1          17.029     21.732     196        2          349        447.001   
763        4085.243   7.323      1          18.236     21.897     196        2          349        447.001   
763.2      3860.839   7.48       1          18.727     22.467     196        2          349        447.001   
763.4      3636.436   7.429      1          19.219     22.934     196        2          349        447.001   
763.6      3636.436   8.014      1          19.219     23.226     196        2          349        447.001   
763.8      3842.139   8.24       1          18.765     22.885     196        2          349        447.001   
764        3866.823   8.275      1          18.707     22.844     196        2          349        447.001   
764.2      3891.508   7.838      1          18.649     22.568     196        2          349        447.001   
764.4      4045.598   8.363      1          18.35      22.531     196        2          349        447.001   
764.6      4600.624   9.462      1          17.277     22.008     196        2          349        447.001   
764.8      5155.648   11.342     1          16.203     21.874     196        2          349        447.001   
765        5375.564   11.754     1          15.824     21.701     196        2          349        447.001   
765.2      5375.564   11.537     1          15.824     21.593     196        2          349        447.001   
765.4      5375.564   11.193     1          15.824     21.421     196        2          349        447.001   
765.6      6101.102   9.672      1          14.966     20.805     196        2          349        447.001   
765.8      7552.177   10.918     1          13.248     19.71      189.203    2          352.591    447.193   
766        9003.253   11.227     1          11.53      18.147     183.721    2          356.182    448.043   
766.2      13256.75   15.484     1          8.54       16.282     178.393    2          360.676    449.873   
766.4      16784.71   15.505     1          6.409      14.161     180.593    2          361.579    451.876   
766.6      20312.67   14.803     1          4.277      11.679     184.182    2          362.482    454.574   
766.8      19674.68   10.927     1          4.564      10.028     184.237    2          364.183    456.302   
767        19036.69   9.423      1          4.851      9.562      182.461    2          365.884    457.115   
767.2      18398.7    6.589      1          5.137      10.498     178.013    2          367.584    456.591   
767.4      13559.48   1.041      1          9.643      12.23      181.701    2          361.389    456.08    
767.6      8720.26    -2.322     1          14.148     15.054     191.248    2          355.195    454.659   
767.8      4094.222   0.572      1          18.212     18.498     197.59     2          349        451.635   
768        4307.406   6.958      1          17.771     21.25      199.174    2          349        448.588   
768.2      4480.57    10.865     1          17.407     22.839     196        2          349        447.001   
768.4      4440.552   12.11      1          17.485     23.54      196        2          349        447.001   
768.6      4656.727   14.617     1          17.097     24.405     196        2          349        447.001   
768.8      4912.921   17.218     1          16.631     25.239     196        2          349        447.001   
769        5169.115   19.519     1          16.164     25.924     196        2          349        447.001   
769.2      4590.154   18.682     1          17.35      26.691     196        2          349        447.001   
769.4      4011.193   15.396     1          18.536     26.233     196        2          349        447.001   
769.6      3509.276   16.107     1          19.533     27.675     196.931    2          349        447.466   
769.8      3591.08    18.039     1          19.333     28.491     194.106    2          358.079    449.193   
770        3672.885   21.613     1          19.133     30.078     181.922    2          367.159    452.18    
770.2      3677.643   20.397     1          19.121     29.37      169.07     2          376.238    454.834   
770.4      3424.42    18.587     1          19.791     29.085     160.162    2          377.199    456.185   
770.6      3354.21    21.024     1          19.962     30.474     168.73     2          373.14     456.142   
770.8      3298.586   20.675     1          20.096     30.651     185.15     2          364.061    459.054   
771        3346.21    21.08      1          19.958     30.625     199.45     2          354.02     459.15    
771.2      3210.819   17.401     1          20.319     29.146     203.7      2          349        456.522   
771.4      3038.403   17.024     1          20.78      29.202     199.2      2          349        450.491   
771.6      3015.962   16.57      1          20.845     29.13      196.633    2          349        447.318   
771.8      2610.914   13.168     1          22.309     28.893     196        2          349        447.001   
772        2228.305   11.563     1          23.709     29.491     196        2          349        447.001   
772.2      1845.697   10.768     1          25.109     30.494     196        2          349        447.001   
772.4      1758.928   13.057     1          25.55      32.078     196        2          349        447.001   
772.6      1672.158   14.025     1          25.99      33.002     196        2          349        447.001   
772.8      1364.351   12.13      1          27.998     34.063     196        2          349        447.001   
773        1143.313   13.087     1          29.567     36.111     196        2          349        447.001   
773.2      922.276    15.26      1          31.135     38.766     196        2          349        447.001   
773.4      1079.732   19.364     1          29.938     39.62      196        2          349        447.001   
773.6      1237.189   18.736     1          28.741     38.109     196        2          349        447.001   
773.8      1482.163   16.879     1          27.044     35.484     196        2          349        447.001   
774        1569.68    16.341     1          26.545     34.715     196        2          349        447.001   
774.2      1994.925   17.396     1          25.86      34.558     196        2          349        447.001   
774.4      2070.475   17.819     1          25.489     34.398     196        2          349        447.001   
774.6      2139.666   16.873     1          25.147     33.583     196        2          349        447.001   
774.8      2227.183   18.632     1          23.68      32.996     196        2          349        447.001   
775        2576.879   19.423     1          22.398     32.109     196        2          349        447.001   
775.2      2966.219   21.858     1          20.99      31.919     196        2          349        447.001   
775.4      2974.822   21.954     1          20.964     31.941     196        2          349        447.001   
775.6      2983.424   21.314     1          20.939     31.596     196        2          349        447.001   
775.8      2958.74    21.185     1          21.011     31.603     196        2          349        447.001   
776        2752.662   22.662     1          21.689     33.02      196        2          349        447.001   
776.2      2467.669   23.427     1          22.677     34.39      196        2          349        447.001   
776.4      2052.522   20.754     1          24.258     34.636     196        2          349        447.001   
776.6      1843.453   18.948     1          25.162     34.636     196        2          349        447.001   
776.8      1714.795   19.697     1          25.748     35.597     196        2          349        447.001   
777        1716.291   19.995     1          25.741     35.738     196        2          349        447.001   
