~Version
 VERS              .         2.0                           : CWLS LOG ASCII STANDARD - VERSION 2.0
 WRAP              .         NO                            : ONE LINE PER DEPTH STEP
 DLM               .         SPACE                         : DELIMITING CHARACTER(SPACE TAB OR COMMA)
~Well Information
#_______________________________________________________________________________
#
#PARAMETER_NAME    .UNIT     VALUE                         : DESCRIPTION
#_______________________________________________________________________________
STRT               .M        2648.2                        : First reference value
STOP               .M        2755.2                        : Last reference value
STEP               .M        0.2                           : Step increment
NULL               .         -9999                         : Missing value
COMP               .                                       : Company
WELL               .         616                           : Well name
FLD                .                                       : Field
LOC                .                                       : Location
CNTY               .                                       : County
STAT               .                                       : State
CTRY               .                                       : Country
SRVC               .                                       : Service Company
DATE               .                                       : Date
API                .                                       : API number
PROJECT_UPGRADE_TIME .         2021-03-18T21_24_50           : 
group              .         Good                          : 
~Parameter Information Block
#_______________________________________________________________________________
#
#PARAMETER_NAME    .UNIT     VALUE                         : DESCRIPTION
#_______________________________________________________________________________
SET                .         D7022_D                       : 
OTHER              .         Kedr.exe версия 2.1.2.32      : 
OTHER_10           .         TM.GRD = 0.00404*TM$.UE + 0.07: 
OTHER_11           .         MN.ATM = (6.33279e-006*TM.GRD + 0.02401)*(MN$.UE + 2.72*TM.GRD + -2018): 
OTHER_12           .         GK.MKR/H = GK$.UE / 43.5489 + 0: 
OTHER_13           .         RES.SM = 0.00476*CRES.UE - 1.51709: 
OTHER_14           .         PL.GSM3 = 0 + 0 * (PL.UE / 1) +  0 * (PL.UE / 1)^2: 
OTHER_15           .         Постоянная времени ГГП = 6 сек: 
OTHER_16           .         Постоянная времени ГК = 6 сек : 
OTHER_2            .         KedrData.dll версия 3.2.2.14  : 
OTHER_3            .         LasInf.dll версия 3.2.0.13    : 
OTHER_4            .         Драйвер версия 1.2.0.5        : 
OTHER_5            .         Прибор_ КСА-M1                : 
OTHER_6            .         Номер прибора_ 155+р204       : 
OTHER_7            .         Режим_ КСА-М1 + ГГП + Резистивиметр: 
OTHER_8            .         Форма_ 223\2                  : 
OTHER_9            .         Тарировки_                    : 
PROJECT_UPGRADE_TIME .         2021-03-18T21_24_50           : 
TLFamily_CRES      .                                       : 
TLFamily_DEPT      .         Measured Depth                : 
TLFamily_GK        .         Gamma Ray                     : 
TLFamily_GK$       .                                       : 
TLFamily_LM        .         Casing Collar locator         : 
TLFamily_METKA     .                                       : 
TLFamily_MN        .                                       : 
TLFamily_MN$       .                                       : 
TLFamily_PL        .                                       : 
TLFamily_PL_2      .                                       : 
TLFamily_RCOR      .                                       : 
TLFamily_RES       .         Mud Resistivity               : 
TLFamily_SPID      .         Spontaneous Potential         : 
TLFamily_STD       .                                       : 
TLFamily_TIME      .         Time                          : 
TLFamily_TM        .         Temperature                   : 
TLFamily_TM$       .         Temperature                   : 
TLFamily_VGD       .         Gas Volume                    : 
group              .         prim                          : 
~Curve Information
#_______________________________________________________________________________
#
#LOGNAME           .UNIT     LOG_ID                        : DESCRIPTION
#_______________________________________________________________________________
DEPT               .M                                      : 1 Глубина, м -    0.0 см 
CRES               .UE                                     : 9 Проводимость, усл.ед. -  222.0 см 
GK                 .MKR/H                                  : 16 Гамма-активность, мкр./ч -  106.0 см 
GK$                .UE                                     : 13 Гамма-активность, усл.ед. -  106.0 см 
LM                 .                                       : 11 Локатор муфт,  -   16.0 см 
METKA              .                                       : 3 Метки,  -    0.0 см 
MN                 .ATM                                    : 15 Давление, атм. -  160.0 см 
MN$                .UE                                     : 7 Давление, усл.ед. -  160.0 см 
PL                 .UE                                     : 10 Плотность, усл.ед. -  270.0 см 
PL_2               .GSM3                                   : 18 Плотность, г./см3 -  270.0 см 
RCOR               .CM/KM                                  : 5 Коррекция по ролику, см/км -    0.0 см 
RES                .SM                                     : 17 Проводимость,  -  222.0 см 
SPID               .M/H                                    : 2 Скорость, м/час -    0.0 см 
STD                .                                       : 12 Приток,  -  170.0 см 
TIME               .S                                      : 4 Время, сек -    0.0 см 
TM                 .GRD                                    : 14 Температура, °C -  180.0 см 
TM$                .UE                                     : 6 Температура, усл.ед. -  180.0 см 
VGD                .                                       : 8 Влагомер,  -  170.0 см 
~Ascii
2648.2     -9999      -9999      -9999      -9999      -9999      -9999      -9999      -9999      -9999      -9999      -9999      -9999      -9999      -9999      -9999      -9999      -9999     
2648.4     -9999      -9999      -9999      -9999      0          -9999      -9999      -9999      -9999      0          -9999      130        -9999      13843.73   -9999      -9999      -9999     
2648.6     -9999      -9999      -9999      118        0          -9999      -9999      -9999      -9999      0          -9999      368        -9999      13846.25   -9999      -9999      -9999     
2648.8     -9999      -9999      -9999      151        0          -9999      -9999      -9999      -9999      0          -9999      510        -9999      13847.73   -9999      -9999      -9999     
2649       -9999      -9999      -9999      163        0          -9999      -9999      -9999      -9999      0          -9999      640        -9999      13848.85   -9999      -9999      -9999     
2649.2     -9999      -9999      -9999      204        0          -9999      -9999      -9999      -9999      0          -9999      550        -9999      13850.14   -9999      -9999      -9999     
2649.4     -9999      9.3        385        120        0          -9999      -9999      -9999      -9999      0          -9999      580        -9999      13851.35   -9999      -9999      -9999     
2649.6     -9999      8.69       371        126        0          -9999      -9999      -9999      -9999      0          -9999      531        -9999      13852.65   -9999      -9999      -9999     
2649.8     -9999      8.69       379        102        0          -9999      -9999      -9999      -9999      0          -9999      580        -9999      13853.9    -9999      -9999      -9999     
2650       -9999      8.69       379        125        0          310.873    14644      -9999      -9999      0          -9999      580        -9999      13855.17   -9999      -9999      -9999     
2650.2     -9999      8.65       374        117        1          310.946    14647      -9999      -9999      0          -9999      510        10370      13857.16   52.869     13069      6675      
2650.4     -9999      8.62       374        102        0          310.198    14616      -9999      -9999      0          -9999      557        10371      13858.43   52.874     13070      6666      
2650.6     1211       8.91       404        92         0          311.217    14658      -9999      -9999      0          4.2449     580        10369      13859.72   52.875     13071      6666      
2650.8     1209       9.09       404        133        0          310.744    14638      -9999      -9999      0          4.2397     568        10366      13861.03   52.871     13070      6669      
2651       1209       9.28       413        94         0          311.737    14679      -9999      -9999      0          4.237      510        10361      13862.29   52.865     13068      6673      
2651.2     1209       9.42       415        109        0          311.229    14658      14         0          0          4.2377     557        10359      13863.62   52.862     13067      6669      
2651.4     1209       9.48       415        143        0          311.199    14657      14         0          0          4.2364     580        10357      13864.91   52.86      13067      6667      
2651.6     1208       9.79       458        125        0          311.893    14686      14         0          0          4.235      570        10356      13866.22   52.853     13065      6671      
2651.8     1209       10.14      458        91         0          313.688    14760      13         0          0          4.2354     580        10356      13867.54   52.849     13064      6660      
2652       1210       10.44      471        93         0          313.702    14760      13         0          0          4.2425     545        10354      13868.86   52.84      13062      6664      
2652.2     1207       10.62      471        125        0          313.469    14751      14         0          0          4.2289     533        10351      13870.13   52.828     13059      6656      
2652.4     1208       10.74      473        174        0          313.488    14752      14         0          0          4.232      580        10349      13871.4    52.82      13057      6659      
2652.6     1209       10.8       473        126        0          313.138    14737      14         0          0          4.2377     589        10348      13872.73   52.816     13056      6655      
2652.8     1206       10.71      462        104        0          313.954    14771      13         0          0          4.2228     506        10346      13874.02   52.808     13054      6652      
2653       1209       10.66      462        101        0          314.268    14784      14         0          0          4.2378     580        10340      13875.32   52.796     13051      6664      
2653.2     1209       10.47      445        115        0          314.738    14803      13         0          0          4.2378     510        10343      13876.65   52.788     13049      6655      
2653.4     1208       10.35      445        125        0          314.275    14784      14         0          0          4.233      522        10343      13877.92   52.78      13047      6651      
2653.6     1209       10.45      460        140        0          315.361    14829      13         0          0          4.2398     580        10341      13879.17   52.775     13046      6652      
2653.8     1209       10.49      457        150        0          316.115    14860      13         0          0          4.2398     510        10340      13880.51   52.77      13044      6651      
2654       1208       10.44      452        97         0          317.45     14915      14         0          0          4.2306     580        10342      13881.84   52.764     13043      6653      
2654.2     1208       10.37      443        78         0          316.758    14886      14         0          0          4.2322     510        10343      13883.11   52.756     13041      6646      
2654.4     1204       10.25      441        152        0          317.752    14927      14         0          0          4.214      580        10342      13884.36   52.748     13039      6650      
2654.6     1208       10.19      441        116        0          316.945    14894      14         0          0          4.2306     557        10340      13885.69   52.748     13039      6650      
2654.8     1207       10.17      442        111        0          316.942    14894      14         0          0          4.2282     520        10338      13886.97   52.744     13038      6661      
2655       1208       10.13      435        174        0          316.292    14867      14         0          0          4.2337     580        10337      13888.3    52.735     13036      6665      
2655.2     1208       10.05      434        152        0          316.313    14868      14         0          0          4.233      557        10337      13889.55   52.724     13033      6665      
2655.4     1206       10.03      437        101        0          316.007    14856      13         0          0          4.2216     580        10334      13890.88   52.718     13032      6662      
2655.6     1208       10.03      437        104        0          315.119    14819      14         0          0          4.2346     569        10330      13892.15   52.704     13028      6669      
2655.8     1207       9.88       418        129        0          316.716    14885      14         0          0          4.2282     580        10327      13893.42   52.699     13027      6666      
2656       1207       9.75       418        159        0          316.989    14896      14         0          0          4.2298     530        10325      13894.71   52.686     13024      6661      
2656.2     1205       9.4        368        161        0          319.388    14995      15         0          0          4.2178     580        10323      13896      52.675     13021      6666      
