~Version
 VERS              .         2.0                           : CWLS LOG ASCII STANDARD - VERSION 2.0
 WRAP              .         NO                            : ONE LINE PER DEPTH STEP
 DLM               .         SPACE                         : DELIMITING CHARACTER(SPACE TAB OR COMMA)
~Well Information
#_______________________________________________________________________________
#
#PARAMETER_NAME    .UNIT     VALUE                         : DESCRIPTION
#_______________________________________________________________________________
STRT               .M        2664                          : First reference value
STOP               .M        2769.2                        : Last reference value
STEP               .M        0.1999999                     : Step increment
NULL               .         -9999                         : Missing value
COMP               .                                       : Company
WELL               .         616                           : Well name
FLD                .                                       : Field
LOC                .                                       : Location
CNTY               .                                       : County
STAT               .                                       : State
CTRY               .                                       : Country
SRVC               .                                       : Service Company
DATE               .                                       : Date
API                .                                       : API number
PROJECT_UPGRADE_TIME .         2021-03-18T21_24_50           : 
group              .         Good                          : 
~Parameter Information Block
#_______________________________________________________________________________
#
#PARAMETER_NAME    .UNIT     VALUE                         : DESCRIPTION
#_______________________________________________________________________________
SET                .         D1161_D                       : 
OTHER              .         Программное обеспечение станции MONITOR-386EX 25/12/99 15_08_10   BGF V52 22/08/01 16_56_30   3.2_BGF_N_3070031: 
OTHER_10           .         Тарировки_                    : 
OTHER_11           .         TM.GRD = 0.00403*TM$.UE + -1.19: 
OTHER_12           .         MN.ATM = (7.1e-006*TM.GRD + 0.02017)*(MN$.UE + -3.03*TM.GRD + -1833): 
OTHER_13           .         Id error                      : 
OTHER_2            .         Kedr.exe версия 3.4.2.51      : 
OTHER_3            .         KedrData.dll версия 3.4.2.24  : 
OTHER_4            .         Драйвер версия 2.1.1.8        : 
OTHER_5            .         Мнемоники версия 3.3 S        : 
OTHER_6            .         Прибор_ КСА-М1                : 
OTHER_7            .         Номер прибора_ 265            : 
OTHER_8            .         Режим_ КСА-М1                 : 
OTHER_9            .         Форма_ ТЕРМОМЕТР              : 
PROJECT_UPGRADE_TIME .         2021-03-18T21_24_49           : 
TLFamily_DEPT      .         Measured Depth                : 
TLFamily_GK        .         Gamma Ray                     : 
TLFamily_GK$       .                                       : 
TLFamily_LM        .         Casing Collar locator         : 
TLFamily_METKA     .                                       : 
TLFamily_MN        .                                       : 
TLFamily_MN$       .                                       : 
TLFamily_RCOR      .                                       : 
TLFamily_SPID      .         Spontaneous Potential         : 
TLFamily_STD       .                                       : 
TLFamily_TENS      .         Cable Tension                 : 
TLFamily_TIME      .         Time                          : 
TLFamily_TM        .         Temperature                   : 
TLFamily_TM$       .         Temperature                   : 
TLFamily_VGD       .         Gas Volume                    : 
group              .         prim                          : 
~Curve Information
#_______________________________________________________________________________
#
#LOGNAME           .UNIT     LOG_ID                        : DESCRIPTION
#_______________________________________________________________________________
DEPT               .M                                      : 1 Глубина, м -    0.0 см 
GK                 .MKR/H                                  : 15 Гамма-активность, мкр./ч -  110.0 см 
GK$                .UE                                     : 12 Гамма-активность, усл.ед. -  110.0 см 
LM                 .                                       : 10 Локатор муфт,  -   20.0 см 
METKA              .                                       : 3 Метки,  -    0.0 см 
MN                 .ATM                                    : 14 Давление, атм. -  160.0 см 
MN$                .UE                                     : 8 Давление, усл.ед. -  160.0 см 
RCOR               .CM/KM                                  : 5 Коррекция по ролику, см/км -    0.0 см 
SPID               .M/H                                    : 2 Скорость, м/час -    0.0 см 
STD                .                                       : 11 Приток,  -  170.0 см 
TENS               .T                                      : 6 Натяжение кабеля, т -    0.0 см 
TIME               .S                                      : 4 Время, сек -    0.0 см 
TM                 .GRD                                    : 13 Температура, °C -  180.0 см 
TM$                .UE                                     : 7 Температура, усл.ед. -  180.0 см 
VGD                .                                       : 9 Влагомер,  -  170.0 см 
~Ascii
# ...
2722.8     6.04       256        1          0          252.987    14264      -1400      -300       32373      0          16655.3    89.336     22463      6482      
2723       6.2        258        1          0          253.015    14265      -1400      -294       32374      0          16652.91   89.34      22464      6481      
2723.2     6.24       268        1          0          253.028    14266      -1400      -292       32373      0          16650.53   89.348     22466      6482      
2723.4     5.97       268        1          0          253.049    14267      -1400      -300       32373      0          16648.22   89.344     22465      6481      
2723.6     5.57       250        1          0          253.07     14268      -1400      -303       32373      0          16645.66   89.344     22465      6481      
2723.8     5.13       232        1          0          253.091    14269      -1400      -302       32373      0          16643.39   89.348     22466      6481      
2724       4.59       204        1          0          253.133    14271      -1400      -300       32372      0          16641      89.352     22467      6481      
2724.2     4.63       180        1          0          253.133    14271      -1400      -300       32373      0          16638.51   89.352     22467      6480      
2724.4     5.23       215        143        0          253.154    14272      -1400      -300       32374      0          16636.13   89.352     22467      6480      
2724.6     5.31       240        1555       0          253.174    14273      -1400      -301       32372      0          16633.75   89.356     22468      6479      
2724.8     4.78       203        1          0          253.195    14274      -1400      -295       32373      0          16631.46   89.36      22469      6479      
2725       4.97       205        1          0          253.223    14275      -1400      -304       32372      0          16628.97   89.364     22470      6480      
2725.2     5.38       226        1          0          253.258    14277      -1400      -301       32373      0          16626.55   89.369     22471      6479      
2725.4     5.61       241        1          0          253.258    14277      -1400      -302       32373      0          16624.21   89.376     22473      6479      
2725.6     5.53       235        1          0          253.3      14279      -1400      -304       32373      0          16621.64   89.384     22475      6479      
2725.8     5.75       239        1          0          253.3      14279      -1400      -306       32374      0          16619.34   89.396     22478      6478      
2726       6.41       268        1          0          253.342    14281      -1400      -298       32374      0          16617.03   89.412     22482      6479      
2726.2     7.02       300        1          0          253.358    14282      -1400      -296       32375      0          16614.68   89.426     22485      6478      
2726.4     7.02       304        1          0          253.364    14282      -1400      -303       32373      0          16612.12   89.443     22490      6478      
2726.6     6.38       274        1          0          253.385    14283      -1400      -299       32372      0          16609.8    89.457     22493      6478      
2726.8     6.11       259        1          0          253.406    14284      -1400      -298       32373      0          16607.42   89.468     22496      6478      
2727       6.38       275        1          0          253.427    14285      -1400      -306       32373      0          16604.94   89.482     22499      6477      
2727.2     6          258        1          0          253.463    14287      -1400      -303       32373      0          16602.55   89.504     22505      6477      
2727.4     5.73       245        1          0          253.47     14287      -1400      -301       32373      0          16600.17   89.524     22510      6478      
2727.6     6.47       255        1          0          253.491    14288      -1400      -294       32373      0          16597.9    89.541     22514      6477      
2727.8     6.96       296        1          0          253.513    14289      -1400      -296       32373      0          16595.4    89.563     22519      6477      
2728       6.89       297        1          0          253.534    14290      -1400      -290       32372      0          16593.06   89.585     22525      6476      
2728.2     7.01       292        1          0          253.555    14291      -1400      -294       32373      0          16590.64   89.602     22529      6476      
2728.4     7.16       303        1          0          253.566    14291      -1400      -306       32372      0          16588.14   89.618     22533      6476      
2728.6     7.33       308        1          0          253.597    14293      -1400      -303       32372      0          16585.84   89.634     22537      6475      
2728.8     7.5        316        1          0          253.618    14294      -1400      -298       32373      0          16583.49   89.646     22540      6476      
2729       7.56       325        1          0          253.639    14295      -1400      -289       32373      0          16581.11   89.653     22542      6476      
2729.2     7.48       321        1          0          253.66     14296      -1400      -298       32373      0          16578.62   89.658     22543      6475      
2729.4     7.51       316        1          0          253.681    14297      -1400      -303       32373      0          16576.23   89.666     22545      6475      
2729.6     7.7        336        1          0          253.688    14297      -1400      -294       32372      0          16573.87   89.667     22545      6474      
2729.8     7.37       320        1          0          253.702    14298      -1400      -302       32372      0          16571.49   89.67      22546      6475      
2730       7.07       303        1          2          253.743    14300      -1400      -305       32373      0          16568.67   89.674     22547      6475      
2730.2     6.89       302        1          0          253.751    14300      -1400      -300       32373      0          16566.29   89.674     22547      6474      
2730.4     6.22       268        1          0          253.785    14302      -1400      -294       32372      0          16563.91   89.674     22547      6475      
2730.6     6.1        259        1          0          253.79     14302      -1400      -301       32372      0          16561.45   89.674     22547      6474      
2730.8     6.27       267        1          0          253.806    14303      -1400      -296       32373      0          16559.14   89.674     22547      6473      
2731       6.5        270        1          0          253.848    14305      -1400      -290       32373      0          16556.76   89.674     22547      6473      
2731.2     7.74       320        1          0          253.868    14306      -1400      -303       32373      0          16554.27   89.674     22547      6472      
2731.4     9.02       383        1          0          253.889    14307      -1400      -307       32373      0          16551.89   89.67      22546      6472      
2731.6     9.27       398        1          0          253.91     14308      -1400      -304       32373      0          16549.51   89.67      22546      6472      
2731.8     8.98       391        1          0          253.941    14310      -1400      -300       32372      0          16547.23   89.67      22546      6472      
2732       8          343        1          0          253.951    14310      -1400      -300       32373      0          16544.71   89.67      22546      6472      
2732.2     7.79       329        1          0          253.972    14311      -1400      -295       32373      0          16542.36   89.67      22546      6471      
2732.4     8.37       357        1          0          254.014    14313      -1400      -295       32373      0          16539.98   89.67      22546      6470      
