~Version
 VERS              .         2.0                           : CWLS LOG ASCII STANDARD - VERSION 2.0
 WRAP              .         NO                            : ONE LINE PER DEPTH STEP
 DLM               .         SPACE                         : DELIMITING CHARACTER(SPACE TAB OR COMMA)
~Well Information
#_______________________________________________________________________________
#
#PARAMETER_NAME    .UNIT     VALUE                         : DESCRIPTION
#_______________________________________________________________________________
STRT               .M        2659.4                        : First reference value
STOP               .M        2769.4                        : Last reference value
STEP               .M        0.2                           : Step increment
NULL               .         -9999                         : Missing value
COMP               .                                       : Company
WELL               .         616                           : Well name
FLD                .                                       : Field
LOC                .                                       : Location
CNTY               .                                       : County
STAT               .                                       : State
CTRY               .                                       : Country
SRVC               .                                       : Service Company
DATE               .                                       : Date
API                .                                       : API number
PROJECT_UPGRADE_TIME .         2021-03-18T21_24_50           : 
group              .         Good                          : 
~Parameter Information Block
#_______________________________________________________________________________
#
#PARAMETER_NAME    .UNIT     VALUE                         : DESCRIPTION
#_______________________________________________________________________________
SET                .         D1171_D                       : 
OTHER              .         Программное обеспечение станции MONITOR-386EX 25/12/99 15_08_10   BGF V52 22/08/01 16_56_30   3.2_BGF_N_3070031: 
OTHER_10           .         Тарировки_                    : 
OTHER_11           .         TM.GRD = 0.00403*TM$.UE + -1.19: 
OTHER_12           .         MN.ATM = (7.1e-006*TM.GRD + 0.02017)*(MN$.UE + -3.03*TM.GRD + -1833): 
OTHER_13           .         Id error                      : 
OTHER_2            .         Kedr.exe версия 3.4.2.51      : 
OTHER_3            .         KedrData.dll версия 3.4.2.24  : 
OTHER_4            .         Драйвер версия 2.1.1.8        : 
OTHER_5            .         Мнемоники версия 3.3 S        : 
OTHER_6            .         Прибор_ КСА-М1                : 
OTHER_7            .         Номер прибора_ 265            : 
OTHER_8            .         Режим_ КСА-М1                 : 
OTHER_9            .         Форма_ ТЕРМОМЕТР              : 
PROJECT_UPGRADE_TIME .         2021-03-18T21_24_49           : 
TLFamily_DEPT      .         Measured Depth                : 
TLFamily_GK        .         Gamma Ray                     : 
TLFamily_GK$       .                                       : 
TLFamily_LM        .         Casing Collar locator         : 
TLFamily_METKA     .                                       : 
TLFamily_MN        .                                       : 
TLFamily_MN$       .                                       : 
TLFamily_RCOR      .                                       : 
TLFamily_SPID      .         Spontaneous Potential         : 
TLFamily_STD       .                                       : 
TLFamily_TENS      .         Cable Tension                 : 
TLFamily_TIME      .         Time                          : 
TLFamily_TM        .         Temperature                   : 
TLFamily_TM$       .         Temperature                   : 
TLFamily_VGD       .         Gas Volume                    : 
group              .         prim                          : 
~Curve Information
#_______________________________________________________________________________
#
#LOGNAME           .UNIT     LOG_ID                        : DESCRIPTION
#_______________________________________________________________________________
DEPT               .M                                      : 1 Глубина, м -    0.0 см 
GK                 .MKR/H                                  : 15 Гамма-активность, мкр./ч -  110.0 см 
GK$                .UE                                     : 12 Гамма-активность, усл.ед. -  110.0 см 
LM                 .                                       : 10 Локатор муфт,  -   20.0 см 
METKA              .                                       : 3 Метки,  -    0.0 см 
MN                 .ATM                                    : 14 Давление, атм. -  160.0 см 
MN$                .UE                                     : 8 Давление, усл.ед. -  160.0 см 
RCOR               .CM/KM                                  : 5 Коррекция по ролику, см/км -    0.0 см 
SPID               .M/H                                    : 2 Скорость, м/час -    0.0 см 
STD                .                                       : 11 Приток,  -  170.0 см 
TENS               .T                                      : 6 Натяжение кабеля, т -    0.0 см 
TIME               .S                                      : 4 Время, сек -    0.0 см 
TM                 .GRD                                    : 13 Температура, °C -  180.0 см 
TM$                .UE                                     : 7 Температура, усл.ед. -  180.0 см 
VGD                .                                       : 9 Влагомер,  -  170.0 см 
~Ascii
# ...
2747.6     6.8        270        1          0          263.453    14766      -1400      605        32374      0          28126.27   89.895     22602      6556      
2747.8     6.47       270        1          0          263.469    14767      -1400      599        32374      0          28127.51   89.902     22603      6556      
2748       6.39       273        3126       0          263.487    14768      -1400      600        32374      0          28128.64   89.904     22604      6557      
2748.2     6.4        274        986        0          263.488    14768      -1400      609        32374      0          28129.87   89.912     22606      6557      
2748.4     6.51       287        82         0          263.517    14769      -1400      612        32375      0          28131.04   89.915     22607      6557      
2748.6     6.99       309        1          0          263.535    14770      -1400      606        32374      0          28132.27   89.92      22608      6557      
2748.8     7.16       309        1          0          263.571    14772      -1400      611        32374      0          28133.45   89.924     22609      6556      
2749       7.65       338        1          0          263.571    14772      -1400      613        32374      0          28134.57   89.928     22610      6556      
2749.2     7.82       338        1          0          263.592    14773      -1400      607        32374      0          28135.81   89.935     22612      6556      
2749.4     8.01       348        1          0          263.613    14774      -1400      604        32375      0          28136.98   89.936     22612      6556      
2749.6     8.1        348        1          0          263.631    14775      -1400      608        32375      0          28138.17   89.942     22613      6556      
2749.8     8.07       344        1          0          263.634    14775      -1400      605        32374      0          28139.4    89.948     22615      6557      
2750       8.05       344        1          2          263.655    14776      -1400      600        32375      0          28140.61   89.955     22617      6557      
2750.2     8.21       356        1          0          263.676    14777      -1400      597        32376      0          28141.81   89.958     22617      6557      
2750.4     8.29       356        1          0          263.676    14777      -1400      596        32376      0          28142.99   89.964     22619      6557      
2750.6     8.36       360        1          0          263.718    14779      -1400      596        32375      0          28144.24   89.969     22620      6556      
2750.8     8.4        360        1          0          263.727    14779      -1400      603        32374      0          28145.41   89.973     22621      6556      
2751       8.23       339        1          0          263.742    14780      -1400      603        32374      0          28146.56   89.978     22622      6557      
2751.2     8.03       339        1          0          263.76     14781      -1400      608        32374      0          28147.76   89.981     22623      6557      
2751.4     7.84       328        1          0          263.781    14782      -1400      589        32375      0          28149      89.988     22625      6557      
2751.6     7.72       328        1          0          263.812    14783      -1400      592        32374      0          28150.14   89.996     22627      6558      
2751.8     7.9        351        1          0          263.823    14784      -1400      596        32375      0          28151.34   89.997     22627      6557      
2752       8.11       351        1          0          263.844    14785      -1400      595        32375      0          28152.52   90.005     22629      6557      
2752.2     8.26       362        1          0          263.865    14786      -1400      597        32375      0          28153.71   90.009     22630      6556      
2752.4     8.54       370        1          0          263.898    14788      -1400      602        32374      0          28154.9    90.012     22631      6557      
2752.6     8.59       366        1          0          263.912    14788      -1400      599        32374      0          28156.11   90.017     22632      6557      
2752.8     8.19       342        1          0          263.948    14790      -1400      600        32374      0          28157.34   90.021     22633      6557      
2753       7.87       318        1          0          263.966    14791      -1400      599        32375      0          28158.46   90.025     22634      6557      
2753.2     7.44       309        1          0          263.98     14792      -1400      604        32375      0          28159.67   90.033     22636      6557      
2753.4     7.31       310        1          0          264.011    14793      -1400      601        32374      0          28160.88   90.037     22637      6557      
2753.6     7.41       319        1          0          264.032    14794      -1400      607        32374      0          28162.04   90.038     22637      6557      
2753.8     7.45       319        1          0          264.037    14794      -1400      606        32374      0          28163.24   90.041     22638      6557      
2754       8.02       358        1          0          264.053    14795      -1400      608        32374      0          28164.43   90.045     22639      6557      
2754.2     8.26       358        1          0          264.074    14796      -1400      592        32374      0          28165.64   90.049     22640      6557      
2754.4     8.25       351        1          0          264.097    14797      -1400      599        32374      0          28166.81   90.057     22642      6558      
2754.6     8.22       351        1          0          264.116    14798      -1400      598        32374      0          28168.01   90.058     22642      6557      
2754.8     8.15       345        1          0          264.137    14799      -1400      595        32375      0          28169.23   90.064     22644      6557      
2755       8.1        345        1          0          264.158    14800      -1400      598        32374      0          28170.38   90.069     22645      6557      
2755.2     8.27       360        1          0          264.179    14801      -1400      597        32374      0          28171.58   90.075     22646      6558      
2755.4     8.37       360        1          0          264.194    14802      -1400      604        32375      0          28172.75   90.077     22647      6557      
2755.6     8.03       323        1          0          264.21     14802      -1400      594        32375      0          28173.99   90.085     22649      6557      
2755.8     7.71       323        1          0          264.22     14803      -1400      598        32374      0          28175.17   90.091     22650      6557      
2756       7.59       322        1          0          264.242    14804      -1400      599        32374      0          28176.29   90.086     22649      6557      
2756.2     7.55       322        1          0          264.263    14805      -1400      599        32374      0          28177.58   90.102     22653      6558      
2756.4     7.56       325        1          0          264.283    14806      -1400      599        32374      0          28178.72   90.105     22654      6558      
2756.6     7.7        332        1          0          264.289    14806      -1400      601        32374      0          28179.92   90.108     22655      6558      
2756.8     7.56       309        1          0          264.325    14808      -1400      611        32374      0          28181.11   90.111     22655      6557      
2757       7.29       306        1          0          264.325    14808      -1400      607        32374      0          28182.29   90.114     22656      6558      
2757.2     7.12       296        1          0          264.358    14810      -1400      607        32374      0          28183.52   90.118     22657      6558      
