~Version
 VERS              .         2.0                           : CWLS LOG ASCII STANDARD - VERSION 2.0
 WRAP              .         NO                            : ONE LINE PER DEPTH STEP
 DLM               .         SPACE                         : DELIMITING CHARACTER(SPACE TAB OR COMMA)
~Well Information
#_______________________________________________________________________________
#
#PARAMETER_NAME    .UNIT     VALUE                         : DESCRIPTION
#_______________________________________________________________________________
STRT               .M        2659.2                        : First reference value
STOP               .M        2769.000055                   : Last reference value
STEP               .M        0.2000001                     : Step increment
NULL               .         -9999                         : Missing value
COMP               .                                       : Company
WELL               .         616                           : Well name
FLD                .                                       : Field
LOC                .                                       : Location
CNTY               .                                       : County
STAT               .                                       : State
CTRY               .                                       : Country
SRVC               .                                       : Service Company
DATE               .                                       : Date
API                .                                       : API number
PROJECT_UPGRADE_TIME .         2021-03-18T21_24_50           : 
group              .         Good                          : 
~Parameter Information Block
#_______________________________________________________________________________
#
#PARAMETER_NAME    .UNIT     VALUE                         : DESCRIPTION
#_______________________________________________________________________________
SET                .         D1165_D                       : 
OTHER              .         Программное обеспечение станции MONITOR-386EX 25/12/99 15_08_10   BGF V52 22/08/01 16_56_30   3.2_BGF_N_3070031: 
OTHER_10           .         Тарировки_                    : 
OTHER_11           .         TM.GRD = 0.00403*TM$.UE + -1.19: 
OTHER_12           .         MN.ATM = (7.1e-006*TM.GRD + 0.02017)*(MN$.UE + -3.03*TM.GRD + -1833): 
OTHER_13           .         Id error                      : 
OTHER_2            .         Kedr.exe версия 3.4.2.51      : 
OTHER_3            .         KedrData.dll версия 3.4.2.24  : 
OTHER_4            .         Драйвер версия 2.1.1.8        : 
OTHER_5            .         Мнемоники версия 3.3 S        : 
OTHER_6            .         Прибор_ КСА-М1                : 
OTHER_7            .         Номер прибора_ 265            : 
OTHER_8            .         Режим_ КСА-М1                 : 
OTHER_9            .         Форма_ ТЕРМОМЕТР              : 
PROJECT_UPGRADE_TIME .         2021-03-18T21_24_49           : 
TLFamily_DEPT      .         Measured Depth                : 
TLFamily_GK        .         Gamma Ray                     : 
TLFamily_GK$       .                                       : 
TLFamily_LM        .         Casing Collar locator         : 
TLFamily_METKA     .                                       : 
TLFamily_MN        .                                       : 
TLFamily_MN$       .                                       : 
TLFamily_RCOR      .                                       : 
TLFamily_SPID      .         Spontaneous Potential         : 
TLFamily_STD       .                                       : 
TLFamily_TENS      .         Cable Tension                 : 
TLFamily_TIME      .         Time                          : 
TLFamily_TM        .         Temperature                   : 
TLFamily_TM$       .         Temperature                   : 
TLFamily_VGD       .         Gas Volume                    : 
group              .         prim                          : 
~Curve Information
#_______________________________________________________________________________
#
#LOGNAME           .UNIT     LOG_ID                        : DESCRIPTION
#_______________________________________________________________________________
DEPT               .M                                      : 1 Глубина, м -    0.0 см 
GK                 .MKR/H                                  : 15 Гамма-активность, мкр./ч -  110.0 см 
GK$                .UE                                     : 12 Гамма-активность, усл.ед. -  110.0 см 
LM                 .                                       : 10 Локатор муфт,  -   20.0 см 
METKA              .                                       : 3 Метки,  -    0.0 см 
MN                 .ATM                                    : 14 Давление, атм. -  160.0 см 
MN$                .UE                                     : 8 Давление, усл.ед. -  160.0 см 
RCOR               .CM/KM                                  : 5 Коррекция по ролику, см/км -    0.0 см 
SPID               .M/H                                    : 2 Скорость, м/час -    0.0 см 
STD                .                                       : 11 Приток,  -  170.0 см 
TENS               .T                                      : 6 Натяжение кабеля, т -    0.0 см 
TIME               .S                                      : 4 Время, сек -    0.0 см 
TM                 .GRD                                    : 13 Температура, °C -  180.0 см 
TM$                .UE                                     : 7 Температура, усл.ед. -  180.0 см 
VGD                .                                       : 9 Влагомер,  -  170.0 см 
~Ascii
# ...
2737.600039 7.65       329        1          0          359.543    19384      -1400      636        32373      0          21443.4    90.017     22632      6547      
2737.800039 7.98       350        1          0          357.548    19288      -1400      637        32374      0          21444.5    90.019     22633      6546      
2738.000039 8.12       350        1          0          357.849    19302      -1400      638        32374      0          21445.62   90.021     22633      6547      
2738.20004 8.24       355        1          0          359.297    19372      -1400      638        32374      0          21446.77   90.025     22634      6547      
2738.40004 8.28       355        1          0          357.194    19271      -1400      632        32374      0          21447.93   90.029     22635      6549      
2738.60004 8.44       368        1          0          357.36     19279      -1400      633        32374      0          21449.03   90.033     22636      6547      
2738.80004 8.55       368        1          0          357.428    19282      -1400      637        32374      0          21450.17   90.037     22637      6548      
2739.00004 8.53       361        1          0          359.538    19384      -1400      632        32374      0          21451.3    90.04      22638      6549      
2739.20004 8.43       358        1          0          357.706    19296      -1400      645        32374      0          21452.39   90.042     22638      6547      
2739.40004 8.37       355        1          0          358.187    19319      -1400      644        32373      0          21453.54   90.045     22639      6548      
2739.60004 8.31       354        1          0          359.867    19399      -1400      641        32373      0          21454.63   90.048     22640      6548      
2739.80004 8.29       354        1          0          357.187    19271      -1400      637        32373      0          21455.8    90.053     22641      6549      
2740.00004 8.69       381        1          2          358.341    19326      -1400      641        32373      0          21456.91   90.057     22642      6546      
2740.20004 8.83       381        1          0          358.567    19337      -1400      649        32373      0          21458.02   90.058     22642      6547      
2740.400041 9          392        1          0          357.458    19284      -1400      641        32373      0          21459.23   90.064     22644      6548      
2740.600041 9.11       392        1          0          357.233    19273      -1400      648        32373      0          21460.33   90.072     22646      6547      
2740.800041 9.07       385        1          0          357.861    19303      -1400      650        32373      0          21461.43   90.073     22646      6547      
2741.000041 9.03       385        1          0          359.977    19405      -1400      648        32373      0          21462.55   90.074     22646      6548      
2741.200041 9.03       387        1          0          357.802    19300      -1400      640        32373      0          21463.69   90.085     22649      6547      
2741.400041 9.04       387        1          0          358.839    19350      -1400      640        32373      0          21464.79   90.087     22649      6548      
2741.600041 9.05       387        1          0          359.995    19405      -1400      646        32374      0          21465.89   90.09      22650      6548      
2741.800041 9.05       387        1          0          357.304    19276      -1400      641        32373      0          21467.06   90.092     22651      6549      
2742.000041 9.05       387        1          0          358.318    19325      -1400      644        32373      0          21468.16   90.098     22652      6548      
2742.200041 8.64       360        1          0          358.47     19332      -1400      643        32372      0          21469.26   90.099     22652      6549      
2742.400042 8.5        360        1          0          359.008    19358      -1400      643        32374      0          21470.42   90.102     22653      6549      
2742.600042 8.55       369        1          0          357.979    19308      -1400      636        32373      0          21471.52   90.106     22654      6548      
2742.800042 8.6        369        1          0          358.684    19342      -1400      637        32373      0          21472.62   90.11      22655      6551      
2743.000042 8.71       380        1          0          360.242    19417      -1400      643        32374      0          21473.72   90.113     22656      6549      
2743.200042 8.89       384        1          0          357.731    19297      -1400      635        32373      0          21474.88   90.115     22656      6550      
2743.400042 8.85       372        1          0          359.062    19361      -1400      633        32373      0          21476.03   90.118     22657      6549      
2743.600042 8.69       368        1          0          359.133    19364      -1400      645        32374      0          21477.09   90.12      22658      6550      
2743.800042 8.64       368        1          0          357.343    19278      -1400      644        32373      0          21478.25   90.126     22659      6551      
2744.000042 8.78       379        1          0          357.956    19307      -1400      632        32373      0          21479.35   90.128     22660      6551      
2744.200042 8.84       379        1          0          357.278    19275      -1400      634        32373      0          21480.51   90.134     22661      6551      
2744.400043 9.23       414        1          0          360.253    19418      -1400      638        32373      0          21481.58   90.134     22661      6550      
2744.600043 9.53       414        1          0          358.214    19320      -1400      635        32373      0          21482.77   90.138     22662      6551      
2744.800043 9.54       406        1          0          359.104    19362      -1400      640        32373      0          21483.84   90.142     22663      6551      
2745.000043 9.51       406        1          0          360.724    19440      -1400      642        32373      0          21484.91   90.142     22663      6553      
2745.200043 9.27       377        1          0          358.051    19312      -1400      642        32373      0          21486.09   90.145     22664      6552      
2745.400043 8.72       360        1          0          358.457    19331      -1400      636        32374      0          21487.23   90.15      22665      6552      
2745.600043 8.52       360        1          0          359.211    19368      -1400      637        32373      0          21488.34   90.153     22666      6552      
2745.800043 8          329        1          0          359.116    19363      -1400      645        32373      0          21489.43   90.154     22666      6553      
2746.000043 7.8        329        1          0          358.018    19310      -1400      642        32373      0          21490.6    90.162     22668      6551      
2746.200043 7.63       322        1          0          359.175    19366      -1400      641        32373      0          21491.7    90.164     22668      6552      
2746.400044 7.57       322        1          0          360.532    19431      -1400      646        32373      0          21492.8    90.166     22669      6553      
2746.600044 7.78       344        1          0          358.534    19335      -1400      645        32373      0          21493.93   90.17      22670      6552      
2746.800044 7.95       344        1          0          359.229    19368      -1400      644        32373      0          21495.06   90.174     22671      6552      
2747.000044 7.97       339        1          0          360.062    19408      -1400      640        32373      0          21496.16   90.178     22672      6553      
2747.200044 7.87       334        1          0          357.634    19292      -1400      644        32373      0          21497.26   90.176     22672      6553      
