~Version
 VERS              .         2.0                           : CWLS LOG ASCII STANDARD - VERSION 2.0
 WRAP              .         NO                            : ONE LINE PER DEPTH STEP
 DLM               .         SPACE                         : DELIMITING CHARACTER(SPACE TAB OR COMMA)
~Well Information
#_______________________________________________________________________________
#
#PARAMETER_NAME    .UNIT     VALUE                         : DESCRIPTION
#_______________________________________________________________________________
STRT               .M        3.4                           : First reference value
STOP               .M        832.4                         : Last reference value
STEP               .M        0.2                           : Step increment
NULL               .         -9999                         : Missing value
COMP               .                                       : Company
WELL               .         616                           : Well name
FLD                .                                       : Field
LOC                .                                       : Location
CNTY               .                                       : County
STAT               .                                       : State
CTRY               .                                       : Country
SRVC               .                                       : Service Company
DATE               .                                       : Date
API                .                                       : API number
PROJECT_UPGRADE_TIME .         2021-03-18T21_24_50           : 
group              .         Good                          : 
~Parameter Information Block
#_______________________________________________________________________________
#
#PARAMETER_NAME    .UNIT     VALUE                         : DESCRIPTION
#_______________________________________________________________________________
SET                .         ULN                           : 
PROJECT_UPGRADE_TIME .         2021-03-18T21_24_50           : 
TLFamily_AK4       .                                       : 
TLFamily_ALFAK     .                                       : 
TLFamily_AMPL      .                                       : 
TLFamily_DEPTH     .         Measured Depth                : 
TLFamily_DK1       .                                       : 
TLFamily_DK2       .                                       : 
TLFamily_DTK       .         Compressional Slowness        : 
TLFamily_QCBL      .                                       : 
TLFamily_T1        .         Travel Time 1                 : 
TLFamily_T2        .         Travel Time 2                 : 
group              .         prim                          : 
~Curve Information
#_______________________________________________________________________________
#
#LOGNAME           .UNIT     LOG_ID                        : DESCRIPTION
#_______________________________________________________________________________
DEPTH              .M                                      : 0 Depth curve 
AK4                .                                       : 2 Амплитуда - Волна по колонне - Канал1 
ALFAK              .дБ/м                                   : 1 Затухание - Волна по колонне 
AMPL               .                                       : 8 Коэффициент усиления ВС 
DK1                .дБ                                     : 3 Кривая ослабления - Волна по колонне - Канал1 
DK2                .дБ                                     : 4 Кривая ослабления - Волна по колонне - Канал2 
DTK                .мкс/м                                  : 5 ДельтаТ - Волна по породе 
QCBL               .                                       : 9 Контакт цемент-колонна 
T1                 .мкс                                    : 6 Время пробега - Волна по породе - Канал1 
T2                 .мкс                                    : 7 Время пробега - Волна по породе - Канал2 
~Ascii
# ...
441.4      7794.285   20.812     1          12.597     23.003     192.187    2          354.347    450.441   
441.6      7794.285   20.461     1          12.597     22.828     192.48     2          354.347    450.588   
441.8      7794.285   20.325     1          12.597     22.76      192.608    2          354.347    450.652   
442        7794.285   21.274     1          12.597     23.234     190.355    2          354.347    449.525   
442.2      7794.285   23.84      1          12.597     24.517     188.836    2          354.347    448.766   
442.4      6655.87    23.912     1          14.267     26.223     190.772    2          358.282    449.437   
442.6      5517.455   23.601     1          15.936     27.736     197.516    2          362.218    452.068   
442.8      4379.04    22.685     1          17.605     28.948     197.676    2          366.153    456.083   
443        4379.04    22.606     1          17.605     28.908     195.497    2          366.153    459.226   
443.2      4909.525   23.541     1          16.708     28.478     187.643    2          366.197    460.019   
443.4      8801.704   27.168     1          12.946     28.134     186.417    2          366.794    460.002   
443.6      12693.88   30.951     1          9.184      28.526     191.415    2          367.39     462.116   
443.8      15434.85   31.014     1          6.702      27.514     194.464    2          365.978    462.347   
444        14193.4    27.393     1          7.466      26.481     193.5      2          363.269    459.156   
444.2      12951.95   24.614     1          8.231      23.594     187.536    2          360.561    454.448   
444.4      12331.22   23.019     1          8.613      21.74      185.538    2          359.816    452.586   
444.6      12331.22   21.521     1          8.613      19.373     187.792    2          359.816    453.712   
444.8      11904.45   20.701     1          8.93       19.281     186.975    2          359.722    453.21    
445        11477.67   20.639     1          9.247      19.567     186.176    2          359.628    452.717   
445.2      10605.94   20.489     1          9.938      20.182     187.275    2          359.046    452.684   
445.4      10160.99   20.279     1          10.31      20.45      188.25     2          358.558    452.683   
445.6      9412.937   20.091     1          10.967     21.013     189.556    2          357.375    452.153   
445.8      9109.83    20.491     1          11.252     21.498     188.549    2          356.681    450.955   
446        8806.724   21.446     1          11.536     22.26      188.165    2          355.986    450.069   
446.2      8141.553   20.02      1          12.28      22.291     190.487    2          354.746    449.99    
446.4      7476.382   19.48      1          13.024     22.764     191.682    2          353.506    449.347   
446.6      6811.211   18.129     1          13.768     22.833     193.116    2          352.266    448.824   
446.8      6638.732   19.106     1          13.997     23.55      189.977    2          352.747    447.737   
447        6466.252   19.643     1          14.226     24.047     188.925    2          353.229    447.692   
447.2      5962.777   18.82      1          14.952     24.362     189.951    2          353.195    448.171   
447.4      5942.727   19.379     1          14.979     24.669     189.512    2          353.414    448.171   
447.6      5636.784   18.465     1          15.436     24.669     189.356    2          353.398    448.076   
447.8      5661.837   20.058     1          15.395     25.424     187.228    2          353.898    447.512   
448        5036.852   19.077     1          16.431     25.969     190.054    2          352.485    447.512   
448.2      4697.758   18.199     1          17.038     26.138     191.961    2          351.307    447.288   
448.4      4358.664   17.87      1          17.646     26.581     193.741    2          350.13     447.001   
448.6      4358.664   17.908     1          17.646     26.6       193.741    2          350.13     447.001   
448.8      4523.359   21.062     1          17.335     27.866     193.809    2          350.095    447.001   
449        4359.275   21.089     1          17.682     28.226     194.088    2          349.956    447.001   
449.2      4298.431   23.24      1          17.806     29.426     194.841    2          349.579    447.001   
449.4      3802.86    21.548     1          18.865     29.639     195.526    2          349.237    447.001   
449.6      3636.069   22.095     1          19.266     30.313     196        2          349        447.001   
449.8      3360.052   20.269     1          19.906     30.041     196        2          349        447.001   
450        3380.623   19.928     1          19.853     29.817     196        2          349        447.001   
450.2      3401.193   19.887     1          19.801     29.744     196        2          349        447.001   
450.4      3646.915   21.061     1          19.225     29.755     196        2          349        447.001   
450.6      3866.083   23.517     1          18.716     30.475     196        2          349        447.001   
450.8      4085.25    24.644     1          18.208     30.53      196        2          349        447.001   
451        4134.993   24.626     1          18.105     30.418     196        2          349        447.001   
451.2      4184.736   23.917     1          18.001     29.959     196        2          349        447.001   
451.4      4194.46    22.84      1          17.98      29.4       196        2          349        447.001   
451.6      4317.134   24.483     1          18.488     29.98      196        2          349        447.001   
451.8      3928.168   23.98      1          19.422     30.662     196        2          349        447.001   
452        3579.22    26.198     1          20.272     32.621     196        2          349        447.001   
452.2      3017.837   26.532     1          20.841     34.107     196        2          349        447.001   
452.4      2662.157   30.606     1          22.079     35.666     196        2          349        447.001   
452.6      2306.477   30.237     1          23.317     35.861     196        2          349        447.001   
452.8      2000.54    27.009     1          24.41      35.34      196        2          349        447.001   
453        2000.54    22.852     1          24.41      34.978     196        2          349        447.001   
453.2      2000.54    23.156     1          24.41      35.988     196        2          349        447.001   
453.4      2000.54    26.059     1          24.41      37.439     196        2          349        447.001   
453.6      2006.15    31.66      1          24.386     40.215     196        2          349        447.001   
453.8      1939.203   28.631     1          24.692     41.16      196        2          349        447.001   
454        1393.341   18.835     1          29.634     41.203     195        2          349.5      447.001   
454.2      841.869    7.184      1          34.6       40.344     194.333    2          350        447.167   
454.4      362.954    4.186      1          39.235     41.328     196.667    2          350.5      448.834   
454.6      362.954    10.366     1          39.235     41.861     198.879    2          350.5      449.94    
454.8      780.2      17.073     1          34.914     40.893     195.482    2          350.75     450.627   
455        1241.162   24.202     1          30.366     38.264     192.082    2          351.25     449.427   
455.2      3140.374   31.228     1          22.215     36.183     192.427    2          351.591    449.94    
455.4      4622.34    32.294     1          18.386     35.072     196.831    2          351.681    450.097   
455.6      5125.752   27.502     1          16.581     32.518     198.069    2          350.681    450.136   
455.8      4085.819   20.088     1          18.675     30.904     196.512    2          349.841    448.517   
