~Version
 VERS              .         2.0                           : CWLS LOG ASCII STANDARD - VERSION 2.0
 WRAP              .         NO                            : ONE LINE PER DEPTH STEP
 DLM               .         SPACE                         : DELIMITING CHARACTER(SPACE TAB OR COMMA)
~Well Information
#_______________________________________________________________________________
#
#PARAMETER_NAME    .UNIT     VALUE                         : DESCRIPTION
#_______________________________________________________________________________
STRT               .M        3.4                           : First reference value
STOP               .M        832.4                         : Last reference value
STEP               .M        0.2                           : Step increment
NULL               .         -9999                         : Missing value
COMP               .                                       : Company
WELL               .         616                           : Well name
FLD                .                                       : Field
LOC                .                                       : Location
CNTY               .                                       : County
STAT               .                                       : State
CTRY               .                                       : Country
SRVC               .                                       : Service Company
DATE               .                                       : Date
API                .                                       : API number
PROJECT_UPGRADE_TIME .         2021-03-18T21_24_50           : 
group              .         Good                          : 
~Parameter Information Block
#_______________________________________________________________________________
#
#PARAMETER_NAME    .UNIT     VALUE                         : DESCRIPTION
#_______________________________________________________________________________
SET                .         ULN                           : 
PROJECT_UPGRADE_TIME .         2021-03-18T21_24_50           : 
TLFamily_AK4       .                                       : 
TLFamily_ALFAK     .                                       : 
TLFamily_AMPL      .                                       : 
TLFamily_DEPTH     .         Measured Depth                : 
TLFamily_DK1       .                                       : 
TLFamily_DK2       .                                       : 
TLFamily_DTK       .         Compressional Slowness        : 
TLFamily_QCBL      .                                       : 
TLFamily_T1        .         Travel Time 1                 : 
TLFamily_T2        .         Travel Time 2                 : 
group              .         prim                          : 
~Curve Information
#_______________________________________________________________________________
#
#LOGNAME           .UNIT     LOG_ID                        : DESCRIPTION
#_______________________________________________________________________________
DEPTH              .M                                      : 0 Depth curve 
AK4                .                                       : 2 Амплитуда - Волна по колонне - Канал1 
ALFAK              .дБ/м                                   : 1 Затухание - Волна по колонне 
AMPL               .                                       : 8 Коэффициент усиления ВС 
DK1                .дБ                                     : 3 Кривая ослабления - Волна по колонне - Канал1 
DK2                .дБ                                     : 4 Кривая ослабления - Волна по колонне - Канал2 
DTK                .мкс/м                                  : 5 ДельтаТ - Волна по породе 
QCBL               .                                       : 9 Контакт цемент-колонна 
T1                 .мкс                                    : 6 Время пробега - Волна по породе - Канал1 
T2                 .мкс                                    : 7 Время пробега - Волна по породе - Канал2 
~Ascii
# ...
222.4      24547.69   6.701      1          2.634      5.984      205.367    2          360.914    463.598   
222.6      24554.27   6.208      1          2.631      5.735      205.531    2          360.918    463.684   
222.8      24596.94   5.291      1          2.616      5.261      205.261    2          360.45     463.081   
223        24265.79   5.218      1          2.733      5.342      204.542    2          360.868    463.139   
223.2      24411.47   6.26       1          2.682      5.811      203.357    2          361.409    463.087   
223.4      24557.16   6.774      1          2.63       6.017      202.147    2          361.949    463.023   
223.6      24576.38   6.662      1          2.623      5.954      199.888    2          362.601    462.546   
223.8      24348.99   6.135      1          2.704      5.772      197.633    2          363.109    461.926   
224        23968.74   6.077      1          2.84       5.879      196.788    2          363.629    462.023   
224.2      23815.88   6.647      1          2.896      6.219      196.407    2          363.641    461.844   
224.4      22478.78   6.999      1          3.422      6.922      195.903    2          363.813    461.764   
224.6      21294.54   7.709      1          3.893      7.748      195.319    2          363.973    461.633   
224.8      20110.3    8.659      1          4.364      8.694      193.874    2          364.134    461.071   
225        19938.14   9.412      1          4.44       9.146      191.392    2          364.793    460.49    
225.2      20188.38   10.73      1          4.334      9.699      190.121    2          364.775    459.836   
225.4      20553.32   11.841     1          4.18       10.101     193.162    2          365.823    461.223   
225.6      20769.24   13.055     1          4.086      11.086     194.337    2          367.278    463.265   
225.8      18461.99   13.377     1          5.253      12.415     192.398    2          371.104    466.121   
226        16040.04   13.19      1          6.468      13.536     187.14     2          373.863    467.434   
226.2      14816.91   13.921     1          7.047      14.008     186.248    2          375.033    468.158   
226.4      17142.73   15.733     1          5.872      13.739     193.989    2          371.134    468.129   
226.6      19468.55   16.311     1          4.697      12.853     202.97     2          367.236    468.721   
226.8      20916.72   13.209     1          4.023      10.627     212.268    2          363.86     469.994   
227        20916.72   9.91       1          4.023      8.978      209.406    2          363.86     468.563   
227.2      20916.72   8.606      1          4.023      8.326      204.27     2          363.86     465.995   
227.4      20624.32   10.41      1          4.147      9.352      196.19     2          364.585    462.68    
227.6      20333.9    11.826     1          4.27       10.183     193.219    2          365.317    461.927   
227.8      20451.37   13.385     1          4.222      10.914     193.256    2          365.395    462.024   
228        20861.23   14.318     1          4.049      11.208     194.718    2          364.749    462.108   
228.2      21269.13   15.177     1          3.878      11.466     196.375    2          364.095    462.283   
228.4      21269.13   15.17      1          3.878      11.463     195.821    2          364.095    462.006   
228.6      21271.14   15.224     1          3.877      11.489     194.49     2          364.658    461.903   
228.8      21273.16   15.273     1          3.876      11.513     193.001    2          365.221    461.721   
229        20060.7    14.594     1          4.419      11.716     193.223    2          364.658    461.27    
229.2      18846.22   15.271     1          4.963      12.599     194.456    2          363.533    460.761   
229.4      17631.75   16.032     1          5.507      13.523     196.714    2          362.407    460.765   
229.6      16905.6    17.754     1          5.889      14.766     195.107    2          362.4      459.954   
229.8      16348.72   17.644     1          6.177      14.999     195.359    2          361.444    459.124   
230        15791.84   17.011     1          6.465      14.971     193.467    2          360.489    457.222   
230.2      16054.06   16         1          6.321      14.321     194.948    2          359.124    456.599   
230.4      16579.6    16.346     1          6.049      14.222     193.448    2          359.192    455.917   
230.6      18077.53   17.542     1          5.33       14.101     192.422    2          359.897    456.109   
230.8      19482.51   18.243     1          4.662      13.784     190.387    2          361.019    456.212   
231        20454.9    17.897     1          4.217      13.166     189.516    2          361.656    456.414   
231.2      20818.03   16.584     1          4.067      12.359     190.296    2          361.14     456.288   
231.4      21787.25   15.961     1          3.682      11.663     193.773    2          359.95     456.837   
231.6      22756.46   15.289     1          3.297      10.942     197.283    2          358.76     457.402   
231.8      23362.55   14.845     1          3.062      10.485     199.68     2          358.086    457.927   
232        23362.55   13.862     1          3.062      9.993      200.026    2          358.086    458.1     
232.2      23362.55   13.492     1          3.062      9.808      199.833    2          358.086    458.003   
232.4      23362.55   13.186     1          3.062      9.656      200.145    2          358.086    458.159   
232.6      23383.09   13.278     1          3.055      9.694      199.091    2          358.587    458.132   
232.8      23090.02   13.426     1          3.166      9.879      197.718    2          359.348    458.208   
233        22796.95   13.359     1          3.277      9.956      196.308    2          360.11     458.265   
233.2      23037.07   13.488     1          3.189      9.933      196.968    2          360.195    458.68    
233.4      23590.8    13.821     1          2.983      9.893      197.468    2          360.019    458.753   
233.6      24080.24   14.326     1          2.8        9.962      197.746    2          359.915    458.788   
233.8      23832.16   14.75      1          2.89       10.265     196.392    2          360.046    458.242   
234        23141.2    14.59      1          3.15       10.445     194.769    2          360.843    458.228   
234.2      22514.54   14.243     1          3.387      10.509     194.551    2          361.568    458.843   
234.4      21706.83   13.759     1          3.703      10.583     192.539    2          362.732    459.001   
234.6      21341.99   15.23      1          3.851      11.466     192.388    2          363.23     459.424   
234.8      20338.05   16.715     1          4.275      12.633     191.99     2          363.248    459.243   
235        19698.95   19.971     1          4.553      14.538     192.631    2          362.768    459.084   
235.2      19059.84   19.85      1          4.83       14.756     192.778    2          362.288    458.677   
235.4      19222.3    20.27      1          4.757      14.892     190.845    2          362.818    458.241   
235.6      18928.4    18.782     1          4.894      14.285     191.224    2          362.693    458.305   
235.8      18972.82   18.394     1          5.264      14.461     191.31     2          362.592    458.247   
236        19193.11   18.77      1          5.168      14.553     192.104    2          361.983    458.035   
236.2      19869.77   19.079     1          4.861      14.401     191.607    2          362.031    457.835   
236.4      20341.93   19.611     1          4.265      14.071     191.636    2          362.604    458.422   
236.6      20475.77   18.533     1          4.208      13.475     191.011    2          363.153    458.659   
236.8      20683.16   17.951     1          4.121      13.096     191.365    2          363.806    459.489   
