~Version
 VERS              .         2.0                           : CWLS LOG ASCII STANDARD - VERSION 2.0
 WRAP              .         NO                            : ONE LINE PER DEPTH STEP
 DLM               .         SPACE                         : DELIMITING CHARACTER(SPACE TAB OR COMMA)
~Well Information
#_______________________________________________________________________________
#
#PARAMETER_NAME    .UNIT     VALUE                         : DESCRIPTION
#_______________________________________________________________________________
STRT               .M        2310.8                        : First reference value
STOP               .M        2792.2                        : Last reference value
STEP               .M        0.2                           : Step increment
NULL               .         -9999                         : Missing value
COMP               .                                       : Company
WELL               .         616                           : Well name
FLD                .                                       : Field
LOC                .                                       : Location
CNTY               .                                       : County
STAT               .                                       : State
CTRY               .                                       : Country
SRVC               .                                       : Service Company
DATE               .                                       : Date
API                .                                       : API number
PROJECT_UPGRADE_TIME .         2021-03-18T21_24_50           : 
group              .         Good                          : 
~Parameter Information Block
#_______________________________________________________________________________
#
#PARAMETER_NAME    .UNIT     VALUE                         : DESCRIPTION
#_______________________________________________________________________________
SET                .         D2660_D                       : 
OTHER              .         Программное обеспечение станции MONITOR-386EX 25/12/99 15_08_10   BGF V50 26/12/00 07_26_01   3.1_SNGF___BGF_N_092085: 
OTHER_10           .         Тарировки_                    : 
OTHER_2            .         Kedr.exe версия 3.3.2.32      : 
OTHER_3            .         KedrData.dll версия 3.3.2.17  : 
OTHER_4            .         Драйвер версия 2.1.0.1        : 
OTHER_5            .         Мнемоники версия 3.3 S        : 
OTHER_6            .         Прибор_ ПС                    : 
OTHER_7            .         Номер прибора_ 348\072        : 
OTHER_8            .         Режим_ ПС                     : 
OTHER_9            .         Форма_ ПС                     : 
PROJECT_UPGRADE_TIME .         2021-03-18T21_24_49           : 
TLFamily_DEPT      .         Measured Depth                : 
TLFamily_METKA     .                                       : 
TLFamily_PS        .         Spontaneous Potential         : 
TLFamily_RCOR      .                                       : 
TLFamily_SPID      .         Spontaneous Potential         : 
TLFamily_TENS      .         Cable Tension                 : 
TLFamily_TIME      .         Time                          : 
group              .         prim                          : 
~Curve Information
#_______________________________________________________________________________
#
#LOGNAME           .UNIT     LOG_ID                        : DESCRIPTION
#_______________________________________________________________________________
DEPT               .M                                      : 1 Глубина, м -    0.0 см 
METKA              .                                       : 3 Метки,  -    0.0 см 
PS                 .mV                                     : 7 ПС, мВ - 1210.0 см 
RCOR               .CM/KM                                  : 5 Коррекция по ролику, см/км -    0.0 см 
SPID               .M/H                                    : 2 Скорость, м/час -    0.0 см 
TENS               .T                                      : 6 Натяжение кабеля, т -    0.0 см 
TIME               .S                                      : 4 Время, сек -    0.0 см 
~Ascii
2310.8     -9999      -9999      -9999      -9999      -9999      -9999     
2311       0          -9999      -400       -1484      0          30726.74  
2311.2     0          -9999      -400       -1548      0          30726.25  
2311.4     0          -9999      -400       -1600      0          30725.78  
2311.6     0          -9999      -400       -1597      0          30725.31  
2311.8     1          -9999      -400       -1561      0          30724.86  
2312       1          -9999      -400       -1540      0          30724.43  
2312.2     0          -9999      -400       -1540      0          30723.95  
2312.4     0          -9999      -400       -1540      0          30723.51  
2312.6     0          -9999      -400       -1540      0          30723.04  
2312.8     0          -9999      -400       -1540      0          30722.57  
2313       0          -9999      -400       -1543      0          30722.1   
2313.2     0          -9999      -400       -1570      0          30721.65  
2313.4     0          -9999      -400       -1630      0          30721.2   
2313.6     0          -9999      -400       -1477      0          30720.73  
2313.8     0          -9999      -400       -1540      0          30720.25  
2314       0          -9999      -400       -1540      0          30719.8   
2314.2     0          -9999      -400       -1541      0          30719.34  
2314.4     0          -9999      -400       -1557      0          30718.87  
2314.6     0          -9999      -400       -1599      0          30718.4   
2314.8     0          -9999      -400       -1593      0          30717.92  
2315       0          -9999      -400       -1540      0          30717.47  
2315.2     0          -9999      -400       -1540      0          30717.02  
2315.4     0          -9999      -400       -1540      0          30716.56  
2315.6     0          -9999      -400       -1540      0          30716.11  
2315.8     0          -9999      -400       -1540      0          30715.66  
2316       0          -9999      -400       -1540      0          30715.18  
2316.2     0          -9999      -400       -1543      0          30714.73  
2316.4     0          -9999      -400       -1577      0          30714.22  
2316.6     0          -9999      -400       -1577      0          30713.78  
2316.8     0          -9999      -400       -1540      0          30713.36  
2317       0          -9999      -400       -1540      0          30712.87  
2317.2     0          -9999      -400       -1540      0          30712.41  
2317.4     0          -9999      -400       -1543      0          30711.95  
2317.6     0          -9999      -400       -1574      0          30711.48  
2317.8     0          -9999      -400       -1599      0          30711.03  
2318       0          -9999      -400       -1590      0          30710.57  
2318.2     0          -9999      -400       -1534      0          30710.12  
2318.4     0          -9999      -400       -1474      0          30709.66  
2318.6     0          -9999      -400       -1519      0          30709.2   
2318.8     0          -9999      -400       -1541      0          30708.73  
2319       0          -9999      -400       -1557      0          30708.25  
2319.2     0          -9999      -400       -1599      0          30707.78  
2319.4     0          -9999      -400       -1593      0          30707.34  
2319.6     0          -9999      -400       -1540      0          30706.87  
2319.8     1          -9999      -400       -1540      0          30706.42  
2320       0          -9999      -400       -1540      0          30705.94  
2320.2     0          -9999      -400       -1541      0          30705.49  
2320.4     0          -9999      -400       -1547      0          30705.03  
2320.6     0          -9999      -400       -1590      0          30704.56  
2320.8     0          -9999      -400       -1489      0          30704.1   
2321       0          -9999      -400       -1537      0          30703.65  
2321.2     0          -9999      -400       -1581      0          30703.2   
2321.4     0          -9999      -400       -1540      0          30702.73  
2321.6     0          -9999      -400       -1540      0          30702.25  
2321.8     0          -9999      -400       -1540      0          30701.8   
2322       0          -9999      -400       -1543      0          30701.33  
2322.2     0          -9999      -400       -1574      0          30700.86  
2322.4     0          -9999      -400       -1599      0          30700.39  
2322.6     0          -9999      -400       -1589      0          30699.95  
2322.8     0          -9999      -400       -1534      0          30699.5   
2323       0          -9999      -400       -1476      0          30699.05  
2323.2     0          517.73     -400       -1547      0          30698.58  
2323.4     0          517.83     -400       -1546      0          30698.1   
2323.6     0          519.4      -400       -1488      0          30697.65  
2323.8     0          519.27     -400       -1540      0          30697.16  
2324       0          518.05     -400       -1540      0          30696.7   
2324.2     0          519.08     -400       -1540      0          30696.23  
2324.4     0          517.36     -400       -1540      0          30695.77  
2324.6     0          516.38     -400       -1540      0          30695.32  
2324.8     0          517.9      -400       -1541      0          30694.87  
2325       0          519.46     -400       -1550      0          30694.38  
2325.2     0          521.29     -400       -1600      0          30693.92  
2325.4     0          521.89     -400       -1597      0          30693.46  
2325.6     0          521.06     -400       -1562      0          30693.02  
2325.8     0          519.82     -400       -1514      0          30692.54  
2326       0          518.79     -400       -1486      0          30692.11  
2326.2     0          513.19     -400       -1540      0          30691.63  
2326.4     0          511.41     -400       -1540      0          30691.12  
2326.6     0          510.81     -400       -1544      0          30690.67  
2326.8     0          512.23     -400       -1586      0          30690.19  
2327       0          512.42     -400       -1574      0          30689.73  
2327.2     0          512.79     -400       -1540      0          30689.28  
2327.4     0          517.78     -400       -1540      0          30688.83  
2327.6     0          521.91     -400       -1540      0          30688.38  
2327.8     0          524.38     -400       -1540      0          30687.9   
2328       0          525.25     -400       -1540      0          30687.44  
2328.2     0          523.71     -400       -1540      0          30686.96  
2328.4     0          522.84     -400       -1540      0          30686.51  
2328.6     0          522.29     -400       -1540      0          30686.04  
2328.8     0          519.9      -400       -1540      0          30685.58  
2329       0          519.3      -400       -1540      0          30685.1   
2329.2     0          519.43     -400       -1542      0          30684.65  
2329.4     0          518.4      -400       -1561      0          30684.19  
2329.6     0          519        -400       -1600      0          30683.74  
2329.8     1          518.79     -400       -1600      0          30683.29  
2330       0          518.23     -400       -1596      0          30682.81  
2330.2     0          517.39     -400       -1556      0          30682.36  
2330.4     0          517.94     -400       -1539      0          30681.9   
2330.6     0          517.97     -400       -1519      0          30681.42  
2330.8     0          521.11     -400       -1483      0          30680.95  
2331       0          518.77     -400       -1540      0          30680.5   
2331.2     0          470.42     -400       -1544      0          30680.04  
2331.4     0          359.89     -400       -1591      0          30679.55  
