~Version
 VERS              .         2.0                           : CWLS LOG ASCII STANDARD - VERSION 2.0
 WRAP              .         NO                            : ONE LINE PER DEPTH STEP
 DLM               .         SPACE                         : DELIMITING CHARACTER(SPACE TAB OR COMMA)
~Well Information
#_______________________________________________________________________________
#
#PARAMETER_NAME    .UNIT     VALUE                         : DESCRIPTION
#_______________________________________________________________________________
STRT               .M        0.2                           : First reference value
STOP               .M        2774.2                        : Last reference value
STEP               .M        0.2                           : Step increment
NULL               .         -9999                         : Missing value
COMP               .                                       : Company
WELL               .         616                           : Well name
FLD                .                                       : Field
LOC                .                                       : Location
CNTY               .                                       : County
STAT               .                                       : State
CTRY               .                                       : Country
SRVC               .                                       : Service Company
DATE               .                                       : Date
API                .                                       : API number
PROJECT_UPGRADE_TIME .         2021-03-18T21_24_50           : 
group              .         Good                          : 
~Parameter Information Block
#_______________________________________________________________________________
#
#PARAMETER_NAME    .UNIT     VALUE                         : DESCRIPTION
#_______________________________________________________________________________
SET                .         D1799_D_2                     : 
NPR                .                                       : 
OTHER              .         Программное обеспечение станции MONITOR-386EX 25/12/99 15_08_10   BGF V52 22/08/01 16_56_30   3.1_SNGF___BGF_N_092049: 
OTHER_10           .         Тарировки_                    : 
OTHER_11           .         TM.GRD = 0.00403*TM$.UE + -1.07: 
OTHER_12           .         MN.ATM = (9.34907e-006*TM.GRD + 0.02171)*(MN$.UE + -7.93*TM.GRD + -1787): 
OTHER_13           .         GK.MKR/H = LM. / 42.4676      : 
OTHER_14           .         GK.FLT = 0.1*GK.MKR/H[-1] + (1-0.1)*GK.MKR/H[0]: 
OTHER_2            .         Kedr.exe версия 3.4.2.51      : 
OTHER_3            .         KedrData.dll версия 3.4.2.24  : 
OTHER_4            .         Драйвер версия 2.1.1.3        : 
OTHER_5            .         Мнемоники версия 3.3 S        : 
OTHER_6            .         Прибор_ КСА-Т4                : 
OTHER_7            .         Номер прибора_ 03             : 
OTHER_8            .         Режим_ КСА-Т4                 : 
OTHER_9            .         Форма_ КВА.                   : 
PR                 .                                       : 
PROJECT_UPGRADE_TIME .         2021-03-18T21_24_49           : 
PRTY               .         ПП-603-1                      : N партии
SRV                .                                       : 
SRVC               .         Карпов                        : Начальник партии
TLFamily_DEPT      .         Measured Depth                : 
TLFamily_LM        .         Casing Collar locator         : 
TLFamily_MN        .                                       : 
TLFamily_TM        .         Temperature                   : 
group              .         second                        : 
~Curve Information
#_______________________________________________________________________________
#
#LOGNAME           .UNIT     LOG_ID                        : DESCRIPTION
#_______________________________________________________________________________
DEPT               .M                                      : Depth curve 
LM                 .е.ацп                                  : Локатор муфт,е.ацп 
MN                 .атм                                    : Манометрия, атм 
TM                 .град.C                                 : Термограмма по стволу скважины,град.C 
~Ascii
# ...
1820.2     617.006    161.464    53.556    
1820.4     658.002    161.493    53.56     
1820.6     672.017    161.522    53.561    
1820.8     795.987    161.527    53.564    
1821       700.99     161.548    53.568    
1821.2     629.999    161.568    53.569    
1821.4     625.022    161.591    53.571    
1821.6     784.025    161.61     53.573    
1821.8     968.994    161.631    53.573    
1822       925.996    161.653    53.575    
1822.2     894        161.673    53.577    
1822.4     893.991    161.676    53.578    
1822.6     827.006    161.692    53.582    
1822.8     871.012    161.713    53.586    
1823       961.039    161.75     53.589    
1823.2     1248.991   161.763    53.59     
1823.4     1185.008   161.775    53.593    
1823.6     1243.99    161.796    53.593    
1823.8     1174.012   161.816    53.6      
1824       1258.985   161.838    53.601    
1824.2     1150.986   161.851    53.605    
1824.4     1049.007   161.857    53.608    
1824.6     1096.988   161.883    53.609    
1824.8     1006.982   161.92     53.612    
1825       870.996    161.939    53.613    
1825.2     843.033    161.939    53.615    
1825.4     1087.982   161.961    53.617    
1825.6     953        161.98     53.619    
1825.8     953.012    162.002    53.623    
1826       1040       162.023    53.627    
1826.2     1040.173   162.043    53.629    
1826.4     2312.001   162.065    53.629    
1826.6     2320.944   162.07     53.63     
1826.8     1905.988   162.097    53.634    
1827       1820.992   162.114    53.637    
1827.2     1759.947   162.125    53.637    
1827.4     1373.01    162.146    53.641    
1827.6     1443.984   162.157    53.645    
1827.8     1324.012   162.171    53.645    
1828       1411.042   162.208    53.649    
1828.2     1721.609   162.223    53.652    
1828.4     6195.797   162.227    53.656    
1828.6     4708.791   162.246    53.657    
1828.8     3175.862   162.269    53.66     
1829       2163.934   162.288    53.664    
1829.2     1676.964   162.31     53.665    
1829.4     1413.979   162.329    53.667    
1829.6     1257       162.332    53.671    
1829.8     1256.976   162.365    53.675    
1830       1081.984   162.393    53.678    
1830.2     966.02     162.414    53.679    
1830.4     1110.011   162.436    53.682    
1830.6     1193.99    162.456    53.686    
1830.8     1119.99    162.476    53.686    
1831       1049.994   162.497    53.69     
1831.2     1009.002   162.517    53.693    
1831.4     1020.036   162.538    53.697    
1831.6     1285.113   162.552    53.698    
1831.8     2112.995   162.558    53.698    
1832       2077.995   162.579    53.701    
1832.2     2041.086   162.603    53.705    
1832.4     2673.041   162.639    53.708    
1832.6     2969.895   162.64     53.71     
1832.8     2198.961   162.661    53.712    
1833       1909.948   162.682    53.714    
1833.2     1531.257   162.683    53.716    
1833.4     3415       162.719    53.719    
1833.6     3415.159   162.726    53.723    
1833.8     4581.956   162.742    53.726    
1834       4263.034   162.762    53.727    
1834.2     4508.907   162.783    53.734    
1834.4     3828.89    162.804    53.734    
1834.6     3026.885   162.825    53.738    
1834.8     2187.92    162.845    53.742    
1835       1602.968   162.865    53.746    
1835.2     1368.988   162.879    53.749    
1835.4     1281.976   162.884    53.753    
1835.6     1106.977   162.904    53.754    
1835.8     939.978    162.925    53.757    
1836       777.09     162.945    53.758    
1836.2     1433.15    162.967    53.76     
1836.4     2531.978   162.989    53.762    
1836.6     2369       163.027    53.764    
1836.8     2368.908   163.032    53.768    
1837       1693.941   163.049    53.771    
1837.2     1263.957   163.07     53.774    
1837.4     950.019    163.089    53.776    
1837.6     1088.988   163.11     53.782    
1837.8     1003.998   163.132    53.782    
1838       988.997    163.152    53.782    
1838.2     963.995    163.172    53.79     
1838.4     924.002    163.192    53.79     
1838.6     936.991    163.207    53.794    
1838.8     868.051    163.212    53.794    
1839       1240.996   163.233    53.797    
1839.2     1211.885   163.254    53.801    
1839.4     7671.614   163.273    53.802    
1839.6     4853.769   163.295    53.804    
1839.8     3170.858   163.315    53.807    
1840       2137       163.337    53.808    
1840.2     2136.936   163.339    53.811    
1840.4     1669.947   163.377    53.812    
1840.6     1282.98    163.383    53.816    
1840.8     1135.973   163.398    53.819    
1841       940.995    163.419    53.819    
1841.2     902.98     163.44     53.823    
1841.4     754.003    163.46     53.827    
1841.6     779.005    163.481    53.827    
1841.8     812.012    163.501    53.83     
1842       899.998    163.522    53.831    
1842.2     888.978    163.543    53.834    
1842.4     728.993    163.562    53.838    
1842.6     676.004    163.584    53.839    
1842.8     701.994    163.602    53.842    
1843       659.01     163.603    53.843    
1843.2     733.996    163.624    53.845    
1843.4     703.007    163.644    53.847    
1843.6     754        163.666    53.848    
1843.8     754.007    163.687    53.851    
1844       801.998    163.707    53.852    
1844.2     787.045    163.729    53.855    
1844.4     1117.991   163.75     53.856    
1844.6     1049.983   163.77     53.86     
1844.8     922.981    163.791    53.863    
1845       786.206    163.799    53.867    
1845.2     2288.039   163.819    53.867    
1845.4     2570.915   163.844    53.867    
1845.6     1950.977   163.852    53.871    
1845.8     1780.943   163.878    53.871    
1846       1365.002   163.91     53.874    
1846.2     1377.965   163.913    53.878    
1846.4     1122.981   163.934    53.882    
1846.6     987.98     163.953    53.885    
1846.8     841.008    163.976    53.889    
1847       900        163.995    53.891    
1847.2     899.985    164.016    53.891    
1847.4     791.999    164.036    53.892    
1847.6     782.006    164.058    53.896    
1847.8     822.984    164.079    53.9      
1848       708.996    164.084    53.904    
1848.2     681        164.097    53.907    
1848.4     679.011    164.118    53.908    
1848.6     758.001    164.138    53.911    
1848.8     768.037    164.16     53.915    
1849       1034.97    164.181    53.915    
1849.2     818.01     164.194    53.915    
1849.4     889.993    164.2      53.919    
1849.6     836.022    164.22     53.922    
1849.8     996.019    164.241    53.923    
1850       1136.391   164.262    53.926    
1850.2     3975.09    164.286    53.93     
1850.4     4630.806   164.307    53.934    
1850.6     3221.905   164.326    53.935    
1850.8     2534.917   164.347    53.935    
1851       1935       164.371    53.935    
1851.2     1935.014   164.39     53.937    
1851.4     2038.975   164.41     53.941    
1851.6     1854.963   164.413    53.944    
1851.8     1585.052   164.446    53.945    
1852       1960.018   164.472    53.948    
1852.2     2088.936   164.479    53.948    
1852.4     1621.968   164.491    53.948    
1852.6     1392.977   164.511    53.951    
1852.8     1222.98    164.532    53.952    
1853       1080.007   164.552    53.959    
1853.2     1130.992   164.573    53.96     
1853.4     1070.984   164.593    53.963    
1853.6     955.992    164.615    53.966    
1853.8     899.986    164.636    53.968    
1854       797.995    164.655    53.97     
1854.2     762.014    164.656    53.974    
1854.4     860.006    164.695    53.976    
1854.6     900        164.698    53.977    
1854.8     899.99     164.715    53.981    
1855       830.044    164.736    53.985    
1855.2     1149.173   164.771    53.988    
1855.4     2402.947   164.786    53.988    
1855.6     2018.916   164.799    53.992    
1855.8     1408.956   164.82     53.993    
1856       1087.974   164.84     54        
1856.2     899.011    164.851    54        
1856.4     976.016    164.858    54.003    
