~Version
 VERS              .         2.0                           : CWLS LOG ASCII STANDARD - VERSION 2.0
 WRAP              .         NO                            : ONE LINE PER DEPTH STEP
 DLM               .         SPACE                         : DELIMITING CHARACTER(SPACE TAB OR COMMA)
~Well Information
#_______________________________________________________________________________
#
#PARAMETER_NAME    .UNIT     VALUE                         : DESCRIPTION
#_______________________________________________________________________________
STRT               .M        2659.2                        : First reference value
STOP               .M        2769.000055                   : Last reference value
STEP               .M        0.2000001                     : Step increment
NULL               .         -9999                         : Missing value
COMP               .                                       : Company
WELL               .         616                           : Well name
FLD                .                                       : Field
LOC                .                                       : Location
CNTY               .                                       : County
STAT               .                                       : State
CTRY               .                                       : Country
SRVC               .                                       : Service Company
DATE               .                                       : Date
API                .                                       : API number
PROJECT_UPGRADE_TIME .         2021-03-18T21_24_50           : 
group              .         Good                          : 
~Parameter Information Block
#_______________________________________________________________________________
#
#PARAMETER_NAME    .UNIT     VALUE                         : DESCRIPTION
#_______________________________________________________________________________
SET                .         D1165_D                       : 
OTHER              .         Программное обеспечение станции MONITOR-386EX 25/12/99 15_08_10   BGF V52 22/08/01 16_56_30   3.2_BGF_N_3070031: 
OTHER_10           .         Тарировки_                    : 
OTHER_11           .         TM.GRD = 0.00403*TM$.UE + -1.19: 
OTHER_12           .         MN.ATM = (7.1e-006*TM.GRD + 0.02017)*(MN$.UE + -3.03*TM.GRD + -1833): 
OTHER_13           .         Id error                      : 
OTHER_2            .         Kedr.exe версия 3.4.2.51      : 
OTHER_3            .         KedrData.dll версия 3.4.2.24  : 
OTHER_4            .         Драйвер версия 2.1.1.8        : 
OTHER_5            .         Мнемоники версия 3.3 S        : 
OTHER_6            .         Прибор_ КСА-М1                : 
OTHER_7            .         Номер прибора_ 265            : 
OTHER_8            .         Режим_ КСА-М1                 : 
OTHER_9            .         Форма_ ТЕРМОМЕТР              : 
PROJECT_UPGRADE_TIME .         2021-03-18T21_24_49           : 
TLFamily_DEPT      .         Measured Depth                : 
TLFamily_GK        .         Gamma Ray                     : 
TLFamily_GK$       .                                       : 
TLFamily_LM        .         Casing Collar locator         : 
TLFamily_METKA     .                                       : 
TLFamily_MN        .                                       : 
TLFamily_MN$       .                                       : 
TLFamily_RCOR      .                                       : 
TLFamily_SPID      .         Spontaneous Potential         : 
TLFamily_STD       .                                       : 
TLFamily_TENS      .         Cable Tension                 : 
TLFamily_TIME      .         Time                          : 
TLFamily_TM        .         Temperature                   : 
TLFamily_TM$       .         Temperature                   : 
TLFamily_VGD       .         Gas Volume                    : 
group              .         prim                          : 
~Curve Information
#_______________________________________________________________________________
#
#LOGNAME           .UNIT     LOG_ID                        : DESCRIPTION
#_______________________________________________________________________________
DEPT               .M                                      : 1 Глубина, м -    0.0 см 
GK                 .MKR/H                                  : 15 Гамма-активность, мкр./ч -  110.0 см 
GK$                .UE                                     : 12 Гамма-активность, усл.ед. -  110.0 см 
LM                 .                                       : 10 Локатор муфт,  -   20.0 см 
METKA              .                                       : 3 Метки,  -    0.0 см 
MN                 .ATM                                    : 14 Давление, атм. -  160.0 см 
MN$                .UE                                     : 8 Давление, усл.ед. -  160.0 см 
RCOR               .CM/KM                                  : 5 Коррекция по ролику, см/км -    0.0 см 
SPID               .M/H                                    : 2 Скорость, м/час -    0.0 см 
STD                .                                       : 11 Приток,  -  170.0 см 
TENS               .T                                      : 6 Натяжение кабеля, т -    0.0 см 
TIME               .S                                      : 4 Время, сек -    0.0 см 
TM                 .GRD                                    : 13 Температура, °C -  180.0 см 
TM$                .UE                                     : 7 Температура, усл.ед. -  180.0 см 
VGD                .                                       : 9 Влагомер,  -  170.0 см 
~Ascii
# ...
2708.200024 6.92       291        1          0          352.583    19058      -1400      639        31838      0          21277.4    86.732     21817      6539      
2708.400025 7          310        1          0          353.487    19102      -1400      642        31836      0          21278.49   86.735     21818      6538      
2708.600025 7.45       329        1          0          353.883    19121      -1400      650        31833      0          21279.59   86.741     21819      6539      
2708.800025 7.61       329        1          1          353.157    19086      -1400      642        31836      0          21280.78   86.747     21821      6541      
2709.000025 8.05       357        1          0          353.083    19082      -1400      641        31839      0          21281.89   86.757     21823      6540      
2709.200025 8.24       357        1          0          353.374    19096      -1400      641        31843      0          21282.98   86.761     21824      6540      
2709.400025 8.26       353        1          0          355.308    19189      -1400      639        31840      0          21284.13   86.761     21824      6540      
2709.600025 8.26       353        1          0          353.282    19092      -1400      636        31841      0          21285.24   86.765     21825      6540      
2709.800025 7.98       325        1          0          354.216    19137      -1400      637        31843      0          21286.38   86.773     21827      6540      
2710.000025 7.73       325        1          2          355.373    19193      -1400      649        31841      0          21287.48   86.773     21827      6540      
2710.200025 7.61       320        1          0          352.12     19036      -1400      647        31844      0          21288.74   86.773     21827      6542      
2710.400026 7.45       315        1          0          353.5      19102      -1400      647        31842      0          21289.8    86.777     21828      6540      
2710.600026 7.4        315        1          0          353.178    19087      -1400      643        31844      0          21290.93   86.784     21830      6541      
2710.800026 7.56       328        1          0          354.211    19137      -1400      640        31849      0          21292.08   86.786     21830      6542      
2711.000026 7.63       328        1          0          353.501    19102      -1400      642        31854      0          21293.18   86.796     21833      6541      
2711.200026 7.51       318        1          0          353.849    19119      -1400      642        31855      0          21294.33   86.799     21833      6542      
2711.400026 7.46       318        1          0          355.675    19207      -1400      641        31852      0          21295.43   86.805     21835      6542      
2711.600026 7.62       333        1          0          353.72     19113      -1400      636        31856      0          21296.57   86.807     21836      6543      
2711.800026 7.73       333        1          0          354.338    19143      -1400      637        31858      0          21297.73   86.813     21837      6542      
2712.000026 7.85       343        1          1          355.347    19191      -1400      637        31862      0          21298.82   86.817     21838      6543      
2712.200026 8.01       346        1          0          352.481    19053      -1400      638        31862      0          21299.97   86.818     21838      6544      
2712.400027 8.22       365        1          0          353.67     19110      -1400      638        31863      0          21301.07   86.828     21841      6543      
2712.600027 8.48       368        1          0          352.644    19061      -1400      639        31867      0          21302.22   86.833     21842      6543      
2712.800027 8.56       368        1          0          354.731    19161      -1400      639        31869      0          21303.33   86.837     21843      6542      
2713.000027 8.56       366        1          0          353.847    19119      -1400      634        31874      0          21304.52   86.848     21846      6543      
2713.200027 8.56       366        1          1          354.217    19137      -1400      637        31871      0          21305.6    86.854     21847      6542      
2713.400027 7.63       288        1          0          356.024    19224      -1400      641        31873      0          21306.71   86.861     21849      6543      
2713.600027 7.05       288        1          0          353.925    19123      -1400      638        31874      0          21307.86   86.861     21849      6543      
2713.800027 6.38       251        1          0          354.338    19143      -1400      636        31878      0          21309.02   86.866     21850      6544      
2714.000027 6.04       251        1          0          355.409    19194      -1400      637        31884      0          21310.11   86.866     21850      6544      
2714.200028 5.79       234        1          0          353.235    19089      -1400      638        31885      0          21311.22   86.861     21849      6544      
2714.400028 5.59       234        1867       0          353.726    19113      -1400      633        31886      0          21312.41   86.866     21850      6544      
2714.600028 5.5        232        217        0          353.002    19078      -1400      636        31882      0          21313.49   86.866     21850      6544      
2714.800028 5.31       223        1          0          355.759    19211      -1400      635        31886      0          21314.61   86.87      21851      6544      
2715.000028 5.25       223        1          0          354.076    19130      -1400      632        31889      0          21315.79   86.874     21852      6544      
2715.200028 5.37       234        1          0          354.587    19155      -1400      637        31892      0          21316.91   86.874     21852      6544      
2715.400028 5.44       234        1          0          356.449    19244      -1400      638        31893      0          21318.01   86.878     21853      6545      
2715.600028 5.5        237        1          0          353.955    19124      -1400      638        31892      0          21319.11   86.882     21854      6545      
2715.800028 5.53       237        1          0          354.317    19141      -1400      633        31896      0          21320.31   86.886     21855      6545      
2716.000028 5.64       249        1          0          355.328    19190      -1400      635        31894      0          21321.4    86.89      21856      6545      
2716.200028 5.76       249        1          0          354.056    19129      -1400      642        31896      0          21322.51   86.897     21858      6546      
2716.400029 5.84       254        1          0          353.971    19125      -1400      641        31900      0          21323.65   86.899     21858      6543      
2716.600029 6.11       267        1          0          353.798    19116      -1400      636        31897      0          21324.81   86.902     21859      6543      
2716.800029 6.22       269        1          0          356.472    19245      -1400      637        31899      0          21325.96   86.906     21860      6545      
2717.000029 6.3        271        1          0          354.307    19141      -1400      637        31898      0          21327.05   86.906     21860      6543      
2717.200029 6.32       271        46         0          355.036    19176      -1400      633        31905      0          21328.21   86.914     21862      6544      
2717.400029 6.52       285        1          0          356.618    19252      -1400      634        31907      0          21329.29   86.914     21862      6544      
2717.600029 6.62       285        1          0          353.991    19126      -1400      635        31910      0          21330.45   86.918     21863      6545      
2717.800029 7.29       345        1          0          354.617    19156      -1400      636        31910      0          21331.58   86.926     21865      6544      
