~Version
 VERS              .         2.0                           : CWLS LOG ASCII STANDARD - VERSION 2.0
 WRAP              .         NO                            : ONE LINE PER DEPTH STEP
 DLM               .         SPACE                         : DELIMITING CHARACTER(SPACE TAB OR COMMA)
~Well Information
#_______________________________________________________________________________
#
#PARAMETER_NAME    .UNIT     VALUE                         : DESCRIPTION
#_______________________________________________________________________________
STRT               .M        2669.6                        : First reference value
STOP               .M        2776.19984                    : Last reference value
STEP               .M        0.1999997                     : Step increment
NULL               .         -9999                         : Missing value
COMP               .                                       : Company
WELL               .         616                           : Well name
FLD                .                                       : Field
LOC                .                                       : Location
CNTY               .                                       : County
STAT               .                                       : State
CTRY               .                                       : Country
SRVC               .                                       : Service Company
DATE               .                                       : Date
API                .                                       : API number
PROJECT_UPGRADE_TIME .         2021-03-18T21_24_50           : 
group              .         Good                          : 
~Parameter Information Block
#_______________________________________________________________________________
#
#PARAMETER_NAME    .UNIT     VALUE                         : DESCRIPTION
#_______________________________________________________________________________
SET                .         D1805_D                       : 
OTHER              .         Программное обеспечение станции MONITOR-386EX 25/12/99 15_08_10   BGF V52 22/08/01 16_56_30   3.1_SNGF___BGF_N_092049: 
OTHER_10           .         Тарировки_                    : 
OTHER_11           .         TM.GRD = 0.00403*TM$.UE + -1.07: 
OTHER_12           .         MN.ATM = (9.34907e-006*TM.GRD + 0.02171)*(MN$.UE + -7.93*TM.GRD + -1787): 
OTHER_13           .         GK.MKR/H = LM. / 42.4676      : 
OTHER_14           .         GK.FLT = 0.1*GK.MKR/H[-1] + (1-0.1)*GK.MKR/H[0]: 
OTHER_2            .         Kedr.exe версия 3.4.2.51      : 
OTHER_3            .         KedrData.dll версия 3.4.2.24  : 
OTHER_4            .         Драйвер версия 2.1.1.3        : 
OTHER_5            .         Мнемоники версия 3.3 S        : 
OTHER_6            .         Прибор_ КСА-Т4                : 
OTHER_7            .         Номер прибора_ 03             : 
OTHER_8            .         Режим_ КСА-Т4                 : 
OTHER_9            .         Форма_ КВА.                   : 
PROJECT_UPGRADE_TIME .         2021-03-18T21_24_49           : 
TLFamily_DEPT      .         Measured Depth                : 
TLFamily_GK        .         Gamma Ray                     : 
TLFamily_GK$       .                                       : 
TLFamily_GK_2      .         Gamma Ray                     : 
TLFamily_LM        .         Casing Collar locator         : 
TLFamily_METKA     .                                       : 
TLFamily_MN        .                                       : 
TLFamily_MN$       .                                       : 
TLFamily_RCOR      .                                       : 
TLFamily_SPID      .         Spontaneous Potential         : 
TLFamily_TENS      .         Cable Tension                 : 
TLFamily_TIME      .         Time                          : 
TLFamily_TM        .         Temperature                   : 
TLFamily_TM$       .         Temperature                   : 
group              .         prim                          : 
~Curve Information
#_______________________________________________________________________________
#
#LOGNAME           .UNIT     LOG_ID                        : DESCRIPTION
#_______________________________________________________________________________
DEPT               .M                                      : 1 Глубина, м -    0.0 см 
GK                 .MKR/H                                  : 13 Гамма-активность, мкр./ч -  110.0 см 
GK$                .UE                                     : 10 Гамма-активность, усл.ед. -  110.0 см 
GK_2               .FLT                                    : 14 Гамма-активность фильтрованная, мкр./ч -  110.0 см 
LM                 .                                       : 9 Локатор муфт,  -   20.0 см 
METKA              .                                       : 3 Метки,  -    0.0 см 
MN                 .ATM                                    : 12 Давление, атм. -  160.0 см 
MN$                .UE                                     : 8 Давление, усл.ед. -  160.0 см 
RCOR               .CM/KM                                  : 5 Коррекция по ролику, см/км -    0.0 см 
SPID               .M/H                                    : 2 Скорость, м/час -    0.0 см 
TENS               .T                                      : 6 Натяжение кабеля, т -    0.0 см 
TIME               .S                                      : 4 Время, сек -    0.0 см 
TM                 .GRD                                    : 11 Температура, °C -  170.0 см 
TM$                .UE                                     : 7 Температура, усл.ед. -  170.0 см 
~Ascii
2669.6000977 -9999      -9999      -9999      -9999      0          -9999      -9999      -9999      -9999      -9999      -9999      -9999      -9999     
2669.8     -9999      -9999      -9999      118        0          -9999      -9999      -623       -81        0.05       3228.34    -9999      -9999     
2669.999999 -9999      -9999      -9999      317        2          -9999      -9999      -623       20         0.05       3228.79    -9999      -9999     
2670.199999 -9999      -9999      -9999      3368       0          -9999      -9999      -623       190        0.02       3229.79    -9999      -9999     
2670.399999 -9999      -9999      -9999      5331       0          -9999      -9999      -623       315        0.02       3230.88    -9999      -9999     
2670.599998 -9999      -9999      -9999      2127       0          -9999      -9999      -623       398        0.04       3232.08    -9999      -9999     
2670.799998 9.21       391        9.33       514        0          -9999      -9999      -623       441        0.03       3233.45    -9999      -9999     
2670.999998 9.21       391        9.23       398        0          -9999      -9999      -623       460        0.05       3234.94    -9999      -9999     
2671.199998 9.21       391        9.21       385        0          -9999      -9999      -623       492        0.02       3236.24    -9999      -9999     
2671.399997 8.85       376        8.91       348        0          324.548    16828      -623       506        0.03       3237.52    55.999     14161     
2671.599997 8.85       376        8.86       248        0          324.799    16840      -623       521        0.02       3238.78    55.997     14161     
2671.799997 9.58       407        9.4        276        0          323.894    16799      -623       534        0.03       3240.11    55.999     14161     
2671.999996 9.58       407        9.58       282        0          324.435    16823      -623       539        0.02       3241.42    55.999     14161     
2672.199996 10.1       429        10.07      335        0          324.429    16823      -623       535        0.02       3242.69    55.999     14161     
2672.399996 10.1       429        10.1       326        0          324.016    16804      -623       540        0.03       3244.1     55.999     14161     
2672.599995 9.35       397        9.41       371        0          324.87     16843      -623       531        0.01       3245.39    55.999     14161     
2672.799995 9.35       397        9.35       339        0          323.795    16794      -623       532        0.03       3246.72    55.999     14161     
2672.999995 9.44       401        9.43       302        0          324.253    16815      -623       541        0.03       3248.05    55.999     14161     
2673.199995 9.44       401        9.44       289        0          324.864    16843      -623       540        0.03       3249.3     55.999     14161     
2673.399994 9.49       403        9.49       259        0          324.66     16833      -623       546        0.03       3250.6     55.999     14161     
2673.599994 9.5        403        9.49       288        0          325.185    16857      -623       548        0.03       3251.95    55.999     14161     
2673.799994 9.54       405        9.54       313        0          324.298    16817      -623       553        0.02       3253.2     55.995     14160     
2673.999993 8.12       345        8.59       257        0          324.567    16829      -623       542        0.03       3254.53    55.995     14160     
2674.199993 8.12       345        8.14       291        0          324.531    16828      -623       537        0.03       3255.92    55.994     14160     
2674.399993 6.71       285        7.23       252        0          324.668    16834      -623       548        0.03       3257.24    55.995     14160     
2674.599993 6.71       285        6.73       290        0          324.748    16837      -623       540        0.03       3258.5     55.992     14159     
2674.799992 6.51       277        6.59       302        0          323.716    16791      -623       545        0.03       3259.83    55.995     14160     
2674.999992 6.48       275        6.48       241        0          325.271    16861      -623       553        0.03       3261.15    55.991     14159     
2675.199992 5.63       239        5.74       307        0          324.388    16821      -623       546        0.03       3262.47    55.991     14159     
2675.399991 5.63       239        5.63       292        0          324.664    16834      -623       547        0.01       3263.74    55.991     14159     
2675.599991 5.79       246        5.76       244        0          325.298    16862      -623       554        0.01       3265.05    55.987     14158     
2675.799991 5.79       246        5.79       265        0          324.017    16804      -623       541        0.03       3266.44    55.987     14158     
2675.99999 6.73       286        6.67       232        0          326.118    16899      -623       544        0.01       3267.7     55.987     14158     
2676.19999 6.73       286        6.73       266        0          324.403    16822      -623       552        0.01       3269.02    55.987     14158     
2676.39999 7.11       302        7.08       262        0          325.097    16853      -623       551        0.01       3270.35    55.987     14158     
2676.599989 7.11       302        7.11       234        0          325.444    16869      -623       547        0.03       3271.61    55.987     14158     
2676.799989 7.58       322        7.55       244        0          324.232    16814      -623       552        0.01       3272.97    55.987     14158     
2676.999989 7.54       320        7.56       255        0          325.327    16863      -623       545        0.03       3274.25    55.987     14158     
2677.199989 7.35       312        7.35       282        0          324.274    16816      -623       540        0.01       3275.61    55.987     14158     
2677.399988 7.26       308        7.29       247        0          325.229    16859      -623       543        0.01       3276.96    55.987     14158     
2677.599988 6.81       289        6.82       252        0          325.407    16867      -623       546        0.01       3278.22    55.987     14158     
2677.799988 7.42       315        7.19       251        0          324.855    16842      -623       548        0.01       3279.55    55.985     14158     
2677.999987 7.42       315        7.41       217        0          325.168    16856      -623       553        0.01       3280.87    55.987     14158     
2678.199987 7.99       339        7.78       266        0          324.256    16815      -623       554        0.03       3282.18    55.987     14158     
2678.399987 8.1        344        8.09       264        0          324.624    16832      -623       546        0.02       3283.45    55.987     14158     
2678.599986 7.79       331        7.91       225        0          325.423    16868      -623       554        0.03       3284.77    55.983     14157     
2678.799986 7.79       331        7.8        246        0          324.866    16843      -623       550        0.03       3286.09    55.986     14158     
2678.999986 6.9        293        7.05       264        0          325.743    16882      -623       541        0.03       3287.48    55.983     14157     
2679.199986 6.9        293        6.9        255        0          325.372    16865      -623       549        0.03       3288.74    55.983     14157     
2679.399985 6.48       275        6.55       196        0          325.124    16854      -623       549        0.03       3290.06    55.983     14157     
2679.599985 6.48       275        6.48       263        0          325.4      16867      -623       552        0.03       3291.39    55.983     14157     
2679.799985 6.81       289        6.75       248        0          325.238    16859      -623       554        0.03       3292.65    55.983     14157     
