~Version
 VERS              .         2.0                           : CWLS LOG ASCII STANDARD - VERSION 2.0
 WRAP              .         NO                            : ONE LINE PER DEPTH STEP
 DLM               .         SPACE                         : DELIMITING CHARACTER(SPACE TAB OR COMMA)
~Well Information
#_______________________________________________________________________________
#
#PARAMETER_NAME    .UNIT     VALUE                         : DESCRIPTION
#_______________________________________________________________________________
STRT               .M        12                            : First reference value
STOP               .M        2758.6                        : Last reference value
STEP               .M        0.2                           : Step increment
NULL               .         -9999                         : Missing value
COMP               .                                       : Company
WELL               .         616                           : Well name
FLD                .                                       : Field
LOC                .                                       : Location
CNTY               .                                       : County
STAT               .                                       : State
CTRY               .                                       : Country
SRVC               .                                       : Service Company
DATE               .                                       : Date
API                .                                       : API number
PROJECT_UPGRADE_TIME .         2021-03-18T21_24_50           : 
group              .         Good                          : 
~Parameter Information Block
#_______________________________________________________________________________
#
#PARAMETER_NAME    .UNIT     VALUE                         : DESCRIPTION
#_______________________________________________________________________________
SET                .         616ULN                        : 
PROJECT_UPGRADE_TIME .         2021-03-18T21_24_49           : 
TLFamily_AK4       .                                       : 
TLFamily_ALFAK     .                                       : 
TLFamily_AMPL      .                                       : 
TLFamily_DEPTH     .         Measured Depth                : 
TLFamily_DK1       .                                       : 
TLFamily_DK2       .                                       : 
TLFamily_DTK       .         Compressional Slowness        : 
TLFamily_QCBL      .                                       : 
TLFamily_T1        .         Travel Time 1                 : 
TLFamily_T2        .         Travel Time 2                 : 
group              .         prim                          : 
~Curve Information
#_______________________________________________________________________________
#
#LOGNAME           .UNIT     LOG_ID                        : DESCRIPTION
#_______________________________________________________________________________
DEPTH              .M                                      : 0 Depth curve 
AK4                .                                       : 2 Амплитуда - Волна по колонне - Канал1 
ALFAK              .дБ/м                                   : 1 Затухание - Волна по колонне 
AMPL               .                                       : 8 Коэффициент усиления ВС 
DK1                .дБ                                     : 3 Кривая ослабления - Волна по колонне - Канал1 
DK2                .дБ                                     : 4 Кривая ослабления - Волна по колонне - Канал2 
DTK                .мкс/м                                  : 5 ДельтаТ - Волна по породе 
QCBL               .                                       : 9 Контакт цемент-колонна 
T1                 .мкс                                    : 6 Время пробега - Волна по породе - Канал1 
T2                 .мкс                                    : 7 Время пробега - Волна по породе - Канал2 
~Ascii
# ...
552.2      1597.814   10.531     1          17.459     23.066     179.848    2          308.049    397.974   
552.4      2109.536   14.767     1          15.897     23.621     178.712    2          309.211    398.568   
552.6      2908.139   18.975     1          13.576     23.724     178.483    2          309.761    399.003   
552.8      3824.984   22.421     1          11.131     22.824     180.158    2          309.347    399.427   
553        4788.591   23.417     1          8.648      20.839     182.016    2          308.949    399.958   
553.2      5643.881   21.815     1          6.731      18.121     183.915    2          308.27     400.229   
553.4      6291.251   18.607     1          5.509      15.294     184.733    2          307.651    400.018   
553.6      6711.62    15.261     1          4.91       12.541     184.819    2          307.372    399.783   
553.8      7008.688   11.771     1          4.517      10.402     183.709    2          307.552    399.407   
554        7223.74    9.411      1          4.241      8.946      182.84     2          307.856    399.277   
554.2      7349.733   8.162      1          4.085      8.166      182.404    2          308.072    399.275   
554.4      7411.521   7.318      1          4.011      7.67       182.995    2          308.108    399.606   
554.6      7403.496   6.66       1          4.021      7.351      183.576    2          307.999    399.788   
554.8      7309.189   6.04       1          4.139      7.159      184.007    2          307.861    399.866   
555        7113.915   5.443      1          4.387      7.108      183.961    2          307.84     399.822   
555.2      6834.017   4.831      1          4.75       7.165      183.926    2          307.831    399.795   
555.4      6503.862   4.3        1          5.184      7.334      183.718    2          307.955    399.815   
555.6      6175.925   3.991      1          5.625      7.621      183.104    2          308.192    399.745   
555.8      5923.588   4.201      1          5.973      8.074      182.342    2          308.384    399.556   
556        5762.848   4.866      1          6.201      8.634      181.827    2          308.409    399.324   
556.2      5680.192   5.719      1          6.323      9.182      181.605    2          308.294    399.097   
556.4      5623.509   6.431      1          6.41       9.625      181.219    2          308.217    398.828   
556.6      5572.121   6.914      1          6.49       9.947      181.006    2          308.097    398.601   
556.8      5512.319   7.168      1          6.585      10.169     180.945    2          308.025    398.499   
557        5438.011   7.199      1          6.703      10.303     180.942    2          307.98     398.451   
557.2      5348.215   7.189      1          6.847      10.442     180.5      2          308.13     398.381   
557.4      5248.218   7.286      1          7.012      10.655     179.965    2          308.289    398.272   
557.6      5147.718   7.505      1          7.182      10.935     179.571    2          308.401    398.188   
557.8      5034.862   7.717      1          7.376      11.235     179.299    2          308.381    398.031   
558        4916.121   7.88       1          7.584      11.524     179.138    2          308.296    397.866   
558.2      4763.817   7.945      1          7.862      11.835     179.397    2          308.022    397.721   
558.4      4589.522   7.958      1          8.196      12.175     180.029    2          307.623    397.638   
558.6      4396.197   7.879      1          8.578      12.517     180.434    2          307.256    397.474   
558.8      4239.612   7.886      1          8.931      12.874     180.236    2          307.111    397.23    
559        4114.934   8.062      1          9.181      13.212     179.423    2          307.154    396.867   
559.2      4072.167   8.515      1          9.265      13.523     178.668    2          307.188    396.523   
559.4      4122.448   9.153      1          9.16       13.736     178.016    2          307.207    396.216   
559.6      4230.026   9.778      1          8.937      13.826     177.958    2          307.083    396.063   
559.8      4328.97    10.157     1          8.692      13.77      178.332    2          306.883    396.049   
560        4411.199   10.203     1          8.522      13.623     178.955    2          306.654    396.132   
560.2      4427.461   9.896      1          8.489      13.437     179.323    2          306.619    396.282   
560.4      4367.274   9.348      1          8.614      13.289     179.574    2          306.691    396.479   
560.6      4243.719   8.86       1          8.873      13.303     179.547    2          306.902    396.676   
560.8      4087.604   8.578      1          9.206      13.495     179.268    2          307.103    396.738   
561        3930.12    8.648      1          9.543      13.867     178.777    2          307.296    396.685   
561.2      3823.768   8.989      1          9.772      14.266     178.465    2          307.293    396.526   
561.4      3800.829   9.588      1          9.82       14.615     178.199    2          307.211    396.311   
561.6      3872.596   10.269     1          9.666      14.801     178.156    2          307.028    396.106   
561.8      3977.893   10.859     1          9.367      14.796     178.17     2          306.95     396.036   
562        4050.597   10.956     1          9.146      14.624     178.647    2          306.86     396.184   
562.2      4066.708   11.268     1          9.223      14.584     178.165    2          307.269    396.353   
562.4      3915.977   11.713     1          9.821      15.13      178.098    2          307.94     396.99    
562.6      3565.876   12.074     1          10.871     16.088     177.828    2          308.837    397.752   
562.8      3110.719   11.788     1          12.287     17.36      178.753    2          309.359    398.737   
563        2630.024   11.207     1          13.945     18.728     178.744    2          309.899    399.272   
563.2      2206.272   10.313     1          15.418     20.246     180.17     2          309.701    399.787   
563.4      1922.512   9.821      1          16.279     21.352     181.345    2          309.15     399.824   
563.6      1885.093   10.734     1          16.347     22.368     183.842    2          308.052    399.974   
563.8      2011.609   12.599     1          15.856     23.069     184.442    2          307.291    399.513   
564        2248.254   14.829     1          14.884     23.478     185.313    2          306.471    399.129   
564.2      2525.597   16.8       1          13.669     23.031     184.603    2          306.028    398.331   
564.4      2851.013   17.723     1          12.469     22.075     183.652    2          305.814    397.641   
564.6      3150.744   17.174     1          11.543     20.656     180.915    2          306.111    396.57    
564.8      3433.556   16.004     1          10.786     19.053     178.636    2          306.441    395.76    
565        3697.27    14.76      1          10.115     17.495     176.759    2          306.831    395.211   
565.2      3897.513   13.434     1          9.624      16.341     176.26     2          307.077    395.208   
565.4      4015.066   12.303     1          9.345      15.496     176.095    2          307.149    395.198   
565.6      4052.653   11.218     1          9.257      14.866     176.656    2          307.003    395.332   
565.8      4044.854   10.562     1          9.273      14.554     177.662    2          306.773    395.605   
566        4008.079   10.212     1          9.352      14.458     178.864    2          306.469    395.902   
566.2      3964.456   10.162     1          9.446      14.527     179.505    2          306.292    396.045   
566.4      3920.623   10.145     1          9.543      14.616     179.866    2          306.23     396.164   
566.6      3892.293   10.177     1          9.607      14.695     179.994    2          306.233    396.231   
