~Version
 VERS              .         2.0                           : CWLS LOG ASCII STANDARD - VERSION 2.0
 WRAP              .         NO                            : ONE LINE PER DEPTH STEP
 DLM               .         SPACE                         : DELIMITING CHARACTER(SPACE TAB OR COMMA)
~Well Information
#_______________________________________________________________________________
#
#PARAMETER_NAME    .UNIT     VALUE                         : DESCRIPTION
#_______________________________________________________________________________
STRT               .M        44                            : First reference value
STOP               .M        2769.2                        : Last reference value
STEP               .M        0.2                           : Step increment
NULL               .         -9999                         : Missing value
COMP               .                                       : Company
WELL               .         616                           : Well name
FLD                .                                       : Field
LOC                .                                       : Location
CNTY               .                                       : County
STAT               .                                       : State
CTRY               .                                       : Country
SRVC               .                                       : Service Company
DATE               .                                       : Date
API                .                                       : API number
PROJECT_UPGRADE_TIME .         2021-03-18T21_24_50           : 
group              .         Good                          : 
~Parameter Information Block
#_______________________________________________________________________________
#
#PARAMETER_NAME    .UNIT     VALUE                         : DESCRIPTION
#_______________________________________________________________________________
SET                .         D1160_D                       : 
OTHER              .         Программное обеспечение станции MONITOR-386EX 25/12/99 15_08_10   BGF V52 22/08/01 16_56_30   3.2_BGF_N_3070031: 
OTHER_10           .         Тарировки_                    : 
OTHER_11           .         TM.GRD = 0.00403*TM$.UE + -1.19: 
OTHER_12           .         MN.ATM = (7.1e-006*TM.GRD + 0.02017)*(MN$.UE + -3.03*TM.GRD + -1833): 
OTHER_13           .         Id error                      : 
OTHER_2            .         Kedr.exe версия 3.4.2.51      : 
OTHER_3            .         KedrData.dll версия 3.4.2.24  : 
OTHER_4            .         Драйвер версия 2.1.1.8        : 
OTHER_5            .         Мнемоники версия 3.3 S        : 
OTHER_6            .         Прибор_ КСА-М1                : 
OTHER_7            .         Номер прибора_ 265            : 
OTHER_8            .         Режим_ КСА-М1                 : 
OTHER_9            .         Форма_ ТЕРМОМЕТР              : 
PROJECT_UPGRADE_TIME .         2021-03-18T21_24_49           : 
TLFamily_DEPT      .         Measured Depth                : 
TLFamily_GK        .         Gamma Ray                     : 
TLFamily_GK$       .                                       : 
TLFamily_LM        .         Casing Collar locator         : 
TLFamily_METKA     .                                       : 
TLFamily_MN        .                                       : 
TLFamily_MN$       .                                       : 
TLFamily_RCOR      .                                       : 
TLFamily_SPID      .         Spontaneous Potential         : 
TLFamily_STD       .                                       : 
TLFamily_TENS      .         Cable Tension                 : 
TLFamily_TIME      .         Time                          : 
TLFamily_TM        .         Temperature                   : 
TLFamily_TM$       .         Temperature                   : 
TLFamily_VGD       .         Gas Volume                    : 
group              .         prim                          : 
~Curve Information
#_______________________________________________________________________________
#
#LOGNAME           .UNIT     LOG_ID                        : DESCRIPTION
#_______________________________________________________________________________
DEPT               .M                                      : 1 Глубина, м -    0.0 см 
GK                 .MKR/H                                  : 15 Гамма-активность, мкр./ч -  110.0 см 
GK$                .UE                                     : 12 Гамма-активность, усл.ед. -  110.0 см 
LM                 .                                       : 10 Локатор муфт,  -   20.0 см 
METKA              .                                       : 3 Метки,  -    0.0 см 
MN                 .ATM                                    : 14 Давление, атм. -  160.0 см 
MN$                .UE                                     : 8 Давление, усл.ед. -  160.0 см 
RCOR               .CM/KM                                  : 5 Коррекция по ролику, см/км -    0.0 см 
SPID               .M/H                                    : 2 Скорость, м/час -    0.0 см 
STD                .                                       : 11 Приток,  -  170.0 см 
TENS               .T                                      : 6 Натяжение кабеля, т -    0.0 см 
TIME               .S                                      : 4 Время, сек -    0.0 см 
TM                 .GRD                                    : 13 Температура, °C -  180.0 см 
TM$                .UE                                     : 7 Температура, усл.ед. -  180.0 см 
VGD                .                                       : 9 Влагомер,  -  170.0 см 
~Ascii
# ...
1308.2     8.25       358        67         0          117.23     7691       -1400      1892       14439      0          12838      44.834     11420      6365      
1308.4     8.29       358        53         0          117.258    7692       -1400      1889       14439      0          12838.37   44.839     11422      6366      
1308.6     8.32       358        80         0          117.262    7692       -1400      1892       14441      0          12838.77   44.846     11423      6365      
1308.8     8.4        365        97         1          117.282    7693       -1400      1883       14443      0          12839.14   44.851     11424      6365      
1309       8.48       370        74         0          117.302    7694       -1400      1885       14443      0          12839.52   44.858     11426      6366      
1309.2     8.54       370        61         0          117.321    7695       -1400      1889       14445      0          12839.91   44.862     11427      6366      
1309.4     8.58       370        75         0          117.339    7696       -1400      1887       14447      0          12840.29   44.866     11428      6366      
1309.6     8.6        370        86         0          117.341    7696       -1400      1889       14447      0          12840.66   44.873     11430      6367      
1309.8     8.62       370        91         0          117.36     7697       -1400      1892       14450      0          12841.04   44.878     11431      6367      
1310       8.63       370        90         2          117.379    7698       -1400      1895       14455      0          12841.46   44.885     11433      6367      
1310.2     8.61       366        103        0          117.4      7699       -1400      1897       14456      0          12841.84   44.893     11435      6367      
1310.4     8.54       360        91         0          117.419    7700       -1400      1900       14456      0          12842.21   44.897     11436      6367      
1310.6     8.5        360        101        0          117.439    7701       -1400      1901       14459      0          12842.58   44.905     11438      6367      
1310.8     8.48       360        91         0          117.459    7702       -1400      1899       14461      0          12842.97   44.909     11439      6367      
1311       8.46       360        105        0          117.478    7703       -1400      1899       14461      0          12843.36   44.913     11440      6367      
1311.2     8.44       360        113        0          117.498    7704       -1400      1901       14463      0          12843.74   44.92      11442      6367      
1311.4     8.42       357        277        0          117.517    7705       -1400      1903       14466      0          12844.11   44.925     11443      6367      
1311.6     8.35       351        210        0          117.539    7706       -1400      1901       14468      0          12844.49   44.931     11445      6367      
1311.8     8.3        351        183        0          117.559    7707       -1400      1898       14471      0          12844.87   44.937     11446      6366      
1312       8.27       351        125        0          117.563    7707       -1400      1894       14474      0          12845.26   44.944     11448      6365      
1312.2     8.25       351        125        0          117.59     7708       -1400      1891       14478      0          12845.64   44.952     11450      6364      
1312.4     8.24       351        114        0          117.617    7710       -1400      1888       14480      0          12846.01   44.956     11451      6365      
1312.6     8.23       351        78         0          117.637    7711       -1400      1887       14485      0          12846.39   44.96      11452      6368      
1312.8     8.21       350        86         0          117.657    7712       -1400      1888       14487      0          12846.77   44.97      11454      6367      
1313       8.21       350        207        0          117.676    7713       -1400      1887       14489      0          12847.16   44.979     11456      6369      
1313.2     8.2        350        249        0          117.696    7714       -1400      1891       14494      0          12847.53   44.984     11458      6368      
1313.4     8.2        350        175        0          117.715    7715       -1400      1893       14498      0          12847.92   44.992     11460      6368      
1313.6     8.19       350        148        0          117.735    7715       -1400      1895       14497      0          12848.29   45.002     11462      6366      
1313.8     8.19       350        109        0          117.746    7716       -1400      1891       14501      0          12848.67   45.01      11464      6367      
1314       8.19       350        92         0          117.762    7717       -1400      1889       14505      0          12849.04   45.018     11466      6365      
1314.2     8.31       365        69         0          117.786    7718       -1400      1892       14505      0          12849.43   45.025     11468      6370      
1314.4     8.41       369        139        0          117.793    7718       -1400      1889       14508      0          12849.82   45.033     11470      6370      
1314.6     8.49       369        217        0          117.813    7719       -1400      1886       14514      0          12850.19   45.041     11472      6369      
1314.8     8.53       369        175        0          117.832    7720       -1400      1889       14516      0          12850.56   45.049     11474      6368      
1315       8.57       369        200        0          117.852    7721       -1400      1892       14518      0          12850.92   45.056     11476      6369      
1315.2     8.59       369        6209       0          117.871    7722       -1400      1890       14522      0          12851.3    45.064     11477      6369      
1315.4     8.6        368        4107       0          117.891    7723       -1400      1887       14524      0          12851.68   45.071     11479      6368      
1315.6     8.6        368        2654       0          117.908    7724       -1400      1889       14526      0          12852.07   45.076     11480      6370      
1315.8     8.6        368        1711       0          117.91     7724       -1400      1887       14529      0          12852.46   45.087     11483      6373      
1316       8.6        368        1110       0          117.929    7725       -1400      1885       14532      0          12852.83   45.092     11484      6373      
1316.2     8.61       368        734        0          117.949    7726       -1400      1886       14534      0          12853.21   45.103     11487      6372      
1316.4     8.61       368        501        0          117.968    7727       -1400      1886       14537      0          12853.6    45.107     11488      6372      
1316.6     8.56       362        372        0          117.986    7728       -1400      1887       14542      0          12853.98   45.114     11490      6371      
1316.8     8.38       343        292        0          118.006    7729       -1400      1890       14545      0          12854.35   45.122     11492      6371      
1317       8.26       343        225        0          118.025    7730       -1400      1893       14548      0          12854.74   45.129     11494      6371      
1317.2     8.18       343        225        0          118.03     7730       -1400      1893       14550      0          12855.12   45.137     11496      6371      
1317.4     8.13       343        177        0          118.044    7731       -1400      1890       14551      0          12855.49   45.145     11498      6371      
1317.6     8.09       343        167        0          118.064    7732       -1400      1889       14554      0          12855.87   45.15      11499      6372      
1317.8     8.07       343        145        0          118.096    7733       -1400      1890       14559      0          12856.26   45.156     11500      6372      
