~Version
 VERS              .         2.0                           : CWLS LOG ASCII STANDARD - VERSION 2.0
 WRAP              .         NO                            : ONE LINE PER DEPTH STEP
 DLM               .         SPACE                         : DELIMITING CHARACTER(SPACE TAB OR COMMA)
~Well Information
#_______________________________________________________________________________
#
#PARAMETER_NAME    .UNIT     VALUE                         : DESCRIPTION
#_______________________________________________________________________________
STRT               .M        2647.6                        : First reference value
STOP               .M        2757.2                        : Last reference value
STEP               .M        0.1999997                     : Step increment
NULL               .         -9999                         : Missing value
COMP               .                                       : Company
WELL               .         616                           : Well name
FLD                .                                       : Field
LOC                .                                       : Location
CNTY               .                                       : County
STAT               .                                       : State
CTRY               .                                       : Country
SRVC               .                                       : Service Company
DATE               .                                       : Date
API                .                                       : API number
PROJECT_UPGRADE_TIME .         2021-03-18T21_24_50           : 
group              .         Good                          : 
~Parameter Information Block
#_______________________________________________________________________________
#
#PARAMETER_NAME    .UNIT     VALUE                         : DESCRIPTION
#_______________________________________________________________________________
SET                .         D7017_D                       : 
OTHER              .         Kedr.exe версия 2.1.2.32      : 
OTHER_10           .         TM.GRD = 0.00404*TM$.UE + 0.07: 
OTHER_11           .         MN.ATM = (6.33279e-006*TM.GRD + 0.02401)*(MN$.UE + 2.72*TM.GRD + -2018): 
OTHER_12           .         GK.MKR/H = GK$.UE / 43.5489 + 0: 
OTHER_13           .         RES.SM = 0.00476*CRES.UE - 1.51709: 
OTHER_14           .         PL.GSM3 = 0 + 0 * (PL.UE / 1) +  0 * (PL.UE / 1)^2: 
OTHER_15           .         Постоянная времени ГГП = 6 сек: 
OTHER_16           .         Постоянная времени ГК = 6 сек : 
OTHER_2            .         KedrData.dll версия 3.2.2.14  : 
OTHER_3            .         LasInf.dll версия 3.2.0.13    : 
OTHER_4            .         Драйвер версия 1.2.0.5        : 
OTHER_5            .         Прибор_ КСА-M1                : 
OTHER_6            .         Номер прибора_ 155+р204       : 
OTHER_7            .         Режим_ КСА-М1 + ГГП + Резистивиметр: 
OTHER_8            .         Форма_ 223\2                  : 
OTHER_9            .         Тарировки_                    : 
PROJECT_UPGRADE_TIME .         2021-03-18T21_24_50           : 
TLFamily_CRES      .                                       : 
TLFamily_DEPT      .         Measured Depth                : 
TLFamily_GK        .         Gamma Ray                     : 
TLFamily_GK$       .                                       : 
TLFamily_LM        .         Casing Collar locator         : 
TLFamily_METKA     .                                       : 
TLFamily_MN        .                                       : 
TLFamily_MN$       .                                       : 
TLFamily_PL        .                                       : 
TLFamily_PL_2      .                                       : 
TLFamily_RCOR      .                                       : 
TLFamily_RES       .         Mud Resistivity               : 
TLFamily_SPID      .         Spontaneous Potential         : 
TLFamily_STD       .                                       : 
TLFamily_TIME      .         Time                          : 
TLFamily_TM        .         Temperature                   : 
TLFamily_TM$       .         Temperature                   : 
TLFamily_VGD       .         Gas Volume                    : 
group              .         prim                          : 
~Curve Information
#_______________________________________________________________________________
#
#LOGNAME           .UNIT     LOG_ID                        : DESCRIPTION
#_______________________________________________________________________________
DEPT               .M                                      : 1 Глубина, м -    0.0 см 
CRES               .UE                                     : 9 Проводимость, усл.ед. -  222.0 см 
GK                 .MKR/H                                  : 16 Гамма-активность, мкр./ч -  106.0 см 
GK$                .UE                                     : 13 Гамма-активность, усл.ед. -  106.0 см 
LM                 .                                       : 11 Локатор муфт,  -   16.0 см 
METKA              .                                       : 3 Метки,  -    0.0 см 
MN                 .ATM                                    : 15 Давление, атм. -  160.0 см 
MN$                .UE                                     : 7 Давление, усл.ед. -  160.0 см 
PL                 .UE                                     : 10 Плотность, усл.ед. -  270.0 см 
PL_2               .GSM3                                   : 18 Плотность, г./см3 -  270.0 см 
RCOR               .CM/KM                                  : 5 Коррекция по ролику, см/км -    0.0 см 
RES                .SM                                     : 17 Проводимость,  -  222.0 см 
SPID               .M/H                                    : 2 Скорость, м/час -    0.0 см 
STD                .                                       : 12 Приток,  -  170.0 см 
TIME               .S                                      : 4 Время, сек -    0.0 см 
TM                 .GRD                                    : 14 Температура, °C -  180.0 см 
TM$                .UE                                     : 6 Температура, усл.ед. -  180.0 см 
VGD                .                                       : 8 Влагомер,  -  170.0 см 
~Ascii
# ...
2655.8     1263       8.05       322        152        0          244.038    11918      14         0          0          4.4948     -260       9657       9066.1     49.196     12160      6644      
2656       1261       8.29       361        117        0          244.074    11920      14         0          0          4.4869     -260       9654       9063.27    49.196     12160      6645      
2656.2     1261       8.24       352        123        0          244.077    11920      14         0          0          4.4853     -320       9648       9060.49    49.157     12150      6642      
2656.4     1259       8.9        384        123        0          244.118    11922      14         0          0          4.4742     -260       9647       9057.79    49.12      12141      6647      
2656.6     1263       9.05       409        143        0          244.141    11923      14         0          0          4.4963     -260       9644       9054.87    49.129     12143      6644      
2656.8     1261       8.51       360        293        0          244.151    11923      14         0          0          4.4853     -260       9641       9052.11    49.117     12140      6647      
2657       1262       9.13       371        144        0          244.173    11924      14         0          0          4.49       -260       9638       9049.19    49.128     12143      6645      
2657.2     1262       9.93       424        145        0          244.195    11925      14         0          0          4.49       -260       9637       9046.43    49.112     12139      6641      
2657.4     1261       9.69       450        130        0          244.218    11926      15         0          0          4.4853     -260       9635       9043.64    49.093     12134      6639      
2657.6     1261       8.74       424        591        0          244.241    11927      14         0          0          4.4851     -260       9630       9040.88    49.083     12132      6638      
2657.8     1261       8.07       355        3597       0          244.261    11928      15         0          0          4.4853     -260       9627       9038.1     49.073     12130      6639      
2658       1260       8.33       360        4567       0          244.266    11928      15         0          0          4.4821     -260       9625       9035.29    49.043     12122      6640      
2658.2     1257       8.37       378        7244       0          244.322    11931      14         0          0          4.4678     -260       9621       9032.51    49.019     12116      6637      
2658.4     1258       7.72       338        276        0          244.304    11930      13         0          0          4.471      -260       9613       9029.72    49.009     12114      6636      
2658.6     1258       7.77       328        152        0          244.351    11932      14         0          0          4.4694     -260       9611       9026.82    49.001     12112      6631      
2658.8     1257       8.04       346        414        0          244.345    11932      15         0          0          4.4662     -260       9609       9024.05    48.982     12107      6636      
2659       1260       8.14       353        2655       0          244.342    11932      14         0          0          4.4805     -260       9603       9021.26    48.942     12097      6630      
2659.2     1259       8.41       349        159        0          244.388    11934      14         0          0          4.4757     -237       9599       9018.5     48.918     12091      6627      
2659.4     1257       9.09       392        167        0          244.412    11935      14         0          0          4.4662     -260       9597       9015.71    48.897     12086      6628      
2659.6     1257       9.38       411        180        0          244.412    11935      13         0          0          4.4677     -260       9592       9012.94    48.893     12085      6631      
2659.8     1259       9.21       406        176        1          244.435    11936      14         0          0          4.4741     -260       9588       9010.1     48.893     12085      6631      
2660       1255       9.02       394        196        0          244.483    11938      14         0          0          4.4551     -260       9585       9005.55    48.881     12082      6634      
2660.2     1256       9.12       381        1766       0          244.497    11939      15         0          0          4.4599     -260       9583       9002.77    48.877     12081      6635      
2660.4     1255       9.59       414        2950       0          244.501    11939      13         0          0          4.4567     -260       9583       8999.98    48.865     12078      6629      
2660.6     1256       9.17       435        157        0          244.507    11939      14         0          0          4.463      -260       9583       8997.19    48.831     12070      6625      
2660.8     1253       8.09       387        120        0          244.544    11941      14         0          0          4.4472     -260       9579       8994.43    48.813     12065      6628      
2661       1253       7.13       336        851        0          244.566    11942      13         0          0          4.4472     -260       9577       8991.65    48.783     12058      6632      
2661.2     1254       7.18       302        1367       0          244.557    11942      15         0          0          4.4504     -260       9572       8988.89    48.767     12054      6639      
2661.4     1253       6.95       328        128        0          244.611    11944      14         0          0          4.4472     -260       9571       8985.97    48.76      12052      6630      
2661.6     1253       6.59       285        135        0          244.632    11945      14         0          0          4.4456     -260       9566       8983.33    48.742     12048      6633      
2661.8     1256       6.73       298        127        0          244.655    11946      15         0          0          4.4599     -320       9560       8980.55    48.716     12041      6630      
2662       1253       6.39       288        124        0          244.652    11946      14         0          0          4.4488     -260       9555       8977.66    48.704     12038      6639      
2662.2     1254       5.95       264        147        0          244.698    11948      15         0          0          4.452      -260       9550       8974.87    48.679     12032      6629      
2662.4     1250       5.79       247        137        0          244.696    11948      14         0          0          4.4345     -260       9548       8972.09    48.663     12028      6641      
2662.6     1249       6.15       249        138        0          244.743    11950      14         0          0          4.4298     -260       9544       8969.32    48.643     12023      6641      
2662.8     1249       6.72       278        143        0          244.79     11952      14         0          0          4.4298     -260       9541       8966.48    48.631     12020      6641      
2663       1253       6.88       301        117        0          244.78     11952      13         0          0          4.4456     -260       9540       8963.64    48.619     12017      6637      
2663.2     1249       6.82       300        126        0          244.787    11952      13         0          0          4.4266     -260       9539       8960.87    48.604     12013      6643      
2663.4     1250       6.76       298        186        0          244.81     11953      13         0          0          4.4345     -300       9534       8958.09    48.598     12012      6642      
2663.6     1250       6.47       285        3346       0          244.841    11954      14         0          0          4.4328     -260       9532       8955.31    48.59      12010      6645      
2663.8     1250       6.36       269        1581       0          244.856    11955      14         0          0          4.4344     -260       9531       8952.53    48.577     12007      6644      
