~Version
 VERS              .         2.0                           : CWLS LOG ASCII STANDARD - VERSION 2.0
 WRAP              .         NO                            : ONE LINE PER DEPTH STEP
 DLM               .         SPACE                         : DELIMITING CHARACTER(SPACE TAB OR COMMA)
~Well Information
#_______________________________________________________________________________
#
#PARAMETER_NAME    .UNIT     VALUE                         : DESCRIPTION
#_______________________________________________________________________________
STRT               .M        2689.8                        : First reference value
STOP               .M        2754.4                        : Last reference value
STEP               .M        0.1999995                     : Step increment
NULL               .         -9999                         : Missing value
COMP               .                                       : Company
WELL               .         616                           : Well name
FLD                .                                       : Field
LOC                .                                       : Location
CNTY               .                                       : County
STAT               .                                       : State
CTRY               .                                       : Country
SRVC               .                                       : Service Company
DATE               .                                       : Date
API                .                                       : API number
PROJECT_UPGRADE_TIME .         2021-03-18T21_24_50           : 
group              .         Good                          : 
~Parameter Information Block
#_______________________________________________________________________________
#
#PARAMETER_NAME    .UNIT     VALUE                         : DESCRIPTION
#_______________________________________________________________________________
SET                .         D7018_D                       : 
OTHER              .         Kedr.exe версия 2.1.2.32      : 
OTHER_10           .         TM.GRD = 0.00404*TM$.UE + 0.07: 
OTHER_11           .         MN.ATM = (6.33279e-006*TM.GRD + 0.02401)*(MN$.UE + 2.72*TM.GRD + -2018): 
OTHER_12           .         GK.MKR/H = GK$.UE / 43.5489 + 0: 
OTHER_13           .         RES.SM = 0.00476*CRES.UE - 1.51709: 
OTHER_14           .         PL.GSM3 = 0 + 0 * (PL.UE / 1) +  0 * (PL.UE / 1)^2: 
OTHER_15           .         Постоянная времени ГГП = 6 сек: 
OTHER_16           .         Постоянная времени ГК = 6 сек : 
OTHER_2            .         KedrData.dll версия 3.2.2.14  : 
OTHER_3            .         LasInf.dll версия 3.2.0.13    : 
OTHER_4            .         Драйвер версия 1.2.0.5        : 
OTHER_5            .         Прибор_ КСА-M1                : 
OTHER_6            .         Номер прибора_ 155+р204       : 
OTHER_7            .         Режим_ КСА-М1 + ГГП + Резистивиметр: 
OTHER_8            .         Форма_ 223\2                  : 
OTHER_9            .         Тарировки_                    : 
PROJECT_UPGRADE_TIME .         2021-03-18T21_24_50           : 
TLFamily_CRES      .                                       : 
TLFamily_DEPT      .         Measured Depth                : 
TLFamily_GK        .         Gamma Ray                     : 
TLFamily_GK$       .                                       : 
TLFamily_LM        .         Casing Collar locator         : 
TLFamily_METKA     .                                       : 
TLFamily_MN        .                                       : 
TLFamily_MN$       .                                       : 
TLFamily_PL        .                                       : 
TLFamily_PL_2      .                                       : 
TLFamily_RCOR      .                                       : 
TLFamily_RES       .         Mud Resistivity               : 
TLFamily_SPID      .         Spontaneous Potential         : 
TLFamily_STD       .                                       : 
TLFamily_TIME      .         Time                          : 
TLFamily_TM        .         Temperature                   : 
TLFamily_TM$       .         Temperature                   : 
TLFamily_VGD       .         Gas Volume                    : 
group              .         prim                          : 
~Curve Information
#_______________________________________________________________________________
#
#LOGNAME           .UNIT     LOG_ID                        : DESCRIPTION
#_______________________________________________________________________________
DEPT               .M                                      : 1 Глубина, м -    0.0 см 
CRES               .UE                                     : 9 Проводимость, усл.ед. -  222.0 см 
GK                 .MKR/H                                  : 16 Гамма-активность, мкр./ч -  106.0 см 
GK$                .UE                                     : 13 Гамма-активность, усл.ед. -  106.0 см 
LM                 .                                       : 11 Локатор муфт,  -   16.0 см 
METKA              .                                       : 3 Метки,  -    0.0 см 
MN                 .ATM                                    : 15 Давление, атм. -  160.0 см 
MN$                .UE                                     : 7 Давление, усл.ед. -  160.0 см 
PL                 .UE                                     : 10 Плотность, усл.ед. -  270.0 см 
PL_2               .GSM3                                   : 18 Плотность, г./см3 -  270.0 см 
RCOR               .CM/KM                                  : 5 Коррекция по ролику, см/км -    0.0 см 
RES                .SM                                     : 17 Проводимость,  -  222.0 см 
SPID               .M/H                                    : 2 Скорость, м/час -    0.0 см 
STD                .                                       : 12 Приток,  -  170.0 см 
TIME               .S                                      : 4 Время, сек -    0.0 см 
TM                 .GRD                                    : 14 Температура, °C -  180.0 см 
TM$                .UE                                     : 6 Температура, усл.ед. -  180.0 см 
VGD                .                                       : 8 Влагомер,  -  170.0 см 
~Ascii
# ...
2722.6     1239       8.24       359        692        0          250.296    12192      13         0          0          4.3805     -260       9082       9732.95    46.153     11407      6662      
2722.8     1239       8.37       371        119        0          250.333    12193      14         0          0          4.3805     -260       9084       9730.2     46.169     11411      6661      
2723       1240       8          353        272        0          250.336    12193      13         0          0          4.3853     -190       9090       9727.44    46.203     11419      6655      
2723.2     1241       7.86       328        267        0          250.338    12193      14         0          0          4.3901     -260       9099       9724.56    46.227     11425      6666      
2723.4     1242       8.47       360        143        0          250.342    12193      13         0          0          4.3948     -260       9103       9721.8     46.243     11429      6667      
2723.6     1243       8.41       389        142        0          250.354    12193      13         0          0          4.3979     -260       9105       9719.03    46.274     11437      6677      
2723.8     1245       7.26       367        143        0          250.383    12194      14         0          0          4.4068     -260       9107       9716.16    46.297     11442      6679      
2724       1247       6.7        281        846        0          250.407    12195      14         0          0          4.4186     -260       9115       9713.39    46.336     11452      6677      
2724.2     1249       7.3        285        4537       0          250.426    12196      14         0          0          4.4297     -260       9120       9710.63    46.398     11467      6664      
2724.4     1250       7.34       319        149        0          250.435    12196      14         0          0          4.4329     -213       9125       9707.73    46.414     11471      6663      
2724.6     1250       7.38       321        171        0          250.453    12197      13         0          0          4.4329     -232       9125       9704.98    46.428     11475      6668      
2724.8     1253       7.42       318        171        0          250.466    12197      13         0          0          4.4472     -260       9132       9702.22    46.44      11478      6670      
2725       1255       7.64       331        165        0          250.473    12197      14         0          0          4.4567     -260       9144       9699.35    46.478     11487      6658      
2725.2     1257       7.66       336        195        0          250.504    12198      15         0          0          4.4662     -260       9159       9696.58    46.526     11499      6657      
2725.4     1256       7.56       332        169        0          250.51     12198      14         0          0          4.4615     -260       9173       9693.69    46.579     11512      6660      
2725.6     1257       7.64       324        167        0          250.54     12199      13         0          0          4.4679     -260       9186       9690.94    46.624     11523      6675      
2725.8     1257       8.36       323        140        0          250.547    12199      13         0          0          4.4662     -260       9194       9688.04    46.669     11534      6659      
2726       1260       8.71       387        155        0          250.587    12200      14         0          0          4.4781     -213       9198       9685.26    46.789     11564      6665      
2726.2     1261       7.93       347        156        0          250.585    12200      14         0          0          4.4853     -260       9208       9682.36    46.84      11577      6661      
2726.4     1263       7.88       333        162        0          250.611    12201      13         0          0          4.4948     -260       9219       9679.58    46.887     11588      6660      
2726.6     1265       8.29       362        184        0          250.626    12201      14         0          0          4.5043     -320       9229       9676.79    46.902     11592      6661      
2726.8     1265       8.3        359        195        0          250.614    12200      14         0          0          4.5043     -260       9247       9673.9     46.954     11605      6661      
2727       1266       8.87       346        158        0          250.658    12201      13         0          0          4.5091     -260       9270       9671.12    47.047     11628      6666      
2727.2     1267       10.66      379        165        0          250.697    12203      13         0          0          4.5138     -260       9297       9668.28    47.131     11649      6669      
2727.4     1270       12.03      476        143        0          250.692    12202      14         0          0          4.5281     -260       9312       9665.44    47.183     11662      6676      
2727.6     1273       12.61      553        166        0          250.711    12202      14         0          0          4.5408     -260       9324       9662.66    47.273     11684      6667      
2727.8     1273       12.43      536        169        0          250.749    12203      14         0          0          4.5408     -260       9337       9659.9     47.413     11719      6676      
2728       1272       12.87      535        180        0          250.726    12202      14         0          0          4.5377     -260       9343       9657.12    47.52      11745      6667      
2728.2     1279       14.04      588        181        0          250.783    12204      15         0          0          4.571      -280       9354       9654.35    47.528     11747      6666      
2728.4     1282       15.03      623        165        0          250.789    12204      13         0          0          4.5852     -260       9373       9651.57    47.589     11762      6667      
2728.6     1285       15.84      687        164        0          250.816    12204      14         0          0          4.5995     -260       9397       9648.65    47.703     11790      6668      
2728.8     1285       15.44      705        163        0          250.828    12205      14         0          0          4.6011     -260       9411       9646.02    47.781     11810      6680      
2729       1287       14.58      646        200        0          250.831    12204      14         0          0          4.609      -260       9418       9643.11    47.839     11824      6673      
2729.2     1289       14.44      629        198        0          250.868    12206      14         0          0          4.6185     -260       9420       9640.34    47.9       11839      6670      
2729.4     1290       14.43      652        230        0          250.853    12205      14         0          0          4.6217     -190       9420       9637.56    47.927     11846      6668      
2729.6     1291       13.25      590        198        0          250.884    12206      15         0          0          4.6281     -260       9428       9634.79    47.941     11849      6667      
2729.8     1292       12.75      539        157        0          250.904    12206      13         0          0          4.6329     -260       9437       9632.01    47.991     11862      6670      
2730       1294       13.22      583        181        1          250.885    12205      14         0          0          4.6423     -320       9458       9629.25    48.08      11884      6668      
2730.2     1295       12.66      584        231        0          250.951    12208      14         0          0          4.6471     -320       9467       9624.68    48.127     11895      6669      
2730.4     1295       11.76      531        197        0          250.95     12208      13         0          0          4.6471     -260       9471       9621.97    48.134     11897      6669      
2730.6     1297       11.4       506        206        0          250.986    12209      15         0          0          4.6566     -260       9474       9619.19    48.188     11910      6669      
