~Version
 VERS              .         2.0                           : CWLS LOG ASCII STANDARD - VERSION 2.0
 WRAP              .         NO                            : ONE LINE PER DEPTH STEP
 DLM               .         SPACE                         : DELIMITING CHARACTER(SPACE TAB OR COMMA)
~Well Information
#_______________________________________________________________________________
#
#PARAMETER_NAME    .UNIT     VALUE                         : DESCRIPTION
#_______________________________________________________________________________
STRT               .M        11                            : First reference value
STOP               .M        2775.8                        : Last reference value
STEP               .M        0.2                           : Step increment
NULL               .         -9999                         : Missing value
COMP               .                                       : Company
WELL               .         616                           : Well name
FLD                .                                       : Field
LOC                .                                       : Location
CNTY               .                                       : County
STAT               .                                       : State
CTRY               .                                       : Country
SRVC               .                                       : Service Company
DATE               .                                       : Date
API                .                                       : API number
PROJECT_UPGRADE_TIME .         2021-03-18T21_24_50           : 
group              .         Good                          : 
~Parameter Information Block
#_______________________________________________________________________________
#
#PARAMETER_NAME    .UNIT     VALUE                         : DESCRIPTION
#_______________________________________________________________________________
SET                .         D1813_D                       : 
OTHER              .         Программное обеспечение станции MONITOR-386EX 25/12/99 15_08_10   BGF V52 22/08/01 16_56_30   3.1_SNGF___BGF_N_092049: 
OTHER_10           .         Тарировки_                    : 
OTHER_11           .         TM.GRD = 0.00403*TM$.UE + -1.07: 
OTHER_12           .         MN.ATM = (9.34907e-006*TM.GRD + 0.02171)*(MN$.UE + -7.93*TM.GRD + -1787): 
OTHER_13           .         GK.MKR/H = LM. / 42.4676      : 
OTHER_14           .         GK.FLT = 0.1*GK.MKR/H[-1] + (1-0.1)*GK.MKR/H[0]: 
OTHER_2            .         Kedr.exe версия 3.4.2.51      : 
OTHER_3            .         KedrData.dll версия 3.4.2.24  : 
OTHER_4            .         Драйвер версия 2.1.1.3        : 
OTHER_5            .         Мнемоники версия 3.3 S        : 
OTHER_6            .         Прибор_ КСА-Т4                : 
OTHER_7            .         Номер прибора_ 03             : 
OTHER_8            .         Режим_ КСА-Т4                 : 
OTHER_9            .         Форма_ КВА.                   : 
PROJECT_UPGRADE_TIME .         2021-03-18T21_24_49           : 
TLFamily_DEPT      .         Measured Depth                : 
TLFamily_GK        .         Gamma Ray                     : 
TLFamily_GK$       .                                       : 
TLFamily_GK_2      .         Gamma Ray                     : 
TLFamily_LM        .         Casing Collar locator         : 
TLFamily_METKA     .                                       : 
TLFamily_MN        .                                       : 
TLFamily_MN$       .                                       : 
TLFamily_RCOR      .                                       : 
TLFamily_SPID      .         Spontaneous Potential         : 
TLFamily_TENS      .         Cable Tension                 : 
TLFamily_TIME      .         Time                          : 
TLFamily_TM        .         Temperature                   : 
TLFamily_TM$       .         Temperature                   : 
group              .         prim                          : 
~Curve Information
#_______________________________________________________________________________
#
#LOGNAME           .UNIT     LOG_ID                        : DESCRIPTION
#_______________________________________________________________________________
DEPT               .M                                      : 1 Глубина, м -    0.0 см 
GK                 .MKR/H                                  : 13 Гамма-активность, мкр./ч -  110.0 см 
GK$                .UE                                     : 10 Гамма-активность, усл.ед. -  110.0 см 
GK_2               .FLT                                    : 14 Гамма-активность фильтрованная, мкр./ч -  110.0 см 
LM                 .                                       : 9 Локатор муфт,  -   20.0 см 
METKA              .                                       : 3 Метки,  -    0.0 см 
MN                 .ATM                                    : 12 Давление, атм. -  160.0 см 
MN$                .UE                                     : 8 Давление, усл.ед. -  160.0 см 
RCOR               .CM/KM                                  : 5 Коррекция по ролику, см/км -    0.0 см 
SPID               .M/H                                    : 2 Скорость, м/час -    0.0 см 
TENS               .T                                      : 6 Натяжение кабеля, т -    0.0 см 
TIME               .S                                      : 4 Время, сек -    0.0 см 
TM                 .GRD                                    : 11 Температура, °C -  170.0 см 
TM$                .UE                                     : 7 Температура, усл.ед. -  170.0 см 
~Ascii
# ...
926.2      10.22      434        10.22      441        0          85.054     5918       -1288      -1810      -0.03      10669.81   34.087     8724      
926.4      10.22      434        10.22      509        0          85.067     5919       -1288      -1818      -0.03      10669.41   34.095     8726      
926.6      10.22      434        10.21      539        0          85.08      5920       -1288      -1812      -0.03      10668.99   34.096     8726      
926.8      10.22      434        10.18      461        0          85.102     5921       -1288      -1807      -0.03      10668.59   34.1       8727      
927        10.14      431        10.11      526        0          85.124     5922       -1288      -1807      -0.03      10668.21   34.104     8728      
927.2      10.05      427        10.05      687        0          85.131     5922       -1288      -1817      -0.03      10667.8    34.109     8729      
927.4      10.05      427        10.05      510        0          85.151     5923       -1288      -1817      -0.03      10667.41   34.113     8730      
927.6      10.05      427        10.04      572        0          85.174     5924       -1288      -1812      -0.03      10667      34.118     8731      
927.8      10.05      427        10.02      638        0          85.195     5925       -1288      -1813      -0.03      10666.62   34.12      8732      
928        10.05      427        9.94       545        0          85.198     5925       -1288      -1816      -0.03      10666.24   34.125     8733      
928.2      10.05      427        9.73       695        0          85.223     5926       -1288      -1819      -0.03      10665.84   34.128     8734      
928.4      9.18       390        9.18       577        0          85.246     5927       -1288      -1814      -0.03      10665.46   34.135     8736      
928.6      9.18       390        9.18       598        0          85.259     5928       -1288      -1817      -0.03      10665.05   34.136     8736      
928.8      9.18       390        9.18       643        0          85.271     5929       -1288      -1821      -0.03      10664.67   34.14      8737      
929        9.18       390        9.18       713        0          85.295     5930       -1288      -1819      -0.03      10664.25   34.145     8738      
929.2      9.18       390        9.17       823        0          85.318     5931       -1288      -1807      -0.03      10663.86   34.15      8739      
929.4      9.18       390        9.15       883        0          85.322     5931       -1288      -1804      -0.03      10663.48   34.158     8741      
929.6      9.11       387        9.09       545        0          85.341     5932       -1288      -1809      -0.03      10663.07   34.162     8742      
929.8      9.07       385        9.07       597        2          85.365     5933       -1288      -1812      -0.03      10662.66   34.166     8743      
930        9.07       385        9.06       681        0          85.388     5934       -1287      -1815      -0.03      10662.26   34.168     8744      
930.2      9.07       385        9.06       735        0          85.408     5935       -1287      -1818      -0.03      10661.88   34.171     8745      
930.4      9.07       385        9.06       664        0          85.413     5935       -1287      -1820      -0.03      10661.46   34.175     8746      
930.6      9.07       385        9.04       673        0          85.438     5936       -1287      -1815      -0.03      10661.05   34.18      8747      
930.8      9.03       383        8.98       689        0          85.451     5937       -1287      -1812      -0.03      10660.68   34.184     8748      
931        8.9        378        8.9        574        0          85.462     5938       -1287      -1815      -0.03      10660.31   34.188     8749      
931.2      8.9        378        8.9        633        0          85.486     5939       -1287      -1818      -0.03      10659.91   34.193     8750      
931.4      8.9        378        8.9        646        0          85.493     5939       -1287      -1817      -0.03      10659.51   34.197     8751      
931.6      8.9        378        8.91       624        0          85.512     5940       -1287      -1817      -0.03      10659.11   34.202     8752      
931.8      8.9        378        8.92       564        0          85.535     5941       -1287      -1820      -0.03      10658.71   34.206     8753      
932        8.9        378        8.95       485        0          85.558     5942       -1287      -1824      -0.03      10658.31   34.209     8754      
932.2      9.04       384        9.05       469        1          85.562     5942       -1287      -1821      -0.03      10657.92   34.211     8755      
932.4      9.07       385        9.07       509        0          85.583     5943       -1287      -1816      -0.03      10657.53   34.219     8756      
932.6      9.07       385        9.07       559        0          85.606     5944       -1287      -1819      -0.03      10657.12   34.224     8758      
932.8      9.07       385        9.08       505        0          85.621     5945       -1287      -1814      -0.03      10656.72   34.225     8758      
933        9.07       385        9.12       553        0          85.631     5946       -1287      -1810      -0.03      10656.33   34.232     8760      
933.2      9.07       385        9.23       669        0          85.654     5947       -1287      -1812      -0.03      10655.95   34.237     8761      
933.4      9.38       398        9.54       823        0          85.678     5948       -1287      -1815      -0.03      10655.56   34.241     8762      
933.6      9.82       417        9.82       1075       0          85.702     5949       -1287      -1814      -0.03      10655.17   34.246     8763      
933.8      9.82       417        9.82       1836       0          85.706     5949       -1287      -1809      -0.03      10654.76   34.25      8764      
934        9.82       417        9.82       2821       0          85.726     5950       -1287      -1808      -0.03      10654.37   34.255     8765      
934.2      9.82       417        9.82       3999       0          85.75      5951       -1287      -1810      -0.03      10653.98   34.259     8767      
934.4      9.82       417        9.82       5206       0          85.774     5952       -1287      -1812      -0.03      10653.56   34.263     8768      
934.6      9.82       417        9.84       7971       0          85.792     5953       -1287      -1808      -0.03      10653.18   34.268     8769      
934.8      9.87       419        9.87       1125       0          85.798     5953       -1287      -1809      -0.03      10652.79   34.272     8770      
935        9.87       419        9.86       602        0          85.821     5954       -1287      -1812      -0.03      10652.39   34.273     8770      
935.2      9.87       419        9.86       649        0          85.834     5955       -1287      -1814      -0.03      10652.01   34.28      8772      
935.4      9.87       419        9.84       637        0          85.846     5956       -1287      -1817      -0.03      10651.6    34.285     8773      
935.6      9.87       419        9.78       519        0          85.869     5957       -1287      -1818      -0.03      10651.19   34.29      8774      
935.8      9.87       419        9.63       540        0          85.892     5958       -1287      -1813      -0.03      10650.79   34.294     8775      
936        9.34       396        9.14       758        0          85.898     5958       -1287      -1807      -0.03      10650.4    34.298     8776      
936.2      8.81       374        8.81       737        0          85.916     5959       -1287      -1805      -0.03      10650.01   34.303     8777      
936.4      8.81       374        8.81       865        0          85.939     5960       -1287      -1807      -0.03      10649.62   34.307     8778      
