~Version
 VERS              .         2.0                           : CWLS LOG ASCII STANDARD - VERSION 2.0
 WRAP              .         NO                            : ONE LINE PER DEPTH STEP
 DLM               .         SPACE                         : DELIMITING CHARACTER(SPACE TAB OR COMMA)
~Well Information
#_______________________________________________________________________________
#
#PARAMETER_NAME    .UNIT     VALUE                         : DESCRIPTION
#_______________________________________________________________________________
STRT               .M        19.65                         : First reference value
STOP               .M        2766.85                       : Last reference value
STEP               .M        0.2                           : Step increment
NULL               .         -9999                         : Missing value
COMP               .                                       : Company
WELL               .         616                           : Well name
FLD                .                                       : Field
LOC                .                                       : Location
CNTY               .                                       : County
STAT               .                                       : State
CTRY               .                                       : Country
SRVC               .                                       : Service Company
DATE               .                                       : Date
API                .                                       : API number
PROJECT_UPGRADE_TIME .         2021-03-18T21_24_50           : 
group              .         Good                          : 
~Parameter Information Block
#_______________________________________________________________________________
#
#PARAMETER_NAME    .UNIT     VALUE                         : DESCRIPTION
#_______________________________________________________________________________
SET                .         D7016_D_2                     : 
NPR                .         155                           : Номер прибора
OTHER              .         Kedr.exe версия 2.1.2.32      : 
OTHER_10           .         TM.GRD = 0.00404*TM$.UE + 0.07: 
OTHER_11           .         MN.ATM = (6.33279e-006*TM.GRD + 0.02401)*(MN$.UE + 2.72*TM.GRD + -2018): 
OTHER_12           .         GK.MKR/H = GK$.UE / 43.5489 + 0: 
OTHER_13           .         RES.SM = 0.00476*CRES.UE - 1.51709: 
OTHER_14           .         PL.GSM3 = 0 + 0 * (PL.UE / 1) +  0 * (PL.UE / 1)^2: 
OTHER_15           .         Постоянная времени ГГП = 6 сек: 
OTHER_16           .         Постоянная времени ГК = 6 сек : 
OTHER_2            .         KedrData.dll версия 3.2.2.14  : 
OTHER_3            .         LasInf.dll версия 3.2.0.13    : 
OTHER_4            .         Драйвер версия 1.2.0.5        : 
OTHER_5            .         Прибор_ КСА-M1                : 
OTHER_6            .         Номер прибора_ 155+р204       : 
OTHER_7            .         Режим_ КСА-М1 + ГГП + Резистивиметр: 
OTHER_8            .         Форма_ 223\2                  : 
OTHER_9            .         Тарировки_                    : 
PR                 .         КСА-Т7 М1                     : Тип прибора
PROJECT_UPGRADE_TIME .         2021-03-18T21_24_50           : 
PRTY               .         ПП-223_2                      : Номер партии
SRV                .         ЦКРС                          : Заказчик
SRVC               .         Лузин  А.Б.                   : Начальник партии
TLFamily_DEPT      .         Measured Depth                : 
TLFamily_LM        .         Casing Collar locator         : 
TLFamily_MN        .                                       : 
TLFamily_SPID      .         Spontaneous Potential         : 
TLFamily_TM        .         Temperature                   : 
group              .         second                        : 
~Curve Information
#_______________________________________________________________________________
#
#LOGNAME           .UNIT     LOG_ID                        : DESCRIPTION
#_______________________________________________________________________________
DEPT               .M                                      : Depth curve 
LM                 .е.ацп                                  : Локация муфт 
MN                 .атм                                    : Манометрия, атм 
SPID               .м/ч                                    : Скорость записи,м/час 
TM                 .град.С                                 : Термометрия,град.С 
~Ascii
19.65      -9999      -9999      -9999      -9999     
19.85      -9999      -9999      -9999      -9999     
20.05      -9999      -9999      2896       -9999     
20.25      237        -9999      3206.999   -9999     
20.45      296        -9999      3517.999   -9999     
20.65      296        -9999      3859.999   -9999     
20.85      296        -9999      4209.999   -9999     
21.05      304        -9999      4350       -9999     
21.25      304        -9999      4284       -9999     
21.45      245        -9999      3626.001   -9999     
21.65      222        -0.26      2978.001   -9999     
21.85      222        -0.24      2690.001   14.75     
22.05      174        -0.22      1853.001   14.76     
22.25      138        -0.2       1660       14.77     
22.45      114        -0.19      1489       14.77     
22.65      86         -0.17      1397       14.78     
22.85      90         -0.14      1410       14.79     
23.05      315        -0.12      1809.999   14.8      
23.25      315        -0.1       2258.999   14.81     
23.45      245        -0.07      2619.999   14.83     
23.65      229        -0.04      2620       14.86     
23.85      506        -0.01      2690       14.88     
24.05      506        0          3157.999   14.91     
24.25      6246.991   0.01       3626.999   14.92     
24.45      6247       0.03       3981.999   14.94     
24.65      3897.004   0.05       4330.999   14.94     
24.85      3897       0.07       4540       14.94     
25.05      3897       0.09       4540       14.93     
25.25      2465.002   0.1        4540       14.93     
25.45      2465       0.11       4674       14.93     
25.65      1568.001   0.14       4809       14.93     
25.85      1568       0.16       4948       14.93     
26.05      1568       0.18       5130       14.93     
26.25      1061.001   0.2        5313       14.93     
26.45      1061       0.21       5440       14.93     
26.65      1061       0.23       5440       14.93     
26.85      726        0.26       5440       14.93     
27.05      726        0.27       5148       14.93     
27.25      501        0.29       4857       14.93     
27.45      501        0.31       4769       14.94     
27.65      501        0.32       4817       14.94     
27.85      414        0.34       4860       14.95     
28.05      414        0.36       4860       14.95     
28.25      324        0.38       4860       14.96     
28.45      324        0.4        4860       14.97     
28.65      324        0.42       4860       14.98     
28.85      294        0.44       4867       14.99     
29.05      294        0.46       5009       14.99     
29.25      309        0.48       5151       15        
29.45      309        0.5        5250       15.01     
29.65      309        0.52       5250       15.02     
29.85      256        0.54       5250       15.02     
30.05      256        0.56       5271       15.03     
30.25      256        0.58       5319       15.04     
30.45      311        0.6        5366       15.04     
30.65      311        0.62       5437       15.05     
30.85      311        0.64       5519       15.05     
31.05      287        0.65       5601       15.06     
31.25      287        0.67       5630       15.06     
31.45      287        0.69       5630       15.07     
31.65      304        0.71       5630       15.07     
31.85      304        0.74       5726       15.08     
32.05      304        0.76       5855       15.08     
32.25      317        0.78       5984       15.09     
32.45      317        0.8        6116       15.09     
32.65      317        0.81       6261       15.09     
32.85      323        0.83       6407       15.09     
33.05      323        0.85       6530       15.1      
33.25      323        0.86       6530       15.1      
33.45      319        0.88       6530       15.1      
33.65      319        0.91       6530       15.1      
33.85      319        0.93       6489       15.1      
34.05      319        0.95       6425       15.11     
34.25      594        0.97       6362       15.11     
34.45      594        0.99       6275       15.11     
34.65      594        1.02       6175       15.12     
34.85      538        1.04       6075       15.12     
35.05      538        1.06       6020       15.12     
35.25      538        1.08       6020       15.12     
35.45      5047.997   1.1        6020       15.13     
35.65      5048       1.11       6035       15.13     
35.85      5048       1.13       6097       15.13     
36.05      3155.001   1.15       6158       15.13     
36.25      3155       1.17       6226       15.14     
36.45      3155       1.2        6330       15.14     
36.65      1992.001   1.22       6434       15.14     
36.85      1992       1.23       6538       15.14     
37.05      1992       1.25       6590       15.15     
37.25      1992       1.26       6590       15.15     
37.45      1302       1.29       6590       15.16     
37.65      1302       1.31       6578       15.16     
37.85      1302       1.33       6537       15.17     
38.05      970        1.35       6497       15.17     
38.25      970        1.37       6460       15.18     
38.45      970        1.4        6460       15.18     
38.65      681        1.42       6460       15.18     
38.85      681        1.44       5828       15.19     
39.05      681        1.46       4986       15.19     
39.25      501        1.48       3398.001   15.2      
39.45      334        1.5        2911       15.2      
39.65      259        1.51       830.001    15.21     
39.85      179        1.53       1049       15.21     
40.05      119        1.55       1641       15.22     
40.25      162        1.57       1980       15.22     
40.45      116        1.6        1181       15.22     
40.65      88         1.62       1150       15.23     
40.85      97         1.67       1560       15.23     
41.05      76         1.7        1340       15.25     
41.25      99         1.71       1542       15.26     
41.45      106        1.74       1943       15.27     
41.65      150        1.75       2180       15.28     
41.85      169        1.75       1822       15.29     
42.05      143        1.79       1410       15.29     
42.25      173        1.8        1470       15.29     
42.45      166        1.82       1640       15.28     
42.65      173        1.83       1340       15.28     
42.85      151        1.86       1509       15.28     
43.05      110        1.87       1900       15.28     
43.25      169        1.88       1920       15.28     
43.45      176        1.91       2110       15.28     
43.65      137        1.92       1114       15.28     
43.85      150        1.95       900        15.28     
44.05      132        1.97       1264       15.28     
44.25      183        1.99       1914       15.29     
44.45      176        2.02       2180       15.29     
44.65      140        2.04       1952       15.29     
44.85      141        2.04       1090       15.3      
45.05      116        2.06       1245       15.3      
45.25      261        2.09       1693       15.3      
45.45      277        2.1        2300       15.3      
45.65      239        2.12       2252       15.3      
45.85      161        2.14       1604       15.31     
46.05      380        2.17       1340       15.31     
46.25      5167       2.19       1626       15.31     
46.45      6041       2.21       1965       15.31     
46.65      3822       2.22       2050       15.31     
46.85      3822       2.24       1989       15.31     
47.05      2420       2.26       1340       15.31     
47.25      990        2.29       1470       15.31     
47.45      641        2.31       1220       15.31     
47.65      417        2.33       1340       15.32     
47.85      217        2.35       1743       15.32     
48.05      181        2.37       2050       15.33     
48.25      161        2.4        2019       15.33     
48.45      180        2.43       1780       15.33     
48.65      153        2.43       1600       15.33     
