~Version
 VERS              .         2.0                           : CWLS LOG ASCII STANDARD - VERSION 2.0
 WRAP              .         NO                            : ONE LINE PER DEPTH STEP
 DLM               .         SPACE                         : DELIMITING CHARACTER(SPACE TAB OR COMMA)
~Well Information
#_______________________________________________________________________________
#
#PARAMETER_NAME    .UNIT     VALUE                         : DESCRIPTION
#_______________________________________________________________________________
STRT               .M        3.4                           : First reference value
STOP               .M        832.4                         : Last reference value
STEP               .M        0.2                           : Step increment
NULL               .         -9999                         : Missing value
COMP               .                                       : Company
WELL               .         616                           : Well name
FLD                .                                       : Field
LOC                .                                       : Location
CNTY               .                                       : County
STAT               .                                       : State
CTRY               .                                       : Country
SRVC               .                                       : Service Company
DATE               .                                       : Date
API                .                                       : API number
PROJECT_UPGRADE_TIME .         2021-03-18T21_24_50           : 
group              .         Good                          : 
~Parameter Information Block
#_______________________________________________________________________________
#
#PARAMETER_NAME    .UNIT     VALUE                         : DESCRIPTION
#_______________________________________________________________________________
SET                .         ULN                           : 
PROJECT_UPGRADE_TIME .         2021-03-18T21_24_50           : 
TLFamily_AK4       .                                       : 
TLFamily_ALFAK     .                                       : 
TLFamily_AMPL      .                                       : 
TLFamily_DEPTH     .         Measured Depth                : 
TLFamily_DK1       .                                       : 
TLFamily_DK2       .                                       : 
TLFamily_DTK       .         Compressional Slowness        : 
TLFamily_QCBL      .                                       : 
TLFamily_T1        .         Travel Time 1                 : 
TLFamily_T2        .         Travel Time 2                 : 
group              .         prim                          : 
~Curve Information
#_______________________________________________________________________________
#
#LOGNAME           .UNIT     LOG_ID                        : DESCRIPTION
#_______________________________________________________________________________
DEPTH              .M                                      : 0 Depth curve 
AK4                .                                       : 2 Амплитуда - Волна по колонне - Канал1 
ALFAK              .дБ/м                                   : 1 Затухание - Волна по колонне 
AMPL               .                                       : 8 Коэффициент усиления ВС 
DK1                .дБ                                     : 3 Кривая ослабления - Волна по колонне - Канал1 
DK2                .дБ                                     : 4 Кривая ослабления - Волна по колонне - Канал2 
DTK                .мкс/м                                  : 5 ДельтаТ - Волна по породе 
QCBL               .                                       : 9 Контакт цемент-колонна 
T1                 .мкс                                    : 6 Время пробега - Волна по породе - Канал1 
T2                 .мкс                                    : 7 Время пробега - Волна по породе - Канал2 
~Ascii
# ...
821        7874.479   16.762     1          12.539     20.92      183.873    2          362.016    453.953   
821.2      8335.014   17.203     1          12.015     20.616     184.015    2          362.102    454.11    
821.4      8436.739   16.68      1          11.911     20.25      183.502    2          362.602    454.355   
821.6      8538.466   16.442     1          11.806     20.027     183.412    2          363.103    454.81    
821.8      9127.053   17.766     1          11.25      20.133     183.268    2          363.167    454.801   
822        9431.701   17.975     1          10.959     19.947     185.363    2          362.591    455.274   
822.2      9736.351   18.076     1          10.668     19.706     185.634    2          362.016    454.834   
822.4      9323.601   17.178     1          11.047     19.635     185.618    2          362.071    454.881   
822.6      9093.064   17.12      1          11.264     19.824     184.228    2          362.263    454.378   
822.8      8440.017   16.816     1          11.929     20.336     183.07     2          362.848    454.384   
823        8017.504   16.388     1          12.375     20.57      183.015    2          363.241    454.749   
823.2      7727.068   16.754     1          12.675     21.052     183.131    2          363.135    454.701   
823.4      7859.144   17.372     1          12.528     21.214     184.097    2          362.636    454.686   
823.6      8097.082   18.352     1          12.268     21.444     183.825    2          362.256    454.169   
823.8      8187.153   18.472     1          12.171     21.407     183.768    2          362.218    454.102   
824        8304.365   17.871     1          12.047     20.982     183.13     2          362.237    453.803   
824.2      8468.387   17.739     1          11.88      20.75      184.378    2          362.191    454.381   
824.4      8648.199   17.548     1          11.697     20.471     185.387    2          362.302    454.996   
824.6      8800.87    18.008     1          11.542     20.546     186.601    2          362.355    455.656   
824.8      8800.87    17.698     1          11.542     20.391     185.578    2          362.355    455.145   
825        8800.87    17.199     1          11.542     20.142     184.681    2          362.355    454.696   
825.2      9375.504   16.346     1          11.024     19.197     186.062    2          362.391    455.423   
825.4      9604.7     16.532     1          10.824     18.147     187.336    2          362.97     456.639   
825.6      9488.456   17.13      1          10.941     16.842     185.773    2          368.896    457.039   
825.8      8797.578   18.144     1          11.576     15.859     179.279    2          374.786    459.682   
826        8452.141   18.471     1          11.893     17.283     177.764    2          380.132    464.27    
826.2      8452.141   17.033     1          11.893     19.337     181.694    2          380.132    470.98    
826.4      8087.671   13.944     1          12.327     22.019     184.611    2          380.899    473.206   
826.6      7358.733   13.7       1          13.194     22.764     182.604    2          382.645    472.788   
826.8      6816.424   14.625     1          13.813     22.794     182.951    2          381.5      471.407   
827        8305.175   16.544     1          12.407     21.475     192.11     2          376.696    471.182   
827.2      10158.39   14.962     1          10.568     18.844     203.511    2          370.913    472.26    
827.4      14658.77   13.956     1          7.408      16.689     205.781    2          367.471    470.638   
827.6      17492.56   16.592     1          5.84       15.643     198.92     2          366.92     466.657   
827.8      19305.45   18.041     1          4.744      15.272     187.463    2          366.198    460.206   
828        18284.56   20.299     1          5.217      15.367     180.931    2          366.028    456.494   
828.2      13852.46   17.735     1          8.291      15.453     182.441    2          364.014    455.236   
828.4      10441.26   15.178     1          10.892     16.776     186.289    2          362.171    455.316   
828.6      7222.65    14.17      1          14.019     18.644     190.069    2          359.689    454.725   
828.8      6509.452   13.814     1          15.07      21.223     188.103    2          358.845    452.897   
829        5796.253   14.876     1          16.12      22.804     186.792    2          358        451.397   
829.2      4974.828   14.274     1          16.5       23.637     189.379    2          357.879    451.325   
829.4      5305.228   16.553     1          15.965     24.242     190.359    2          358.047    451.984   
829.6      5717.614   18.402     1          15.312     24.513     191.718    2          358.141    452.756   
829.8      7134.939   20.597     1          13.568     23.867     186.611    2          359.577    452.883   
830        8306.237   19.989     1          12.212     22.206     186.35     2          360.929    454.105   
830.2      10776.96   21.44      1          9.916      20.636     184.905    2          363.658    456.111   
830.4      12158.37   19.919     1          8.858      18.818     185.168    2          364.959    457.544   
830.6      14842.15   20.201     1          7.067      17.167     185.092    2          366.233    458.78    
830.8      17324.68   19.14      1          5.798      15.368     185.469    2          366.649    459.384   
831        19930.6    18.787     1          4.478      13.871     187.226    2          367.141    460.755   
831.2      21234.14   16.584     1          3.892      12.184     187.574    2          367.66     461.448   
831.4      21446.99   14.616     1          3.806      11.114     189.577    2          367.253    462.042   
831.6      21536.43   13.386     1          3.769      10.463     190.574    2          366.771    462.059   
831.8      21858.52   12.902     1          3.641      10.092     193.363    2          365.548    462.23    
832        22091.16   12.523     1          3.549      9.811      196.122    2          364.808    462.87    
832.2      22323.79   12.436     1          3.457      9.676      198.705    2          364.068    463.421   
832.4      22323.81   12.656     1          3.457      9.785      199.908    2          364.068    464.022   
