~Version
 VERS              .         2.0                           : CWLS LOG ASCII STANDARD - VERSION 2.0
 WRAP              .         NO                            : ONE LINE PER DEPTH STEP
 DLM               .         SPACE                         : DELIMITING CHARACTER(SPACE TAB OR COMMA)
~Well Information
#_______________________________________________________________________________
#
#PARAMETER_NAME    .UNIT     VALUE                         : DESCRIPTION
#_______________________________________________________________________________
STRT               .M        2696.4                        : First reference value
STOP               .M        2750.4                        : Last reference value
STEP               .M        0.2                           : Step increment
NULL               .         -9999                         : Missing value
COMP               .                                       : Company
WELL               .         616                           : Well name
FLD                .                                       : Field
LOC                .                                       : Location
CNTY               .                                       : County
STAT               .                                       : State
CTRY               .                                       : Country
SRVC               .                                       : Service Company
DATE               .                                       : Date
API                .                                       : API number
PROJECT_UPGRADE_TIME .         2021-03-18T21_24_50           : 
group              .         Good                          : 
~Parameter Information Block
#_______________________________________________________________________________
#
#PARAMETER_NAME    .UNIT     VALUE                         : DESCRIPTION
#_______________________________________________________________________________
SET                .         D1804_D                       : 
OTHER              .         Программное обеспечение станции MONITOR-386EX 25/12/99 15_08_10   BGF V52 22/08/01 16_56_30   3.1_SNGF___BGF_N_092049: 
OTHER_10           .         Тарировки_                    : 
OTHER_11           .         RGD.M3/SUT = 0.822396 * RGD.UE + 26.7014: 
OTHER_2            .         Kedr.exe версия 3.4.2.51      : 
OTHER_3            .         KedrData.dll версия 3.4.2.24  : 
OTHER_4            .         Драйвер версия 2.1.0.2        : 
OTHER_5            .         Мнемоники версия 3.3 S        : 
OTHER_6            .         Прибор_ Гранат                : 
OTHER_7            .         Номер прибора_ 1229           : 
OTHER_8            .         Режим_ КСА_Гранат             : 
OTHER_9            .         Форма_ КВА                    : 
PROJECT_UPGRADE_TIME .         2021-03-18T21_24_49           : 
TLFamily_DEPT      .         Measured Depth                : 
TLFamily_METKA     .                                       : 
TLFamily_RCOR      .                                       : 
TLFamily_RGD       .                                       : 
TLFamily_RGD_2     .                                       : 
TLFamily_SPID      .         Spontaneous Potential         : 
TLFamily_TENS      .         Cable Tension                 : 
TLFamily_TIME      .         Time                          : 
group              .         prim                          : 
~Curve Information
#_______________________________________________________________________________
#
#LOGNAME           .UNIT     LOG_ID                        : DESCRIPTION
#_______________________________________________________________________________
DEPT               .M                                      : 1 Глубина, м -    0.0 см 
METKA              .                                       : 3 Метки,  -    0.0 см 
RCOR               .CM/KM                                  : 5 Коррекция по ролику, см/км -    0.0 см 
RGD                .UE                                     : 7 Расход, имп/мин -  232.0 см 
RGD_2              .M3/SUT                                 : 8 Расход, м3/сут -  232.0 см 
SPID               .M/H                                    : 2 Скорость, м/час -    0.0 см 
TENS               .T                                      : 6 Натяжение кабеля, т -    0.0 см 
TIME               .S                                      : 4 Время, сек -    0.0 см 
~Ascii
2696.4     -9999      -9999      -9999      -9999      -9999      -9999      -9999     
2696.6     -9999      -650       -9999      -9999      -222       0.19       3171.17   
2696.8     0          -650       -9999      -9999      -216       0.17       3167.99   
2697       0          -650       -9999      -9999      -224       0.17       3164.48   
2697.2     0          -650       -9999      -9999      -208       0.17       3161.09   
2697.4     0          -650       -9999      -9999      -207       0.17       3157.69   
2697.6     0          -650       -9999      -9999      -202       0.17       3154.3    
2697.8     0          -650       -9999      -9999      -205       0.19       3151      
2698       0          -650       -9999      -9999      -195       0.17       3147.41   
2698.2     0          -650       -9999      -9999      -213       0.17       3144.02   
2698.4     0          -650       -9999      -9999      -211       0.19       3140.72   
2698.6     0          -650       -9999      -9999      -216       0.17       3137.33   
2698.8     0          -650       -9999      -9999      -213       0.19       3133.94   
2699       0          -650       465        409.22     -214       0.19       3130.55   
2699.2     0          -650       448        395.3      -216       0.17       3127.14   
2699.4     0          -650       443        391.17     -187       0.17       3123.75   
2699.6     0          -650       455        400.86     -200       0.19       3120.16   
2699.8     0          -650       449        395.93     -216       0.17       3116.97   
2700       2          -650       451        397.79     -200       0.17       3113.52   
2700.2     0          -642       445        392.54     -222       0.17       3108.78   
2700.4     0          -642       448        394.92     -222       0.17       3105.38   
2700.6     0          -642       443        391.16     -221       0.17       3101.98   
2700.8     0          -642       439        387.76     -210       0.19       3098.8    
2701       0          -642       447        394.21     -209       0.17       3095.09   
2701.2     0          -642       446        393.19     -208       0.17       3091.7    
2701.4     0          -642       453        399.13     -205       0.17       3088.41   
2701.6     0          -642       461        405.54     -209       0.17       3085.02   
2701.8     0          -642       458        403.51     -206       0.19       3081.63   
2702       0          -642       461        405.69     -205       0.19       3078.33   
2702.2     0          -642       459        403.78     -215       0.17       3074.83   
2702.4     0          -642       450        396.71     -221       0.17       3071.44   
2702.6     0          -642       452        398.77     -221       0.17       3067.84   
2702.8     0          -642       449        396.04     -225       0.17       3064.66   
2703       0          -642       453        399.63     -222       0.17       3061.16   
2703.2     0          -642       439        387.86     -220       0.17       3057.77   
2703.4     0          -642       447        394.11     -203       0.17       3054.38   
2703.6     0          -642       454        399.96     -204       0.17       3050.97   
2703.8     0          -642       449        395.86     -203       0.17       3047.78   
2704       0          -642       457        402.91     -183       0.17       3044.19   
2704.2     0          -642       457        402.2      -207       0.17       3040.69   
2704.4     0          -642       463        407.71     -209       0.17       3037.39   
2704.6     0          -642       460        404.82     -205       0.17       3034      
2704.8     0          -642       457        402.87     -221       0.17       3030.61   
2705       0          -642       461        405.59     -229       0.17       3027.22   
2705.2     0          -642       458        402.98     -229       0.17       3023.81   
2705.4     0          -642       454        399.78     -225       0.17       3020.42   
2705.6     0          -642       456        402.1      -229       0.17       3017.13   
2705.8     0          -642       453        399.64     -221       0.17       3013.64   
2706       0          -642       460        405.39     -217       0.19       3010.14   
2706.2     0          -642       447        394.53     -204       0.17       3006.75   
2706.4     0          -642       455        400.66     -207       0.17       3003.36   
2706.6     0          -642       454        399.98     -203       0.17       3000.06   
2706.8     0          -642       453        399.57     -202       0.17       2996.77   
2707       0          -642       454        399.91     -203       0.17       2993.27   
2707.2     0          -642       459        404.22     -207       0.17       2989.78   
2707.4     0          -642       466        409.98     -209       0.17       2986.48   
2707.6     0          -642       478        419.44     -208       0.17       2983.09   
2707.8     0          -642       494        433.26     -206       0.17       2979.69   
2708       0          -642       501        438.39     -207       0.17       2976.41   
2708.2     0          -642       500        438.08     -204       0.17       2972.91   
2708.4     0          -642       504        441.12     -225       0.17       2969.61   
2708.6     1          -642       510        446.45     -216       0.09       2966.22   
2708.8     0          -642       504        440.86     -210       0.19       2962.83   
2709       0          -642       505        442.3      -211       0.19       2959.33   
2709.2     0          -642       493        431.92     -197       0.19       2955.94   
2709.4     0          -642       493        432.4      -222       0.19       2952.55   
2709.6     0          -642       493        431.87     -225       0.19       2949.25   
2709.8     0          -642       497        435.67     -226       0.19       2945.96   
2710       2          -642       502        439.91     -225       0.19       2942.56   
2710.2     0          -635       494        432.94     -218       0.17       2937.77   
2710.4     0          -635       498        436.3      -219       0.17       2934.38   
2710.6     0          -635       490        429.79     -222       0.17       2931.08   
2710.8     0          -635       498        436.01     -215       0.19       2927.78   
2711       0          -635       491        430.56     -225       0.19       2924.28   
2711.2     0          -635       490        429.57     -221       0.17       2921      
2711.4     0          -635       491        430.13     -218       0.17       2917.59   
2711.6     0          -635       493        432.46     -220       0.17       2914.2    
2711.8     0          -635       493        431.85     -225       0.19       2910.81   
2712       0          -635       499        437.08     -221       0.19       2907.42   
2712.2     0          -635       492        430.95     -225       0.19       2904.13   
2712.4     0          -635       482        423.48     -225       0.17       2900.73   
2712.6     1          -635       475        417.16     -222       0.19       2897.33   
2712.8     0          -635       463        407.52     -229       0.17       2893.94   
2713       0          -635       457        402.63     -221       0.17       2890.64   
2713.2     0          -635       457        402.59     -215       0.19       2887.25   
2713.4     0          -635       450        396.64     -222       0.17       2883.66   
2713.6     0          -635       457        402.93     -220       0.17       2880.36   
2713.8     0          -635       470        413.11     -226       0.17       2877.06   
2714       0          -635       468        411.57     -222       0.19       2873.58   
2714.2     0          -635       477        418.69     -215       0.19       2870.17   
2714.4     0          -635       474        416.87     -218       0.17       2866.78   
