~Version
 VERS              .         2.0                           : CWLS LOG ASCII STANDARD - VERSION 2.0
 WRAP              .         NO                            : ONE LINE PER DEPTH STEP
 DLM               .         SPACE                         : DELIMITING CHARACTER(SPACE TAB OR COMMA)
~Well Information
#_______________________________________________________________________________
#
#PARAMETER_NAME    .UNIT     VALUE                         : DESCRIPTION
#_______________________________________________________________________________
STRT               .M        2648.2                        : First reference value
STOP               .M        2755.2                        : Last reference value
STEP               .M        0.2                           : Step increment
NULL               .         -9999                         : Missing value
COMP               .                                       : Company
WELL               .         616                           : Well name
FLD                .                                       : Field
LOC                .                                       : Location
CNTY               .                                       : County
STAT               .                                       : State
CTRY               .                                       : Country
SRVC               .                                       : Service Company
DATE               .                                       : Date
API                .                                       : API number
PROJECT_UPGRADE_TIME .         2021-03-18T21_24_50           : 
group              .         Good                          : 
~Parameter Information Block
#_______________________________________________________________________________
#
#PARAMETER_NAME    .UNIT     VALUE                         : DESCRIPTION
#_______________________________________________________________________________
SET                .         D7022_D                       : 
OTHER              .         Kedr.exe версия 2.1.2.32      : 
OTHER_10           .         TM.GRD = 0.00404*TM$.UE + 0.07: 
OTHER_11           .         MN.ATM = (6.33279e-006*TM.GRD + 0.02401)*(MN$.UE + 2.72*TM.GRD + -2018): 
OTHER_12           .         GK.MKR/H = GK$.UE / 43.5489 + 0: 
OTHER_13           .         RES.SM = 0.00476*CRES.UE - 1.51709: 
OTHER_14           .         PL.GSM3 = 0 + 0 * (PL.UE / 1) +  0 * (PL.UE / 1)^2: 
OTHER_15           .         Постоянная времени ГГП = 6 сек: 
OTHER_16           .         Постоянная времени ГК = 6 сек : 
OTHER_2            .         KedrData.dll версия 3.2.2.14  : 
OTHER_3            .         LasInf.dll версия 3.2.0.13    : 
OTHER_4            .         Драйвер версия 1.2.0.5        : 
OTHER_5            .         Прибор_ КСА-M1                : 
OTHER_6            .         Номер прибора_ 155+р204       : 
OTHER_7            .         Режим_ КСА-М1 + ГГП + Резистивиметр: 
OTHER_8            .         Форма_ 223\2                  : 
OTHER_9            .         Тарировки_                    : 
PROJECT_UPGRADE_TIME .         2021-03-18T21_24_50           : 
TLFamily_CRES      .                                       : 
TLFamily_DEPT      .         Measured Depth                : 
TLFamily_GK        .         Gamma Ray                     : 
TLFamily_GK$       .                                       : 
TLFamily_LM        .         Casing Collar locator         : 
TLFamily_METKA     .                                       : 
TLFamily_MN        .                                       : 
TLFamily_MN$       .                                       : 
TLFamily_PL        .                                       : 
TLFamily_PL_2      .                                       : 
TLFamily_RCOR      .                                       : 
TLFamily_RES       .         Mud Resistivity               : 
TLFamily_SPID      .         Spontaneous Potential         : 
TLFamily_STD       .                                       : 
TLFamily_TIME      .         Time                          : 
TLFamily_TM        .         Temperature                   : 
TLFamily_TM$       .         Temperature                   : 
TLFamily_VGD       .         Gas Volume                    : 
group              .         prim                          : 
~Curve Information
#_______________________________________________________________________________
#
#LOGNAME           .UNIT     LOG_ID                        : DESCRIPTION
#_______________________________________________________________________________
DEPT               .M                                      : 1 Глубина, м -    0.0 см 
CRES               .UE                                     : 9 Проводимость, усл.ед. -  222.0 см 
GK                 .MKR/H                                  : 16 Гамма-активность, мкр./ч -  106.0 см 
GK$                .UE                                     : 13 Гамма-активность, усл.ед. -  106.0 см 
LM                 .                                       : 11 Локатор муфт,  -   16.0 см 
METKA              .                                       : 3 Метки,  -    0.0 см 
MN                 .ATM                                    : 15 Давление, атм. -  160.0 см 
MN$                .UE                                     : 7 Давление, усл.ед. -  160.0 см 
PL                 .UE                                     : 10 Плотность, усл.ед. -  270.0 см 
PL_2               .GSM3                                   : 18 Плотность, г./см3 -  270.0 см 
RCOR               .CM/KM                                  : 5 Коррекция по ролику, см/км -    0.0 см 
RES                .SM                                     : 17 Проводимость,  -  222.0 см 
SPID               .M/H                                    : 2 Скорость, м/час -    0.0 см 
STD                .                                       : 12 Приток,  -  170.0 см 
TIME               .S                                      : 4 Время, сек -    0.0 см 
TM                 .GRD                                    : 14 Температура, °C -  180.0 см 
TM$                .UE                                     : 6 Температура, усл.ед. -  180.0 см 
VGD                .                                       : 8 Влагомер,  -  170.0 см 
~Ascii
# ...
2738.4     1223       9.98       434        201        0          352.946    16389      14         0          0          4.3028     510        9824       14434.55   50.174     12402      6678      
2738.6     1224       9.94       429        147        0          352.954    16388      14         0          0          4.3098     566        9847       14435.81   50.286     12430      6668      
2738.8     1224       9.89       429        91         0          353.575    16413      14         0          0          4.3107     580        9868       14437.13   50.406     12460      6671      
2739       1228       9.88       430        96         0          355.509    16492      14         0          0          4.3282     580        9887       14438.4    50.512     12486      6674      
2739.2     1231       9.88       430        117        0          353.102    16392      14         0          0          4.3409     570        9909       14439.68   50.623     12513      6676      
2739.4     1233       10.12      461        93         0          353.15     16394      13         0          0          4.3513     568        9931       14440.98   50.704     12533      6678      
2739.6     1236       10.35      461        105        0          354.751    16459      14         0          0          4.3647     545        9950       14442.32   50.811     12560      6678      
2739.8     1238       11.07      526        125        0          354.565    16451      14         0          0          4.3758     580        9970       14443.59   50.928     12589      6678      
2740       1239       11.56      526        107        0          356.662    16536      13         0          0          4.3805     510        9992       14444.86   51.013     12610      6673      
2740.2     1241       11.59      505        99         1          356.032    16509      14         0          0          4.3901     580        10019      14446.79   51.152     12644      6669      
2740.4     1243       11.6       505        108        0          356.338    16521      14         0          0          4.398      580        10046      14448.11   51.318     12685      6671      
2740.6     1244       11.16      458        137        0          355.844    16499      14         0          0          4.4043     534        10070      14449.44   51.457     12720      6670      
2740.8     1248       10.85      458        122        0          356.322    16518      14         0          0          4.4221     510        10097      14450.78   51.61      12757      6673      
2741       1249       10.55      446        105        0          355.732    16493      14         0          0          4.4289     580        10120      14452.09   51.691     12778      6669      
2741.2     1254       10.38      449        98         0          354.998    16463      14         0          0          4.452      580        10145      14453.36   51.787     12801      6667      
2741.4     1255       10.35      449        96         0          354.675    16449      13         0          0          4.4547     580        10170      14454.63   51.865     12821      6665      
2741.6     1257       10.44      470        133        0          354.395    16436      13         0          0          4.4655     545        10197      14455.88   52.004     12855      6662      
2741.8     1260       10.62      470        115        0          356.969    16540      14         0          0          4.4821     580        10251      14457.21   52.187     12900      6653      
2742       1265       10.65      463        112        0          358.012    16582      14         0          0          4.5043     580        10282      14458.48   52.424     12959      6663      
2742.2     1266       10.64      463        84         0          357.098    16543      13         0          0          4.507      557        10317      14459.82   52.602     13003      6660      
2742.4     1267       10.6       459        113        0          355.525    16478      13         0          0          4.5131     510        10349      14461.13   52.776     13046      6660      
2742.6     1272       10.57      459        125        0          354.846    16449      15         0          0          4.5361     580        10377      14462.4    52.91      13079      6663      
2742.8     1274       10.64      467        105        0          355.364    16470      14         0          0          4.5472     510        10401      14463.67   53.042     13112      6656      
2743       1278       10.68      467        99         0          355.098    16458      14         0          0          4.5662     580        10422      14465      53.138     13136      6663      
2743.2     1280       10.47      441        100        0          355.444    16471      14         0          0          4.5773     580        10445      14466.32   53.255     13165      6649      
2743.4     1283       10.3       441        119        0          355.027    16453      14         0          0          4.5924     580        10471      14467.59   53.366     13192      6657      
2743.6     1286       10.36      455        122        0          354.57     16433      14         0          0          4.6043     510        10497      14468.86   53.515     13229      6651      
2743.8     1288       10.4       454        101        0          355.621    16475      14         0          0          4.6138     557        10525      14470.19   53.709     13277      6656      
2744       1290       10.36      449        124        0          356.116    16494      14         0          0          4.6257     580        10561      14471.44   53.894     13323      6646      
2744.2     1293       10.26      431        110        0          356.582    16512      14         0          0          4.636      580        10593      14472.73   54.11      13376      6638      
2744.4     1295       9.98       422        145        0          356.775    16519      14         0          0          4.6471     580        10626      14474.04   54.338     13433      6654      
2744.6     1299       9.84       424        118        0          359.207    16617      14         0          0          4.6646     530        10656      14475.36   54.469     13465      6656      
2744.8     1300       9.91       435        88         0          357.837    16560      14         0          0          4.6733     545        10689      14476.63   54.675     13516      6647      
2745       1300       9.87       416        97         0          358.009    16567      13         0          0          4.6709     580        10722      14477.96   54.844     13558      6646      
2745.2     1306       9.55       402        81         0          359.352    16621      15         0          0          4.6995     580        10750      14479.23   54.906     13573      6648      
2745.4     1306       9.41       405        96         0          358.055    16566      15         0          0          4.7011     580        10783      14480.5    55.054     13610      6643      
2745.6     1312       9.36       405        107        0          358.155    16570      14         0          0          4.7257     545        10822      14481.82   55.231     13654      6642      
2745.8     1312       9.45       424        113        0          357.915    16559      14         0          0          4.7267     522        10848      14483.15   55.327     13678      6633      
2746       1315       9.59       424        128        0          358.4      16578      14         0          0          4.7423     580        10876      14484.42   55.45      13708      6630      
2746.2     1317       9.57       402        158        0          357.65     16546      14         0          0          4.7534     522        10908      14485.69   55.648     13757      6636      
2746.4     1321       9.4        402        92         0          357.48     16538      14         0          0          4.7722     580        10944      14487      55.85      13807      6624      
