~Version
 VERS              .         2.0                           : CWLS LOG ASCII STANDARD - VERSION 2.0
 WRAP              .         NO                            : ONE LINE PER DEPTH STEP
 DLM               .         SPACE                         : DELIMITING CHARACTER(SPACE TAB OR COMMA)
~Well Information
#_______________________________________________________________________________
#
#PARAMETER_NAME    .UNIT     VALUE                         : DESCRIPTION
#_______________________________________________________________________________
STRT               .M        2669.6                        : First reference value
STOP               .M        2776.19984                    : Last reference value
STEP               .M        0.1999997                     : Step increment
NULL               .         -9999                         : Missing value
COMP               .                                       : Company
WELL               .         616                           : Well name
FLD                .                                       : Field
LOC                .                                       : Location
CNTY               .                                       : County
STAT               .                                       : State
CTRY               .                                       : Country
SRVC               .                                       : Service Company
DATE               .                                       : Date
API                .                                       : API number
PROJECT_UPGRADE_TIME .         2021-03-18T21_24_50           : 
group              .         Good                          : 
~Parameter Information Block
#_______________________________________________________________________________
#
#PARAMETER_NAME    .UNIT     VALUE                         : DESCRIPTION
#_______________________________________________________________________________
SET                .         D1805_D                       : 
OTHER              .         Программное обеспечение станции MONITOR-386EX 25/12/99 15_08_10   BGF V52 22/08/01 16_56_30   3.1_SNGF___BGF_N_092049: 
OTHER_10           .         Тарировки_                    : 
OTHER_11           .         TM.GRD = 0.00403*TM$.UE + -1.07: 
OTHER_12           .         MN.ATM = (9.34907e-006*TM.GRD + 0.02171)*(MN$.UE + -7.93*TM.GRD + -1787): 
OTHER_13           .         GK.MKR/H = LM. / 42.4676      : 
OTHER_14           .         GK.FLT = 0.1*GK.MKR/H[-1] + (1-0.1)*GK.MKR/H[0]: 
OTHER_2            .         Kedr.exe версия 3.4.2.51      : 
OTHER_3            .         KedrData.dll версия 3.4.2.24  : 
OTHER_4            .         Драйвер версия 2.1.1.3        : 
OTHER_5            .         Мнемоники версия 3.3 S        : 
OTHER_6            .         Прибор_ КСА-Т4                : 
OTHER_7            .         Номер прибора_ 03             : 
OTHER_8            .         Режим_ КСА-Т4                 : 
OTHER_9            .         Форма_ КВА.                   : 
PROJECT_UPGRADE_TIME .         2021-03-18T21_24_49           : 
TLFamily_DEPT      .         Measured Depth                : 
TLFamily_GK        .         Gamma Ray                     : 
TLFamily_GK$       .                                       : 
TLFamily_GK_2      .         Gamma Ray                     : 
TLFamily_LM        .         Casing Collar locator         : 
TLFamily_METKA     .                                       : 
TLFamily_MN        .                                       : 
TLFamily_MN$       .                                       : 
TLFamily_RCOR      .                                       : 
TLFamily_SPID      .         Spontaneous Potential         : 
TLFamily_TENS      .         Cable Tension                 : 
TLFamily_TIME      .         Time                          : 
TLFamily_TM        .         Temperature                   : 
TLFamily_TM$       .         Temperature                   : 
group              .         prim                          : 
~Curve Information
#_______________________________________________________________________________
#
#LOGNAME           .UNIT     LOG_ID                        : DESCRIPTION
#_______________________________________________________________________________
DEPT               .M                                      : 1 Глубина, м -    0.0 см 
GK                 .MKR/H                                  : 13 Гамма-активность, мкр./ч -  110.0 см 
GK$                .UE                                     : 10 Гамма-активность, усл.ед. -  110.0 см 
GK_2               .FLT                                    : 14 Гамма-активность фильтрованная, мкр./ч -  110.0 см 
LM                 .                                       : 9 Локатор муфт,  -   20.0 см 
METKA              .                                       : 3 Метки,  -    0.0 см 
MN                 .ATM                                    : 12 Давление, атм. -  160.0 см 
MN$                .UE                                     : 8 Давление, усл.ед. -  160.0 см 
RCOR               .CM/KM                                  : 5 Коррекция по ролику, см/км -    0.0 см 
SPID               .M/H                                    : 2 Скорость, м/час -    0.0 см 
TENS               .T                                      : 6 Натяжение кабеля, т -    0.0 см 
TIME               .S                                      : 4 Время, сек -    0.0 см 
TM                 .GRD                                    : 11 Температура, °C -  170.0 см 
TM$                .UE                                     : 7 Температура, усл.ед. -  170.0 см 
~Ascii
# ...
2711.199938 11.84      503        11.84      146        0          328.178    16991      -649       548        0.01       3501.75    55.769     14104     
2711.399937 12.17      517        12.16      134        0          329.062    17031      -649       546        0.02       3503.09    55.765     14103     
2711.599937 12.2       518        12.19      153        0          329.628    17056      -649       550        0.01       3504.41    55.761     14102     
2711.799937 12.22      519        12.22      142        0          329.098    17033      -649       541        0.01       3505.75    55.757     14101     
2711.999936 11.96      508        12.06      209        0          329.666    17058      -649       547        0.01       3507.07    55.753     14100     
2712.199936 11.7       497        11.71      173        0          328.713    17015      -649       551        0.01       3508.41    55.749     14099     
2712.399936 10.94      465        11.22      179        0          329.529    17052      -649       542        0.02       3509.67    55.749     14099     
2712.599935 10.2       433        10.22      184        1          328.178    16991      -649       551        0.01       3511       55.749     14099     
2712.799935 10.24      435        10.23      147        0          328.929    17025      -649       543        -0         3512.33    55.749     14099     
2712.999935 10.24      435        10.24      131        0          329.33     17043      -649       540        0.02       3513.69    55.749     14099     
2713.199935 13.4       569        12.68      144        0          329.245    17039      -649       543        0.01       3515.05    55.744     14098     
2713.399934 13.4       569        13.38      126        0          329.581    17054      -649       535        0.01       3516.3     55.741     14097     
2713.599934 14.18      602        14.1       142        0          327.756    16972      -649       544        0.01       3517.68    55.733     14095     
2713.799934 14.18      602        14.17      103        0          329.163    17035      -649       542        0.01       3518.95    55.725     14093     
2713.999933 13.26      563        13.34      143        0          329.346    17044      -649       543        0.01       3520.26    55.725     14093     
2714.199933 13.53      574        13.43      124        0          329.515    17051      -649       539        0.03       3521.61    55.722     14092     
2714.399933 14.81      629        14.76      165        0          329.463    17049      -649       539        0.01       3522.91    55.721     14092     
2714.599932 14.81      629        14.81      262        0          327.994    16983      -649       529        0.03       3524.28    55.721     14092     
2714.799932 12.86      546        12.92      1734       0          329.218    17038      -649       530        0.01       3525.6     55.721     14092     
2714.999932 12.86      546        12.86      700        0          329.208    17037      -649       536        0.03       3526.86    55.717     14091     
2715.199932 8.9        378        9.06       246        0          329.721    17060      -649       545        0.03       3528.25    55.713     14090     
2715.399931 7.9        335        8.27       162        0          329.494    17050      -649       542        0.01       3529.52    55.713     14090     
2715.599931 7.7        327        7.72       167        0          328.512    17006      -649       543        0.01       3530.85    55.709     14089     
2715.799931 7.58       322        7.63       197        0          330.054    17075      -649       546        0.03       3532.19    55.705     14088     
2715.99993 7.58       322        7.58       160        0          328.851    17021      -649       537        0.02       3533.55    55.699     14086     
2716.19993 7.72       328        7.7        192        0          329.792    17064      -649       545        0.01       3534.91    55.697     14086     
2716.39993 7.72       328        7.72       199        0          329.769    17063      -649       541        0.02       3536.17    55.693     14085     
2716.599929 11.3       480        10.65      232        0          329.046    17030      -649       538        0.01       3537.44    55.693     14085     
2716.799929 11.3       480        11.28      219        0          329.651    17057      -649       547        0.02       3538.83    55.689     14084     
2716.999929 15.14      643        14.32      222        0          328.446    17003      -649       542        0.03       3540.09    55.684     14083     
2717.199929 15.14      643        15.12      171        0          329.765    17062      -649       545        0.01       3541.42    55.681     14082     
2717.399928 12.76      542        12.91      133        0          330.376    17090      -649       546        0.01       3542.75    55.68      14082     
2717.599928 12.76      542        12.77      155        0          329.7      17059      -649       530        0.01       3544.11    55.683     14083     
2717.799928 10.1       429        10.31      180        0          329.565    17053      -649       543        0.03       3545.48    55.684     14083     
2717.999927 10.15      431        10.14      211        0          329.024    17029      -649       535        0.01       3546.74    55.677     14081     
2718.199927 10.38      441        10.38      195        0          329.543    17052      -649       543        0.01       3548.07    55.672     14080     
2718.399927 10.38      441        10.38      164        0          329.718    17060      -649       547        0.03       3549.41    55.668     14079     
2718.599927 10.2       433        10.2       199        0          329.977    17072      -649       550        0.01       3550.67    55.66      14077     
2718.799926 9.47       402        9.71       187        0          329.847    17066      -649       553        0.03       3552       55.656     14076     
2718.999926 9.47       402        9.47       201        0          329.332    17043      -649       556        0.01       3553.38    55.656     14076     
2719.199926 10.53      447        10.14      188        0          329.995    17073      -649       551        0.01       3554.73    55.656     14076     
2719.399925 10.53      447        10.51      187        0          329.133    17034      -649       551        0.01       3556.04    55.656     14076     
2719.599925 11.23      477        10.97      153        0          329.971    17072      -649       551        0.01       3557.33    55.652     14075     
2719.799925 11.23      477        11.22      166        0          330.502    17095      -649       556        0.03       3558.66    55.644     14073     
2719.999924 9.91       421        10.14      170        2          329.863    17067      -649       550        0.03       3559.98    55.64      14072     
2720.199924 9.91       421        9.92       179        0          330.266    17085      -657       548        0.01       3561.81    55.64      14072     
2720.399924 10.03      426        10.02      187        0          329.041    17030      -657       555        0.03       3563.16    55.634     14070     
2720.599923 10.03      426        10.03      169        0          329.855    17066      -657       538        0.01       3564.49    55.629     14069     
2720.799923 11.3       480        11.24      165        0          330.534    17097      -657       540        0.03       3565.81    55.632     14070     
2720.999923 11.3       480        11.3       160        0          330.197    17082      -657       544        0.01       3567.14    55.628     14069     
2721.199923 11.61      493        11.6       157        0          330.429    17092      -657       549        0.03       3568.44    55.624     14068     
2721.399922 11.33      481        11.38      145        0          328.912    17024      -657       546        0.03       3569.8     55.62      14067     
