~Version
 VERS              .         2.0                           : CWLS LOG ASCII STANDARD - VERSION 2.0
 WRAP              .         NO                            : ONE LINE PER DEPTH STEP
 DLM               .         SPACE                         : DELIMITING CHARACTER(SPACE TAB OR COMMA)
~Well Information
#_______________________________________________________________________________
#
#PARAMETER_NAME    .UNIT     VALUE                         : DESCRIPTION
#_______________________________________________________________________________
STRT               .M        5.8                           : First reference value
STOP               .M        2774.6                        : Last reference value
STEP               .M        0.2                           : Step increment
NULL               .         -9999                         : Missing value
COMP               .                                       : Company
WELL               .         616                           : Well name
FLD                .                                       : Field
LOC                .                                       : Location
CNTY               .                                       : County
STAT               .                                       : State
CTRY               .                                       : Country
SRVC               .                                       : Service Company
DATE               .                                       : Date
API                .                                       : API number
PROJECT_UPGRADE_TIME .         2021-03-18T21_24_50           : 
group              .         Good                          : 
~Parameter Information Block
#_______________________________________________________________________________
#
#PARAMETER_NAME    .UNIT     VALUE                         : DESCRIPTION
#_______________________________________________________________________________
SET                .         D1747_D                       : 
OTHER              .         Программное обеспечение станции MONITOR-386EX 25/12/99 15_08_10   BGF V52 22/08/01 16_56_30   3.1_SNGF___BGF_N_111239: 
OTHER_10           .         Тарировки_                    : 
OTHER_11           .         <_techsia_sc_> Постоянная времени фильтра ГК  3.0 сек, kf=0.016529: 
OTHER_12           .         <_techsia_sc_> Постоянная времени фильтра ННК  3.0 сек, kf=0.016529: 
OTHER_13           .         GK.MKR/H = GK$.IMP/476        : 
OTHER_14           .         WSAT.PERC = -12.5 + 78.0 * (NKT2$.IMP / NKT1$.IMP) * 1731/33716: 
OTHER_15           .         NKT2.PRIV = NKT2$.IMP/33716   : 
OTHER_16           .         NKT1.PRIV = NKT1$.IMP/1731    : 
OTHER_2            .         Kedr.exe версия 3.3.2.32      : 
OTHER_3            .         KedrData.dll версия 3.3.2.17  : 
OTHER_4            .         Драйвер версия 2.1.1.9        : 
OTHER_5            .         Мнемоники версия 3.2 S        : 
OTHER_6            .         Прибор_ СРК-73Ц-1N            : 
OTHER_7            .         Номер прибора_ 906            : 
OTHER_8            .         Режим_ с локатором            : 
OTHER_9            .         Форма_ 623-1                  : 
PROJECT_UPGRADE_TIME .         2021-03-18T21_24_49           : 
TLFamily_DEPT      .         Measured Depth                : 
TLFamily_GK        .         Gamma Ray                     : 
TLFamily_GK$       .                                       : 
TLFamily_LM        .         Casing Collar locator         : 
TLFamily_METKA     .                                       : 
TLFamily_NKT1      .         Neutron Far                   : 
TLFamily_NKT1$     .         Neutron Far                   : 
TLFamily_NKT2      .         Neutron Near                  : 
TLFamily_NKT2$     .         Neutron Near                  : 
TLFamily_RCOR      .                                       : 
TLFamily_SPID      .         Spontaneous Potential         : 
TLFamily_TENS      .         Cable Tension                 : 
TLFamily_TIME      .         Time                          : 
TLFamily_WSAT      .         Neutron Porosity              : 
group              .         prim                          : 
~Curve Information
#_______________________________________________________________________________
#
#LOGNAME           .UNIT     LOG_ID                        : DESCRIPTION
#_______________________________________________________________________________
DEPT               .M                                      : 1 Глубина, м -    0.0 см 
GK                 .MKR/H                                  : 11 Гамма-активность, мкр./ч -   97.0 см 
GK$                .IMP                                    : 9 Гамма-активность, имп/мин -   97.0 см 
LM                 .                                       : 10 Локатор муфт,  -   27.0 см 
METKA              .                                       : 3 Метки,  -    0.0 см 
NKT1               .PRIV                                   : 14 Большой зонд приведенный,  -  278.0 см 
NKT1$              .IMP                                    : 8 Большой зонд, имп/мин -  278.0 см 
NKT2               .PRIV                                   : 13 Малый зонд приведенный,  -  289.0 см 
NKT2$              .IMP                                    : 7 Малый зонд, имп/мин -  289.0 см 
RCOR               .CM/KM                                  : 5 Коррекция по ролику, см/км -    0.0 см 
SPID               .M/H                                    : 2 Скорость, м/час -    0.0 см 
TENS               .T                                      : 6 Натяжение кабеля, т -    0.0 см 
TIME               .S                                      : 4 Время, сек -    0.0 см 
WSAT               .PERC                                   : 12 Водонасыщенная пористость, % -  284.0 см 
~Ascii
# ...
921        7.49       3567       66         0          0.85       1469.27    0.77       25998.15   -478       -727       0          25212.79   36.56     
921.2      6.95       3306       55         0          0.83       1441.41    0.78       26209.44   -478       -664       0          25211.76   37.04     
921.4      7.21       3431       39         0          0.73       1268.98    0.78       26452.45   -478       -643       0          25210.76   35.79     
921.6      7.12       3388       82         0          0.75       1291.52    0.77       25889.91   -478       -698       0          25209.71   34.1      
921.8      7.84       3731       59         0          0.82       1418.13    0.78       26377.93   -478       -700       0          25208.66   33.93     
922        7.88       3752       35         0          0.82       1422.48    0.78       26178.18   -478       -641       0          25207.61   34.97     
922.2      7.53       3586       30         0          0.88       1517.54    0.77       25976.93   -478       -700       0          25206.56   32.04     
922.4      7.71       3669       63         0          0.94       1622.96    0.77       25792.99   -478       -700       0          25205.55   32.49     
922.6      8.15       3881       71         0          0.93       1608.31    0.78       26198.02   -478       -700       0          25204.5    32.13     
922.8      7.76       3694       87         0          0.83       1433.42    0.77       25862.11   -478       -640       0          25203.49   28.64     
923        7.76       3693       64         0          0.77       1324.95    0.77       26036.89   -478       -700       0          25202.39   29.51     
923.2      7.53       3586       17         0          0.8        1379.69    0.78       26446.02   -478       -642       0          25201.34   29.78     
923.4      7.43       3538       46         0          0.78       1351.41    0.79       26643.42   -478       -700       0          25200.3    30.37     
923.6      7.45       3548       70         0          0.78       1353.46    0.77       26099.91   -478       -700       0          25199.29   28.64     
923.8      7.41       3529       97         0          0.77       1328.42    0.78       26325.18   -478       -700       0          25198.23   27.88     
924        7.11       3385       65         0          0.73       1258.38    0.78       26373.74   -478       -700       0          25197.23   30.32     
924.2      7.23       3441       32         0          0.71       1224.65    0.79       26660.98   -478       -700       0          25196.21   30.5      
924.4      7.07       3365       22         0          0.75       1292.61    0.79       26792.83   -478       -642       0          25195.18   31.26     
924.6      6.95       3307       58         0          0.81       1406.71    0.76       25709.82   -478       -699       0          25194.13   29.67     
924.8      6.94       3304       75         0          0.94       1633.87    0.76       25620.26   -478       -640       0          25193.1    30.85     
925        6.74       3207       53         0          0.85       1475.47    0.77       25797.29   -478       -700       0          25191.97   30.63     
925.2      6.87       3272       38         0          0.8        1386.17    0.77       26002.88   -478       -663       0          25190.92   31.08     
925.4      7.26       3453       34         0          0.84       1450.45    0.76       25553.45   -478       -700       0          25189.92   32.03     
925.6      7.24       3447       43         0          0.84       1452.04    0.77       25835.19   -478       -700       0          25188.87   35.83     
925.8      7.23       3441       51         0          0.81       1399.33    0.77       26020.13   -478       -642       0          25187.87   37.74     
926        7.79       3708       39         0          0.8        1377       0.77       25816      -478       -700       0          25186.82   36.37     
926.2      7.9        3761       35         0          0.85       1476.88    0.76       25466.74   -478       -700       0          25185.77   33.88     
926.4      7.79       3707       58         0          0.93       1614.85    0.76       25735.71   -478       -671       0          25184.74   37.07     
926.6      7.43       3538       77         0          0.88       1527.24    0.75       25430.49   -478       -700       0          25183.71   35.15     
926.8      7.61       3622       61         0          0.91       1583       0.77       25981.59   -478       -700       0          25182.71   33.34     
927        7.43       3535       39         0          0.85       1477.8     0.77       26076.77   -478       -643       0          25181.66   30.66     
927.2      6.8        3235       35         0          0.91       1568.15    0.78       26218.3    -478       -700       0          25180.58   30.79     
927.4      6.89       3282       21         0          0.93       1611.38    0.79       26553.47   -478       -641       0          25179.56   29.41     
927.6      6.61       3144       41         0          0.88       1516.29    0.79       26482.76   -478       -699       0          25178.51   32.64     
927.8      6.38       3037       286        0          0.87       1505.17    0.79       26669.84   -478       -666       0          25177.46   34.28     
928        6.52       3104       1993       0          0.88       1514.8     0.78       26133.29   -478       -700       0          25176.4    28.93     
928.2      6.87       3268       399        0          0.84       1458.1     0.75       25304.21   -478       -649       0          25175.35   28.52     
928.4      7.1        3378       40         0          0.86       1481.34    0.76       25581.44   -478       -700       0          25174.36   31.6      
928.6      7.12       3391       44         0          0.85       1471.54    0.76       25613.24   -478       -700       0          25173.3    30.17     
928.8      6.93       3297       75         0          0.88       1522.55    0.76       25716.01   -478       -700       0          25172.25   29.52     
929        7.27       3459       64         0          0.85       1473.45    0.76       25765.29   -478       -661       0          25171.23   29.87     
929.2      7.25       3451       68         0          0.85       1468.42    0.77       26045.76   -478       -669       0          25170.16   30.91     
929.4      7.4        3522       37         0          0.85       1463.03    0.77       25946.85   -478       -700       0          25169.13   33.83     
929.6      6.85       3258       50         0          0.89       1536.02    0.77       26034.89   -478       -700       0          25168.08   34.06     
929.8      6.72       3199       29         1          0.94       1620.83    0.76       25643.36   -478       -645       0          25167.04   34.09     
930        6.61       3146       32         0          0.93       1606.88    0.78       26241.11   -478       -700       0          25166.03   34.29     
930.2      6.47       3077       66         0          0.99       1712.62    0.78       26392.32   -479       -700       0          25165.05   36.64     
930.4      6.54       3113       29         0          0.92       1596.13    0.79       26529.99   -479       -677       0          25164.02   33.96     
930.6      6.63       3157       26         0          0.88       1528.05    0.76       25739.46   -479       -700       0          25162.97   31.45     
930.8      6.72       3198       11         0          0.86       1486.1     0.76       25671.36   -479       -648       0          25161.92   28.68     
931        6.8        3239       35         0          0.94       1631.12    0.77       25817.1    -479       -697       0          25160.87   28.52     
931.2      6.84       3255       63         0          0.89       1544.23    0.76       25656.77   -479       -644       0          25159.82   30.03     
