~Version
 VERS              .         2.0                           : CWLS LOG ASCII STANDARD - VERSION 2.0
 WRAP              .         NO                            : ONE LINE PER DEPTH STEP
 DLM               .         SPACE                         : DELIMITING CHARACTER(SPACE TAB OR COMMA)
~Well Information
#_______________________________________________________________________________
#
#PARAMETER_NAME    .UNIT     VALUE                         : DESCRIPTION
#_______________________________________________________________________________
STRT               .M        3.4                           : First reference value
STOP               .M        832.4                         : Last reference value
STEP               .M        0.2                           : Step increment
NULL               .         -9999                         : Missing value
COMP               .                                       : Company
WELL               .         616                           : Well name
FLD                .                                       : Field
LOC                .                                       : Location
CNTY               .                                       : County
STAT               .                                       : State
CTRY               .                                       : Country
SRVC               .                                       : Service Company
DATE               .                                       : Date
API                .                                       : API number
PROJECT_UPGRADE_TIME .         2021-03-18T21_24_50           : 
group              .         Good                          : 
~Parameter Information Block
#_______________________________________________________________________________
#
#PARAMETER_NAME    .UNIT     VALUE                         : DESCRIPTION
#_______________________________________________________________________________
SET                .         ULN                           : 
PROJECT_UPGRADE_TIME .         2021-03-18T21_24_50           : 
TLFamily_AK4       .                                       : 
TLFamily_ALFAK     .                                       : 
TLFamily_AMPL      .                                       : 
TLFamily_DEPTH     .         Measured Depth                : 
TLFamily_DK1       .                                       : 
TLFamily_DK2       .                                       : 
TLFamily_DTK       .         Compressional Slowness        : 
TLFamily_QCBL      .                                       : 
TLFamily_T1        .         Travel Time 1                 : 
TLFamily_T2        .         Travel Time 2                 : 
group              .         prim                          : 
~Curve Information
#_______________________________________________________________________________
#
#LOGNAME           .UNIT     LOG_ID                        : DESCRIPTION
#_______________________________________________________________________________
DEPTH              .M                                      : 0 Depth curve 
AK4                .                                       : 2 Амплитуда - Волна по колонне - Канал1 
ALFAK              .дБ/м                                   : 1 Затухание - Волна по колонне 
AMPL               .                                       : 8 Коэффициент усиления ВС 
DK1                .дБ                                     : 3 Кривая ослабления - Волна по колонне - Канал1 
DK2                .дБ                                     : 4 Кривая ослабления - Волна по колонне - Канал2 
DTK                .мкс/м                                  : 5 ДельтаТ - Волна по породе 
QCBL               .                                       : 9 Контакт цемент-колонна 
T1                 .мкс                                    : 6 Время пробега - Волна по породе - Канал1 
T2                 .мкс                                    : 7 Время пробега - Волна по породе - Канал2 
~Ascii
# ...
543.6      3839.376   28.745     1          18.783     33.155     192.347    2          356.348    452.522   
543.8      3482.159   28.939     1          19.665     34.135     193.769    2          357.46     454.345   
544        3108.556   28.127     1          20.596     34.659     192.689    2          358.047    454.392   
544.2      2973.222   26.154     1          20.968     34.516     191.833    2          358.624    454.541   
544.4      2683.41    25.309     1          21.957     34.847     194.471    2          359.961    454.76    
544.6      2409.985   27.783     1          22.898     37.025     193.745    2          361.822    456.258   
544.8      2136.559   29.118     1          23.838     38.162     193.928    2          363.682    458.21    
545        2761.906   30.206     1          22.014     37.116     189.938    2          363.955    458.924   
545.2      3525.122   28.677     1          19.905     34.244     192.763    2          361.852    458.262   
545.4      4565.499   32.02      1          17.298     33.308     197.711    2          357.373    456.257   
545.6      4980.53    33.549     1          16.515     33.29      200.058    2          352.621    452.679   
545.8      5257.691   33.833     1          16.017     33.133     201.923    2          350.245    451.207   
546        5031.814   29.79      1          16.416     31.511     198.049    2          349.83     448.855   
546.2      4805.937   25.554     1          16.816     29.792     198.434    2          349.415    448.633   
546.4      4580.06    23.836     1          17.215     29.133     196        2          349        447.001   
546.6      4853.084   23.487     1          16.739     28.482     196        2          349        447.001   
546.8      5126.108   22.51      1          16.263     27.518     196        2          349        447.001   
547        5559.208   20.823     1          15.54      25.951     196        2          349        447.001   
547.2      5617.927   19.104     1          15.447     24.998     196        2          349        447.001   
547.4      5676.646   19.389     1          15.354     25.048     196        2          349        447.001   
547.6      5229.708   19.043     1          16.103     25.625     196        2          349        447.001   
547.8      4884.126   18.923     1          16.699     26.16      196        2          349        447.001   
548        4538.545   17.608     1          17.294     26.099     196        2          349        447.001   
548.2      4515.73    17.15      1          17.338     25.914     196        2          349        447.001   
548.4      4492.916   18.403     1          17.382     26.584     196        2          349        447.001   
548.6      4475.712   19.459     1          17.416     27.145     196        2          349        447.001   
548.8      4481.322   20.568     1          17.405     27.689     196        2          349        447.001   
549        4622.696   21.939     1          17.142     28.112     196        2          349        447.001   
549.2      4327.605   21.799     1          17.779     28.678     196        2          349        447.001   
549.4      4032.515   21.031     1          18.415     28.93      196        2          349        447.001   
549.6      3607.27    18.44      1          19.289     28.509     196        2          349        447.001   
549.8      3682.071   18.81      1          19.114     28.519     196        2          349        447.001   
550        3756.872   19.5       1          18.939     28.689     196        2          349        447.001   
550.2      3942.379   21.634     1          18.525     29.342     196        2          349        447.001   
550.4      4058.695   23.676     1          18.272     30.11      196        2          349        447.001   
550.6      4250.186   25.813     1          17.867     30.774     196        2          349        447.001   
550.8      4167.905   25.81      1          18.044     30.949     196        2          349        447.001   
551        4085.623   23.049     1          18.22      29.745     196        2          349        447.001   
551.2      4143.594   21.676     1          18.108     28.946     196        2          349        447.001   
551.4      4426.717   21.539     1          17.541     28.311     196        2          349        447.001   
551.6      4709.839   23.064     1          16.974     28.506     196        2          349        447.001   
551.8      4951.074   23.054     1          16.549     28.076     196        2          349        447.001   
552        4591.28    21.618     1          17.291     28.1       196        2          349        447.001   
552.2      4231.486   20.536     1          18.032     28.3       196        2          349        447.001   
552.4      3698.153   19.393     1          19.073     28.77      196        2          349        447.001   
552.6      3535.46    19.431     1          19.483     29.198     196        2          349        447.001   
552.8      3372.768   20.598     1          19.893     30.192     196        2          349        447.001   
553        3471.131   22.972     1          19.67      31.156     196        2          349        447.001   
553.2      3732.188   26.096     1          19.038     32.086     196        2          349        447.001   
553.4      3993.244   26.268     1          18.406     31.54      196        2          349        447.001   
553.6      3993.244   24.974     1          18.406     30.893     196        2          349        447.001   
553.8      3873.936   23.181     1          18.678     30.268     196        2          349        447.001   
554        3754.628   21.577     1          18.95      29.739     196        2          349        447.001   
554.2      3635.32    22.63      1          19.222     30.537     196        2          349        447.001   
554.4      3445.325   23.234     1          19.716     31.332     196        2          349        447.001   
554.6      3171.552   23.725     1          20.457     32.32      196        2          349        447.001   
554.8      2443.737   20.765     1          23.115     33.497     196        2          349        447.001   
555        1905.916   19.388     1          25.278     34.972     196        2          349        447.001   
555.2      1451.872   21.495     1          27.194     37.942     196        2          349        447.001   
555.4      1417.09    26.022     1          27.41      40.421     196        2          349        447.001   
555.6      1210.264   26.202     1          29.024     41.436     196        2          349        447.001   
555.8      1001.569   21.48      1          30.658     40.708     196        2          349        447.001   
556        827.656    17.26      1          32.076     40.016     196        2          349        447.001   
556.2      780.542    16.853     1          31.765     41.041     196.73     2          349.315    448.139   
556.4      851.022    20.433     1          31.105     42.171     198.19     2          350.863    450.417   
556.6      921.502    21.362     1          30.445     41.976     197.095    2          352.41     451.417   
556.8      1037.226   24.369     1          30.115     39.388     197.677    2          353.643    452.482   
557        2489.652   29.28      1          25.341     37.069     196.253    2          352.387    450.514   
557.2      3942.078   36.601     1          20.568     34.588     196.765    2          351.131    452.232   
557.4      5394.505   40.002     1          15.794     32.831     205.124    2          349.875    455.156   
557.6      5394.505   39.483     1          15.794     32.572     209.632    2          349.875    457.41    
557.8      5394.505   37.519     1          15.794     32.958     209.632    2          349.875    454.692   
558        5394.505   36.257     1          15.794     33.922     199.377    2          349.875    449.564   
