~Version
 VERS              .         2.0                           : CWLS LOG ASCII STANDARD - VERSION 2.0
 WRAP              .         NO                            : ONE LINE PER DEPTH STEP
 DLM               .         SPACE                         : DELIMITING CHARACTER(SPACE TAB OR COMMA)
~Well Information
#_______________________________________________________________________________
#
#PARAMETER_NAME    .UNIT     VALUE                         : DESCRIPTION
#_______________________________________________________________________________
STRT               .M        19.65                         : First reference value
STOP               .M        2766.85                       : Last reference value
STEP               .M        0.2                           : Step increment
NULL               .         -9999                         : Missing value
COMP               .                                       : Company
WELL               .         616                           : Well name
FLD                .                                       : Field
LOC                .                                       : Location
CNTY               .                                       : County
STAT               .                                       : State
CTRY               .                                       : Country
SRVC               .                                       : Service Company
DATE               .                                       : Date
API                .                                       : API number
PROJECT_UPGRADE_TIME .         2021-03-18T21_24_50           : 
group              .         Good                          : 
~Parameter Information Block
#_______________________________________________________________________________
#
#PARAMETER_NAME    .UNIT     VALUE                         : DESCRIPTION
#_______________________________________________________________________________
SET                .         D7016_D_2                     : 
NPR                .         155                           : Номер прибора
OTHER              .         Kedr.exe версия 2.1.2.32      : 
OTHER_10           .         TM.GRD = 0.00404*TM$.UE + 0.07: 
OTHER_11           .         MN.ATM = (6.33279e-006*TM.GRD + 0.02401)*(MN$.UE + 2.72*TM.GRD + -2018): 
OTHER_12           .         GK.MKR/H = GK$.UE / 43.5489 + 0: 
OTHER_13           .         RES.SM = 0.00476*CRES.UE - 1.51709: 
OTHER_14           .         PL.GSM3 = 0 + 0 * (PL.UE / 1) +  0 * (PL.UE / 1)^2: 
OTHER_15           .         Постоянная времени ГГП = 6 сек: 
OTHER_16           .         Постоянная времени ГК = 6 сек : 
OTHER_2            .         KedrData.dll версия 3.2.2.14  : 
OTHER_3            .         LasInf.dll версия 3.2.0.13    : 
OTHER_4            .         Драйвер версия 1.2.0.5        : 
OTHER_5            .         Прибор_ КСА-M1                : 
OTHER_6            .         Номер прибора_ 155+р204       : 
OTHER_7            .         Режим_ КСА-М1 + ГГП + Резистивиметр: 
OTHER_8            .         Форма_ 223\2                  : 
OTHER_9            .         Тарировки_                    : 
PR                 .         КСА-Т7 М1                     : Тип прибора
PROJECT_UPGRADE_TIME .         2021-03-18T21_24_50           : 
PRTY               .         ПП-223_2                      : Номер партии
SRV                .         ЦКРС                          : Заказчик
SRVC               .         Лузин  А.Б.                   : Начальник партии
TLFamily_DEPT      .         Measured Depth                : 
TLFamily_LM        .         Casing Collar locator         : 
TLFamily_MN        .                                       : 
TLFamily_SPID      .         Spontaneous Potential         : 
TLFamily_TM        .         Temperature                   : 
group              .         second                        : 
~Curve Information
#_______________________________________________________________________________
#
#LOGNAME           .UNIT     LOG_ID                        : DESCRIPTION
#_______________________________________________________________________________
DEPT               .M                                      : Depth curve 
LM                 .е.ацп                                  : Локация муфт 
MN                 .атм                                    : Манометрия, атм 
SPID               .м/ч                                    : Скорость записи,м/час 
TM                 .град.С                                 : Термометрия,град.С 
~Ascii
# ...
194.85     827.999    17.8       1660       16.17     
195.05     762        17.83      1660       16.17     
195.25     726.002    17.86      1660       16.18     
195.45     874.001    17.87      1660       16.18     
195.65     932        17.89      1660       16.18     
195.85     903.999    17.9       1660       16.19     
196.05     811        17.93      1660       16.19     
196.25     840.999    17.94      1660       16.2      
196.45     712.001    17.96      1660       16.2      
196.65     784.002    17.99      1660       16.21     
196.85     944        18.01      1623.001   16.21     
197.05     970.998    18.02      1707       16.21     
197.25     807.999    18.05      1729.999   16.22     
197.45     692.999    18.06      1600       16.22     
197.65     631.002    18.08      1621       16.23     
197.85     804.001    18.09      1660       16.23     
198.05     920.999    18.12      1659.999   16.24     
198.25     818.999    18.14      1603.001   16.24     
198.45     710.999    18.15      1730       16.25     
198.65     607.999    18.18      1709       16.25     
198.85     539        18.21      1691       16.26     
199.05     563.002    18.22      1729.999   16.26     
199.25     727.999    18.24      1623       16.27     
199.45     641        18.26      1660       16.27     
199.65     671.999    18.28      1660       16.28     
199.85     570        18.29      1660       16.28     
200.05     596.998    18.31      1660       16.29     
200.25     398.999    18.33      1660       16.29     
200.45     349        18.36      1660       16.29     
200.65     363.084    18.38      1691       16.29     
200.85     7635.967   18.4       1689       16.29     
201.05     4828.98    18.43      1660       16.29     
201.25     3079.98    18.45      1660       16.3      
201.45     1337.995   18.46      1660       16.3      
201.65     930.998    18.48      1660       16.31     
201.85     759.998    18.5       1660       16.32     
202.05     591        18.51      1660.001   16.32     
202.25     556.999    18.54      1714       16.32     
202.45     466        18.57      1729.999   16.33     
202.65     483        18.58      1660       16.34     
202.85     505.002    18.6       1660       16.33     
203.05     648.999    18.63      1660       16.34     
203.25     583.999    18.63      1660       16.34     
203.45     472        18.66      1660       16.35     
203.65     504.002    18.68      1664.001   16.35     
203.85     688        18.7       1729.999   16.36     
204.05     722.999    18.72      1681       16.37     
204.25     597.999    18.73      1668.001   16.38     
204.45     525.999    18.75      1729.999   16.38     
204.65     410.002    18.76      1668       16.39     
204.85     551.002    18.79      1660       16.4      
205.05     691.002    18.82      1660       16.4      
205.25     838.999    18.83      1660       16.41     
205.45     784.999    18.85      1660       16.42     
205.65     710        18.88      1660       16.42     
205.85     728.999    18.9       1660       16.43     
206.05     610        18.92      1668.001   16.43     
206.25     580.002    18.92      1730       16.44     
206.45     711.999    18.95      1697       16.44     
206.65     635        18.97      1660       16.45     
206.85     643.998    18.98      1660       16.46     
207.05     488.001    19.01      1660       16.46     
207.25     531.001    19.02      1660       16.47     
207.45     582.999    19.05      1660       16.48     
207.65     516.001    19.07      1695       16.48     
207.85     618.001    19.1       1730       16.49     
208.05     665.998    19.11      1729.998   16.49     
208.25     496.998    19.12      1600       16.5      
208.45     311.999    19.14      1611.001   16.5      
208.65     263.002    19.17      1660       16.5      
208.85     388        19.17      1659.999   16.51     
209.05     427.999    19.2       1611       16.51     
209.25     385.999    19.22      1600.001   16.51     
209.45     322        19.23      1660       16.52     
209.65     333        19.26      1660       16.52     
209.85     308.999    19.27      1655.999   16.53     
210.05     258.001    19.3       1600       16.53     
210.25     373        19.32      1600       16.54     
210.45     335.999    19.33      1600       16.54     
210.65     285        19.36      1600.001   16.55     
210.85     246.001    19.37      1652.999   16.55     
211.05     338        19.4       1600       16.56     
211.25     327        19.41      1632       16.56     
211.45     347        19.44      1660       16.57     
211.65     327.098    19.45      1659.999   16.58     
211.85     8193.962   19.48      1604.001   16.58     
212.05     5149.977   19.51      1660       16.59     
212.25     3263.987   19.51      1660       16.59     
212.45     2207.992   19.54      1660       16.6      
212.65     1533.995   19.55      1660       16.6      
212.85     1103.994   19.58      1660       16.61     
213.05     592.999    19.6       1660       16.61     
213.25     506.999    19.61      1660       16.62     
213.45     400        19.64      1660       16.62     
213.65     385.999    19.66      1660       16.63     
213.85     309.001    19.67      1660       16.63     
214.05     406.001    19.7       1660       16.64     
214.25     467        19.71      1660       16.64     
214.45     468.999    19.73      1660       16.65     
214.65     416        19.76      1660       16.65     
214.85     377.999    19.77      1660       16.66     
215.05     299.999    19.8       1660       16.67     
215.25     214        19.81      1660       16.67     
215.45     218.006    19.83      1660       16.68     
215.65     660.002    19.86      1659.999   16.68     
215.85     790.005    19.86      1618       16.69     
216.05     1218.995   19.88      1600.001   16.7      
216.25     805.996    19.9       1660       16.7      
216.45     455.999    19.93      1660       16.71     
216.65     392        19.93      1660       16.71     
216.85     378.999    19.96      1660.001   16.71     
217.05     300.999    19.98      1717.999   16.72     
217.25     231.999    19.99      1660       16.72     
217.45     175        20         1660       16.73     
217.65     178        20.03      1637       16.73     
217.85     211.999    20.05      1600.001   16.73     
218.05     171        20.06      1646       16.74     
218.25     170        20.09      1660       16.74     
218.45     167        20.12      1653       16.75     
218.65     159        20.13      1619.001   16.75     
218.85     149        20.15      1660       16.76     
219.05     130        20.18      1660       16.76     
219.25     135.001    20.19      1660       16.76     
219.45     182.001    20.21      1648.999   16.77     
219.65     237        20.23      1600       16.77     
219.85     217.001    20.25      1600.001   16.78     
220.05     273        20.25      1657       16.78     
220.25     293        20.27      1672       16.79     
220.45     278        20.29      1704.999   16.79     
220.65     268.001    20.32      1660       16.8      
220.85     319        20.32      1660       16.81     
221.05     325        20.35      1660       16.81     
221.25     334.999    20.37      1660       16.82     
221.45     273.001    20.39      1660       16.83     
221.65     327.999    20.42      1660       16.83     
221.85     252.001    20.43      1660.001   16.83     
222.05     301.999    20.46      1714       16.84     
222.25     256.999    20.47      1729.999   16.84     
222.45     217        20.49      1660       16.84     
222.65     228.001    20.52      1660       16.85     
222.85     270.021    20.54      1659.999   16.85     
223.05     1824.077   20.55      1581.999   16.85     
223.25     7664.962   20.57      1540.003   16.86     
223.45     4826.963   20.58      1729.998   16.87     
223.65     2029.992   20.61      1600       16.88     
223.85     1423.997   20.62      1622.001   16.88     
