~Version
 VERS              .         2.0                           : CWLS LOG ASCII STANDARD - VERSION 2.0
 WRAP              .         NO                            : ONE LINE PER DEPTH STEP
 DLM               .         SPACE                         : DELIMITING CHARACTER(SPACE TAB OR COMMA)
~Well Information
#_______________________________________________________________________________
#
#PARAMETER_NAME    .UNIT     VALUE                         : DESCRIPTION
#_______________________________________________________________________________
STRT               .M        2695.9                        : First reference value
STOP               .M        2741.2                        : Last reference value
STEP               .M        0.1000001                     : Step increment
NULL               .         -9999                         : Missing value
COMP               .                                       : Company
WELL               .         616                           : Well name
FLD                .                                       : Field
LOC                .                                       : Location
CNTY               .                                       : County
STAT               .                                       : State
CTRY               .                                       : Country
SRVC               .                                       : Service Company
DATE               .                                       : Date
API                .                                       : API number
PROJECT_UPGRADE_TIME .         2021-03-18T21_24_50           : 
group              .         Good                          : 
~Parameter Information Block
#_______________________________________________________________________________
#
#PARAMETER_NAME    .UNIT     VALUE                         : DESCRIPTION
#_______________________________________________________________________________
SET                .         D7031_D                       : 
OTHER              .         Kedr.exe версия 2.1.2.32      : 
OTHER_10           .         RGD. = 0.647457 * RGD. + 2.35279: 
OTHER_2            .         KedrData.dll версия 3.2.2.14  : 
OTHER_3            .         LasInf.dll версия 3.2.0.13    : 
OTHER_4            .         Драйвер версия 1.2.0.6        : 
OTHER_5            .         Прибор_ Расходомер            : 
OTHER_6            .         Номер прибора_ 963            : 
OTHER_7            .         Режим_ Расходомер             : 
OTHER_8            .         Форма_ Саня                   : 
OTHER_9            .         Тарировки_                    : 
PROJECT_UPGRADE_TIME .         2021-03-18T21_24_50           : 
TLFamily_DEPT      .         Measured Depth                : 
TLFamily_METKA     .                                       : 
TLFamily_RCOR      .                                       : 
TLFamily_RGD       .                                       : 
TLFamily_RGD_2     .                                       : 
TLFamily_SPID      .         Spontaneous Potential         : 
TLFamily_TIME      .         Time                          : 
group              .         prim                          : 
~Curve Information
#_______________________________________________________________________________
#
#LOGNAME           .UNIT     LOG_ID                        : DESCRIPTION
#_______________________________________________________________________________
DEPT               .M                                      : 1 Глубина, м -    0.0 см 
METKA              .                                       : 3 Метки,  -    0.0 см 
RCOR               .CM/KM                                  : 5 Коррекция по ролику, см/км -    0.0 см 
RGD                .                                       : 6 Расход, усл.ед. -   49.0 см 
RGD_2              .                                       : 7 Расход, м3/сут -   49.0 см 
SPID               .M/H                                    : 2 Скорость, м/час -    0.0 см 
TIME               .S                                      : 4 Время, сек -    0.0 см 
~Ascii
2695.8999023 -9999      -9999      -9999      -9999      -9999      -9999     
2696       0          0          -9999      -9999      -190       45032.91  
2696.1     0          0          -9999      -9999      -189       45030.91  
2696.2     0          0          -9999      -9999      -190       45028.91  
2696.3     0          0          -9999      -9999      -190       45026.91  
2696.4     0          0          -9999      -9999      -190       45024.9   
2696.5     0          0          106        70.71      -190       45022.92  
2696.6     0          0          99         66.76      -131       45020.91  
2696.7     0          0          109        73.21      -190       45018.91  
2696.8     0          0          90         60.68      -190       45016.91  
2696.9     0          0          98         65.72      -190       45014.78  
2697       0          0          106        70.75      -190       45012.79  
2697.1     0          0          95         63.54      -190       45010.78  
2697.2     0          0          88         59.51      -190       45008.66  
2697.3     0          0          100        67.19      -190       45006.78  
2697.4     0          0          89         59.88      -190       45004.79  
2697.5     0          0          93         62.79      -160       45002.78  
2697.6     0          0          93         62.62      -190       45000.9   
2697.7     0          0          80         54.26      -260       44998.91  
2697.8     0          0          96         64.82      -190       44996.9   
2697.9     0          0          97         65.14      -190       44994.9   
2698       0          0          90         60.78      -130       44992.9   
2698.1     0          0          105        70.15      -190       44990.89  
2698.2     0          0          80         54.11      -190       44988.91  
2698.3     0          0          80         54.07      -190       44986.91  
2698.4     0          0          103        69.11      -190       44984.91  
2698.5     0          0          92         61.82      -190       44982.9   
2698.6     0          0          98         65.76      -190       44980.89  
2698.7     0          0          98         65.57      -190       44978.9   
2698.8     0          0          88         59.04      -130       44976.89  
2698.9     0          0          90         60.84      -190       44974.89  
2699       0          0          91         61.44      -190       44972.89  
2699.1     0          0          100        67.27      -130       44970.9   
2699.2     0          0          109        73.07      -190       44968.9   
2699.3     0          0          92         61.8       -190       44966.9   
2699.4     0          0          87         58.83      -190       44964.9   
2699.5     0          0          103        68.74      -190       44962.89  
2699.6     0          0          93         62.36      -190       44960.89  
2699.7     0          0          98         65.53      -190       44958.77  
2699.8     0          0          100        66.78      -190       44956.89  
2699.9     0          0          93         62.79      -190       44954.77  
2700       1          0          99         66.43      -130       44952.9   
2700.1     0          0          88         59.21      -190       44948.39  
2700.2     0          0          96         64.62      -190       44946.39  
2700.3     0          0          99         66.72      -190       44944.39  
2700.4     0          0          92         61.66      -190       44942.39  
2700.5     0          0          109        72.99      -190       44940.38  
2700.6     0          0          87         58.7       -190       44938.39  
2700.7     0          0          96         64.41      -130       44936.4   
2700.8     0          0          99         66.21      -190       44934.39  
2700.9     0          0          90         60.48      -130       44932.39  
2701       0          0          95         63.98      -190       44930.39  
2701.1     0          0          110        73.88      -190       44928.38  
2701.2     0          0          93         62.28      -190       44926.52  
2701.3     0          0          97         65.25      -190       44924.38  
2701.4     0          0          99         66.13      -130       44922.38  
2701.5     0          0          94         63.1       -190       44920.39  
2701.6     0          0          115        76.62      -159       44918.51  
2701.7     0          0          103        69.1       -190       44916.63  
2701.8     0          0          97         65.07      -190       44914.63  
2701.9     0          0          104        69.63      -190       44912.64  
2702       0          0          101        67.8       -190       44910.64  
2702.1     0          0          113        75.73      -190       44908.63  
2702.2     0          0          96         64.44      -190       44906.63  
2702.3     0          0          96         64.78      -190       44904.63  
2702.4     0          0          107        71.49      -190       44902.63  
2702.5     0          0          101        67.47      -190       44900.63  
2702.6     0          0          97         65.43      -190       44898.62  
2702.7     0          0          116        77.56      -190       44896.75  
2702.8     0          0          101        67.56      -190       44894.64  
2702.9     0          0          99         66.74      -130       44892.63  
2703       0          0          106        70.91      -190       44890.75  
2703.1     0          0          98         65.54      -161       44888.75  
2703.2     0          0          101        67.68      -190       44886.76  
2703.3     0          0          108        72.09      -190       44884.75  
2703.4     0          0          91         60.96      -190       44882.88  
2703.5     0          0          105        70.42      -190       44880.88  
2703.6     0          0          101        67.9       -130       44878.87  
2703.7     0          0          101        67.84      -190       44876.87  
2703.8     0          0          110        73.26      -130       44874.87  
2703.9     0          0          96         64.28      -190       44872.86  
2704       0          0          110        73.89      -190       44870.88  
2704.1     0          0          111        73.99      -190       44868.87  
2704.2     0          0          103        68.82      -190       44866.88  
2704.3     0          0          119        79.23      -190       44864.88  
2704.4     0          0          107        71.42      -190       44862.87  
2704.5     0          0          98         66.01      -160       44861     
2704.6     0          0          112        74.6       -190       44858.86  
2704.7     0          0          104        69.53      -190       44856.99  
2704.8     0          0          106        70.75      -190       44854.86  
2704.9     0          0          102        68.59      -190       44852.88  
2705       0          0          103        68.92      -190       44850.88  
2705.1     0          0          107        71.73      -130       44848.86  
2705.2     0          0          98         65.71      -190       44846.87  
2705.3     0          0          96         64.55      -190       44844.86  
2705.4     0          0          112        74.66      -190       44842.86  
2705.5     0          0          89         60.13      -190       44840.86  
2705.6     0          0          101        68.04      -190       44838.85  
2705.7     0          0          103        69.14      -190       44836.88  
2705.8     0          0          92         61.69      -190       44834.87  
2705.9     0          0          103        69.18      -190       44832.87  
2706       0          0          108        72.14      -190       44830.86  
2706.1     0          0          93         62.6       -190       44828.86  
2706.2     0          0          106        70.75      -130       44826.86  
