~Version
 VERS              .         2.0                           : CWLS LOG ASCII STANDARD - VERSION 2.0
 WRAP              .         NO                            : ONE LINE PER DEPTH STEP
 DLM               .         SPACE                         : DELIMITING CHARACTER(SPACE TAB OR COMMA)
~Well Information
#_______________________________________________________________________________
#
#PARAMETER_NAME    .UNIT     VALUE                         : DESCRIPTION
#_______________________________________________________________________________
STRT               .M        2645.2                        : First reference value
STOP               .M        2753.000054                   : Last reference value
STEP               .M        0.2000001                     : Step increment
NULL               .         -9999                         : Missing value
COMP               .                                       : Company
WELL               .         616                           : Well name
FLD                .                                       : Field
LOC                .                                       : Location
CNTY               .                                       : County
STAT               .                                       : State
CTRY               .                                       : Country
SRVC               .                                       : Service Company
DATE               .                                       : Date
API                .                                       : API number
PROJECT_UPGRADE_TIME .         2021-03-18T21_24_50           : 
group              .         Good                          : 
~Parameter Information Block
#_______________________________________________________________________________
#
#PARAMETER_NAME    .UNIT     VALUE                         : DESCRIPTION
#_______________________________________________________________________________
SET                .         D4407_D                       : 
OTHER              .         Запись производится в присутствии: 
OTHER_10           .         Максимальная температура      : 
OTHER_11           .         Тип промывочной жидкости      : 
OTHER_12           .         Сопротивление ПЖ (Ом*м) при 20°C: 
OTHER_13           .         Плотность ПЖ(г/см3)           : 
OTHER_14           .         Вязкость ПЖ(с)                : 
OTHER_15           .         Водоотдача ПЖ(см3/30мин)      : 
OTHER_16           .         Уровень ПЖ                    : 
OTHER_17           .         Нефть ПЖ (%)                  : 
OTHER_18           .         Барит ПЖ (%)                  : 
OTHER_19           .         Гематит ПЖ (%)                : 
OTHER_2            .         Заказчик ННСН  ЦДНГ-1         : 
OTHER_20           .         КМЦ ПЖ (%)                    : 
OTHER_21           .         Разгазирование ПЖ (да,нет)    : 
OTHER_22           .         Подъемник                     : 
OTHER_23           .         Лаборатория                   : 
OTHER_24           .         Тип кабеля                    : 
OTHER_25           .         Длина кабеля (м)              : 
OTHER_26           .         Цена последней метки          : 
OTHER_27           .         Цена контрольной метки        : 
OTHER_28           .         Диаметр долота (мм)           : 
OTHER_29           .         Глубина бурения (м)           : 
OTHER_3            .         Площадь                       : 
OTHER_30           .         Искусственный забой (м)       : 
OTHER_31           .         Диаметр колонны (мм)          : 
OTHER_32           .         Толщина колонны (мм)          : 
OTHER_33           .         Башмак колонны (м)            : 
OTHER_34           .         Диаметр НКТ (мм)              : 
OTHER_35           .         Толщина НКТ (мм)              : 
OTHER_36           .         Воронка НКТ (м)               : 
OTHER_37           .         Дата цементожа                : 
OTHER_38           .         Тип, количество(т) и плотность цемента: 
OTHER_39           .         Интервалы перфорации (м)      : 
OTHER_4            .         Категория                     : 
OTHER_40           .         Направление, диаметр (мм)     : 
OTHER_41           .         Направление, глубина (м)      : 
OTHER_42           .         Кондуктор, диаметр (мм)       : 
OTHER_43           .         Кондуктор, глубина (м)        : 
OTHER_44           .         Техническая колонна, диаметр (мм): 
OTHER_45           .         Техническая колонна, глубина (м): 
OTHER_46           .         Эксплуатационная колонна, диаметр (мм): 
OTHER_47           .         Эксплуатационная колонна, глубина (м): 
OTHER_48           .         Программа Кедр-02 версия 3.4  : 
OTHER_49           .         Операционная система Windows NT 5.1 build 2600 Service Pack 2: 
OTHER_5            .         Назначение исследований       : 
OTHER_50           .         Программное обеспечение станции MONITOR-386EX 25/12/99 15_08_10   BGF V54 20/09/05 15_32_17   3.3__BGF_9030071: 
OTHER_51           .         Kedr.exe версия 3.4.2.74      : 
OTHER_52           .         KedrData.dll версия 3.4.2.29  : 
OTHER_53           .         Мнемоники версия 3.18 S       : 
OTHER_54           .         Драйвер версия 2.1.1.4        : 
OTHER_55           .         LasInf.dll 4.3.0.35           : 
OTHER_56           .         Прибор_ КСА-Т4                : 
OTHER_57           .         Номер прибора_ 160            : 
OTHER_58           .         Режим_ КСА-Т4                 : 
OTHER_59           .         Форма_ С.А.Б.                 : 
OTHER_6            .         Альтитуда стола ротора        : 
OTHER_60           .         Тарировки_                    : 
OTHER_61           .         <_techsia_sc_> Дата тарировки температуры 25.05.2010: 
OTHER_62           .         Ручной ввод коэффициентов     : 
OTHER_63           .         TM.DEGC = 0.00402*RTM.E.ACP + -0.994: 
OTHER_64           .         <_techsia_sc_> Дата тарировки давления 25.05.2010: 
OTHER_65           .         Ручной ввод коэффициентов     : 
OTHER_66           .         MN.ATM = (2.27521e-006*TM.DEGC + 0.02078)*(RMN.E.ACP + 6.2*TM.DEGC + -1688): 
OTHER_67           .         <_techsia_sc_> Дата тарировки ГК 25.05.2010: 
OTHER_68           .         Ручной ввод коэффициентов     : 
OTHER_69           .         GR.UR/H = RGR.IMP/MIN / 45.5144: 
OTHER_7            .         Вид исследований 3  6         : 
OTHER_70           .         GK.FLT = 0.1*GR.UR/H[-1] + (1-0.1)*GR.UR/H[0]: 
OTHER_8            .         Начало бурения интервала каротажа: 
OTHER_9            .         Окончание бурения интервала каротажа: 
PROJECT_UPGRADE_TIME .         2021-03-18T21_24_50           : 
TLFamily_CCLC      .                                       : 
TLFamily_DEPT      .         Measured Depth                : 
TLFamily_GK        .         Gamma Ray                     : 
TLFamily_GR        .         Gamma Ray                     : 
TLFamily_METKA     .                                       : 
TLFamily_MN        .                                       : 
TLFamily_RCOR      .                                       : 
TLFamily_RGR       .                                       : 
TLFamily_RMN       .                                       : 
TLFamily_RTEN      .                                       : 
TLFamily_RTM       .                                       : 
TLFamily_SPEE      .         Cable Speed                   : 
TLFamily_TIME      .         Time                          : 
TLFamily_TM        .         Temperature                   : 
group              .         prim                          : 
~Curve Information
#_______________________________________________________________________________
#
#LOGNAME           .UNIT     LOG_ID                        : DESCRIPTION
#_______________________________________________________________________________
DEPT               .M                                      : 1 Глубина, м -    0.0 см 
CCLC               .E.ACP                                  : 9 Локатор муфт,  -   20.0 см 
GK                 .FLT                                    : 14 Гамма-активность фильтрованная, мкр./ч -  110.0 см 
GR                 .UR/H                                   : 13 Гамма-активность, мкр./ч -  110.0 см 
METKA              .CU                                     : 3 Метки,  -    0.0 см 
MN                 .ATM                                    : 12 Давление, атм. -  160.0 см 
RCOR               .CM/KM                                  : 5 Коррекция по ролику, см/км -    0.0 см 
RGR                .IMP/MIN                                : 10 Гамма-активность, усл.ед. -  110.0 см 
RMN                .E.ACP                                  : 8 Давление, усл.ед. -  160.0 см 
RTEN               .T                                      : 6 Натяжение кабеля, т -    0.0 см 
RTM                .E.ACP                                  : 7 Температура, усл.ед. -  170.0 см 
SPEE               .M/H                                    : 2 Скорость, м/час -    0.0 см 
TIME               .S                                      : 4 Время, сек -    0.0 см 
TM                 .DEGC                                   : 11 Температура, °C -  170.0 см 
~Ascii
# ...
2686.800021 2731       7.84       7.84       0          241.058    -1107      357        12844      0.26       15073      577        265.48     59.6      
2687.000021 529        8.39       8.39       0          241.076    -1107      382        12845      0.26       15060      577        266.73     59.546    
2687.200021 176        8.39       8.39       0          241.1      -1107      382        12847      0.26       15051      577        268        59.513    
2687.400021 96         8.77       8.77       0          241.121    -1107      399        12848      0.26       15044      577        269.31     59.481    
2687.600021 85         8.77       8.77       0          241.116    -1107      399        12848      0.26       15030      576        270.53     59.425    
2687.800021 69         9.16       9.16       0          241.148    -1107      417        12850      0.26       15015      576        271.78     59.367    
2688.000021 79         9.16       9.16       0          241.162    -1107      417        12851      0.26       15003      576        273.03     59.318    
2688.200021 65         9.07       9.07       0          241.186    -1107      413        12853      0.26       14989      577        274.31     59.262    
2688.400022 81         9.07       9.07       0          241.205    -1107      413        12854      0.26       14972      576        275.59     59.192    
2688.600022 119        9.45       9.45       0          241.199    -1107      430        12854      0.26       14960      576        276.81     59.143    
2688.800022 120        9.45       9.45       0          241.224    -1107      430        12856      0.26       14940      575        278.08     59.065    
2689.000022 103        9.58       9.58       0          241.233    -1107      436        12857      0.26       14919      576        279.34     58.98     
2689.200022 106        9.58       9.58       0          241.244    -1107      436        12858      0.26       14903      576        280.66     58.916    
2689.400022 70         8.96       8.96       0          241.256    -1107      408        12859      0.26       14888      575        281.86     58.854    
2689.600022 60         8.96       8.96       0          241.284    -1107      408        12861      0.26       14872      576        283.11     58.792    
2689.800022 72         9.18       9.18       0          241.278    -1107      418        12861      0.26       14853      575        284.38     58.717    
2690.000022 144        9.18       9.18       0          241.313    -1107      418        12864      0.26       14830      576        285.64     58.623    
2690.200022 124        9.58       9.58       0          241.309    -1107      436        12864      0.26       14807      577        286.89     58.531    
2690.400023 75         9.58       9.58       0          241.32     -1107      436        12865      0.26       14787      577        288.16     58.448    
2690.600023 121        10.39      10.39      0          241.345    -1107      473        12867      0.26       14764      577        289.36     58.358    
2690.800023 172        10.39      10.39      0          241.355    -1107      473        12868      0.26       14748      576        290.65     58.291    
2691.000023 165        11.32      11.32      0          241.372    -1107      515        12869      0.26       14732      575        291.94     58.229    
2691.200023 91         11.32      11.32      0          241.404    -1107      515        12871      0.26       14721      576        293.19     58.185    
2691.400023 119        11.69      11.69      0          241.417    -1107      532        12872      0.26       14710      576        294.45     58.142    
2691.600023 130        11.69      11.69      0          241.445    -1107      532        12874      0.26       14694      576        295.67     58.074    
2691.800023 89         12         12         0          241.442    -1107      546        12875      0.26       14672      576        296.97     57.987    
2692.000023 89         11.91      11.91      0          241.436    -1107      542        12875      0.26       14646      576        298.23     57.882    
2692.200023 87         11.51      11.51      0          241.467    -1107      524        12877      0.26       14626      576        299.5      57.801    
2692.400024 1139       11.51      11.51      0          241.483    -1107      524        12878      0.26       14605      577        300.7      57.72     
2692.600024 1176       10.41      10.41      0          241.497    -1107      474        12880      0.26       14582      577        301.95     57.625    
2692.800024 345        10.41      10.41      0          241.509    -1107      474        12881      0.26       14559      577        303.28     57.535    
2693.000024 74         9.93       9.93       0          241.52     -1107      452        12882      0.26       14542      576        304.52     57.464    
2693.200024 38         9.83       9.83       0          241.527    -1107      447        12883      0.26       14523      576        305.78     57.388    
2693.400024 29         9.34       9.34       0          241.561    -1107      425        12885      0.26       14504      576        307.02     57.311    
2693.600024 36         9.34       9.34       0          241.576    -1107      425        12886      0.26       14495      576        308.28     57.277    
2693.800024 40         9.91       9.91       0          241.585    -1107      451        12887      0.26       14481      576        309.54     57.22     
2694.000024 51         10.25      10.25      0          241.612    -1107      467        12889      0.26       14461      576        310.78     57.138    
2694.200024 52         10.59      10.59      0          241.609    -1107      482        12890      0.26       14429      577        312.05     57.012    
2694.400025 32         10.61      10.61      0          241.624    -1107      483        12892      0.26       14388      577        313.3      56.847    
2694.600025 32         10.77      10.77      0          241.634    -1107      490        12893      0.26       14358      577        314.61     56.723    
2694.800025 39         10.77      10.77      0          241.652    -1107      490        12894      0.26       14347      577        315.81     56.682    
2695.000025 36         11.23      11.23      0          241.684    -1107      511        12896      0.26       14342      576        317.07     56.659    
2695.200025 50         10.91      10.91      0          241.696    -1107      496        12897      0.26       14326      575        318.3      56.595    
2695.400025 37         10.59      10.59      0          241.701    -1107      482        12898      0.26       14303      576        319.65     56.505    
2695.600025 34         10.57      10.57      0          241.705    -1107      481        12899      0.26       14275      576        320.86     56.39     
2695.800025 34         10.48      10.48      0          241.716    -1107      477        12900      0.26       14251      575        322.11     56.295    
2696.000025 34         10.48      10.48      2          241.743    -1109      477        12902      0.26       14231      576        323.49     56.215    
2696.200025 40         10.9       10.9       0          241.752    -1110      496        12903      0.26       14213      576        324.82     56.141    
2696.400026 61         11.42      11.42      0          241.768    -1110      520        12904      0.26       14198      576        326.08     56.08     
2696.600026 37         11.95      11.95      0          241.793    -1110      544        12906      0.26       14179      576        327.38     56.005    
2696.800026 35         12.2       12.2       0          241.794    -1110      555        12907      0.26       14156      575        328.61     55.915    
2697.000026 41         12.7       12.7       0          241.81     -1110      578        12908      0.26       14129      576        329.85     55.805    
