~Version
 VERS              .         2.0                           : CWLS LOG ASCII STANDARD - VERSION 2.0
 WRAP              .         NO                            : ONE LINE PER DEPTH STEP
 DLM               .         SPACE                         : DELIMITING CHARACTER(SPACE TAB OR COMMA)
~Well Information
#_______________________________________________________________________________
#
#PARAMETER_NAME    .UNIT     VALUE                         : DESCRIPTION
#_______________________________________________________________________________
STRT               .M        827.6                         : First reference value
STOP               .M        1707.2                        : Last reference value
STEP               .M        0.2                           : Step increment
NULL               .         -9999                         : Missing value
COMP               .                                       : Company
WELL               .         616                           : Well name
FLD                .                                       : Field
LOC                .                                       : Location
CNTY               .                                       : County
STAT               .                                       : State
CTRY               .                                       : Country
SRVC               .                                       : Service Company
DATE               .                                       : Date
API                .                                       : API number
PROJECT_UPGRADE_TIME .         2021-03-18T21_24_50           : 
group              .         Good                          : 
~Parameter Information Block
#_______________________________________________________________________________
#
#PARAMETER_NAME    .UNIT     VALUE                         : DESCRIPTION
#_______________________________________________________________________________
SET                .         616_8                         : 
CONF               .         00                            : 
END                .         0                             : 
ERR                .         0                             : 
GS00               .M        1705.33                       : 
GS01               .M        0825.11                       : 
MM00               .M        0210.00                       : 
NOKG               .         0                             : 
NPR                .         980615                        : 
PART               .         Бутенко                       : 
PROJECT_UPGRADE_TIME .         2021-03-18T21_24_49           : 
PRZK               .         Шакиров                       : 
TLFamily_AZIMUTH   .         True Dip Azimuth              : 
TLFamily_DEPTH     .         Measured Depth                : 
TLFamily_METKA     .                                       : 
TLFamily_ROLL      .                                       : 
TLFamily_SPEED     .         Spontaneous Potential         : 
TLFamily_ZENIT     .                                       : 
VPRG               .         310                           : 
WAY                .         UP                            : 
group              .         prim                          : 
~Curve Information
#_______________________________________________________________________________
#
#LOGNAME           .UNIT     LOG_ID                        : DESCRIPTION
#_______________________________________________________________________________
DEPTH              .M                                      :  
AZIMUTH            .DEG                                    :  
METKA              .                                       :  
ROLL               .DEG                                    :  
SPEED              .M/H                                    :  
ZENIT              .DEG                                    :  
~Ascii
# ...
949.6      251.27     0          153.42     648        30.77     
949.8      253.51     0          153.65     684        31.35     
950        250.44     0          153.98     648        30.58     
950.2      253.59     0          153.96     648        31.25     
950.4      253.5      0          153.97     648        31.23     
950.6      251.53     0          154.08     648        30.65     
950.8      255.16     0          153.89     684        31.21     
951        255.7      0          153.06     648        30.84     
951.2      262.4      0          151.7      684        31.06     
951.4      288.87     0          151.46     648        31.21     
951.6      290.72     0          152.18     612        31.04     
951.8      217.05     0          152.9      684        31.58     
952        180.84     0          153.12     648        30.86     
952.2      338.36     1          153.5      648        31.61     
952.4      281.78     0          155.06     648        31.62     
952.6      259.09     0          156.21     648        30.9      
952.8      258.47     0          155.78     648        31.66     
953        253.05     0          155.48     684        30.87     
953.2      253.69     0          154.76     648        31.21     
953.4      255.64     0          154.06     684        31.22     
953.6      253.21     0          154.62     648        30.79     
953.8      253.89     0          155.13     684        31.08     
954        252.35     0          155.63     612        30.91     
954.2      255.57     0          155.4      648        31.26     
954.4      252.48     0          155.23     684        30.9      
954.6      250.44     0          155.32     648        30.48     
954.8      254.48     0          155.21     648        31.29     
955        251.42     0          154.73     648        30.52     
955.2      251.93     0          154.04     648        30.76     
955.4      253.5      0          153.52     684        31.14     
955.6      254.93     0          152.42     648        31.24     
955.8      254.16     0          152.73     684        31.22     
956        251.13     0          154.59     648        30.71     
956.2      253.72     0          155.17     612        31.27     
956.4      253.24     0          155.09     684        31.15     
956.6      249.92     0          154.93     648        30.48     
956.8      254.04     0          155.13     648        31.41     
957        250.83     0          155.24     648        30.7      
957.2      252.8      0          154.94     648        31.08     
957.4      253.51     0          154.7      684        31.21     
957.6      252.49     0          154.46     648        30.96     
957.8      253.25     0          154.29     648        31.19     
958        251.11     0          154.23     684        30.65     
958.2      252.05     0          154.2      648        30.96     
958.4      254.33     0          154.7      648        31.39     
958.6      250.53     0          155.3      648        30.56     
958.8      254.08     0          155.6      648        31.44     
959        251.36     0          155.28     648        30.74     
959.2      252.93     0          154.72     684        31.06     
959.4      252.73     0          154.29     648        31.05     
959.6      252.43     0          154.1      648        30.99     
959.8      254.12     0          154.24     648        31.32     
960        252.27     0          154.54     684        30.92     
960.2      252.71     0          154.9      648        31.12     
960.4      253.76     0          155.29     648        31.36     
960.6      249.53     0          155.45     648        30.37     
960.8      253.46     0          155.4      648        31.27     
961        251.77     0          155.25     648        30.8      
961.2      252.98     0          154.92     648        31.04     
961.4      253.78     0          154.75     684        31.21     
961.6      252.11     0          154.77     648        30.88     
961.8      253.65     0          154.82     648        31.2      
962        252.48     0          154.81     648        30.82     
962.2      252.86     1          154.95     648        30.94     
962.4      255.58     0          154.92     720        31.56     
962.6      251.7      0          154.57     612        30.7      
962.8      253.95     0          154.42     684        31.18     
963        253.78     0          154.39     648        30.97     
963.2      254.53     0          153.91     648        30.75     
963.4      260.22     0          153.15     684        31.29     
963.6      269.3      0          153.67     648        31.02     
963.8      312.54     0          154.35     648        31.59     
964        227.74     0          154.57     648        31.14     
964.2      185.73     0          154.53     648        31.18     
964.4      311.98     0          154.41     684        31.48     
964.6      317.07     0          154.88     648        30.94     
964.8      268.79     0          155.3      648        31.43     
965        259.36     0          155.22     612        31.58     
965.2      253.34     0          155.34     684        30.98     
965.4      254.93     0          155.92     648        31.5      
965.6      252.49     0          156.26     648        31.05     
965.8      253.32     0          155.67     684        31.08     
966        252.85     0          154.8      648        30.94     
966.2      252.54     0          154.01     648        30.97     
966.4      254.1      0          153.5      648        31.4      
966.6      251.61     0          154.2      648        31.02     
966.8      253.42     0          155.1      648        31.17     
967        252.4      0          155.17     684        30.99     
967.2      250.46     0          154.57     612        30.51     
967.4      252.77     0          153.62     684        31.01     
967.6      252.34     0          153.22     648        30.84     
967.8      253.61     0          153.08     684        31.22     
968        255.18     0          152.16     648        31.21     
968.2      252.47     0          153.09     648        31.06     
968.4      253.48     0          154.83     648        31.39     
968.6      250.83     0          154.81     648        30.83     
968.8      252.63     0          155.32     648        31.14     
969        253.48     0          155.97     648        31.33     
969.2      252.49     0          156.2      648        30.98     
969.4      254.12     0          155.43     612        31.32     
969.6      251.23     0          154.66     684        30.8      
969.8      253.91     0          154.25     648        31.37     
970        252.45     0          153.45     684        30.98     
970.2      251.87     0          153.44     648        30.99     
970.4      254.66     0          154.29     684        31.54     
970.6      250.72     0          155.03     648        30.7      
970.8      253.67     0          155.03     648        31.31     
971        252.77     0          154.44     648        31.06     
971.2      251.84     0          153.92     684        30.95     
971.4      253.26     0          154.19     648        31.3      
971.6      251.92     0          154.82     612        30.96     
971.8      254.14     0          155.21     684        31.48     
972        252.61     0          155.72     648        31.13     
972.2      252.3      1          156.08     648        31.03     
972.4      254.4      0          156.06     684        31.49     
972.6      250.83     0          155.67     648        30.69     
972.8      254.16     0          155.48     684        31.5      
973        252.34     0          155.51     648        31.09     
973.2      252.07     0          155.62     648        31.03     
973.4      253.26     0          155.85     648        31.37     
973.6      252.17     0          156.25     684        31.12     
973.8      253.06     0          156.37     612        31.27     
