~Version
 VERS              .         2.0                           : CWLS LOG ASCII STANDARD - VERSION 2.0
 WRAP              .         NO                            : ONE LINE PER DEPTH STEP
 DLM               .         SPACE                         : DELIMITING CHARACTER(SPACE TAB OR COMMA)
~Well Information
#_______________________________________________________________________________
#
#PARAMETER_NAME    .UNIT     VALUE                         : DESCRIPTION
#_______________________________________________________________________________
STRT               .M        2667.8                        : First reference value
STOP               .M        2773.4                        : Last reference value
STEP               .M        0.1999997                     : Step increment
NULL               .         -9999                         : Missing value
COMP               .                                       : Company
WELL               .         616                           : Well name
FLD                .                                       : Field
LOC                .                                       : Location
CNTY               .                                       : County
STAT               .                                       : State
CTRY               .                                       : Country
SRVC               .                                       : Service Company
DATE               .                                       : Date
API                .                                       : API number
PROJECT_UPGRADE_TIME .         2021-03-18T21_24_50           : 
group              .         Good                          : 
~Parameter Information Block
#_______________________________________________________________________________
#
#PARAMETER_NAME    .UNIT     VALUE                         : DESCRIPTION
#_______________________________________________________________________________
SET                .         D0401_D                       : 
OTHER              .         Kedr.exe версия 2.1.2.32      : 
OTHER_10           .         TM.GRD = 0.00379*TM$.UE + 7.11: 
OTHER_11           .         MN.ATM = (8e-006*TM.GRD + 0.02)*(MN$.UE + -8*TM.GRD + -1800): 
OTHER_12           .         GK.MKR/H = GK$.UE / 57.17 + 0 : 
OTHER_2            .         KedrData.dll версия 3.2.2.14  : 
OTHER_3            .         LasInf.dll версия 3.2.0.13    : 
OTHER_4            .         Драйвер версия 1.2.0.4        : 
OTHER_5            .         Прибор_ АКП4_90               : 
OTHER_6            .         Номер прибора_ 56             : 
OTHER_7            .         Режим_ АКП4_90 - все каналы   : 
OTHER_8            .         Форма_ Г-1                    : 
OTHER_9            .         Тарировки_                    : 
PROJECT_UPGRADE_TIME .         2021-03-18T21_24_49           : 
TLFamily_DEPT      .         Measured Depth                : 
TLFamily_GK        .         Gamma Ray                     : 
TLFamily_GK$       .                                       : 
TLFamily_LM        .         Casing Collar locator         : 
TLFamily_METKA     .                                       : 
TLFamily_METKA_1   .                                       : 
TLFamily_MN        .                                       : 
TLFamily_MN$       .                                       : 
TLFamily_RCOR      .                                       : 
TLFamily_SPID      .         Spontaneous Potential         : 
TLFamily_TIME      .         Time                          : 
TLFamily_TM        .         Temperature                   : 
TLFamily_TM$       .         Temperature                   : 
group              .         second                        : 
~Curve Information
#_______________________________________________________________________________
#
#LOGNAME           .UNIT     LOG_ID                        : DESCRIPTION
#_______________________________________________________________________________
DEPT               .M                                      : 1 Глубина, м -    0.0 см 
GK                 .MKR/H                                  : 12 Гамма-активность, мкр./ч -   65.0 см 
GK$                .UE                                     : 9 Гамма-активность, усл.ед. -   65.0 см 
LM                 .                                       : 8 Локатор муфт,  -   30.0 см 
METKA              .                                       : 3 Метки,  -    0.0 см 
METKA_1            .                                       : 13 Маркеры - 65 см 
MN                 .ATM                                    : 11 Давление, атм. -  140.0 см 
MN$                .UE                                     : 7 Давление, усл.ед. -  140.0 см 
RCOR               .CM/KM                                  : 5 Коррекция по ролику, см/км -    0.0 см 
SPID               .M/H                                    : 2 Скорость, м/час -    0.0 см 
TIME               .S                                      : 4 Время, сек -    0.0 см 
TM                 .GRD                                    : 10 Температура, °C -  145.0 см 
TM$                .UE                                     : 6 Температура, усл.ед. -  145.0 см 
~Ascii
# ...
2757.4     7.52       415        1039       0          0          267.874    15435      0          -260       5351.74    85.571     20702     
2757.6     7.6        447        783        0          0          267.916    15437      0          -260       5348.89    85.574     20703     
2757.8     7.42       439        668        0          0          268.011    15442      0          -260       5346.07    85.578     20704     
2758       7.34       422        487        0          0          268.018    15442      0          -260       5343.24    85.586     20706     
2758.2     7.37       420        459        0          0          267.969    15440      0          -213       5340.28    85.59      20707     
2758.4     7.35       421        1004       0          0          267.955    15439      0          -260       5337.44    85.593     20708     
2758.6     7.33       417        1155       0          0          268.038    15443      0          -260       5334.53    85.603     20711     
2758.8     7.31       429        788        0          0          268.12     15447      0          -320       5331.65    85.609     20712     
2759       7.17       416        741        0          0          268.119    15447      0          -213       5328.81    85.61      20712     
2759.2     7.21       402        1426       0          0          268.064    15444      0          -260       5325.96    85.62      20715     
2759.4     7.3        411        1203       0          0          268.057    15444      0          -190       5322.98    85.625     20716     
2759.6     7.56       437        1265       0          0          268.139    15448      0          -260       5320.16    85.631     20718     
2759.8     7.44       450        1353       1          0          268.201    15451      0          -260       5317.32    85.635     20719     
2760       7.06       424        1543       0          0          268.211    15451      0          -260       5313.56    85.641     20721     
2760.2     6.76       402        1628       0          0          268.159    15449      0          -260       5310.72    85.643     20721     
2760.4     6.6        387        2170       0          0          268.179    15450      0          -237       5307.76    85.65      20723     
2760.6     6.37       391        1350       0          0          268.262    15454      0          -260       5304.92    85.654     20724     
2760.8     5.83       366        1211       0          0          268.296    15456      0          -260       5302.07    85.663     20726     
2761       5.45       314        1447       0          0          268.274    15455      0          -260       5299.22    85.669     20728     
2761.2     5.51       299        1689       0          0          268.24     15453      0          -260       5296.38    85.677     20730     
2761.4     5.92       293        1133       0          0          268.357    15459      0          -213       5293.4     85.68      20731     
2761.6     6.62       307        2270       0          0          268.342    15458      0          -191       5290.55    85.688     20733     
2761.8     6.88       396        2138       0          0          268.322    15457      0          -260       5287.71    85.694     20735     
2762       6.85       376        1562       0          0          268.404    15461      0          -260       5284.87    85.696     20735     
2762.2     7.07       401        1854       0          0          268.424    15462      0          -260       5281.9     85.703     20737     
2762.4     7.02       423        2332       0          0          268.417    15462      0          -260       5279.11    85.707     20738     
2762.6     6.77       401        1926       0          0          268.403    15461      0          -191       5276.2     85.715     20740     
2762.8     6.41       406        813        0          0          268.424    15462      0          -320       5273.36    85.722     20742     
2763       6.22       338        1308       0          0          268.568    15469      0          -260       5270.52    85.726     20743     
2763.2     6.78       355        6166       0          0          268.547    15468      0          -260       5267.67    85.732     20744     
2763.4     7.34       400        2400       0          0          268.457    15464      0          -260       5264.7     85.737     20746     
2763.6     7.51       454        1625       0          0          268.526    15467      0          -260       5261.85    85.737     20746     
2763.8     7.12       439        1235       0          0          268.567    15469      0          -260       5259.03    85.741     20747     
2764       6.69       412        959        0          0          268.628    15472      0          -213       5256.19    85.745     20748     
2764.2     6.44       383        2052       0          0          268.635    15472      0          -260       5253.21    85.756     20751     
2764.4     6.39       358        1626       0          0          268.552    15468      0          -237       5250.37    85.764     20753     
2764.6     6.65       350        1829       0          0          268.69     15475      0          -260       5247.52    85.769     20754     
2764.8     7.1        407        1729       0          0          268.73     15477      0          -260       5244.62    85.773     20755     
2765       7.09       407        1905       0          0          268.647    15473      0          -320       5241.73    85.779     20757     
2765.2     7.08       403        866        0          0          268.661    15474      0          -260       5238.89    85.783     20758     
2765.4     7.14       401        1004       0          0          268.66     15474      0          -260       5236.06    85.787     20759     
2765.6     7.46       386        927        0          0          268.798    15480      0          -226       5233.01    85.79      20760     
2765.8     7.56       438        1649       0          0          268.825    15482      0          -260       5230.11    85.794     20761     
2766       7.35       418        1150       0          0          268.729    15477      0          -260       5227.29    85.798     20762     
2766.2     7.4        420        1129       0          0          268.811    15481      0          -260       5224.44    85.801     20763     
2766.4     7.28       449        1372       0          0          268.832    15482      0          -260       5221.6     85.809     20765     
2766.6     6.7        438        1349       0          0          268.831    15482      0          -260       5218.69    85.813     20766     
2766.8     6.11       391        1229       0          0          268.879    15484      0          -260       5215.79    85.817     20767     
2767       5.99       341        1928       0          0          268.821    15482      0          -260       5212.95    85.821     20768     
2767.2     6.2        339        1914       0          0          268.975    15489      0          -260       5210.11    85.825     20769     
2767.4     6.4        363        1400       0          0          269.051    15493      0          -260       5207.28    85.828     20770     
2767.6     6.43       370        1249       0          0          268.906    15486      0          -320       5204.35    85.832     20771     
2767.8     6.44       363        2396       0          0          268.933    15487      0          -260       5201.58    85.833     20771     
2768       6.45       372        1216       0          0          268.924    15487      0          -260       5198.63    85.836     20772     
2768.2     6.51       360        1027       0          0          268.995    15490      0          -213       5195.76    85.84      20773     
2768.4     6.7        393        1858       0          0          269.147    15497      0          -260       5192.92    85.84      20773     
