~Version
 VERS              .         2.0                           : CWLS LOG ASCII STANDARD - VERSION 2.0
 WRAP              .         NO                            : ONE LINE PER DEPTH STEP
 DLM               .         SPACE                         : DELIMITING CHARACTER(SPACE TAB OR COMMA)
~Well Information
#_______________________________________________________________________________
#
#PARAMETER_NAME    .UNIT     VALUE                         : DESCRIPTION
#_______________________________________________________________________________
STRT               .M        2648.2                        : First reference value
STOP               .M        2755.2                        : Last reference value
STEP               .M        0.2                           : Step increment
NULL               .         -9999                         : Missing value
COMP               .                                       : Company
WELL               .         616                           : Well name
FLD                .                                       : Field
LOC                .                                       : Location
CNTY               .                                       : County
STAT               .                                       : State
CTRY               .                                       : Country
SRVC               .                                       : Service Company
DATE               .                                       : Date
API                .                                       : API number
PROJECT_UPGRADE_TIME .         2021-03-18T21_24_50           : 
group              .         Good                          : 
~Parameter Information Block
#_______________________________________________________________________________
#
#PARAMETER_NAME    .UNIT     VALUE                         : DESCRIPTION
#_______________________________________________________________________________
SET                .         D7022_D                       : 
OTHER              .         Kedr.exe версия 2.1.2.32      : 
OTHER_10           .         TM.GRD = 0.00404*TM$.UE + 0.07: 
OTHER_11           .         MN.ATM = (6.33279e-006*TM.GRD + 0.02401)*(MN$.UE + 2.72*TM.GRD + -2018): 
OTHER_12           .         GK.MKR/H = GK$.UE / 43.5489 + 0: 
OTHER_13           .         RES.SM = 0.00476*CRES.UE - 1.51709: 
OTHER_14           .         PL.GSM3 = 0 + 0 * (PL.UE / 1) +  0 * (PL.UE / 1)^2: 
OTHER_15           .         Постоянная времени ГГП = 6 сек: 
OTHER_16           .         Постоянная времени ГК = 6 сек : 
OTHER_2            .         KedrData.dll версия 3.2.2.14  : 
OTHER_3            .         LasInf.dll версия 3.2.0.13    : 
OTHER_4            .         Драйвер версия 1.2.0.5        : 
OTHER_5            .         Прибор_ КСА-M1                : 
OTHER_6            .         Номер прибора_ 155+р204       : 
OTHER_7            .         Режим_ КСА-М1 + ГГП + Резистивиметр: 
OTHER_8            .         Форма_ 223\2                  : 
OTHER_9            .         Тарировки_                    : 
PROJECT_UPGRADE_TIME .         2021-03-18T21_24_50           : 
TLFamily_CRES      .                                       : 
TLFamily_DEPT      .         Measured Depth                : 
TLFamily_GK        .         Gamma Ray                     : 
TLFamily_GK$       .                                       : 
TLFamily_LM        .         Casing Collar locator         : 
TLFamily_METKA     .                                       : 
TLFamily_MN        .                                       : 
TLFamily_MN$       .                                       : 
TLFamily_PL        .                                       : 
TLFamily_PL_2      .                                       : 
TLFamily_RCOR      .                                       : 
TLFamily_RES       .         Mud Resistivity               : 
TLFamily_SPID      .         Spontaneous Potential         : 
TLFamily_STD       .                                       : 
TLFamily_TIME      .         Time                          : 
TLFamily_TM        .         Temperature                   : 
TLFamily_TM$       .         Temperature                   : 
TLFamily_VGD       .         Gas Volume                    : 
group              .         prim                          : 
~Curve Information
#_______________________________________________________________________________
#
#LOGNAME           .UNIT     LOG_ID                        : DESCRIPTION
#_______________________________________________________________________________
DEPT               .M                                      : 1 Глубина, м -    0.0 см 
CRES               .UE                                     : 9 Проводимость, усл.ед. -  222.0 см 
GK                 .MKR/H                                  : 16 Гамма-активность, мкр./ч -  106.0 см 
GK$                .UE                                     : 13 Гамма-активность, усл.ед. -  106.0 см 
LM                 .                                       : 11 Локатор муфт,  -   16.0 см 
METKA              .                                       : 3 Метки,  -    0.0 см 
MN                 .ATM                                    : 15 Давление, атм. -  160.0 см 
MN$                .UE                                     : 7 Давление, усл.ед. -  160.0 см 
PL                 .UE                                     : 10 Плотность, усл.ед. -  270.0 см 
PL_2               .GSM3                                   : 18 Плотность, г./см3 -  270.0 см 
RCOR               .CM/KM                                  : 5 Коррекция по ролику, см/км -    0.0 см 
RES                .SM                                     : 17 Проводимость,  -  222.0 см 
SPID               .M/H                                    : 2 Скорость, м/час -    0.0 см 
STD                .                                       : 12 Приток,  -  170.0 см 
TIME               .S                                      : 4 Время, сек -    0.0 см 
TM                 .GRD                                    : 14 Температура, °C -  180.0 см 
TM$                .UE                                     : 6 Температура, усл.ед. -  180.0 см 
VGD                .                                       : 8 Влагомер,  -  170.0 см 
~Ascii
# ...
2746.6     1323       9.29       397        184        0          356.657    16503      14         0          0          4.782      510        10980      14488.29   56.032     13852      6646      
2746.8     1328       9.2        397        122        0          356.365    16490      14         0          0          4.8042     510        11013      14489.6    56.155     13882      6633      
2747       1329       9.03       380        112        0          356.478    16494      14         0          0          4.8089     580        11048      14490.87   56.287     13915      6641      
2747.2     1331       8.88       380        103        0          358.554    16578      14         0          0          4.8185     580        11081      14492.19   56.46      13958      6627      
2747.4     1333       8.58       356        106        0          356.324    16485      13         0          0          4.8296     560        11120      14493.48   56.622     13998      6630      
2747.6     1337       8.38       356        94         0          355.321    16443      13         0          0          4.8457     580        11154      14494.75   56.744     14028      6627      
2747.8     1340       8.08       330        6044       0          356.986    16510      14         0          0          4.8621     580        11181      14496.08   56.905     14068      6625      
2748       1341       7.84       330        2326       0          357.821    16543      14         0          0          4.8684     557        11217      14497.35   57.127     14123      6625      
2748.2     1343       7.61       319        572        0          359.319    16603      14         0          0          4.8772     533        11252      14498.68   57.299     14166      6622      
2748.4     1346       7.46       319        161        0          359.803    16623      14         0          0          4.8899     520        11287      14499.98   57.491     14213      6617      
2748.6     1350       8.12       387        98         0          360.794    16662      14         0          0          4.9105     568        11316      14501.31   57.604     14241      6617      
2748.8     1350       8.51       392        94         0          359.422    16605      14         0          0          4.9069     580        11347      14502.58   57.758     14279      6615      
2749       1354       9.02       417        101        0          359.983    16627      14         0          0          4.9279     550        11378      14503.87   57.903     14315      6618      
2749.2     1353       9.3        417        95         0          359.93     16624      14         0          0          4.9248     580        11403      14505.18   58.054     14352      6618      
2749.4     1357       9.01       377        75         0          359.769    16615      13         0          0          4.943      510        11427      14506.47   58.249     14401      6614      
2749.6     1359       8.82       373        67         0          359.275    16594      14         0          0          4.9511     580        11456      14507.81   58.513     14466      6609      
2749.8     1361       8.5        355        55         0          358.539    16563      15         0          0          4.9592     510        11491      14509.07   58.693     14511      6610      
2750       1358       8.28       345        53         0          357.627    16525      14         0          0          4.9478     580        11518      14510.41   58.766     14529      6610      
2750.2     1362       8.05       340        47         1          358.326    16553      14         0          0          4.966      545        11543      14512.28   58.843     14548      6618      
2750.4     1363       8.06       366        49         0          358.098    16543      13         0          0          4.9724     580        11568      14513.55   58.962     14577      6619      
2750.6     1366       8.22       366        41         0          358.411    16555      14         0          0          4.983      510        11593      14514.85   59.076     14605      6627      
2750.8     1367       8.42       390        37         0          357.661    16524      14         0          0          4.9891     580        11613      14516.1    59.187     14633      6616      
2751       1368       8.96       414        39         0          356.615    16480      14         0          0          4.9946     510        11632      14517.44   59.257     14650      6624      
2751.2     1368       9.49       434        36         0          358.92     16574      13         0          0          4.9959     580        11650      14518.74   59.369     14678      6626      
2751.4     1121       9.72       434        36         0          358.956    16575      14         0          0          3.8167     580        11666      14520.04   59.449     14698      6615      
2751.6     1023       9.68       419        36         0          360.704    16647      13         0          0          3.3518     580        11681      14521.33   59.496     14710      6615      
2751.8     969        9.64       416        35         0          358.66     16563      13         0          0          3.0947     560        11694      14522.65   59.529     14718      6609      
2752       917        9.36       395        35         0          358.006    16536      14         0          0          2.8462     580        11698      14523.93   59.559     14725      6605      
2752.2     906        9.19       388        35         0          358.176    16542      14         0          0          2.7931     557        11700      14525.2    59.594     14734      6602      
2752.4     899        8.99       383        33         0          357.864    16529      15         0          0          2.7622     580        11707      14526.54   59.665     14751      6601      
2752.6     895        8.9        383        35         0          359.165    16582      15         0          0          2.7431     580        11716      14527.88   59.721     14765      6601      
2752.8     891        8.6        361        33         -9999      359.443    16593      14         0          -9999      2.7261     -9999      11723      -9999      59.769     14777      6600      
2753       889        8.46       363        -9999      -9999      359.791    16608      14         0          -9999      2.7146     -9999      11729      -9999      59.8       14785      6602      
2753.2     887        8.42       365        -9999      -9999      360.848    16651      14         0          -9999      2.705      -9999      11732      -9999      59.809     14787      6600      
2753.4     884        8.44       374        -9999      -9999      360.487    16636      13         0          -9999      2.6887     -9999      11735      -9999      59.805     14786      6599      
2753.6     880        8.51       374        -9999      -9999      360.781    16649      14         0          -9999      2.6716     -9999      11732      -9999      59.782     14780      6600      
2753.8     878        -9999      -9999      -9999      -9999      361.503    16678      14         0          -9999      2.6637     -9999      11731      -9999      59.759     14774      6598      
2754       875        -9999      -9999      -9999      -9999      361.866    16693      14         0          -9999      2.6479     -9999      11729      -9999      59.768     14777      6598      
2754.2     875        -9999      -9999      -9999      -9999      361.175    16664      13         0          -9999      2.6479     -9999      11729      -9999      59.793     14783      6599      
2754.4     874        -9999      -9999      -9999      -9999      -9999      -9999      14         0          -9999      2.6416     -9999      -9999      -9999      59.792     14783      -9999     
2754.6     873        -9999      -9999      -9999      -9999      -9999      -9999      14         0          -9999      2.6384     -9999      -9999      -9999      -9999      -9999      -9999     
