~Version
 VERS              .         2.0                           : CWLS LOG ASCII STANDARD - VERSION 2.0
 WRAP              .         NO                            : ONE LINE PER DEPTH STEP
 DLM               .         SPACE                         : DELIMITING CHARACTER(SPACE TAB OR COMMA)
~Well Information
#_______________________________________________________________________________
#
#PARAMETER_NAME    .UNIT     VALUE                         : DESCRIPTION
#_______________________________________________________________________________
STRT               .M        2647.6                        : First reference value
STOP               .M        2757.2                        : Last reference value
STEP               .M        0.1999997                     : Step increment
NULL               .         -9999                         : Missing value
COMP               .                                       : Company
WELL               .         616                           : Well name
FLD                .                                       : Field
LOC                .                                       : Location
CNTY               .                                       : County
STAT               .                                       : State
CTRY               .                                       : Country
SRVC               .                                       : Service Company
DATE               .                                       : Date
API                .                                       : API number
PROJECT_UPGRADE_TIME .         2021-03-18T21_24_50           : 
group              .         Good                          : 
~Parameter Information Block
#_______________________________________________________________________________
#
#PARAMETER_NAME    .UNIT     VALUE                         : DESCRIPTION
#_______________________________________________________________________________
SET                .         D7017_D                       : 
OTHER              .         Kedr.exe версия 2.1.2.32      : 
OTHER_10           .         TM.GRD = 0.00404*TM$.UE + 0.07: 
OTHER_11           .         MN.ATM = (6.33279e-006*TM.GRD + 0.02401)*(MN$.UE + 2.72*TM.GRD + -2018): 
OTHER_12           .         GK.MKR/H = GK$.UE / 43.5489 + 0: 
OTHER_13           .         RES.SM = 0.00476*CRES.UE - 1.51709: 
OTHER_14           .         PL.GSM3 = 0 + 0 * (PL.UE / 1) +  0 * (PL.UE / 1)^2: 
OTHER_15           .         Постоянная времени ГГП = 6 сек: 
OTHER_16           .         Постоянная времени ГК = 6 сек : 
OTHER_2            .         KedrData.dll версия 3.2.2.14  : 
OTHER_3            .         LasInf.dll версия 3.2.0.13    : 
OTHER_4            .         Драйвер версия 1.2.0.5        : 
OTHER_5            .         Прибор_ КСА-M1                : 
OTHER_6            .         Номер прибора_ 155+р204       : 
OTHER_7            .         Режим_ КСА-М1 + ГГП + Резистивиметр: 
OTHER_8            .         Форма_ 223\2                  : 
OTHER_9            .         Тарировки_                    : 
PROJECT_UPGRADE_TIME .         2021-03-18T21_24_50           : 
TLFamily_CRES      .                                       : 
TLFamily_DEPT      .         Measured Depth                : 
TLFamily_GK        .         Gamma Ray                     : 
TLFamily_GK$       .                                       : 
TLFamily_LM        .         Casing Collar locator         : 
TLFamily_METKA     .                                       : 
TLFamily_MN        .                                       : 
TLFamily_MN$       .                                       : 
TLFamily_PL        .                                       : 
TLFamily_PL_2      .                                       : 
TLFamily_RCOR      .                                       : 
TLFamily_RES       .         Mud Resistivity               : 
TLFamily_SPID      .         Spontaneous Potential         : 
TLFamily_STD       .                                       : 
TLFamily_TIME      .         Time                          : 
TLFamily_TM        .         Temperature                   : 
TLFamily_TM$       .         Temperature                   : 
TLFamily_VGD       .         Gas Volume                    : 
group              .         prim                          : 
~Curve Information
#_______________________________________________________________________________
#
#LOGNAME           .UNIT     LOG_ID                        : DESCRIPTION
#_______________________________________________________________________________
DEPT               .M                                      : 1 Глубина, м -    0.0 см 
CRES               .UE                                     : 9 Проводимость, усл.ед. -  222.0 см 
GK                 .MKR/H                                  : 16 Гамма-активность, мкр./ч -  106.0 см 
GK$                .UE                                     : 13 Гамма-активность, усл.ед. -  106.0 см 
LM                 .                                       : 11 Локатор муфт,  -   16.0 см 
METKA              .                                       : 3 Метки,  -    0.0 см 
MN                 .ATM                                    : 15 Давление, атм. -  160.0 см 
MN$                .UE                                     : 7 Давление, усл.ед. -  160.0 см 
PL                 .UE                                     : 10 Плотность, усл.ед. -  270.0 см 
PL_2               .GSM3                                   : 18 Плотность, г./см3 -  270.0 см 
RCOR               .CM/KM                                  : 5 Коррекция по ролику, см/км -    0.0 см 
RES                .SM                                     : 17 Проводимость,  -  222.0 см 
SPID               .M/H                                    : 2 Скорость, м/час -    0.0 см 
STD                .                                       : 12 Приток,  -  170.0 см 
TIME               .S                                      : 4 Время, сек -    0.0 см 
TM                 .GRD                                    : 14 Температура, °C -  180.0 см 
TM$                .UE                                     : 6 Температура, усл.ед. -  180.0 см 
VGD                .                                       : 8 Влагомер,  -  170.0 см 
~Ascii
# ...
2721.4     1234       8.47       373        139        0          250.316    12193      14         0          0          4.3566     -260       9055       8135.29    46.065     11385      6662      
2721.6     1227       8.12       377        452        0          250.331    12194      14         0          0          4.3236     -260       9057       8132.53    46.073     11387      6661      
2721.8     1233       7.32       321        126        0          250.343    12194      14         0          0          4.3536     -260       9064       8129.7     46.092     11392      6662      
2722       1230       7.32       315        149        0          250.347    12194      14         0          0          4.3401     -260       9067       8126.95    46.095     11392      6665      
2722.2     1231       7.57       316        110        0          250.373    12195      13         0          0          4.3425     -320       9071       8124.06    46.122     11399      6664      
2722.4     1234       8.02       328        208        0          250.376    12195      14         0          0          4.3568     -320       9076       8121.32    46.138     11403      6664      
2722.6     1211       8.37       359        886        0          250.403    12196      14         0          0          4.2477     -192       9078       8118.55    46.162     11409      6666      
2722.8     1237       8.29       366        127        0          250.413    12196      14         0          0          4.371      -260       9081       8115.66    46.18      11413      6665      
2723       1236       7.94       348        127        0          250.432    12197      14         0          0          4.3679     -320       9085       8112.91    46.196     11417      6664      
2723.2     1236       7.85       341        254        0          250.447    12198      14         0          0          4.3679     -260       9085       8110.15    46.219     11423      6667      
2723.4     1240       7.86       343        129        0          250.452    12198      14         0          0          4.3869     -260       9083       8107.39    46.237     11428      6667      
2723.6     1242       7.76       346        165        0          250.459    12198      14         0          0          4.3948     -260       9081       8104.64    46.243     11429      6668      
2723.8     1230       7.31       341        152        0          250.485    12199      14         0          0          4.338      -276       9082       8101.88    46.238     11428      6669      
2724       1245       6.79       312        639        0          250.485    12199      14         0          0          4.4091     -260       9086       8099.13    46.251     11431      6669      
2724.2     1245       6.93       287        5715       0          250.493    12199      14         0          0          4.4091     -260       9097       8096.22    46.247     11430      6668      
2724.4     1220       7.53       327        749        0          250.511    12199      14         0          0          4.2901     -260       9112       8093.46    46.308     11445      6670      
2724.6     1247       7.57       338        98         0          250.534    12200      14         0          0          4.4186     -260       9122       8090.7     46.383     11464      6670      
2724.8     1247       7.11       314        117        0          250.565    12201      13         0          0          4.4186     -320       9130       8087.81    46.434     11476      6670      
2725       1225       6.99       299        110        0          250.573    12201      14         0          0          4.3162     -320       9137       8085.07    46.492     11491      6670      
2725.2     1252       7.26       308        110        0          250.578    12201      13         0          0          4.4424     -320       9145       8082.3     46.552     11505      6670      
2725.4     1244       7.52       322        129        0          250.598    12202      14         0          0          4.4044     -260       9150       8079.42    46.585     11514      6670      
2725.6     1250       7.61       331        124        0          250.603    12202      13         0          0          4.4351     -260       9158       8076.52    46.557     11507      6671      
2725.8     1256       8.03       322        129        0          250.615    12202      14         0          0          4.463      -233       9176       8073.78    46.596     11516      6672      
2726       1250       8.91       393        151        0          250.651    12203      14         0          0          4.4329     -260       9196       8070.87    46.688     11539      6671      
2726.2     1257       8.52       385        96         0          250.647    12203      14         0          0          4.4647     -260       9212       8068.1     46.772     11560      6672      
2726.4     1258       7.71       343        95         0          250.687    12204      13         0          0          4.471      -260       9218       8065.32    46.807     11569      6671      
2726.6     1258       7.46       318        124        0          250.69     12204      14         0          0          4.4709     -260       9223       8062.55    46.861     11582      6673      
2726.8     1257       7.84       328        130        0          250.699    12204      14         0          0          4.4663     -260       9231       8059.77    46.886     11588      6673      
2727       1262       8.48       342        110        0          250.718    12204      14         0          0          4.49       -260       9235       8056.87    46.954     11605      6674      
2727.2     1249       9.69       365        170        0          250.745    12205      14         0          0          4.4282     -260       9248       8054.09    47.034     11625      6675      
2727.4     1266       11.44      435        132        0          250.751    12205      14         0          0          4.5107     -260       9269       8051.19    47.117     11645      6674      
2727.6     1270       11.55      505        129        0          250.794    12206      14         0          0          4.5281     -260       9301       8048.4     47.162     11656      6675      
2727.8     1268       11.38      479        122        0          250.802    12206      14         0          0          4.5181     -260       9330       8045.64    47.306     11692      6675      
2728       1272       12.36      529        112        0          250.813    12206      14         0          0          4.5376     -260       9344       8042.86    47.37      11708      6676      
2728.2     1275       12.89      547        110        0          250.851    12207      14         0          0          4.5503     -260       9354       8040.09    47.447     11727      6674      
2728.4     1247       13.77      562        135        0          250.833    12206      14         0          0          4.4186     -190       9356       8037.18    47.552     11753      6676      
2728.6     1278       15.01      631        158        0          250.861    12207      14         0          0          4.5646     -260       9356       8034.41    47.605     11766      6676      
2728.8     1281       15.17      677        124        0          250.869    12207      14         0          0          4.5821     -260       9362       8031.63    47.628     11772      6676      
2729       1280       14.65      662        140        0          250.905    12208      14         0          0          4.5757     -260       9382       8028.84    47.692     11788      6678      
2729.2     1283       14.69      635        151        0          250.913    12208      13         0          0          4.5924     -260       9403       8025.95    47.778     11809      6678      
2729.4     1284       14.76      655        116        0          250.915    12208      14         0          0          4.5947     -260       9413       8023.17    47.843     11825      6678      
