~Version
 VERS              .         2.0                           : CWLS LOG ASCII STANDARD - VERSION 2.0
 WRAP              .         NO                            : ONE LINE PER DEPTH STEP
 DLM               .         SPACE                         : DELIMITING CHARACTER(SPACE TAB OR COMMA)
~Well Information
#_______________________________________________________________________________
#
#PARAMETER_NAME    .UNIT     VALUE                         : DESCRIPTION
#_______________________________________________________________________________
STRT               .M        2647.6                        : First reference value
STOP               .M        2757.2                        : Last reference value
STEP               .M        0.1999997                     : Step increment
NULL               .         -9999                         : Missing value
COMP               .                                       : Company
WELL               .         616                           : Well name
FLD                .                                       : Field
LOC                .                                       : Location
CNTY               .                                       : County
STAT               .                                       : State
CTRY               .                                       : Country
SRVC               .                                       : Service Company
DATE               .                                       : Date
API                .                                       : API number
PROJECT_UPGRADE_TIME .         2021-03-18T21_24_50           : 
group              .         Good                          : 
~Parameter Information Block
#_______________________________________________________________________________
#
#PARAMETER_NAME    .UNIT     VALUE                         : DESCRIPTION
#_______________________________________________________________________________
SET                .         D7017_D                       : 
OTHER              .         Kedr.exe версия 2.1.2.32      : 
OTHER_10           .         TM.GRD = 0.00404*TM$.UE + 0.07: 
OTHER_11           .         MN.ATM = (6.33279e-006*TM.GRD + 0.02401)*(MN$.UE + 2.72*TM.GRD + -2018): 
OTHER_12           .         GK.MKR/H = GK$.UE / 43.5489 + 0: 
OTHER_13           .         RES.SM = 0.00476*CRES.UE - 1.51709: 
OTHER_14           .         PL.GSM3 = 0 + 0 * (PL.UE / 1) +  0 * (PL.UE / 1)^2: 
OTHER_15           .         Постоянная времени ГГП = 6 сек: 
OTHER_16           .         Постоянная времени ГК = 6 сек : 
OTHER_2            .         KedrData.dll версия 3.2.2.14  : 
OTHER_3            .         LasInf.dll версия 3.2.0.13    : 
OTHER_4            .         Драйвер версия 1.2.0.5        : 
OTHER_5            .         Прибор_ КСА-M1                : 
OTHER_6            .         Номер прибора_ 155+р204       : 
OTHER_7            .         Режим_ КСА-М1 + ГГП + Резистивиметр: 
OTHER_8            .         Форма_ 223\2                  : 
OTHER_9            .         Тарировки_                    : 
PROJECT_UPGRADE_TIME .         2021-03-18T21_24_50           : 
TLFamily_CRES      .                                       : 
TLFamily_DEPT      .         Measured Depth                : 
TLFamily_GK        .         Gamma Ray                     : 
TLFamily_GK$       .                                       : 
TLFamily_LM        .         Casing Collar locator         : 
TLFamily_METKA     .                                       : 
TLFamily_MN        .                                       : 
TLFamily_MN$       .                                       : 
TLFamily_PL        .                                       : 
TLFamily_PL_2      .                                       : 
TLFamily_RCOR      .                                       : 
TLFamily_RES       .         Mud Resistivity               : 
TLFamily_SPID      .         Spontaneous Potential         : 
TLFamily_STD       .                                       : 
TLFamily_TIME      .         Time                          : 
TLFamily_TM        .         Temperature                   : 
TLFamily_TM$       .         Temperature                   : 
TLFamily_VGD       .         Gas Volume                    : 
group              .         prim                          : 
~Curve Information
#_______________________________________________________________________________
#
#LOGNAME           .UNIT     LOG_ID                        : DESCRIPTION
#_______________________________________________________________________________
DEPT               .M                                      : 1 Глубина, м -    0.0 см 
CRES               .UE                                     : 9 Проводимость, усл.ед. -  222.0 см 
GK                 .MKR/H                                  : 16 Гамма-активность, мкр./ч -  106.0 см 
GK$                .UE                                     : 13 Гамма-активность, усл.ед. -  106.0 см 
LM                 .                                       : 11 Локатор муфт,  -   16.0 см 
METKA              .                                       : 3 Метки,  -    0.0 см 
MN                 .ATM                                    : 15 Давление, атм. -  160.0 см 
MN$                .UE                                     : 7 Давление, усл.ед. -  160.0 см 
PL                 .UE                                     : 10 Плотность, усл.ед. -  270.0 см 
PL_2               .GSM3                                   : 18 Плотность, г./см3 -  270.0 см 
RCOR               .CM/KM                                  : 5 Коррекция по ролику, см/км -    0.0 см 
RES                .SM                                     : 17 Проводимость,  -  222.0 см 
SPID               .M/H                                    : 2 Скорость, м/час -    0.0 см 
STD                .                                       : 12 Приток,  -  170.0 см 
TIME               .S                                      : 4 Время, сек -    0.0 см 
TM                 .GRD                                    : 14 Температура, °C -  180.0 см 
TM$                .UE                                     : 6 Температура, усл.ед. -  180.0 см 
VGD                .                                       : 8 Влагомер,  -  170.0 см 
~Ascii
# ...
2664       1246       6.76       283        121        0          244.863    11955      13         0          0          4.4155     -260       9526       8949.63    48.565     12004      6644      
2664.2     1248       7.11       314        146        0          244.902    11957      13         0          0          4.4234     -260       9523       8946.84    48.558     12002      6635      
2664.4     1249       7.06       303        116        0          244.913    11958      14         0          0          4.4266     -260       9520       8943.95    48.546     11999      6632      
2664.6     1249       7.2        308        122        0          244.938    11959      14         0          0          4.4282     -260       9516       8941.16    48.538     11997      6643      
2664.8     1246       7.17       320        129        0          244.928    11958      14         0          0          4.4123     -276       9510       8938.4     48.514     11991      6626      
2665       1244       7          307        209        0          244.964    11960      13         0          0          4.4028     -277       9505       8935.62    48.497     11987      6627      
2665.2     1244       6.98       298        557        0          245.004    11962      14         0          0          4.4044     -260       9504       8932.85    48.462     11978      6628      
2665.4     1247       7.3        321        1360       0          245.007    11962      14         0          0          4.4186     -260       9503       8930.07    48.458     11977      6627      
2665.6     1244       7.1        319        130        0          245.005    11962      14         0          0          4.4043     -260       9498       8927.29    48.419     11968      6624      
2665.8     1244       6.92       291        122        0          245.05     11964      14         0          0          4.4043     -320       9495       8924.52    48.405     11964      6623      
2666       1246       7.34       309        94         0          245.072    11965      14         0          0          4.4139     -260       9490       8921.74    48.376     11957      6624      
2666.2     1247       7.38       332        100        0          245.096    11966      13         0          0          4.4186     -260       9487       8918.7     48.359     11953      6627      
2666.4     1246       6.97       324        118        0          245.137    11968      13         0          0          4.4139     -260       9484       8915.92    48.353     11951      6625      
2666.6     1245       6.43       292        109        0          245.141    11968      13         0          0          4.409      -260       9481       8913.15    48.356     11952      6625      
2666.8     1246       6.68       289        111        0          245.138    11968      15         0          0          4.4115     -260       9479       8910.37    48.329     11945      6624      
2667       1246       6.76       296        100        0          245.161    11969      14         0          0          4.4115     -260       9476       8907.47    48.308     11940      6625      
2667.2     1245       6.73       282        95         0          245.185    11970      13         0          0          4.4107     -260       9475       8904.69    48.295     11937      6624      
2667.4     1243       7.11       314        99         0          245.183    11970      15         0          0          4.3996     -260       9472       8901.93    48.29      11936      6625      
2667.6     1246       6.99       307        124        0          245.238    11972      13         0          0          4.414      -260       9469       8899.14    48.278     11933      6624      
2667.8     1245       7.05       298        130        0          245.228    11972      15         0          0          4.4091     -260       9465       8896.36    48.262     11929      6624      
2668       1245       7.43       305        124        0          245.252    11973      14         0          0          4.4075     -260       9464       8893.59    48.247     11925      6622      
2668.2     1246       7.8        323        104        0          245.272    11974      14         0          0          4.4123     -280       9460       8890.69    48.243     11924      6623      
2668.4     1244       8.31       362        103        0          245.318    11976      13         0          0          4.4059     -280       9460       8887.91    48.211     11916      6624      
2668.6     1241       8.26       369        169        0          245.325    11976      14         0          0          4.3884     -260       9458       8885.2     48.194     11912      6625      
2668.8     1242       7.78       348        217        0          245.339    11977      14         0          0          4.3965     -260       9458       8882.37    48.185     11910      6624      
2669       1241       7.48       322        1028       0          245.361    11978      14         0          0          4.3917     -260       9452       8879.47    48.166     11905      6624      
2669.2     1242       7.93       316        4374       0          245.358    11978      13         0          0          4.3948     -300       9451       8876.8     48.15      11901      6623      
2669.4     1240       8.52       361        563        0          245.397    11980      13         0          0          4.3837     -280       9448       8874.01    48.128     11896      6625      
2669.6     1241       8.88       373        101        0          245.42     11981      15         0          0          4.3901     -260       9444       8871.24    48.115     11892      6623      
2669.8     1241       9.14       396        162        1          245.426    11981      14         0          0          4.3916     -260       9441       8868.46    48.106     11890      6625      
2670       1238       9.14       391        2716       0          245.474    11983      13         0          0          4.3774     -237       9439       8864.1     48.091     11886      6626      
2670.2     1241       9.78       417        114        0          245.472    11983      14         0          0          4.3901     -260       9438       8861.32    48.085     11885      6624      
2670.4     1239       10.09      455        131        0          245.487    11984      13         0          0          4.3806     -260       9432       8858.55    48.069     11881      6623      
2670.6     1233       9.33       430        110        0          245.518    11985      13         0          0          4.3521     -260       9430       8855.63    48.056     11878      6624      
2670.8     1239       8.57       371        166        0          245.542    11986      13         0          0          4.3789     -260       9425       8852.87    48.049     11876      6624      
2671       1239       8.62       375        2816       0          245.566    11987      13         0          0          4.3805     -190       9421       8850.08    48.044     11875      6624      
2671.2     1236       8.57       363        3139       0          245.589    11988      13         0          0          4.3663     -260       9419       8847.44    48.041     11874      6625      
2671.4     1234       8.95       386        2708       0          245.603    11989      14         0          0          4.3568     -260       9416       8844.52    48.033     11872      6624      
2671.6     1234       9.15       389        136        0          245.632    11990      14         0          0          4.3568     -260       9414       8841.73    48.014     11867      6624      
2671.8     1231       9.35       408        106        0          245.654    11991      14         0          0          4.3425     -300       9411       8838.83    47.99      11861      6623      
2672       1233       9.37       406        110        0          245.678    11992      14         0          0          4.352      -260       9407       8836.05    47.972     11857      6624      
