~Version
 VERS              .         2.0                           : CWLS LOG ASCII STANDARD - VERSION 2.0
 WRAP              .         NO                            : ONE LINE PER DEPTH STEP
 DLM               .         SPACE                         : DELIMITING CHARACTER(SPACE TAB OR COMMA)
~Well Information
#_______________________________________________________________________________
#
#PARAMETER_NAME    .UNIT     VALUE                         : DESCRIPTION
#_______________________________________________________________________________
STRT               .M        2655.25                       : First reference value
STOP               .M        2763.850109                   : Last reference value
STEP               .M        0.2000002                     : Step increment
NULL               .         -9999                         : Missing value
COMP               .                                       : Company
WELL               .         616                           : Well name
FLD                .                                       : Field
LOC                .                                       : Location
CNTY               .                                       : County
STAT               .                                       : State
CTRY               .                                       : Country
SRVC               .                                       : Service Company
DATE               .                                       : Date
API                .                                       : API number
PROJECT_UPGRADE_TIME .         2021-03-18T21_24_50           : 
group              .         Good                          : 
~Parameter Information Block
#_______________________________________________________________________________
#
#PARAMETER_NAME    .UNIT     VALUE                         : DESCRIPTION
#_______________________________________________________________________________
SET                .         D7026_D_2                     : 
NPR                .         155                           : Номер прибора
OTHER              .         Kedr.exe версия 2.1.2.32      : 
OTHER_10           .         TM.GRD = 0.00404*TM$.UE + 0.07: 
OTHER_11           .         MN.ATM = (6.33279e-006*TM.GRD + 0.02401)*(MN$.UE + 2.72*TM.GRD + -2018): 
OTHER_12           .         GK.MKR/H = GK$.UE / 43.5489 + 0: 
OTHER_13           .         RES.SM = 0.00476*CRES.UE - 1.51709: 
OTHER_14           .         PL.GSM3 = 0 + 0 * (PL.UE / 1) +  0 * (PL.UE / 1)^2: 
OTHER_15           .         Постоянная времени ГГП = 6 сек: 
OTHER_16           .         Постоянная времени ГК = 6 сек : 
OTHER_2            .         KedrData.dll версия 3.2.2.14  : 
OTHER_3            .         LasInf.dll версия 3.2.0.13    : 
OTHER_4            .         Драйвер версия 1.2.0.5        : 
OTHER_5            .         Прибор_ КСА-M1                : 
OTHER_6            .         Номер прибора_ 155+р204       : 
OTHER_7            .         Режим_ КСА-М1 + ГГП + Резистивиметр: 
OTHER_8            .         Форма_ 223\2                  : 
OTHER_9            .         Тарировки_                    : 
PR                 .         КСА-Т7 М1                     : Тип прибора
PROJECT_UPGRADE_TIME .         2021-03-18T21_24_50           : 
PRTY               .         ПП-223_2                      : Номер партии
SRV                .         ЦКРС                          : Заказчик
SRVC               .         Лузин  А.Б.                   : Начальник партии
TLFamily_DEPT      .         Measured Depth                : 
TLFamily_LM        .         Casing Collar locator         : 
TLFamily_MN        .                                       : 
TLFamily_SPID      .         Spontaneous Potential         : 
TLFamily_TM        .         Temperature                   : 
group              .         second                        : 
~Curve Information
#_______________________________________________________________________________
#
#LOGNAME           .UNIT     LOG_ID                        : DESCRIPTION
#_______________________________________________________________________________
DEPT               .M                                      : Depth curve 
LM                 .е.ацп                                  : Локация муфт 
MN                 .атм                                    : Манометрия, атм 
SPID               .м/ч                                    : Скорость записи,м/час 
TM                 .град.С                                 : Термометрия,град.С 
~Ascii
# ...
2712.850058 35         248.69     580        54.12     
2713.050058 48.016     248.71     580        54.1      
2713.250058 3688.01    248.72     557        54.07     
2713.450058 6049.98    248.75     580        54.04     
2713.650058 1487.995   248.77     580        54.02     
2713.850059 370.999    248.77     545        53.99     
2714.050059 102        248.8      524        53.95     
2714.250059 44         248.81     580        53.91     
2714.450059 56         248.86     580        53.89     
2714.650059 82         248.86     550        53.88     
2714.85006 89         248.87     580        53.85     
2715.05006 50         248.89     580        53.81     
2715.25006 65         248.92     534        53.78     
2715.45006 46         248.94     580        53.76     
2715.65006 52         248.96     570        53.74     
2715.850061 38         248.98     522        53.72     
2716.050061 26         249        545        53.69     
2716.250061 35         249.01     580        53.66     
2716.450061 38         249.04     580        53.63     
2716.650061 31         249.04     533        53.6      
2716.850062 39         249.06     580        53.57     
2717.050062 43         249.08     568        53.55     
2717.250062 45         249.1      522        53.53     
2717.450062 43         249.12     545        53.51     
2717.650062 49         249.14     530        53.47     
2717.850063 45         249.16     580        53.45     
2718.050063 37         249.19     557        53.44     
2718.250063 48         249.2      580        53.43     
2718.450063 64         249.21     580        53.41     
2718.650063 72         249.23     570        53.39     
2718.850064 57         249.26     580        53.38     
2719.050064 66         249.27     580        53.36     
2719.250064 49         249.31     510        53.33     
2719.450064 62         249.32     510        53.3      
2719.650064 61         249.34     580        53.28     
2719.850065 61         249.36     580        53.25     
2720.050065 50         249.38     557        53.24     
2720.250065 46         249.4      520        53.21     
2720.450065 50         249.42     568        53.18     
2720.650065 64         249.43     580        53.14     
2720.850066 69         249.46     560        53.11     
2721.050066 77         249.46     510        53.1      
2721.250066 93         249.5      580        53.08     
2721.450066 88         249.53     552        53.05     
2721.650066 73         249.55     510        53.03     
2721.850067 60         249.57     522        53.01     
2722.050067 86         249.59     580        52.99     
2722.250067 168        249.61     510        52.98     
2722.450067 215        249.61     580        52.96     
2722.650067 154        249.63     580        52.93     
2722.850068 135        249.66     580        52.92     
2723.050068 76         249.69     510        52.9      
2723.250068 167.001    249.7      580        52.89     
2723.450068 456        249.72     580        52.86     
2723.650068 492        249.74     580        52.82     
2723.850069 584        249.76     580        52.8      
2724.050069 578.005    249.79     580        52.8      
2724.250069 1592.995   249.82     510        52.81     
2724.450069 616.998    249.84     580        52.82     
2724.650069 240        249.86     568        52.82     
2724.85007 320        249.86     510        52.81     
2725.05007 243        249.9      550        52.78     
2725.25007 233.999    249.91     521        52.75     
2725.45007 77         249.92     580        52.74     
2725.65007 71         249.95     580        52.72     
2725.850071 47         249.97     557        52.71     
2726.050071 81         249.99     580        52.69     
2726.250071 51         250.02     522        52.68     
2726.450071 37         250.04     540        52.68     
2726.650071 44         250.06     580        52.67     
2726.850072 47         250.07     580        52.63     
2727.050072 85         250.1      568        52.6      
2727.250072 49         250.13     580        52.61     
2727.450072 58         250.16     533        52.63     
2727.650072 45         250.18     580        52.65     
2727.850073 54         250.21     557        52.66     
2728.050073 41         250.22     580        52.67     
2728.250073 50         250.23     580        52.67     
2728.450073 64.001     250.25     580        52.66     
2728.650073 264.003    250.28     533        52.64     
2728.850074 790.998    250.3      533        52.62     
2729.050074 491        250.32     580        52.6      
2729.250074 453        250.34     580        52.59     
2729.450074 466.001    250.37     545        52.57     
2729.650074 694        250.38     510        52.56     
2729.850075 670.001    250.41     545        52.55     
2730.050075 841.998    250.41     580        52.56     
2730.250075 415.003    250.44     580        52.56     
2730.450075 953.996    250.47     557        52.57     
2730.650075 316.999    250.5      580        52.59     
2730.850076 115        250.52     568        52.63     
2731.050076 167        250.55     568        52.65     
2731.250076 130        250.58     580        52.69     
2731.450076 88         250.61     557        52.73     
2731.650076 56         250.63     510        52.75     
2731.850077 67         250.65     580        52.73     
2732.050077 91         250.67     545        52.71     
2732.250077 81         250.69     521        52.69     
2732.450077 122        250.71     580        52.64     
2732.650077 137        250.71     580        52.59     
2732.850078 169        250.73     580        52.55     
2733.050078 113        250.75     510        52.52     
2733.250078 92         250.77     560        52.49     
2733.450078 93         250.79     580        52.46     
2733.650078 149        250.8      580        52.42     
2733.850079 157        250.79     520        52.36     
2734.050079 86.001     250.84     580        52.31     
2734.250079 288.999    250.84     580        52.27     
2734.450079 173        250.86     580        52.19     
2734.650079 110        250.86     580        52.13     
2734.85008 109        250.88     580        52.08     
2735.05008 102.027    250.91     580        52.01     
2735.25008 4670.012   250.91     569        51.96     
2735.45008 6762.969   250.93     580        51.91     
2735.65008 1654.993   250.95     580        51.85     
2735.850081 427.998    250.96     533        51.79     
2736.050081 101        250.97     580        51.72     
2736.250081 66         250.98     580        51.62     
2736.450081 47         250.98     545        51.52     
2736.650081 43         251        522        51.44     
2736.850082 57         250.99     524        51.34     
2737.050082 56         251.01     545        51.23     
2737.250082 50         251.02     569        51.12     
2737.450082 56         251.02     580        51.04     
2737.650082 47         251.03     580        50.88     
2737.850083 48         251.05     557        50.78     
2738.050083 65         251.06     510        50.7      
2738.250083 82         251.07     566        50.63     
2738.450083 77         251.05     580        50.53     
2738.650083 66         251.08     530        50.38     
2738.850084 61         251.09     580        50.3      
2739.050084 51         251.09     580        50.18     
2739.250084 67         251.09     550        50.07     
2739.450084 54         251.1      510        49.95     
2739.650084 49         251.12     568        49.85     
2739.850085 32         251.13     510        49.75     
2740.050085 62         251.14     580        49.66     
2740.250085 58         251.16     557        49.58     
2740.450085 61         251.17     580        49.51     
2740.650085 57         251.19     568        49.43     
2740.850086 55         251.2      580        49.37     
2741.050086 63         251.2      557        49.32     
2741.250086 62         251.24     580        49.26     
2741.450086 52         251.26     580        49.21     
