~Version
 VERS              .         2.0                           : CWLS LOG ASCII STANDARD - VERSION 2.0
 WRAP              .         NO                            : ONE LINE PER DEPTH STEP
 DLM               .         SPACE                         : DELIMITING CHARACTER(SPACE TAB OR COMMA)
~Well Information
#_______________________________________________________________________________
#
#PARAMETER_NAME    .UNIT     VALUE                         : DESCRIPTION
#_______________________________________________________________________________
STRT               .M        5.8                           : First reference value
STOP               .M        2774.6                        : Last reference value
STEP               .M        0.2                           : Step increment
NULL               .         -9999                         : Missing value
COMP               .                                       : Company
WELL               .         616                           : Well name
FLD                .                                       : Field
LOC                .                                       : Location
CNTY               .                                       : County
STAT               .                                       : State
CTRY               .                                       : Country
SRVC               .                                       : Service Company
DATE               .                                       : Date
API                .                                       : API number
PROJECT_UPGRADE_TIME .         2021-03-18T21_24_50           : 
group              .         Good                          : 
~Parameter Information Block
#_______________________________________________________________________________
#
#PARAMETER_NAME    .UNIT     VALUE                         : DESCRIPTION
#_______________________________________________________________________________
SET                .         D1747_D                       : 
OTHER              .         Программное обеспечение станции MONITOR-386EX 25/12/99 15_08_10   BGF V52 22/08/01 16_56_30   3.1_SNGF___BGF_N_111239: 
OTHER_10           .         Тарировки_                    : 
OTHER_11           .         <_techsia_sc_> Постоянная времени фильтра ГК  3.0 сек, kf=0.016529: 
OTHER_12           .         <_techsia_sc_> Постоянная времени фильтра ННК  3.0 сек, kf=0.016529: 
OTHER_13           .         GK.MKR/H = GK$.IMP/476        : 
OTHER_14           .         WSAT.PERC = -12.5 + 78.0 * (NKT2$.IMP / NKT1$.IMP) * 1731/33716: 
OTHER_15           .         NKT2.PRIV = NKT2$.IMP/33716   : 
OTHER_16           .         NKT1.PRIV = NKT1$.IMP/1731    : 
OTHER_2            .         Kedr.exe версия 3.3.2.32      : 
OTHER_3            .         KedrData.dll версия 3.3.2.17  : 
OTHER_4            .         Драйвер версия 2.1.1.9        : 
OTHER_5            .         Мнемоники версия 3.2 S        : 
OTHER_6            .         Прибор_ СРК-73Ц-1N            : 
OTHER_7            .         Номер прибора_ 906            : 
OTHER_8            .         Режим_ с локатором            : 
OTHER_9            .         Форма_ 623-1                  : 
PROJECT_UPGRADE_TIME .         2021-03-18T21_24_49           : 
TLFamily_DEPT      .         Measured Depth                : 
TLFamily_GK        .         Gamma Ray                     : 
TLFamily_GK$       .                                       : 
TLFamily_LM        .         Casing Collar locator         : 
TLFamily_METKA     .                                       : 
TLFamily_NKT1      .         Neutron Far                   : 
TLFamily_NKT1$     .         Neutron Far                   : 
TLFamily_NKT2      .         Neutron Near                  : 
TLFamily_NKT2$     .         Neutron Near                  : 
TLFamily_RCOR      .                                       : 
TLFamily_SPID      .         Spontaneous Potential         : 
TLFamily_TENS      .         Cable Tension                 : 
TLFamily_TIME      .         Time                          : 
TLFamily_WSAT      .         Neutron Porosity              : 
group              .         prim                          : 
~Curve Information
#_______________________________________________________________________________
#
#LOGNAME           .UNIT     LOG_ID                        : DESCRIPTION
#_______________________________________________________________________________
DEPT               .M                                      : 1 Глубина, м -    0.0 см 
GK                 .MKR/H                                  : 11 Гамма-активность, мкр./ч -   97.0 см 
GK$                .IMP                                    : 9 Гамма-активность, имп/мин -   97.0 см 
LM                 .                                       : 10 Локатор муфт,  -   27.0 см 
METKA              .                                       : 3 Метки,  -    0.0 см 
NKT1               .PRIV                                   : 14 Большой зонд приведенный,  -  278.0 см 
NKT1$              .IMP                                    : 8 Большой зонд, имп/мин -  278.0 см 
NKT2               .PRIV                                   : 13 Малый зонд приведенный,  -  289.0 см 
NKT2$              .IMP                                    : 7 Малый зонд, имп/мин -  289.0 см 
RCOR               .CM/KM                                  : 5 Коррекция по ролику, см/км -    0.0 см 
SPID               .M/H                                    : 2 Скорость, м/час -    0.0 см 
TENS               .T                                      : 6 Натяжение кабеля, т -    0.0 см 
TIME               .S                                      : 4 Время, сек -    0.0 см 
WSAT               .PERC                                   : 12 Водонасыщенная пористость, % -  284.0 см 
~Ascii
# ...
1295.4     7.33       3490       24         0          1.22       2118.76    0.98       33013.21   -493       -641       0          23218.37   46        
1295.6     7.61       3621       27         0          1.23       2121.49    0.98       32879.14   -493       -641       0          23217.31   45.57     
1295.8     7.65       3640       22         0          1.29       2237.2     0.97       32571.62   -493       -646       0          23216.21   45.31     
1296       7.37       3510       100        0          1.32       2293.56    0.97       32562.13   -493       -668       0          23215.16   47.31     
1296.2     6.91       3290       7          0          1.41       2438.33    0.95       32098.17   -493       -609       0          23214.06   42.26     
1296.4     6.87       3272       28         0          1.45       2509.52    0.97       32838.09   -493       -674       0          23212.96   44.66     
1296.6     6.35       3022       10         0          1.38       2395.1     1          33796.5    -493       -677       0          23211.86   45.62     
1296.8     6.79       3234       52         0          1.44       2485.95    1          33625.07   -493       -640       0          23210.76   40.54     
1297       6.49       3089       65         0          1.38       2391.28    1.01       33917.34   -493       -686       0          23209.65   42.83     
1297.2     6.74       3207       36         0          1.49       2573.62    1.01       34006.7    -493       -690       0          23208.58   42.04     
1297.4     6.73       3205       20         0          1.55       2686.28    1.01       34031.47   -493       -693       0          23207.5    42.67     
1297.6     6.19       2944       24         0          1.47       2536.67    1          33667.09   -493       -696       0          23206.45   44.19     
1297.8     6.27       2986       58         0          1.35       2338.37    0.98       33055.3    -493       -698       0          23205.4    48.63     
1298       6.2        2950       58         0          1.37       2376.41    0.99       33283.57   -493       -640       0          23204.35   46.86     
1298.2     6.57       3127       24         0          1.39       2400.6     0.99       33332.14   -493       -640       0          23203.24   43.66     
1298.4     6.27       2984       53         0          1.37       2379.55    0.99       33282.05   -493       -698       0          23202.09   43.87     
1298.6     6.43       3060       32         0          1.41       2441.11    0.99       33388.77   -493       -641       0          23201.02   44.28     
1298.8     6.5        3094       28         0          1.44       2487.33    1          33701.89   -493       -641       0          23199.94   41.2      
1299       6.64       3160       52         0          1.49       2577.94    0.99       33335.48   -493       -661       0          23198.88   39.73     
1299.2     6.95       3308       38         0          1.41       2441.43    0.98       32991.91   -493       -675       0          23197.78   39.99     
1299.4     7.18       3417       33         0          1.38       2387.01    0.98       32926.98   -493       -640       0          23196.68   36.86     
1299.6     7.05       3355       31         0          1.38       2390.97    0.95       32154.17   -493       -668       0          23195.59   39.4      
1299.8     7.32       3486       42         1          1.38       2387.65    0.96       32248.96   -493       -640       0          23194.6    41.2      
1300       7.15       3401       37         0          1.39       2398.36    0.94       31738.14   -493       -651       0          23193.42   43.38     
1300.2     7.15       3405       31         0          1.3        2244.27    0.93       31493.28   -493       -593       0          23192.37   43.21     
1300.4     6.96       3314       25         0          1.34       2326.38    0.94       31678.03   -493       -693       0          23191.27   40.02     
1300.6     6.96       3312       28         0          1.34       2317.29    0.95       32122.63   -493       -697       0          23190.22   43.1      
1300.8     7.22       3436       11         0          1.27       2199.99    0.96       32399.36   -493       -643       0          23189.12   43.83     
1301       7.05       3356       48         0          1.22       2105.47    0.96       32313.3    -493       -640       0          23188.06   41.26     
1301.2     6.94       3305       18         0          1.19       2068.2     0.97       32771.52   -493       -641       0          23186.96   45.65     
1301.4     6.55       3117       22         0          1.3        2248.89    0.96       32495.48   -493       -640       0          23185.86   45.23     
1301.6     6.82       3245       29         0          1.23       2135.74    0.98       32919.99   -493       -699       0          23184.76   44.18     
1301.8     6.73       3202       42         0          1.22       2113.31    1          33799.68   -493       -699       0          23183.71   44.47     
1302       6.74       3207       43         0          1.17       2019.71    1          33580.49   -493       -640       0          23182.63   46.82     
1302.2     6.93       3297       10         0          1.14       1978.45    1          33781.02   -493       -640       0          23181.5    45.59     
1302.4     6.75       3212       26         0          1.12       1940.5     1          33674.06   -493       -679       0          23180.4    44.2      
1302.6     6.79       3233       50         0          1.2        2080.79    1.01       34161.57   -493       -663       0          23179.35   45.39     
1302.8     6.41       3050       39         0          1.18       2040.47    1          33635.48   -493       -661       0          23178.25   44.28     
1303       6.59       3136       1979       0          1.22       2114.79    0.99       33468.97   -493       -640       0          23177.2    50.17     
1303.2     6.83       3250       1453       0          1.18       2048.45    0.97       32628.83   -493       -700       0          23176.15   45.34     
1303.4     6.87       3272       681        0          1.17       2027.24    0.97       32623.08   -493       -640       0          23175.04   47.37     
1303.6     6.91       3288       46         0          1.19       2056.72    0.99       33210.54   -493       -696       0          23173.94   49.21     
1303.8     6.99       3325       24         0          1.28       2208.36    0.97       32667.06   -493       -640       0          23172.89   48.64     
1304       7.15       3402       42         0          1.26       2178.39    0.96       32359.37   -493       -698       0          23171.79   45.65     
1304.2     7.28       3463       52         0          1.3        2256.85    0.96       32439.89   -493       -581       0          23170.71   47.57     
1304.4     7.08       3369       32         0          1.38       2391.95    0.97       32630.94   -493       -698       0          23169.54   43.37     
1304.6     6.4        3044       29         0          1.4        2428.58    0.98       33101.19   -493       -699       0          23168.48   40.82     
1304.8     6.24       2968       36         0          1.32       2279.75    1          33648.45   -493       -699       0          23167.38   42.89     
1305       6.38       3036       74         0          1.4        2422.28    1.02       34317.83   -493       -699       0          23166.32   44.39     
1305.2     6.62       3150       27         0          1.46       2529.04    1.03       34581.54   -493       -675       0          23165.27   44.13     
1305.4     7.3        3473       55         0          1.36       2351.41    1.04       35145.9    -493       -672       0          23164.17   43.74     
1305.6     7.43       3537       34         0          1.34       2318.78    1.04       35096.08   -493       -640       0          23163.12   44.69     
