~Version
 VERS              .         2.0                           : CWLS LOG ASCII STANDARD - VERSION 2.0
 WRAP              .         NO                            : ONE LINE PER DEPTH STEP
 DLM               .         SPACE                         : DELIMITING CHARACTER(SPACE TAB OR COMMA)
~Well Information
#_______________________________________________________________________________
#
#PARAMETER_NAME    .UNIT     VALUE                         : DESCRIPTION
#_______________________________________________________________________________
STRT               .M        2667.8                        : First reference value
STOP               .M        2773.4                        : Last reference value
STEP               .M        0.1999997                     : Step increment
NULL               .         -9999                         : Missing value
COMP               .                                       : Company
WELL               .         616                           : Well name
FLD                .                                       : Field
LOC                .                                       : Location
CNTY               .                                       : County
STAT               .                                       : State
CTRY               .                                       : Country
SRVC               .                                       : Service Company
DATE               .                                       : Date
API                .                                       : API number
PROJECT_UPGRADE_TIME .         2021-03-18T21_24_50           : 
group              .         Good                          : 
~Parameter Information Block
#_______________________________________________________________________________
#
#PARAMETER_NAME    .UNIT     VALUE                         : DESCRIPTION
#_______________________________________________________________________________
SET                .         D0401_D                       : 
OTHER              .         Kedr.exe версия 2.1.2.32      : 
OTHER_10           .         TM.GRD = 0.00379*TM$.UE + 7.11: 
OTHER_11           .         MN.ATM = (8e-006*TM.GRD + 0.02)*(MN$.UE + -8*TM.GRD + -1800): 
OTHER_12           .         GK.MKR/H = GK$.UE / 57.17 + 0 : 
OTHER_2            .         KedrData.dll версия 3.2.2.14  : 
OTHER_3            .         LasInf.dll версия 3.2.0.13    : 
OTHER_4            .         Драйвер версия 1.2.0.4        : 
OTHER_5            .         Прибор_ АКП4_90               : 
OTHER_6            .         Номер прибора_ 56             : 
OTHER_7            .         Режим_ АКП4_90 - все каналы   : 
OTHER_8            .         Форма_ Г-1                    : 
OTHER_9            .         Тарировки_                    : 
PROJECT_UPGRADE_TIME .         2021-03-18T21_24_49           : 
TLFamily_DEPT      .         Measured Depth                : 
TLFamily_GK        .         Gamma Ray                     : 
TLFamily_GK$       .                                       : 
TLFamily_LM        .         Casing Collar locator         : 
TLFamily_METKA     .                                       : 
TLFamily_METKA_1   .                                       : 
TLFamily_MN        .                                       : 
TLFamily_MN$       .                                       : 
TLFamily_RCOR      .                                       : 
TLFamily_SPID      .         Spontaneous Potential         : 
TLFamily_TIME      .         Time                          : 
TLFamily_TM        .         Temperature                   : 
TLFamily_TM$       .         Temperature                   : 
group              .         second                        : 
~Curve Information
#_______________________________________________________________________________
#
#LOGNAME           .UNIT     LOG_ID                        : DESCRIPTION
#_______________________________________________________________________________
DEPT               .M                                      : 1 Глубина, м -    0.0 см 
GK                 .MKR/H                                  : 12 Гамма-активность, мкр./ч -   65.0 см 
GK$                .UE                                     : 9 Гамма-активность, усл.ед. -   65.0 см 
LM                 .                                       : 8 Локатор муфт,  -   30.0 см 
METKA              .                                       : 3 Метки,  -    0.0 см 
METKA_1            .                                       : 13 Маркеры - 65 см 
MN                 .ATM                                    : 11 Давление, атм. -  140.0 см 
MN$                .UE                                     : 7 Давление, усл.ед. -  140.0 см 
RCOR               .CM/KM                                  : 5 Коррекция по ролику, см/км -    0.0 см 
SPID               .M/H                                    : 2 Скорость, м/час -    0.0 см 
TIME               .S                                      : 4 Время, сек -    0.0 см 
TM                 .GRD                                    : 10 Температура, °C -  145.0 см 
TM$                .UE                                     : 6 Температура, усл.ед. -  145.0 см 
~Ascii
# ...
2746.2     7.57       400        483        0          0          266.698    15377      0          -260       5514.02    85.186     20600     
2746.4     8.06       424        433        0          0          266.808    15382      0          -260       5511.06    85.192     20602     
2746.6     8.27       466        424        0          0          266.904    15387      0          -260       5508.23    85.199     20604     
2746.8     8.35       491        297        0          0          266.807    15382      0          -260       5505.4     85.207     20606     
2747       8.07       477        432        0          0          266.779    15381      0          -260       5502.44    85.218     20609     
2747.2     7.88       444        484        0          0          266.944    15389      0          -260       5499.62    85.222     20610     
2747.4     8          446        468        0          0          266.985    15391      0          -260       5496.71    85.233     20613     
2747.6     8.1        461        484        0          0          266.895    15387      0          -260       5493.82    85.237     20614     
2747.8     8          477        445        0          0          266.881    15386      0          -276       5490.99    85.245     20616     
2748       7.97       449        463        0          0          266.984    15391      0          -260       5488.04    85.245     20616     
2748.2     8.02       472        673        0          0          267.066    15395      0          -260       5485.2     85.253     20618     
2748.4     7.75       449        663        0          0          266.969    15390      0          -260       5482.24    85.267     20622     
2748.6     7.63       449        636        0          0          266.941    15389      0          -260       5479.42    85.279     20625     
2748.8     7.4        441        823        0          0          267.044    15394      0          -237       5476.57    85.283     20626     
2749       7.16       425        391        0          0          267.147    15399      0          -260       5473.75    85.286     20627     
2749.2     6.89       420        433        0          0          267.098    15397      0          -260       5470.86    85.296     20630     
2749.4     6.79       390        780        0          0          267.022    15393      0          -260       5467.97    85.305     20632     
2749.6     6.9        399        386        0          0          267.104    15397      0          -260       5465.06    85.313     20634     
2749.8     6.84       376        476        1          0          267.207    15402      0          -260       5462.17    85.317     20635     
2750       7.12       385        467        0          0          267.193    15401      0          -260       5458.31    85.324     20637     
2750.2     7.32       414        1097       0          0          267.124    15398      0          -260       5455.48    85.328     20638     
2750.4     7.44       411        508        0          0          267.124    15398      0          -260       5452.64    85.332     20639     
2750.6     7.39       437        554        0          0          267.258    15405      0          -260       5449.68    85.338     20641     
2750.8     6.43       405        519        0          0          267.288    15406      0          -260       5446.86    85.344     20642     
2751       6.03       348        559        0          0          267.236    15403      0          -190       5444.04    85.347     20643     
2751.2     5.97       346        462        0          0          267.204    15402      0          -260       5441.06    85.362     20647     
2751.4     5.99       337        580        0          0          267.328    15408      0          -260       5438.24    85.37      20649     
2751.6     6.03       339        531        0          0          267.266    15405      0          -260       5435.28    85.377     20651     
2751.8     6.22       333        447        0          0          267.314    15407      0          -260       5432.44    85.385     20653     
2752       6.69       346        4453       0          0          267.417    15412      0          -213       5429.58    85.387     20654     
2752.2     7.25       377        6720       0          0          267.437    15413      0          -260       5426.75    85.392     20655     
2752.4     7.79       413        612        0          0          267.409    15412      0          -237       5423.8     85.396     20656     
2752.6     7.82       470        458        0          0          267.388    15411      0          -260       5420.82    85.403     20658     
2752.8     7.31       473        552        0          0          267.409    15412      0          -260       5418       85.404     20658     
2753       7.16       404        516        0          0          267.518    15417      0          -213       5415.18    85.419     20662     
2753.2     7.25       419        411        0          0          267.552    15419      0          -260       5412.35    85.423     20663     
2753.4     7.26       400        1437       0          0          267.49     15416      0          -260       5409.38    85.427     20664     
2753.6     7.45       419        597        0          0          267.49     15416      0          -260       5406.55    85.43      20665     
2753.8     7.22       457        530        0          0          267.565    15420      0          -260       5403.65    85.442     20668     
2754       6.89       406        495        0          0          267.633    15423      0          -260       5400.89    85.457     20672     
2754.2     7.09       377        413        0          0          267.626    15423      0          -260       5397.93    85.461     20673     
2754.4     7.13       418        493        0          0          267.577    15420      0          -260       5395.1     85.468     20675     
2754.6     6.94       405        862        0          0          267.57     15420      0          -276       5392.14    85.477     20677     
2754.8     6.86       388        364        0          0          267.693    15426      0          -260       5389.31    85.485     20679     
2755       6.92       392        560        0          0          267.734    15428      0          -260       5386.49    85.491     20681     
2755.2     7.04       387        682        0          0          267.693    15426      0          -225       5383.59    85.497     20683     
2755.4     7.57       371        622        0          0          267.685    15426      0          -260       5380.69    85.506     20685     
2755.6     7.79       450        920        0          0          267.685    15426      0          -226       5377.79    85.51      20686     
2755.8     7.26       427        1017       0          0          267.767    15430      0          -260       5374.89    85.521     20689     
2756       7.04       416        398        0          0          267.835    15433      0          -260       5371.93    85.528     20691     
2756.2     6.82       402        482        0          0          267.815    15432      0          -190       5369.11    85.533     20692     
2756.4     6.82       376        548        0          0          267.773    15430      0          -260       5366.16    85.54      20694     
2756.6     6.87       396        550        0          0          267.773    15430      0          -320       5363.31    85.544     20695     
2756.8     6.72       396        1152       0          0          267.875    15435      0          -260       5360.36    85.548     20696     
2757       6.71       363        500        0          0          267.916    15437      0          -260       5357.53    85.559     20699     
2757.2     7.1        374        737        0          0          267.875    15435      0          -190       5354.62    85.563     20700     
