~Version
 VERS              .         2.0                           : CWLS LOG ASCII STANDARD - VERSION 2.0
 WRAP              .         NO                            : ONE LINE PER DEPTH STEP
 DLM               .         SPACE                         : DELIMITING CHARACTER(SPACE TAB OR COMMA)
~Well Information
#_______________________________________________________________________________
#
#PARAMETER_NAME    .UNIT     VALUE                         : DESCRIPTION
#_______________________________________________________________________________
STRT               .M        2667.8                        : First reference value
STOP               .M        2773.4                        : Last reference value
STEP               .M        0.1999997                     : Step increment
NULL               .         -9999                         : Missing value
COMP               .                                       : Company
WELL               .         616                           : Well name
FLD                .                                       : Field
LOC                .                                       : Location
CNTY               .                                       : County
STAT               .                                       : State
CTRY               .                                       : Country
SRVC               .                                       : Service Company
DATE               .                                       : Date
API                .                                       : API number
PROJECT_UPGRADE_TIME .         2021-03-18T21_24_50           : 
group              .         Good                          : 
~Parameter Information Block
#_______________________________________________________________________________
#
#PARAMETER_NAME    .UNIT     VALUE                         : DESCRIPTION
#_______________________________________________________________________________
SET                .         D0401_D                       : 
OTHER              .         Kedr.exe версия 2.1.2.32      : 
OTHER_10           .         TM.GRD = 0.00379*TM$.UE + 7.11: 
OTHER_11           .         MN.ATM = (8e-006*TM.GRD + 0.02)*(MN$.UE + -8*TM.GRD + -1800): 
OTHER_12           .         GK.MKR/H = GK$.UE / 57.17 + 0 : 
OTHER_2            .         KedrData.dll версия 3.2.2.14  : 
OTHER_3            .         LasInf.dll версия 3.2.0.13    : 
OTHER_4            .         Драйвер версия 1.2.0.4        : 
OTHER_5            .         Прибор_ АКП4_90               : 
OTHER_6            .         Номер прибора_ 56             : 
OTHER_7            .         Режим_ АКП4_90 - все каналы   : 
OTHER_8            .         Форма_ Г-1                    : 
OTHER_9            .         Тарировки_                    : 
PROJECT_UPGRADE_TIME .         2021-03-18T21_24_49           : 
TLFamily_DEPT      .         Measured Depth                : 
TLFamily_GK        .         Gamma Ray                     : 
TLFamily_GK$       .                                       : 
TLFamily_LM        .         Casing Collar locator         : 
TLFamily_METKA     .                                       : 
TLFamily_METKA_1   .                                       : 
TLFamily_MN        .                                       : 
TLFamily_MN$       .                                       : 
TLFamily_RCOR      .                                       : 
TLFamily_SPID      .         Spontaneous Potential         : 
TLFamily_TIME      .         Time                          : 
TLFamily_TM        .         Temperature                   : 
TLFamily_TM$       .         Temperature                   : 
group              .         second                        : 
~Curve Information
#_______________________________________________________________________________
#
#LOGNAME           .UNIT     LOG_ID                        : DESCRIPTION
#_______________________________________________________________________________
DEPT               .M                                      : 1 Глубина, м -    0.0 см 
GK                 .MKR/H                                  : 12 Гамма-активность, мкр./ч -   65.0 см 
GK$                .UE                                     : 9 Гамма-активность, усл.ед. -   65.0 см 
LM                 .                                       : 8 Локатор муфт,  -   30.0 см 
METKA              .                                       : 3 Метки,  -    0.0 см 
METKA_1            .                                       : 13 Маркеры - 65 см 
MN                 .ATM                                    : 11 Давление, атм. -  140.0 см 
MN$                .UE                                     : 7 Давление, усл.ед. -  140.0 см 
RCOR               .CM/KM                                  : 5 Коррекция по ролику, см/км -    0.0 см 
SPID               .M/H                                    : 2 Скорость, м/час -    0.0 см 
TIME               .S                                      : 4 Время, сек -    0.0 см 
TM                 .GRD                                    : 10 Температура, °C -  145.0 см 
TM$                .UE                                     : 6 Температура, усл.ед. -  145.0 см 
~Ascii
# ...
2712.6     7.44       423        547        0          0          263.224    15206      0          -260       5990.67    84.21      20343     
2712.8     7.36       437        443        0          0          263.279    15209      0          -190       5987.96    84.214     20344     
2713       6.99       429        659        0          0          263.271    15208      0          -260       5985.14    84.218     20345     
2713.2     6.51       368        411        0          0          263.285    15209      0          -260       5982.31    84.229     20348     
2713.4     6.66       352        387        0          0          263.326    15211      0          -260       5979.47    84.234     20349     
2713.6     7.06       386        506        0          0          263.318    15211      0          -260       5976.64    84.24      20351     
2713.8     7.31       398        466        0          0          263.359    15213      0          -260       5973.82    84.248     20353     
2714       7.46       423        343        0          0          263.386    15214      0          -260       5971.12    84.255     20355     
2714.2     7.32       438        429        0          0          263.407    15215      0          -260       5968.29    84.259     20356     
2714.4     7.11       420        443        0          0          263.448    15217      0          -260       5965.45    84.267     20358     
2714.6     6.89       404        445        0          1          263.433    15216      0          -280       5962.62    84.274     20360     
2714.8     6.76       378        435        0          0          263.468    15218      0          -190       5959.8     84.276     20360     
2715       6.96       365        461        0          0          263.495    15219      0          -260       5957.09    84.28      20361     
2715.2     7.45       393        448        0          0          263.488    15219      0          -260       5954.26    84.288     20364     
2715.4     7.77       447        467        0          0          263.549    15222      0          -260       5951.44    84.293     20365     
2715.6     7.82       437        507        0          0          263.59     15224      0          -260       5948.59    84.301     20367     
2715.8     8.17       426        765        0          0          263.535    15221      0          -260       5945.9     84.305     20368     
2716       8.53       498        394        0          0          263.624    15226      0          -260       5942.95    84.315     20371     
2716.2     8.31       503        402        0          0          263.569    15223      0          -260       5940.1     84.32      20372     
2716.4     7.8        489        387        0          1          263.609    15225      0          -260       5937.28    84.325     20373     
2716.6     6.94       477        381        0          0          263.691    15229      0          -260       5934.45    84.337     20377     
2716.8     5.9        395        382        0          0          263.656    15227      0          -260       5931.75    84.346     20379     
2717       5.45       309        366        0          0          263.711    15230      0          -260       5928.92    84.351     20380     
2717.2     5.43       315        458        0          0          263.752    15232      0          -260       5926.09    84.358     20382     
2717.4     5.19       327        575        0          0          263.69     15229      0          -260       5923.26    84.365     20384     
2717.6     4.76       303        389        0          0          263.752    15232      0          -260       5920.42    84.369     20385     
2717.8     4.56       256        444        0          0          263.772    15233      0          -260       5917.6     84.373     20386     
2718       4.62       274        462        0          0          263.751    15232      0          -225       5914.83    84.378     20387     
2718.2     4.5        257        464        0          0          263.82     15235      0          -260       5912.06    84.377     20387     
2718.4     4.58       242        1037       0          0          263.833    15236      0          -260       5909.22    84.381     20388     
2718.6     4.87       255        6629       0          0          263.812    15235      0          -260       5906.37    84.387     20390     
2718.8     5.15       277        1660       0          0          263.908    15240      0          -260       5903.66    84.396     20392     
2719       5.21       300        492        0          0          263.853    15237      0          -260       5900.83    84.399     20393     
2719.2     5.29       288        453        0          0          263.887    15239      0          -260       5898.01    84.407     20395     
2719.4     5.63       314        326        0          0          263.955    15242      0          -280       5895.17    84.417     20398     
2719.6     5.74       338        473        0          0          263.934    15241      0          -260       5892.4     84.426     20400     
2719.8     5.56       336        2133       0          0          263.975    15243      0          -260       5889.5     84.43      20401     
2720       5.34       309        374        1          0          264.002    15244      0          -260       5886.8     84.43      20401     
2720.2     5.38       296        349        0          0          263.988    15244      0          -213       5883.07    84.437     20403     
2720.4     5.54       305        352        0          0          264.056    15247      0          -260       5880.25    84.445     20405     
2720.6     5.81       303        346        0          0          264.077    15248      0          -260       5877.4     84.453     20407     
2720.8     6.34       336        337        0          0          264.042    15246      0          -260       5874.58    84.46      20409     
2721       6.73       375        437        0          0          264.128    15251      0          -260       5871.88    84.47      20412     
2721.2     7.06       356        412        0          0          264.117    15250      0          -260       5869.04    84.479     20414     
2721.4     7.85       378        385        0          1          264.116    15250      0          -260       5866.21    84.484     20415     
2721.6     8.06       480        459        0          0          264.15     15252      0          -260       5863.38    84.49      20417     
2721.8     7.62       468        372        0          0          264.198    15254      0          -260       5860.55    84.498     20419     
2722       7.46       434        334        0          0          264.253    15257      0          -260       5857.72    84.502     20420     
2722.2     7.27       457        347        0          0          264.211    15255      0          -260       5855.02    84.509     20422     
2722.4     6.58       431        368        0          0          264.259    15257      0          -260       5852.18    84.513     20423     
2722.6     5.81       358        331        0          0          264.321    15260      0          -260       5849.36    84.517     20424     
2722.8     5.46       337        401        0          0          264.272    15258      0          -260       5846.54    84.521     20425     
2723       5.1        323        383        0          1          264.321    15260      0          -260       5843.76    84.525     20426     
2723.2     5          278        374        0          0          264.382    15263      0          -260       5841       84.528     20427     
2723.4     5.13       285        438        0          0          264.32     15260      0          -260       5838.17    84.532     20428     
2723.6     5.16       293        393        0          0          264.361    15262      0          -260       5835.33    84.537     20429     
