~Version
 VERS              .         2.0                           : CWLS LOG ASCII STANDARD - VERSION 2.0
 WRAP              .         NO                            : ONE LINE PER DEPTH STEP
 DLM               .         SPACE                         : DELIMITING CHARACTER(SPACE TAB OR COMMA)
~Well Information
#_______________________________________________________________________________
#
#PARAMETER_NAME    .UNIT     VALUE                         : DESCRIPTION
#_______________________________________________________________________________
STRT               .M        19.65                         : First reference value
STOP               .M        2766.85                       : Last reference value
STEP               .M        0.2                           : Step increment
NULL               .         -9999                         : Missing value
COMP               .                                       : Company
WELL               .         616                           : Well name
FLD                .                                       : Field
LOC                .                                       : Location
CNTY               .                                       : County
STAT               .                                       : State
CTRY               .                                       : Country
SRVC               .                                       : Service Company
DATE               .                                       : Date
API                .                                       : API number
PROJECT_UPGRADE_TIME .         2021-03-18T21_24_50           : 
group              .         Good                          : 
~Parameter Information Block
#_______________________________________________________________________________
#
#PARAMETER_NAME    .UNIT     VALUE                         : DESCRIPTION
#_______________________________________________________________________________
SET                .         D7016_D_2                     : 
NPR                .         155                           : Номер прибора
OTHER              .         Kedr.exe версия 2.1.2.32      : 
OTHER_10           .         TM.GRD = 0.00404*TM$.UE + 0.07: 
OTHER_11           .         MN.ATM = (6.33279e-006*TM.GRD + 0.02401)*(MN$.UE + 2.72*TM.GRD + -2018): 
OTHER_12           .         GK.MKR/H = GK$.UE / 43.5489 + 0: 
OTHER_13           .         RES.SM = 0.00476*CRES.UE - 1.51709: 
OTHER_14           .         PL.GSM3 = 0 + 0 * (PL.UE / 1) +  0 * (PL.UE / 1)^2: 
OTHER_15           .         Постоянная времени ГГП = 6 сек: 
OTHER_16           .         Постоянная времени ГК = 6 сек : 
OTHER_2            .         KedrData.dll версия 3.2.2.14  : 
OTHER_3            .         LasInf.dll версия 3.2.0.13    : 
OTHER_4            .         Драйвер версия 1.2.0.5        : 
OTHER_5            .         Прибор_ КСА-M1                : 
OTHER_6            .         Номер прибора_ 155+р204       : 
OTHER_7            .         Режим_ КСА-М1 + ГГП + Резистивиметр: 
OTHER_8            .         Форма_ 223\2                  : 
OTHER_9            .         Тарировки_                    : 
PR                 .         КСА-Т7 М1                     : Тип прибора
PROJECT_UPGRADE_TIME .         2021-03-18T21_24_50           : 
PRTY               .         ПП-223_2                      : Номер партии
SRV                .         ЦКРС                          : Заказчик
SRVC               .         Лузин  А.Б.                   : Начальник партии
TLFamily_DEPT      .         Measured Depth                : 
TLFamily_LM        .         Casing Collar locator         : 
TLFamily_MN        .                                       : 
TLFamily_SPID      .         Spontaneous Potential         : 
TLFamily_TM        .         Temperature                   : 
group              .         second                        : 
~Curve Information
#_______________________________________________________________________________
#
#LOGNAME           .UNIT     LOG_ID                        : DESCRIPTION
#_______________________________________________________________________________
DEPT               .M                                      : Depth curve 
LM                 .е.ацп                                  : Локация муфт 
MN                 .атм                                    : Манометрия, атм 
SPID               .м/ч                                    : Скорость записи,м/час 
TM                 .град.С                                 : Термометрия,град.С 
~Ascii
# ...
1830.05    891.978    162.41     1619.004   54.56     
1830.25    725.009    162.42     1647.002   54.57     
1830.45    793.995    162.44     1660.009   54.57     
1830.65    755.008    162.45     1725.983   54.57     
1830.85    815.069    162.48     1600.002   54.58     
1831.05    1332.472   162.51     1613.006   54.58     
1831.25    4878.767   162.51     1659.996   54.59     
1831.45    3126.862   162.53     1632.996   54.59     
1831.65    2088.902   162.56     1600.006   54.6      
1831.85    1352.938   162.58     1642.995   54.6      
1832.05    890.969    162.61     1606.999   54.6      
1832.25    659.977    162.61     1600.008   54.6      
1832.45    484.993    162.64     1660       54.61     
1832.65    428.993    162.66     1660       54.61     
1832.85    377.002    162.67     1659.996   54.62     
1833.05    391.001    162.69     1633       54.62     
1833.25    396.018    162.7      1633.004   54.62     
1833.45    534.011    162.73     1660       54.62     
1833.65    612.992    162.76     1660       54.62     
1833.85    552.991    162.76     1660       54.63     
1834.05    489.005    162.79     1659.994   54.63     
1834.25    523.018    162.81     1613.006   54.63     
1834.45    657.041    162.81     1659.997   54.63     
1834.65    962.01     162.83     1635       54.63     
1834.85    1035.97    162.86     1633.004   54.64     
1835.05    810.006    162.88     1660       54.64     
1835.25    858.087    162.89     1660       54.65     
1835.45    1510.912   162.91     1660       54.65     
1835.65    850.995    162.94     1660       54.65     
1835.85    812.976    162.97     1659.998   54.66     
1836.05    631.049    162.98     1643.994   54.66     
1836.25    1001.19    162.99     1600.003   54.67     
1836.45    2427.012   163.01     1625.005   54.67     
1836.65    2515.966   163.03     1660       54.67     
1836.85    2264.994   163.03     1660       54.67     
1837.05    2219.942   163.06     1660.008   54.68     
1837.25    1788.966   163.06     1717.993   54.68     
1837.45    1534.933   163.09     1666.999   54.69     
1837.65    1031.985   163.13     1659.999   54.69     
1837.85    922.974    163.12     1649.993   54.7      
1838.05    732.009    163.16     1600.004   54.7      
1838.25    798.972    163.18     1627       54.71     
1838.45    592.993    163.2      1627.996   54.71     
1838.65    540.989    163.21     1600.006   54.72     
1838.85    457.986    163.23     1644.01    54.72     
1839.05    356.23     163.26     1718.002   54.72     
1839.25    2076.974   163.26     1729.984   54.73     
1839.45    1881.922   163.29     1609.007   54.74     
1839.65    1297.943   163.32     1660       54.74     
1839.85    869.966    163.33     1660       54.74     
1840.05    619.004    163.35     1659.992   54.74     
1840.25    646.993    163.37     1600.004   54.74     
1840.45    591.003    163.38     1627.011   54.75     
1840.65    613.979    163.38     1708.993   54.75     
1840.85    455.005    163.43     1660       54.76     
1841.05    494.997    163.44     1660       54.76     
1841.25    469.01     163.46     1660       54.76     
1841.45    545.986    163.48     1660       54.77     
1841.65    443.047    163.48     1660       54.78     
1841.85    797.309    163.53     1659.992   54.78     
1842.05    3105.194   163.52     1600.002   54.78     
1842.25    4551.772   163.56     1613.003   54.79     
1842.45    2847.867   163.56     1638.995   54.79     
1842.65    1856.918   163.57     1600.005   54.79     
1842.85    1240.957   163.6      1635.003   54.8      
1843.05    921.977    163.63     1660       54.8      
1843.25    752.994    163.63     1660       54.8      
1843.45    709.972    163.66     1660       54.8      
1843.65    503        163.68     1660       54.81     
1843.85    503.994    163.69     1660       54.81     
1844.05    458.99     163.72     1660       54.82     
1844.25    387.011    163.73     1660       54.82     
1844.45    470.998    163.75     1660       54.82     
1844.65    453.006    163.78     1660       54.83     
1844.85    498.009    163.78     1660       54.83     
1845.05    562.991    163.81     1660.008   54.84     
1845.25    499.005    163.83     1718.993   54.84     
1845.45    537.992    163.86     1663.999   54.84     
1845.65    474.994    163.86     1660       54.84     
1845.85    432.007    163.88     1660       54.84     
1846.05    483.992    163.9      1660       54.85     
1846.25    422.018    163.93     1660.004   54.85     
1846.45    554.987    164.01     1691       54.86     
1846.65    458.023    163.98     1692.996   54.86     
1846.85    627.029    163.98     1660.007   54.86     
1847.05    846.025    164        1711.994   54.86     
1847.25    1030.98    164.01     1667.999   54.87     
1847.45    882.958    164.06     1659.993   54.87     
1847.65    569.123    164.06     1607.007   54.88     
1847.85    1487.073   164.06     1660       54.88     
1848.05    2033.987   164.08     1660       54.88     
1848.25    1937.925   164.12     1660.004   54.89     
1848.45    1381.995   164.14     1693.005   54.89     
1848.65    1346.981   164.14     1729.988   54.9      
1848.85    1209.031   164.17     1641.008   54.9      
1849.05    1441.974   164.2      1701.004   54.9      
1849.25    1247.953   164.23     1729.991   54.91     
1849.45    901.007    164.23     1663.999   54.91     
1849.65    952.985    164.25     1659.994   54.91     
1849.85    842.985    164.25     1614.005   54.92     
1850.05    734.983    164.28     1651.001   54.92     
1850.25    609.001    164.28     1660       54.92     
1850.45    616.988    164.31     1660       54.93     
1850.65    528.998    164.35     1660       54.93     
1850.85    511.988    164.35     1659.997   54.94     
1851.05    426.014    164.38     1635       54.94     
1851.25    529.998    164.39     1633.004   54.95     
1851.45    515.022    164.42     1660       54.95     
1851.65    678.027    164.43     1660       54.95     
1851.85    879.968    164.45     1660       54.96     
1852.05    640.987    164.48     1660       54.96     
1852.25    543.012    164.48     1660       54.97     
1852.45    633.025    164.51     1660       54.97     
1852.65    821.994    164.54     1659.996   54.97     
1852.85    777.532    164.55     1632       54.97     
1853.05    4727.947   164.57     1635.003   54.98     
1853.25    4332.807   164.6      1660       54.98     
1853.45    2903.897   164.6      1659.993   54.99     
1853.65    2137.884   164.63     1605.999   54.99     
1853.85    1275.023   164.65     1600.002   55        
1854.05    1441.969   164.66     1613.006   55        
1854.25    1213.985   164.68     1660       55        
1854.45    1103.992   164.7      1659.996   55        
1854.65    1041.044   164.71     1627.002   55.01     
1854.85    1370.992   164.72     1640.003   55.02     
1855.05    1309.971   164.75     1659.992   55.02     
1855.25    1095.974   164.77     1603.008   55.02     
1855.45    902.974    164.78     1659.998   55.02     
1855.65    706.993    164.8      1646.996   55.02     
1855.85    652.002    164.81     1618.006   55.03     
1856.05    664.994    164.84     1660       55.03     
1856.25    622.999    164.85     1660       55.03     
1856.45    611.998    164.87     1660.007   55.04     
1856.65    595.981    164.92     1712.002   55.04     
1856.85    458.003    164.93     1729.983   55.04     
1857.05    483.013    164.93     1607.007   55.05     
1857.25    581.995    164.96     1660       55.05     
1857.45    543.992    164.98     1659.997   55.05     
1857.65    484.982    165        1639.995   55.05     
1857.85    354.207    165.01     1600.005   55.06     
1858.05    1889.042   165.03     1635.003   55.06     
1858.25    2200.89    165.04     1659.993   55.07     
1858.45    1386.935   165.07     1610.999   55.07     
1858.65    905.951    165.1      1600.008   55.07     
1858.85    546.989    165.1      1660       55.07     
1859.05    467.016    165.11     1660       55.08     
