~Version
 VERS              .         2.0                           : CWLS LOG ASCII STANDARD - VERSION 2.0
 WRAP              .         NO                            : ONE LINE PER DEPTH STEP
 DLM               .         SPACE                         : DELIMITING CHARACTER(SPACE TAB OR COMMA)
~Well Information
#_______________________________________________________________________________
#
#PARAMETER_NAME    .UNIT     VALUE                         : DESCRIPTION
#_______________________________________________________________________________
STRT               .M        2659.4                        : First reference value
STOP               .M        2769.4                        : Last reference value
STEP               .M        0.2                           : Step increment
NULL               .         -9999                         : Missing value
COMP               .                                       : Company
WELL               .         616                           : Well name
FLD                .                                       : Field
LOC                .                                       : Location
CNTY               .                                       : County
STAT               .                                       : State
CTRY               .                                       : Country
SRVC               .                                       : Service Company
DATE               .                                       : Date
API                .                                       : API number
PROJECT_UPGRADE_TIME .         2021-03-18T21_24_50           : 
group              .         Good                          : 
~Parameter Information Block
#_______________________________________________________________________________
#
#PARAMETER_NAME    .UNIT     VALUE                         : DESCRIPTION
#_______________________________________________________________________________
SET                .         D1171_D                       : 
OTHER              .         Программное обеспечение станции MONITOR-386EX 25/12/99 15_08_10   BGF V52 22/08/01 16_56_30   3.2_BGF_N_3070031: 
OTHER_10           .         Тарировки_                    : 
OTHER_11           .         TM.GRD = 0.00403*TM$.UE + -1.19: 
OTHER_12           .         MN.ATM = (7.1e-006*TM.GRD + 0.02017)*(MN$.UE + -3.03*TM.GRD + -1833): 
OTHER_13           .         Id error                      : 
OTHER_2            .         Kedr.exe версия 3.4.2.51      : 
OTHER_3            .         KedrData.dll версия 3.4.2.24  : 
OTHER_4            .         Драйвер версия 2.1.1.8        : 
OTHER_5            .         Мнемоники версия 3.3 S        : 
OTHER_6            .         Прибор_ КСА-М1                : 
OTHER_7            .         Номер прибора_ 265            : 
OTHER_8            .         Режим_ КСА-М1                 : 
OTHER_9            .         Форма_ ТЕРМОМЕТР              : 
PROJECT_UPGRADE_TIME .         2021-03-18T21_24_49           : 
TLFamily_DEPT      .         Measured Depth                : 
TLFamily_GK        .         Gamma Ray                     : 
TLFamily_GK$       .                                       : 
TLFamily_LM        .         Casing Collar locator         : 
TLFamily_METKA     .                                       : 
TLFamily_MN        .                                       : 
TLFamily_MN$       .                                       : 
TLFamily_RCOR      .                                       : 
TLFamily_SPID      .         Spontaneous Potential         : 
TLFamily_STD       .                                       : 
TLFamily_TENS      .         Cable Tension                 : 
TLFamily_TIME      .         Time                          : 
TLFamily_TM        .         Temperature                   : 
TLFamily_TM$       .         Temperature                   : 
TLFamily_VGD       .         Gas Volume                    : 
group              .         prim                          : 
~Curve Information
#_______________________________________________________________________________
#
#LOGNAME           .UNIT     LOG_ID                        : DESCRIPTION
#_______________________________________________________________________________
DEPT               .M                                      : 1 Глубина, м -    0.0 см 
GK                 .MKR/H                                  : 15 Гамма-активность, мкр./ч -  110.0 см 
GK$                .UE                                     : 12 Гамма-активность, усл.ед. -  110.0 см 
LM                 .                                       : 10 Локатор муфт,  -   20.0 см 
METKA              .                                       : 3 Метки,  -    0.0 см 
MN                 .ATM                                    : 14 Давление, атм. -  160.0 см 
MN$                .UE                                     : 8 Давление, усл.ед. -  160.0 см 
RCOR               .CM/KM                                  : 5 Коррекция по ролику, см/км -    0.0 см 
SPID               .M/H                                    : 2 Скорость, м/час -    0.0 см 
STD                .                                       : 11 Приток,  -  170.0 см 
TENS               .T                                      : 6 Натяжение кабеля, т -    0.0 см 
TIME               .S                                      : 4 Время, сек -    0.0 см 
TM                 .GRD                                    : 13 Температура, °C -  180.0 см 
TM$                .UE                                     : 7 Температура, усл.ед. -  180.0 см 
VGD                .                                       : 9 Влагомер,  -  170.0 см 
~Ascii
# ...
2708.4     7.37       317        1          0          259.721    14592      -1400      601        31425      0          27892.88   85.854     21599      6576      
2708.6     7.58       340        1          0          259.742    14593      -1400      602        31430      0          27894.04   85.854     21599      6576      
2708.8     7.84       340        1          1          259.76     14594      -1400      602        31430      0          27895.21   85.855     21599      6576      
2709       8.07       359        1          0          259.763    14594      -1400      602        31429      0          27896.38   85.862     21601      6575      
2709.2     8.52       373        1          0          259.793    14595      -1400      600        31432      0          27897.63   85.864     21602      6576      
2709.4     8.58       363        1          0          259.805    14596      -1400      599        31433      0          27898.78   85.87      21603      6576      
2709.6     8.52       363        1          0          259.825    14597      -1400      604        31436      0          27899.95   85.874     21604      6576      
2709.8     8.36       346        1          0          259.846    14598      -1400      602        31440      0          27901.18   85.878     21605      6577      
2710       8.01       335        1          2          259.858    14599      -1400      606        31445      0          27902.35   85.882     21606      6576      
2710.2     7.89       336        1          0          259.873    14599      -1400      603        31445      0          27903.72   85.889     21608      6576      
2710.4     7.9        338        1          0          259.909    14601      -1400      603        31448      0          27904.97   85.894     21609      6576      
2710.6     7.9        338        1          0          259.924    14602      -1400      600        31453      0          27906.16   85.902     21611      6576      
2710.8     7.94       340        1          0          259.93     14602      -1400      605        31456      0          27907.32   85.913     21614      6576      
2711       7.95       340        1          0          259.952    14603      -1400      608        31460      0          27908.5    85.923     21616      6576      
2711.2     7.44       305        1          0          259.973    14604      -1400      601        31465      0          27909.73   85.94      21620      6576      
2711.4     7.24       307        1          0          259.991    14605      -1400      602        31468      0          27910.9    85.955     21624      6575      
2711.6     7.35       316        1          0          260.015    14606      -1400      603        31471      0          27912.07   85.97      21628      6575      
2711.8     7.38       316        1          0          260.036    14607      -1400      602        31477      0          27913.24   85.981     21631      6575      
2712       8.61       399        1          1          260.037    14607      -1400      601        31478      0          27914.47   85.991     21633      6575      
2712.2     9.11       399        1          0          260.078    14609      -1400      602        31485      0          27915.69   86.006     21637      6575      
2712.4     9.51       417        1          0          260.081    14609      -1400      609        31489      0          27916.84   86.013     21638      6575      
2712.6     9.68       417        1          0          260.099    14610      -1400      605        31494      0          27918.08   86.02      21640      6575      
2712.8     9.56       402        1          0          260.126    14611      -1400      604        31497      0          27919.25   86.027     21642      6575      
2713       9.45       402        1          0          260.141    14612      -1400      604        31503      0          27920.42   86.035     21644      6575      
2713.2     8.8        331        1          1          260.162    14613      -1400      604        31504      0          27921.61   86.045     21646      6575      
2713.4     8.08       331        1          0          260.183    14614      -1400      598        31508      0          27922.82   86.055     21649      6575      
2713.6     6.84       243        1          0          260.204    14615      -1400      603        31510      0          27923.99   86.06      21650      6575      
2713.8     6.05       243        1          0          260.216    14616      -1400      609        31513      0          27925.16   86.064     21651      6575      
2714       5.55       214        1          0          260.251    14617      -1400      601        31511      0          27926.39   86.062     21651      6574      
2714.2     5.18       214        1          0          260.266    14618      -1400      601        31513      0          27927.56   86.063     21651      6575      
2714.4     5.02       209        142        0          260.287    14619      -1400      601        31513      0          27928.75   86.055     21649      6575      
2714.6     4.92       208        1400       0          260.299    14620      -1400      611        31511      0          27929.97   86.048     21647      6574      
2714.8     4.92       213        186        0          260.328    14621      -1400      602        31511      0          27931.17   86.041     21645      6575      
2715       5.24       230        1          0          260.331    14621      -1400      610        31510      0          27932.35   86.029     21642      6575      
2715.2     5.34       230        1          0          260.366    14623      -1400      608        31507      0          27933.54   86.014     21639      6575      
2715.4     5.52       240        1          0          260.38     14624      -1400      605        31499      0          27934.77   85.996     21634      6575      
2715.6     5.59       241        1          0          260.397    14624      -1400      609        31496      0          27935.94   85.977     21629      6574      
2715.8     5.66       243        1          0          260.409    14625      -1400      614        31488      0          27937.09   85.961     21626      6574      
2716       5.67       243        1          0          260.43     14626      -1400      615        31486      0          27938.22   85.95      21623      6574      
2716.2     5.89       257        1          0          260.45     14627      -1400      611        31483      0          27939.5    85.935     21619      6574      
2716.4     5.97       257        1          0          260.47     14628      -1400      610        31479      0          27940.64   85.918     21615      6574      
2716.6     6.19       271        1          0          260.49     14629      -1400      610        31473      0          27941.83   85.9       21611      6574      
2716.8     6.29       271        1          0          260.51     14630      -1400      606        31462      0          27943.07   85.875     21604      6575      
2717       6.33       272        1          0          260.526    14631      -1400      604        31448      0          27944.24   85.83      21593      6575      
2717.2     6.35       272        1          0          260.539    14632      -1400      610        31423      0          27945.41   85.761     21576      6575      
2717.4     6.33       269        1          0          260.547    14632      -1400      608        31401      0          27946.58   85.709     21563      6575      
2717.6     6.31       269        1          0          260.567    14633      -1400      606        31375      0          27947.81   85.661     21551      6576      
2717.8     6.87       321        1          0          260.586    14634      -1400      600        31352      0          27948.97   85.618     21541      6575      
2718       7.32       321        1          0          260.607    14635      -1400      606        31333      0          27950.14   85.578     21530      6575      
