~Version
 VERS              .         2.0                           : CWLS LOG ASCII STANDARD - VERSION 2.0
 WRAP              .         NO                            : ONE LINE PER DEPTH STEP
 DLM               .         SPACE                         : DELIMITING CHARACTER(SPACE TAB OR COMMA)
~Well Information
#_______________________________________________________________________________
#
#PARAMETER_NAME    .UNIT     VALUE                         : DESCRIPTION
#_______________________________________________________________________________
STRT               .M        2700.4                        : First reference value
STOP               .M        2799                          : Last reference value
STEP               .M        0.2000002                     : Step increment
NULL               .         -9999                         : Missing value
COMP               .                                       : Company
WELL               .         616                           : Well name
FLD                .                                       : Field
LOC                .                                       : Location
CNTY               .                                       : County
STAT               .                                       : State
CTRY               .                                       : Country
SRVC               .                                       : Service Company
DATE               .                                       : Date
API                .                                       : API number
PROJECT_UPGRADE_TIME .         2021-03-18T21_24_50           : 
group              .         Good                          : 
~Parameter Information Block
#_______________________________________________________________________________
#
#PARAMETER_NAME    .UNIT     VALUE                         : DESCRIPTION
#_______________________________________________________________________________
SET                .         D2658_D                       : 
OTHER              .         Программное обеспечение станции MONITOR-386EX 25/12/99 15_08_10   BGF V50 26/12/00 07_26_01   3.1_SNGF___BGF_N_092085: 
OTHER_10           .         Тарировки_                    : 
OTHER_11           .         <_techsia_sc_> Постоянная времени фильтра ПС  0.5 сек, kf=0.139292: 
OTHER_2            .         Kedr.exe версия 3.3.2.32      : 
OTHER_3            .         KedrData.dll версия 3.3.2.17  : 
OTHER_4            .         Драйвер версия 2.1.0.7        : 
OTHER_5            .         Мнемоники версия 3.3 S        : 
OTHER_6            .         Прибор_ К1a-723м              : 
OTHER_7            .         Номер прибора_ 348/72         : 
OTHER_8            .         Режим_ K1A-723M               : 
OTHER_9            .         Форма_ БКЗ                    : 
PROJECT_UPGRADE_TIME .         2021-03-18T21_24_49           : 
TLFamily_BK        .         Lateral Log Resistivity       : 
TLFamily_DEPT      .         Measured Depth                : 
TLFamily_GZ1       .         Extra Shallow Resistivity     : 
TLFamily_GZ2       .         Shallow Resistivity           : 
TLFamily_GZ3       .         Medium Resistivity            : 
TLFamily_GZ4       .         Deep Resistivity              : 
TLFamily_GZ5       .         Extra Deep Resistivity        : 
TLFamily_GZ6       .         Medium Resistivity Inverted   : 
TLFamily_IBK       .                                       : 
TLFamily_IK        .         Conductivity                  : 
TLFamily_IPR       .                                       : 
TLFamily_METKA     .                                       : 
TLFamily_PS        .         Spontaneous Potential         : 
TLFamily_PZ        .         Potential Resistivity         : 
TLFamily_RCOR      .                                       : 
TLFamily_RES       .         Mud Resistivity               : 
TLFamily_SPID      .         Spontaneous Potential         : 
TLFamily_TENS      .         Cable Tension                 : 
TLFamily_TIME      .         Time                          : 
TLFamily_UBK       .         Uranium Concentration         : 
group              .         prim                          : 
~Curve Information
#_______________________________________________________________________________
#
#LOGNAME           .UNIT     LOG_ID                        : DESCRIPTION
#_______________________________________________________________________________
DEPT               .M                                      : 1 Глубина, м -    0.0 см 
BK                 .OHMM                                   : 20 БК, Ом*м - 1768.0 см 
GZ1                .OHMM                                   : 12 A0.4M0.1N, Ом*м - 1295.0 см 
GZ2                .OHMM                                   : 11 A1.0M0.1N, Ом*м - 1355.0 см 
GZ3                .OHMM                                   : 9 A2.0M0.5N, Ом*м - 1475.0 см 
GZ4                .OHMM                                   : 8 A4.0M0.5N, Ом*м - 1025.0 см 
GZ5                .OHMM                                   : 7 A8.0M1.0N, Ом*м - 1450.0 см 
GZ6                .OHMM                                   : 10 N0.5M2.0A, Ом*м - 1025.0 см 
IBK                .A                                      : 18 Ток БК, А - 1768.0 см 
IK                 .MSM/M                                  : 14 ИК, мСм/м - 1961.0 см 
IPR                .MA                                     : 17 Ток прибора, мA -    0.0 см 
METKA              .                                       : 3 Метки,  -    0.0 см 
PS                 .mV                                     : 16 ПС, мВ - 1210.0 см 
PZ                 .OHMM                                   : 13 N11M0.5A, Ом*м - 1225.0 см 
RCOR               .CM/KM                                  : 5 Коррекция по ролику, см/км -    0.0 см 
RES                .OHMM                                   : 15 Резистивиметр, Ом*м -  600.0 см 
SPID               .M/H                                    : 2 Скорость, м/час -    0.0 см 
TENS               .T                                      : 6 Натяжение кабеля, т -    0.0 см 
TIME               .S                                      : 4 Время, сек -    0.0 см 
UBK                .V                                      : 19 Напр. БК, В - 1768.0 см 
~Ascii
# ...
2774.4     9.03       11.2       12.7       7.6        7.6        5.4        9.5        0.024      98.2       424.667    0          576.05     11.5       -260       2.764      -1513      0          28200.73   0.926     
2774.6     8.48       11.3       13.8       7.6        7.5        5.3        9.2        0.025      100.3      428        0          577.07     11.1       -260       2.761      -1487      0          28200.27   0.907     
2774.8     8.09       10.9       13.2       7.6        7.4        5.3        9          0.026      101.4      426.667    0          577.9      10.9       -260       2.761      -1466      0          28199.79   0.895     
2775       7.86       10.7       12.2       7.8        7.3        5.4        9          0.027      103.5      426        0          578.77     10.9       -260       2.761      -1463      0          28199.3    0.887     
2775.2     7.35       10.2       11.6       8.4        7.1        5.9        9.1        0.028      102.7      426        0          579.62     11.2       -260       2.762      -1462      0          28198.83   0.883     
2775.4     7.53       9.6        10.7       9.1        7          6.5        9          0.028      103.6      426        0          580.38     11.5       -260       2.76       -1519      0          28198.35   0.884     
2775.6     7.76       9.2        10.2       9.8        7          7.5        9.1        0.027      103.7      426.488    0          579.46     11.9       -260       2.76       -1497      0          28197.85   0.878     
2775.8     8.26       9.1        9.6        10.7       6.9        8.9        9.1        0.025      102.3      424.672    0          577.97     12.2       -260       2.761      -1520      0          28197.37   0.878     
2776       8.92       9.3        9.7        11.2       7.2        9.7        9.3        0.023      100.2      424        0          576.36     11.9       -260       2.763      -1522      0          28196.88   0.875     
2776.2     8.41       9.9        9.8        11         7.3        10.5       9.2        0.025      99.5       426        0          576.5      11.4       -260       2.761      -1505      0          28196.42   0.877     
2776.4     8.21       10.2       10         11.4       7.9        11         9.7        0.025      99.4       426        0          577.81     11.7       -260       2.763      -1487      0          28195.96   0.877     
2776.6     9.79       10.9       11.6       12.4       9.2        11.3       10.8       0.021      99.8       426        0          579.3      11.9       -260       2.762      -1505      0          28195.47   0.875     
2776.8     8.2        11.8       12.8       12.7       9.7        11.3       10.5       0.025      100.4      427.497    0          579.55     11.7       -260       2.763      -1539      0          28195.03   0.869     
2777       8.56       10.5       11.3       11.5       9.6        11.2       9.6        0.024      101.5      426.667    0          577.91     11.3       -260       2.763      -1537      0          28194.54   0.865     
2777.2     8.37       10.9       10.9       10.7       9.1        10.6       8.6        0.024      104.8      425        0          576.92     10.8       -260       2.762      -1535      0          28194.05   0.856     
2777.4     8.5        10.6       10.5       10.2       9.1        9.7        8          0.024      107.1      425        0          577.9      10.4       -260       2.763      -1530      0          28193.6    0.848     
2777.6     8.07       10.6       10.8       10         9.3        9.1        7.6        0.025      109.7      426        0          579.28     10.1       -260       2.76       -1519      0          28193.14   0.841     
2777.8     7.26       10.6       11.2       9.8        9.9        8.8        7.4        0.027      112.5      426        0          580.71     9.9        -260       2.761      -1500      0          28192.66   0.832     
2778       7.05       9.6        10.7       9.6        10.2       8.5        7.3        0.028      115.4      426.5      0          583.08     9.8        -260       2.763      -1460      0          28192.19   0.819     
2778.2     7.27       9.1        10.5       9.5        10.4       8.4        7.7        0.026      117.9      424.667    0          583.1      9.8        -260       2.762      -1382      0          28191.74   0.808     
2778.4     7.54       8.9        10.2       9.7        10.3       8.6        7.9        0.025      118.8      424        0          582.86     9.6        -260       2.759      -1268      0          28191.22   0.797     
2778.6     7.28       8.9        9.7        9.5        10.1       8.4        8.1        0.026      118.9      426        0          583.19     9.3        -260       2.76       -1084      0          28190.78   0.788     
2778.8     6.98       9.1        9.4        9.5        9.7        8.7        8.4        0.027      119.9      426        0          584.25     9.2        -260       2.759      -831       0          28190.3    0.782     
2779       7.11       9          9.1        10         9.8        8.5        8.7        0.026      121        426        0          584.5      9.2        -260       2.761      -589       0          28189.77   0.781     
2779.2     6.87       8.9        9          10         9.8        8.4        9.1        0.027      121.4      426        1          584.83     9.3        -260       2.757      -309       0          28188.97   0.784     
2779.4     7.28       8.5        8.6        9.6        9.4        8.4        9.2        0.025      119.6      426        0          584.52     9.4        -260       2.764      -34        0          28187.17   0.783     
2779.6     7.06       8.5        8.5        9.2        9          8.2        9.4        0.026      120.1      -9999      -9999      583.93     9.6        -9999      2.764      -9999      -9999      -9999      0.784     
2779.8     7          8.7        8.3        8.7        8.8        8.2        9.4        0.027      118.8      -9999      -9999      583.89     9.6        -9999      2.763      -9999      -9999      -9999      0.787     
2780       7.17       8.6        8.1        8.4        8.6        7.8        9.5        0.026      118.9      -9999      -9999      583.1      9.9        -9999      2.762      -9999      -9999      -9999      0.792     
2780.2     7.56       8.6        8.2        8.2        8.4        7.8        9.7        0.025      117.8      -9999      -9999      582.13     10.4       -9999      2.762      -9999      -9999      -9999      0.794     
2780.4     7.76       8.9        8.5        8          8.3        7.5        9.7        0.024      116.2      -9999      -9999      582.09     10.5       -9999      2.76       -9999      -9999      -9999      0.795     
2780.6     7.48       9.1        8.4        7.6        7.9        7.4        9.2        0.025      114.9      -9999      -9999      582.06     10.3       -9999      2.759      -9999      -9999      -9999      0.8       
2780.8     7.52       8.9        7.9        7.3        7.4        7.4        9          0.026      114.3      -9999      -9999      581.74     10         -9999      2.759      -9999      -9999      -9999      0.81      
2781       7.75       9          8.2        7.3        7.8        7.1        9          0.025      114.6      -9999      -9999      580.81     10         -9999      2.763      -9999      -9999      -9999      0.813     
2781.2     7.69       9.5        9.3        7.8        8.3        7.2        8          0.025      114.5      -9999      -9999      581.5      10.3       -9999      2.763      -9999      -9999      -9999      0.811     
2781.4     7.31       9.6        9.9        8          8.5        7.4        7.1        0.026      115.9      -9999      -9999      581.96     10.3       -9999      2.763      -9999      -9999      -9999      0.812     
2781.6     7.02       9.1        9.6        8          8.3        7.6        6.6        0.027      115.4      -9999      -9999      582.37     10         -9999      2.761      -9999      -9999      -9999      0.815     
