~Version
 VERS              .         2.0                           : CWLS LOG ASCII STANDARD - VERSION 2.0
 WRAP              .         NO                            : ONE LINE PER DEPTH STEP
 DLM               .         SPACE                         : DELIMITING CHARACTER(SPACE TAB OR COMMA)
~Well Information
#_______________________________________________________________________________
#
#PARAMETER_NAME    .UNIT     VALUE                         : DESCRIPTION
#_______________________________________________________________________________
STRT               .M        21.55                         : First reference value
STOP               .M        2764.75                       : Last reference value
STEP               .M        0.2                           : Step increment
NULL               .         -9999                         : Missing value
COMP               .                                       : Company
WELL               .         616                           : Well name
FLD                .                                       : Field
LOC                .                                       : Location
CNTY               .                                       : County
STAT               .                                       : State
CTRY               .                                       : Country
SRVC               .                                       : Service Company
DATE               .                                       : Date
API                .                                       : API number
PROJECT_UPGRADE_TIME .         2021-03-18T21_24_50           : 
group              .         Good                          : 
~Parameter Information Block
#_______________________________________________________________________________
#
#PARAMETER_NAME    .UNIT     VALUE                         : DESCRIPTION
#_______________________________________________________________________________
SET                .         D7028_D_2                     : 
NPR                .         155                           : Номер прибора
OTHER              .         Kedr.exe версия 2.1.2.32      : 
OTHER_10           .         TM.GRD = 0.00404*TM$.UE + 0.07: 
OTHER_11           .         MN.ATM = (6.33279e-006*TM.GRD + 0.02401)*(MN$.UE + 2.72*TM.GRD + -2018): 
OTHER_12           .         GK.MKR/H = GK$.UE / 43.5489 + 0: 
OTHER_13           .         RES.SM = 0.00476*CRES.UE - 1.51709: 
OTHER_14           .         PL.GSM3 = 0 + 0 * (PL.UE / 1) +  0 * (PL.UE / 1)^2: 
OTHER_15           .         Постоянная времени ГГП = 6 сек: 
OTHER_16           .         Постоянная времени ГК = 6 сек : 
OTHER_2            .         KedrData.dll версия 3.2.2.14  : 
OTHER_3            .         LasInf.dll версия 3.2.0.13    : 
OTHER_4            .         Драйвер версия 1.2.0.5        : 
OTHER_5            .         Прибор_ КСА-M1                : 
OTHER_6            .         Номер прибора_ 155+р204       : 
OTHER_7            .         Режим_ КСА-М1 + ГГП + Резистивиметр: 
OTHER_8            .         Форма_ 223\2                  : 
OTHER_9            .         Тарировки_                    : 
PR                 .         КСА-Т7 М1                     : Тип прибора
PROJECT_UPGRADE_TIME .         2021-03-18T21_24_50           : 
PRTY               .         ПП-223_2                      : Номер партии
SRV                .         ЦКРС                          : Заказчик
SRVC               .         Лузин  А.Б.                   : Начальник партии
TLFamily_DEPT      .         Measured Depth                : 
TLFamily_LM        .         Casing Collar locator         : 
TLFamily_MN        .                                       : 
TLFamily_SPID      .         Spontaneous Potential         : 
TLFamily_TM        .         Temperature                   : 
group              .         second                        : 
~Curve Information
#_______________________________________________________________________________
#
#LOGNAME           .UNIT     LOG_ID                        : DESCRIPTION
#_______________________________________________________________________________
DEPT               .M                                      : Depth curve 
LM                 .е.ацп                                  : Локация муфт 
MN                 .атм                                    : Манометрия, атм 
SPID               .м/ч                                    : Скорость записи,м/час 
TM                 .град.С                                 : Термометрия,град.С 
~Ascii
# ...
2561.95    975.011    233.87     -1801.009  59.6      
2562.15    1037.016   233.9      -1848.989  59.6      
2562.35    1124.05    233.92     -1790.002  59.6      
2562.55    1393.015   233.94     -1800.011  59.59     
2562.75    1474.937   233.97     -1859.999  59.59     
2562.95    1136.041   233.98     -1855.988  59.59     
2563.15    1354.995   234.02     -1790      59.58     
2563.35    1327.945   234.03     -1790      59.57     
2563.55    1029.076   234.05     -1790      59.57     
2563.75    1437.992   234.07     -1790      59.57     
2563.95    1393.975   234.09     -1790.001  59.56     
2564.15    1261.081   234.1      -1797.01   59.56     
2564.35    1695.125   234.12     -1852.988  59.56     
2564.55    2369.192   234.14     -1790      59.56     
2564.75    3401.223   234.17     -1790      59.55     
2564.95    4599.461   234.19     -1790      59.55     
2565.15    1697.838   234.22     -1790      59.55     
2565.35    823.989    234.24     -1790.002  59.55     
2565.55    765.993    234.26     -1801.011  59.54     
2565.75    729.986    234.26     -1859.998  59.53     
2565.95    657.01     234.29     -1848.991  59.53     
2566.15    710.98     234.31     -1800.01   59.53     
2566.35    601.021    234.33     -1852.988  59.52     
2566.55    713.987    234.36     -1790      59.52     
2566.75    644.988    234.38     -1790.002  59.52     
2566.95    579.976    234.38     -1801.011  59.51     
2567.15    449.004    234.41     -1860      59.51     
2567.35    467.996    234.43     -1859.998  59.5      
2567.55    449.011    234.45     -1846.989  59.5      
2567.75    507.001    234.47     -1790.002  59.49     
2567.95    511.998    234.48     -1800.01   59.49     
2568.15    498.998    234.52     -1852.988  59.49     
2568.35    490.011    234.53     -1790      59.48     
2568.55    546.99     234.55     -1790.002  59.48     
2568.75    491.015    234.57     -1801.009  59.47     
2568.95    570.987    234.6      -1848.989  59.47     
2569.15    501.015    234.62     -1790      59.46     
2569.35    580.006    234.62     -1790.002  59.46     
2569.55    611.987    234.64     -1803.011  59.46     
2569.75    543.016    234.67     -1860      59.45     
2569.95    627.018    234.69     -1859.998  59.45     
2570.15    725.991    234.71     -1849.99   59.44     
2570.35    674.992    234.72     -1797.012  59.43     
2570.55    629.988    234.76     -1859.998  59.43     
2570.75    562.998    234.76     -1848.989  59.42     
2570.95    552.02     234.79     -1790      59.42     
2571.15    656.996    234.81     -1790      59.41     
2571.35    638.008    234.83     -1790      59.41     
2571.55    678.995    234.86     -1790.01   59.4      
2571.75    650.006    234.88     -1842.003  59.39     
2571.95    682.02     234.88     -1859.99   59.39     
2572.15    790        234.9      -1804.008  59.38     
2572.35    790.01     234.93     -1846.003  59.37     
2572.55    843        234.95     -1859.99   59.37     
2572.75    843.004    234.97     -1808.007  59.37     
2572.95    866.991    235        -1843.003  59.36     
2573.15    819.997    235.02     -1859.99   59.35     
2573.35    804.001    235.04     -1808.006  59.35     
2573.55    809.999    235.06     -1841.994  59.34     
2573.75    805.02     235.08     -1807.997  59.34     
2573.95    909.998    235.11     -1790      59.34     
2574.15    900.985    235.11     -1790.01   59.33     
2574.35    821.055    235.13     -1843.003  59.32     
2574.55    1116.027   235.15     -1859.99   59.32     
2574.75    1263.048   235.18     -1808.007  59.31     
2574.95    1518.116   235.2      -1842.994  59.31     
2575.15    2139.207   235.22     -1809.996  59.3      
2575.35    3251.355   235.23     -1790      59.3      
2575.55    5153.274   235.25     -1790.01   59.29     
2575.75    1258.883   235.27     -1842.003  59.28     
2575.95    631.007    235.3      -1859.99   59.28     
2576.15    670.972    235.32     -1807.007  59.28     
2576.35    519.012    235.34     -1843.003  59.27     
2576.55    584.996    235.37     -1860      59.26     
2576.75    565.016    235.37     -1859.99   59.26     
2576.95    650.982    235.39     -1807.006  59.25     
2577.15    552.002    235.41     -1840.004  59.25     
2577.35    563.973    235.44     -1860      59.24     
2577.55    420.995    235.46     -1860      59.24     
2577.75    392.01     235.48     -1860      59.24     
2577.95    444.014    235.51     -1859.991  59.23     
2578.15    518.993    235.51     -1811.005  59.23     
2578.35    481.98     235.53     -1837.004  59.23     
2578.55    376.009    235.55     -1860      59.22     
2578.75    426.001    235.58     -1859.991  59.21     
2578.95    434.01     235.6      -1814.004  59.21     
2579.15    486.013    235.63     -1836.004  59.2      
2579.35    555.016    235.63     -1859.992  59.2      
2579.55    638.967    235.65     -1817.003  59.2      
2579.75    464.004    235.67     -1832.005  59.19     
2579.95    485.035    235.7      -1859.991  59.19     
2580.15    673.018    235.7      -1813.996  59.18     
2580.35    771.97     235.72     -1790      59.18     
2580.55    612.986    235.74     -1790      59.17     
2580.75    540.007    235.77     -1790.009  59.17     
2580.95    575.011    235.79     -1837.004  59.17     
2581.15    632.014    235.81     -1859.997  59.16     
2581.35    705.005    235.84     -1842.99   59.16     
2581.55    730.019    235.86     -1790      59.16     
2581.75    831.949    235.87     -1790.003  59.16     
2581.95    556.997    235.89     -1808.006  59.15     
2582.15    542.998    235.91     -1839.991  59.14     
2582.35    532.015    235.93     -1790      59.14     
2582.55    614.012    235.96     -1790.004  59.13     
2582.75    676.97     235.96     -1811.009  59.13     
2582.95    515.996    235.99     -1860      59.13     
2583.15    493.008    236.02     -1859.997  59.12     
2583.35    537.013    236.04     -1841.99   59.12     
2583.55    604.003    236.07     -1790      59.11     
2583.75    617.981    236.09     -1790.003  59.11     
2583.95    517.004    236.11     -1808.01   59.1      
2584.15    538.998    236.14     -1859.996  59.1      
2584.35    529.026    236.15     -1839.991  59.1      
2584.55    668.01     236.16     -1790.004  59.09     
2584.75    724.005    236.19     -1810.006  59.09     
2584.95    753.021    236.21     -1841.99   59.08     
2585.15    866.04     236.23     -1790.003  59.08     
2585.35    1080.084   236.25     -1807.007  59.07     
2585.55    1527.131   236.26     -1845.99   59.07     
2585.75    2226.216   236.28     -1790.003  59.07     
2585.95    3382.355   236.3      -1808.007  59.06     
2586.15    5279.165   236.33     -1842.993  59.06     
2586.35    817.962    236.35     -1804.01   59.05     
2586.55    613.99     236.37     -1859.998  59.05     
2586.75    562.978    236.38     -1846.989  59.04     
2586.95    444.002    236.42     -1790      59.04     
2587.15    455.005    236.42     -1790.002  59.03     
2587.35    482.998    236.44     -1803.011  59.03     
2587.55    470.972    236.47     -1859.997  59.03     
2587.75    320.014    236.49     -1845.99   59.02     
2587.95    394.007    236.51     -1790      59.02     
2588.15    431.985    236.52     -1790.003  59.01     
2588.35    354.005    236.54     -1804.01   59.01     
2588.55    379.001    236.56     -1860      59        
2588.75    382.013    236.59     -1860      59        
2588.95    448.971    236.61     -1860      59        
2589.15    294.009    236.63     -1859.998  58.99     
2589.35    343.994    236.65     -1846.991  58.98     
2589.55    313.993    236.66     -1801.011  58.98     
2589.75    273.998    236.68     -1860      58.98     
2589.95    263.011    236.71     -1859.998  58.98     
2590.15    323        236.73     -1846.991  58.97     
2590.35    325.005    236.75     -1801.011  58.97     
2590.55    351.008    236.77     -1860      58.96     
2590.75    390.996    236.78     -1860      58.96     
2590.95    369.013    236.8      -1860      58.95     
