~Version
 VERS              .         2.0                           : CWLS LOG ASCII STANDARD - VERSION 2.0
 WRAP              .         NO                            : ONE LINE PER DEPTH STEP
 DLM               .         SPACE                         : DELIMITING CHARACTER(SPACE TAB OR COMMA)
~Well Information
#_______________________________________________________________________________
#
#PARAMETER_NAME    .UNIT     VALUE                         : DESCRIPTION
#_______________________________________________________________________________
STRT               .M        2696.8                        : First reference value
STOP               .M        2752.2                        : Last reference value
STEP               .M        0.1999996                     : Step increment
NULL               .         -9999                         : Missing value
COMP               .                                       : Company
WELL               .         616                           : Well name
FLD                .                                       : Field
LOC                .                                       : Location
CNTY               .                                       : County
STAT               .                                       : State
CTRY               .                                       : Country
SRVC               .                                       : Service Company
DATE               .                                       : Date
API                .                                       : API number
PROJECT_UPGRADE_TIME .         2021-03-18T21_24_50           : 
group              .         Good                          : 
~Parameter Information Block
#_______________________________________________________________________________
#
#PARAMETER_NAME    .UNIT     VALUE                         : DESCRIPTION
#_______________________________________________________________________________
SET                .         D1808_D                       : 
OTHER              .         Программное обеспечение станции MONITOR-386EX 25/12/99 15_08_10   BGF V52 22/08/01 16_56_30   3.1_SNGF___BGF_N_092049: 
OTHER_10           .         Тарировки_                    : 
OTHER_11           .         RGD.M3/SUT = 0.822396 * RGD.UE + 26.7014: 
OTHER_2            .         Kedr.exe версия 3.4.2.51      : 
OTHER_3            .         KedrData.dll версия 3.4.2.24  : 
OTHER_4            .         Драйвер версия 2.1.0.2        : 
OTHER_5            .         Мнемоники версия 3.3 S        : 
OTHER_6            .         Прибор_ Гранат                : 
OTHER_7            .         Номер прибора_ 1229           : 
OTHER_8            .         Режим_ КСА_Гранат             : 
OTHER_9            .         Форма_ КВА                    : 
PROJECT_UPGRADE_TIME .         2021-03-18T21_24_49           : 
TLFamily_DEPT      .         Measured Depth                : 
TLFamily_METKA     .                                       : 
TLFamily_RCOR      .                                       : 
TLFamily_RGD       .                                       : 
TLFamily_RGD_2     .                                       : 
TLFamily_SPID      .         Spontaneous Potential         : 
TLFamily_TENS      .         Cable Tension                 : 
TLFamily_TIME      .         Time                          : 
group              .         prim                          : 
~Curve Information
#_______________________________________________________________________________
#
#LOGNAME           .UNIT     LOG_ID                        : DESCRIPTION
#_______________________________________________________________________________
DEPT               .M                                      : 1 Глубина, м -    0.0 см 
METKA              .                                       : 3 Метки,  -    0.0 см 
RCOR               .CM/KM                                  : 5 Коррекция по ролику, см/км -    0.0 см 
RGD                .UE                                     : 7 Расход, имп/мин -  232.0 см 
RGD_2              .M3/SUT                                 : 8 Расход, м3/сут -  232.0 см 
SPID               .M/H                                    : 2 Скорость, м/час -    0.0 см 
TENS               .T                                      : 6 Натяжение кабеля, т -    0.0 см 
TIME               .S                                      : 4 Время, сек -    0.0 см 
~Ascii
# ...
2733.2     0          -607       101        109.51     -192       0.19       4861.86   
2733.4     0          -607       97         106.14     -195       0.19       4858.36   
2733.6     0          -607       90         100.43     -196       0.19       4854.88   
2733.8     0          -607       108        115.24     -212       0.19       4851.28   
2734       0          -607       101        109.87     -205       0.19       4847.69   
2734.2     0          -607       95         105.17     -195       0.19       4844.28   
2734.4     0          -607       90         100.59     -216       0.19       4840.8    
2734.6     0          -607       96         105.75     -208       0.19       4837.3    
2734.8     0          -607       92         102.2      -211       0.19       4833.8    
2735       0          -607       100        108.85     -195       0.19       4830.2    
2735.2     0          -607       94         104.35     -200       0.17       4826.72   
2735.4     0          -607       89         99.62      -189       0.19       4823.22   
2735.6     0          -607       93         102.87     -204       0.19       4819.53   
2735.8     0          -607       103        111.13     -210       0.17       4816.03   
2736       0          -607       99         108.04     -203       0.19       4812.55   
2736.2     0          -607       110        117.38     -195       0.19       4809.05   
2736.4     0          -607       109        116.18     -199       0.19       4805.55   
2736.6     0          -607       96         105.52     -209       0.19       4802.06   
2736.8     0          -607       106        113.7      -212       0.19       4798.56   
2737       0          -607       91         101.35     -182       0.19       4795.06   
2737.2     0          -607       99         108.07     -201       0.19       4791.47   
2737.4     0          -607       97         106.5      -213       0.19       4787.98   
2737.6     0          -607       93         102.94     -211       0.17       4784.48   
2737.8     0          -607       95         104.76     -195       0.19       4781      
2738       0          -607       103        111.38     -199       0.19       4777.5    
2738.2     0          -607       99         108.1      -208       0.19       4774      
2738.4     0          -607       107        115.09     -215       0.19       4770.52   
2738.6     0          -607       92         102.24     -187       0.19       4767.02   
2738.8     0          -607       101        110.06     -216       0.19       4763.33   
2739       0          -607       111        118.1      -194       0.19       4759.83   
2739.2     0          -607       96         106.03     -198       0.19       4756.33   
2739.4     0          -607       96         105.98     -206       0.19       4752.84   
2739.6     0          -607       104        112.59     -216       0.19       4749.34   
2739.8     0          -607       88         99.32      -194       0.19       4745.86   
2740       2          -607       97         106.52     -197       0.17       4742.45   
2740.2     0          -600       95         105.02     -183       0.19       4737.67   
2740.4     0          -600       94         104.34     -215       0.19       4733.97   
2740.6     0          -600       102        110.84     -193       0.19       4730.48   
2740.8     0          -600       98         107.46     -196       0.17       4726.98   
2741       0          -600       104        112.17     -202       0.19       4723.48   
2741.2     0          -600       104        112.29     -218       0.19       4720      
2741.4     0          -600       100        109.19     -206       0.19       4716.5    
2741.6     0          -600       96         105.47     -208       0.19       4713.02   
2741.8     0          -600       96         105.31     -211       0.19       4709.52   
2742       0          -600       94         104.21     -195       0.19       4706.02   
2742.2     0          -600       108        115.88     -201       0.19       4702.42   
2742.4     0          -600       100        109.13     -213       0.19       4698.94   
2742.6     0          -600       103        111.18     -211       0.19       4695.44   
2742.8     0          -600       95         105.07     -195       0.19       4691.94   
2743       0          -600       108        115.53     -202       0.17       4688.45   
2743.2     0          -600       108        115.68     -194       0.19       4684.95   
2743.4     0          -600       108        115.36     -195       0.17       4681.56   
2743.6     0          -600       105        112.92     -210       0.19       4677.77   
2743.8     0          -600       105        112.91     -213       0.19       4674.27   
2744       0          -600       103        111.39     -209       0.19       4670.78   
2744.2     0          -600       99         108        -206       0.19       4667.28   
2744.4     0          -600       100        108.56     -202       0.19       4663.8    
2744.6     0          -600       94         103.84     -216       0.19       4660.3    
2744.8     0          -600       91         101.9      -195       0.17       4656.8    
2745       0          -600       101        109.6      -195       0.17       4653.31   
2745.2     0          -600       97         106.51     -179       0.17       4649.72   
2745.4     0          -600       94         104.2      -203       0.17       4646.13   
2745.6     0          -600       100        109.23     -221       0.17       4642.63   
2745.8     0          -600       97         106.63     -193       0.17       4639.03   
2746       0          -600       97         106.83     -217       0.17       4635.53   
2746.2     0          -600       91         101.42     -205       0.17       4632.14   
2746.4     0          -600       100        109.05     -221       0.17       4628.66   
2746.6     0          -600       96         105.45     -193       0.17       4625.06   
2746.8     0          -600       97         106.47     -201       0.17       4621.56   
2747       0          -600       95         104.74     -196       0.17       4617.88   
2747.2     0          -600       108        115.15     -202       0.17       4614.28   
2747.4     0          -600       95         104.84     -214       0.15       4610.78   
2747.6     0          -600       94         104.33     -182       0.15       4607.28   
2747.8     0          -600       95         104.74     -194       0.15       4603.8    
2748       0          -600       101        110.12     -194       0.15       4600.3    
2748.2     0          -600       99         107.99     -198       0.15       4596.7    
2748.4     0          -600       95         105.23     -189       0.17       4593.2    
2748.6     0          -600       100        109.16     -193       0.15       4589.52   
2748.8     0          -600       97         106.51     -193       0.17       4585.92   
2749       0          -600       110        117.08     -192       0.17       4582.42   
2749.2     0          -600       101        109.55     -195       0.17       4578.83   
2749.4     0          -600       92         102.54     -193       0.19       4575.34   
2749.6     0          -600       98         107.11     -210       0.19       4571.75   
2749.8     0          -600       105        112.98     -217       0.19       4568.16   
2750       0          -9999      105        113.09     -9999      -9999      -9999     
2750.2     -9999      -9999      115        121.35     -9999      -9999      -9999     
2750.4     -9999      -9999      114        120.61     -9999      -9999      -9999     
2750.6     -9999      -9999      95         104.9      -9999      -9999      -9999     
2750.8     -9999      -9999      95         105        -9999      -9999      -9999     
2751       -9999      -9999      96         105.54     -9999      -9999      -9999     
2751.2     -9999      -9999      92         102.25     -9999      -9999      -9999     
