~Version
 VERS              .         2.0                           : CWLS LOG ASCII STANDARD - VERSION 2.0
 WRAP              .         NO                            : ONE LINE PER DEPTH STEP
 DLM               .         SPACE                         : DELIMITING CHARACTER(SPACE TAB OR COMMA)
~Well Information
#_______________________________________________________________________________
#
#PARAMETER_NAME    .UNIT     VALUE                         : DESCRIPTION
#_______________________________________________________________________________
STRT               .M        2645.2                        : First reference value
STOP               .M        2753.000054                   : Last reference value
STEP               .M        0.2000001                     : Step increment
NULL               .         -9999                         : Missing value
COMP               .                                       : Company
WELL               .         616                           : Well name
FLD                .                                       : Field
LOC                .                                       : Location
CNTY               .                                       : County
STAT               .                                       : State
CTRY               .                                       : Country
SRVC               .                                       : Service Company
DATE               .                                       : Date
API                .                                       : API number
PROJECT_UPGRADE_TIME .         2021-03-18T21_24_50           : 
group              .         Good                          : 
~Parameter Information Block
#_______________________________________________________________________________
#
#PARAMETER_NAME    .UNIT     VALUE                         : DESCRIPTION
#_______________________________________________________________________________
SET                .         D4407_D                       : 
OTHER              .         Запись производится в присутствии: 
OTHER_10           .         Максимальная температура      : 
OTHER_11           .         Тип промывочной жидкости      : 
OTHER_12           .         Сопротивление ПЖ (Ом*м) при 20°C: 
OTHER_13           .         Плотность ПЖ(г/см3)           : 
OTHER_14           .         Вязкость ПЖ(с)                : 
OTHER_15           .         Водоотдача ПЖ(см3/30мин)      : 
OTHER_16           .         Уровень ПЖ                    : 
OTHER_17           .         Нефть ПЖ (%)                  : 
OTHER_18           .         Барит ПЖ (%)                  : 
OTHER_19           .         Гематит ПЖ (%)                : 
OTHER_2            .         Заказчик ННСН  ЦДНГ-1         : 
OTHER_20           .         КМЦ ПЖ (%)                    : 
OTHER_21           .         Разгазирование ПЖ (да,нет)    : 
OTHER_22           .         Подъемник                     : 
OTHER_23           .         Лаборатория                   : 
OTHER_24           .         Тип кабеля                    : 
OTHER_25           .         Длина кабеля (м)              : 
OTHER_26           .         Цена последней метки          : 
OTHER_27           .         Цена контрольной метки        : 
OTHER_28           .         Диаметр долота (мм)           : 
OTHER_29           .         Глубина бурения (м)           : 
OTHER_3            .         Площадь                       : 
OTHER_30           .         Искусственный забой (м)       : 
OTHER_31           .         Диаметр колонны (мм)          : 
OTHER_32           .         Толщина колонны (мм)          : 
OTHER_33           .         Башмак колонны (м)            : 
OTHER_34           .         Диаметр НКТ (мм)              : 
OTHER_35           .         Толщина НКТ (мм)              : 
OTHER_36           .         Воронка НКТ (м)               : 
OTHER_37           .         Дата цементожа                : 
OTHER_38           .         Тип, количество(т) и плотность цемента: 
OTHER_39           .         Интервалы перфорации (м)      : 
OTHER_4            .         Категория                     : 
OTHER_40           .         Направление, диаметр (мм)     : 
OTHER_41           .         Направление, глубина (м)      : 
OTHER_42           .         Кондуктор, диаметр (мм)       : 
OTHER_43           .         Кондуктор, глубина (м)        : 
OTHER_44           .         Техническая колонна, диаметр (мм): 
OTHER_45           .         Техническая колонна, глубина (м): 
OTHER_46           .         Эксплуатационная колонна, диаметр (мм): 
OTHER_47           .         Эксплуатационная колонна, глубина (м): 
OTHER_48           .         Программа Кедр-02 версия 3.4  : 
OTHER_49           .         Операционная система Windows NT 5.1 build 2600 Service Pack 2: 
OTHER_5            .         Назначение исследований       : 
OTHER_50           .         Программное обеспечение станции MONITOR-386EX 25/12/99 15_08_10   BGF V54 20/09/05 15_32_17   3.3__BGF_9030071: 
OTHER_51           .         Kedr.exe версия 3.4.2.74      : 
OTHER_52           .         KedrData.dll версия 3.4.2.29  : 
OTHER_53           .         Мнемоники версия 3.18 S       : 
OTHER_54           .         Драйвер версия 2.1.1.4        : 
OTHER_55           .         LasInf.dll 4.3.0.35           : 
OTHER_56           .         Прибор_ КСА-Т4                : 
OTHER_57           .         Номер прибора_ 160            : 
OTHER_58           .         Режим_ КСА-Т4                 : 
OTHER_59           .         Форма_ С.А.Б.                 : 
OTHER_6            .         Альтитуда стола ротора        : 
OTHER_60           .         Тарировки_                    : 
OTHER_61           .         <_techsia_sc_> Дата тарировки температуры 25.05.2010: 
OTHER_62           .         Ручной ввод коэффициентов     : 
OTHER_63           .         TM.DEGC = 0.00402*RTM.E.ACP + -0.994: 
OTHER_64           .         <_techsia_sc_> Дата тарировки давления 25.05.2010: 
OTHER_65           .         Ручной ввод коэффициентов     : 
OTHER_66           .         MN.ATM = (2.27521e-006*TM.DEGC + 0.02078)*(RMN.E.ACP + 6.2*TM.DEGC + -1688): 
OTHER_67           .         <_techsia_sc_> Дата тарировки ГК 25.05.2010: 
OTHER_68           .         Ручной ввод коэффициентов     : 
OTHER_69           .         GR.UR/H = RGR.IMP/MIN / 45.5144: 
OTHER_7            .         Вид исследований 3  6         : 
OTHER_70           .         GK.FLT = 0.1*GR.UR/H[-1] + (1-0.1)*GR.UR/H[0]: 
OTHER_8            .         Начало бурения интервала каротажа: 
OTHER_9            .         Окончание бурения интервала каротажа: 
PROJECT_UPGRADE_TIME .         2021-03-18T21_24_50           : 
TLFamily_CCLC      .                                       : 
TLFamily_DEPT      .         Measured Depth                : 
TLFamily_GK        .         Gamma Ray                     : 
TLFamily_GR        .         Gamma Ray                     : 
TLFamily_METKA     .                                       : 
TLFamily_MN        .                                       : 
TLFamily_RCOR      .                                       : 
TLFamily_RGR       .                                       : 
TLFamily_RMN       .                                       : 
TLFamily_RTEN      .                                       : 
TLFamily_RTM       .                                       : 
TLFamily_SPEE      .         Cable Speed                   : 
TLFamily_TIME      .         Time                          : 
TLFamily_TM        .         Temperature                   : 
group              .         prim                          : 
~Curve Information
#_______________________________________________________________________________
#
#LOGNAME           .UNIT     LOG_ID                        : DESCRIPTION
#_______________________________________________________________________________
DEPT               .M                                      : 1 Глубина, м -    0.0 см 
CCLC               .E.ACP                                  : 9 Локатор муфт,  -   20.0 см 
GK                 .FLT                                    : 14 Гамма-активность фильтрованная, мкр./ч -  110.0 см 
GR                 .UR/H                                   : 13 Гамма-активность, мкр./ч -  110.0 см 
METKA              .CU                                     : 3 Метки,  -    0.0 см 
MN                 .ATM                                    : 12 Давление, атм. -  160.0 см 
RCOR               .CM/KM                                  : 5 Коррекция по ролику, см/км -    0.0 см 
RGR                .IMP/MIN                                : 10 Гамма-активность, усл.ед. -  110.0 см 
RMN                .E.ACP                                  : 8 Давление, усл.ед. -  160.0 см 
RTEN               .T                                      : 6 Натяжение кабеля, т -    0.0 см 
RTM                .E.ACP                                  : 7 Температура, усл.ед. -  170.0 см 
SPEE               .M/H                                    : 2 Скорость, м/час -    0.0 см 
TIME               .S                                      : 4 Время, сек -    0.0 см 
TM                 .DEGC                                   : 11 Температура, °C -  170.0 см 
~Ascii
# ...
2718.000036 83         9.84       9.84       0          243.997    -1110      448        13056      0.26       12680      562        463.58     49.98     
2718.200036 98         9.84       9.84       0          244.025    -1110      448        13058      0.26       12677      561        464.84     49.968    
2718.400037 98         10.05      10.05      0          244.07     -1110      457        13060      0.26       12675      561        466.1      49.958    
2718.600037 115        10.15      10.15      0          244.085    -1110      462        13061      0.26       12673      563        467.41     49.951    
2718.800037 109        10.3       10.3       0          244.113    -1110      469        13062      0.26       12671      563        468.72     49.942    
2719.000037 118        10.37      10.37      0          244.153    -1110      472        13064      0.26       12668      562        469.97     49.931    
2719.200037 128        10.37      10.37      0          244.167    -1110      472        13065      0.26       12665      562        471.28     49.919    
2719.400037 104        10.37      10.37      0          244.197    -1110      472        13066      0.26       12661      562        472.53     49.905    
2719.600037 102        9.93       9.93       0          244.208    -1110      452        13067      0.26       12657      562        473.89     49.887    
2719.800037 76         9.93       9.93       0          244.249    -1110      452        13069      0.26       12655      562        475.16     49.877    
2720.000037 94         10.41      10.41      0          244.279    -1110      474        13071      0.26       12652      561        476.42     49.868    
2720.200037 85         10.41      10.41      0          244.288    -1110      474        13071      0.26       12650      561        477.73     49.858    
2720.400038 91         10.44      10.44      0          244.328    -1110      475        13073      0.26       12647      561        479.05     49.848    
2720.600038 88         10.44      10.44      0          244.364    -1110      475        13075      0.26       12644      565        480.28     49.835    
2720.800038 47         10.63      10.63      0          244.374    -1110      484        13075      0.26       12642      572        481.49     49.829    
2721.000038 78         10.63      10.63      0          244.407    -1110      484        13077      0.26       12640      576        482.73     49.819    
2721.200038 106        11.01      11.01      0          244.427    -1110      501        13078      0.26       12639      578        483.92     49.815    
2721.400038 124        11.01      11.01      0          244.462    -1110      501        13080      0.26       12637      574        485.3      49.807    
2721.600038 143        10.57      10.57      0          244.468    -1110      481        13080      0.26       12636      570        486.55     49.803    
2721.800038 68         10.57      10.57      0          244.509    -1110      481        13082      0.26       12635      569        487.83     49.799    
2722.000038 88         9.43       9.43       0          244.528    -1110      429        13083      0.26       12633      567        489.11     49.791    
2722.200038 113        9.43       9.43       0          244.554    -1110      429        13084      0.26       12631      566        490.46     49.784    
2722.400039 135        10.26      10.26      0          244.589    -1110      467        13086      0.26       12630      564        491.73     49.779    
2722.600039 124        10.26      10.26      0          244.608    -1110      467        13087      0.26       12628      564        493        49.77     
2722.800039 76         11.27      11.27      0          244.628    -1110      513        13088      0.26       12626      564        494.24     49.761    
2723.000039 94         11.27      11.27      0          244.662    -1110      513        13090      0.26       12624      563        495.63     49.754    
2723.200039 52         11.62      11.62      0          244.689    -1110      529        13091      0.26       12622      563        496.88     49.746    
2723.400039 76         11.62      11.62      0          244.709    -1110      529        13092      0.26       12621      562        498.19     49.742    
2723.600039 59         11.4       11.4       0          244.746    -1110      519        13094      0.26       12620      562        499.44     49.738    
2723.800039 91         11.4       11.4       0          244.769    -1110      519        13095      0.26       12619      562        500.69     49.734    
2724.000039 74         9.69       9.69       0          244.781    -1110      441        13096      0.26       12612      562        502.06     49.705    
2724.20004 142        9.69       9.69       0          244.805    -1110      441        13097      0.26       12605      562        503.31     49.678    
2724.40004 309        8.28       8.28       0          244.831    -1110      377        13099      0.26       12600      561        504.63     49.659    
2724.60004 209        8.28       8.28       0          244.861    -1110      377        13100      0.26       12598      561        505.88     49.649    
2724.80004 313        7.25       7.25       0          244.882    -1110      330        13101      0.26       12596      561        507.2      49.643    
2725.00004 263        7.29       7.29       0          244.903    -1110      332        13102      0.26       12596      561        508.48     49.642    
2725.20004 2175       7.34       7.34       0          244.923    -1110      334        13103      0.26       12596      562        509.77     49.642    
2725.40004 660        7.18       7.18       0          244.944    -1110      327        13104      0.26       12596      563        511.03     49.642    
2725.60004 407        6.94       6.94       0          244.986    -1110      316        13106      0.26       12596      563        512.29     49.642    
2725.80004 380        6.98       6.98       0          245.007    -1110      318        13107      0.26       12596      564        513.64     49.642    
2726.00004 286        7.18       7.18       2          245.031    -1106      327        13108      0.26       12596      564        514.64     49.642    
2726.20004 289        7.78       7.78       0          245.059    -1105      354        13110      0.26       12595      565        515.84     49.638    
2726.400041 139        7.78       7.78       0          245.068    -1105      354        13110      0.26       12595      564        517.15     49.638    
2726.600041 108        8.02       8.02       0          245.111    -1105      365        13112      0.26       12594      563        518.41     49.635    
2726.800041 71         8.06       8.06       0          245.132    -1105      367        13113      0.26       12595      563        519.78     49.638    
2727.000041 95         8.12       8.12       0          245.153    -1105      370        13114      0.26       12596      563        521.03     49.64     
2727.200041 78         8.13       8.13       0          245.186    -1105      370        13116      0.26       12596      562        522.34     49.642    
2727.400041 70         7.93       7.93       0          245.217    -1105      361        13117      0.26       12597      561        523.59     49.646    
2727.600041 200        7.89       7.89       0          245.234    -1105      359        13118      0.26       12598      561        524.92     49.649    
2727.800041 146        7.86       7.86       0          245.26     -1105      358        13119      0.26       12598      562        526.22     49.652    
2728.000041 274        7.84       7.84       0          245.281    -1105      357        13120      0.26       12599      562        527.47     49.654    
2728.200041 118        7.84       7.84       0          245.302    -1105      357        13121      0.26       12600      562        528.76     49.658    
