~Version
 VERS              .         2.0                           : CWLS LOG ASCII STANDARD - VERSION 2.0
 WRAP              .         NO                            : ONE LINE PER DEPTH STEP
 DLM               .         SPACE                         : DELIMITING CHARACTER(SPACE TAB OR COMMA)
~Well Information
#_______________________________________________________________________________
#
#PARAMETER_NAME    .UNIT     VALUE                         : DESCRIPTION
#_______________________________________________________________________________
STRT               .M        10.2                          : First reference value
STOP               .M        2753.6                        : Last reference value
STEP               .M        0.2                           : Step increment
NULL               .         -9999                         : Missing value
COMP               .                                       : Company
WELL               .         616                           : Well name
FLD                .                                       : Field
LOC                .                                       : Location
CNTY               .                                       : County
STAT               .                                       : State
CTRY               .                                       : Country
SRVC               .                                       : Service Company
DATE               .                                       : Date
API                .                                       : API number
PROJECT_UPGRADE_TIME .         2021-03-18T21_24_50           : 
group              .         Good                          : 
~Parameter Information Block
#_______________________________________________________________________________
#
#PARAMETER_NAME    .UNIT     VALUE                         : DESCRIPTION
#_______________________________________________________________________________
SET                .         D7028_D                       : 
OTHER              .         Kedr.exe версия 2.1.2.32      : 
OTHER_10           .         TM.GRD = 0.00404*TM$.UE + 0.07: 
OTHER_11           .         MN.ATM = (6.33279e-006*TM.GRD + 0.02401)*(MN$.UE + 2.72*TM.GRD + -2018): 
OTHER_12           .         GK.MKR/H = GK$.UE / 43.5489 + 0: 
OTHER_13           .         RES.SM = 0.00476*CRES.UE - 1.51709: 
OTHER_14           .         PL.GSM3 = 0 + 0 * (PL.UE / 1) +  0 * (PL.UE / 1)^2: 
OTHER_15           .         Постоянная времени ГГП = 6 сек: 
OTHER_16           .         Постоянная времени ГК = 6 сек : 
OTHER_2            .         KedrData.dll версия 3.2.2.14  : 
OTHER_3            .         LasInf.dll версия 3.2.0.13    : 
OTHER_4            .         Драйвер версия 1.2.0.5        : 
OTHER_5            .         Прибор_ КСА-M1                : 
OTHER_6            .         Номер прибора_ 155+р204       : 
OTHER_7            .         Режим_ КСА-М1 + ГГП + Резистивиметр: 
OTHER_8            .         Форма_ 223\2                  : 
OTHER_9            .         Тарировки_                    : 
PROJECT_UPGRADE_TIME .         2021-03-18T21_24_50           : 
TLFamily_CRES      .                                       : 
TLFamily_DEPT      .         Measured Depth                : 
TLFamily_GK        .         Gamma Ray                     : 
TLFamily_GK$       .                                       : 
TLFamily_LM        .         Casing Collar locator         : 
TLFamily_METKA     .                                       : 
TLFamily_MN        .                                       : 
TLFamily_MN$       .                                       : 
TLFamily_PL        .                                       : 
TLFamily_PL_2      .                                       : 
TLFamily_RCOR      .                                       : 
TLFamily_RES       .         Mud Resistivity               : 
TLFamily_SPID      .         Spontaneous Potential         : 
TLFamily_STD       .                                       : 
TLFamily_TIME      .         Time                          : 
TLFamily_TM        .         Temperature                   : 
TLFamily_TM$       .         Temperature                   : 
TLFamily_VGD       .         Gas Volume                    : 
group              .         prim                          : 
~Curve Information
#_______________________________________________________________________________
#
#LOGNAME           .UNIT     LOG_ID                        : DESCRIPTION
#_______________________________________________________________________________
DEPT               .M                                      : 1 Глубина, м -    0.0 см 
CRES               .UE                                     : 9 Проводимость, усл.ед. -  222.0 см 
GK                 .MKR/H                                  : 16 Гамма-активность, мкр./ч -  106.0 см 
GK$                .UE                                     : 13 Гамма-активность, усл.ед. -  106.0 см 
LM                 .                                       : 11 Локатор муфт,  -   16.0 см 
METKA              .                                       : 3 Метки,  -    0.0 см 
MN                 .ATM                                    : 15 Давление, атм. -  160.0 см 
MN$                .UE                                     : 7 Давление, усл.ед. -  160.0 см 
PL                 .UE                                     : 10 Плотность, усл.ед. -  270.0 см 
PL_2               .GSM3                                   : 18 Плотность, г./см3 -  270.0 см 
RCOR               .CM/KM                                  : 5 Коррекция по ролику, см/км -    0.0 см 
RES                .SM                                     : 17 Проводимость,  -  222.0 см 
SPID               .M/H                                    : 2 Скорость, м/час -    0.0 см 
STD                .                                       : 12 Приток,  -  170.0 см 
TIME               .S                                      : 4 Время, сек -    0.0 см 
TM                 .GRD                                    : 14 Температура, °C -  180.0 см 
TM$                .UE                                     : 6 Температура, усл.ед. -  180.0 см 
VGD                .                                       : 8 Влагомер,  -  170.0 см 
~Ascii
# ...
1289.4     1073       8.62       387        757        0          115.974    6684       14         0          0          3.5904     -1808      8067       21622.76   41.254     10194      6572      
1289.6     1073       8.56       387        851        0          115.987    6685       14         0          0          3.5904     -1790      8070       21622.36   41.258     10195      6573      
1289.8     1073       8.48       387        1157       1          116.013    6686       14         0          0          3.5904     -1790      8069       21621.96   41.26      10196      6572      
1290       1073       8.39       387        1017       0          116.023    6686       14         0          0          3.5923     -1817      8069       21621.35   41.266     10197      6584      
1290.2     1074       8.27       377        1099       0          116.039    6687       13         0          0          3.5951     -1860      8070       21620.95   41.27      10198      6586      
1290.4     1074       8.18       361        1169       0          116.048    6687       15         0          0          3.5929     -1860      8071       21620.55   41.272     10199      6587      
1290.6     1073       8.15       361        855        0          116.065    6688       14         0          0          3.5881     -1829      8072       21620.15   41.274     10199      6585      
1290.8     1069       8.12       361        978        0          116.073    6688       14         0          0          3.5731     -1790      8074       21619.75   41.282     10201      6582      
1291       1070       8.05       361        1025       0          116.092    6689       14         0          0          3.5749     -1825      8074       21619.37   41.286     10202      6588      
1291.2     1072       8          360        1035       0          116.116    6690       14         0          0          3.5856     -1825      8074       21618.98   41.289     10203      6586      
1291.4     1072       7.94       339        1118       0          116.123    6690       14         0          0          3.5856     -1790      8075       21618.58   41.293     10204      6585      
1291.6     1071       7.97       339        1017       0          116.157    6691       14         0          0          3.5826     -1829      8076       21618.18   41.301     10206      6582      
1291.8     1072       8.02       339        1138       0          116.182    6692       14         0          0          3.5871     -1819      8079       21617.78   41.304     10206      6580      
1292       1073       8.08       339        1528       0          116.197    6693       14         0          0          3.5904     -1790      8078       21617.38   41.308     10207      6578      
1292.2     1073       8.14       339        2305       0          116.208    6693       15         0          0          3.5904     -1833      8078       21616.99   41.312     10208      6580      
1292.4     1073       8.23       339        3650       0          116.234    6695       14         0          0          3.5904     -1860      8079       21616.59   41.314     10209      6585      
1292.6     1073       8.34       345        5725       0          116.246    6695       14         0          0          3.5904     -1860      8079       21616.19   41.316     10210      6576      
1292.8     1073       8.43       362        1096       0          116.259    6696       14         0          0          3.592      -1814      8082       21615.8    41.318     10210      6573      
1293       1073       8.47       362        1204       0          116.271    6696       14         0          0          3.5894     -1836      8081       21615.41   41.32      10211      6584      
1293.2     1073       8.5        362        1088       0          116.271    6696       14         0          0          3.5885     -1771      8082       21615.01   41.322     10211      6580      
1293.4     1075       8.54       362        1228       0          116.3      6697       14         0          0          3.598      -1730      8083       21614.62   41.327     10212      6581      
1293.6     1074       8.6        362        2282       0          116.337    6699       15         0          0          3.5931     -1776      8084       21614.2    41.333     10214      6581      
1293.8     1071       8.67       368        1228       0          116.361    6700       13         0          0          3.5818     -1894      8086       21613.8    41.34      10215      6584      
1294       1071       8.72       378        837        0          116.371    6700       14         0          0          3.5826     -1920      8086       21613.41   41.343     10216      6587      
1294.2     1073       8.73       378        737        0          116.386    6701       14         0          0          3.5926     -1869      8089       21613.01   41.347     10217      6586      
1294.4     1075       8.74       378        571        0          116.395    6701       14         0          0          3.5979     -1860      8087       21612.63   41.353     10219      6582      
1294.6     1075       8.75       378        706        0          116.427    6702       14         0          0          3.5999     -1860      8088       21612.24   41.355     10219      6589      
1294.8     1075       8.77       378        733        0          116.444    6703       14         0          0          3.6002     -1804      8089       21611.86   41.352     10218      6575      
1295       1076       8.79       380        926        0          116.444    6703       14         0          0          3.6047     -1852      8089       21611.45   41.353     10219      6526      
1295.2     1076       8.81       382        1052       0          116.463    6704       14         0          0          3.6047     -1860      8090       21611.06   41.357     10220      6555      
1295.4     1075       8.82       382        1021       0          116.47     6704       14         0          0          3.5992     -1860      8089       21610.66   41.362     10221      6551      
1295.6     1075       8.83       382        1216       0          116.49     6705       14         0          0          3.5979     -1860      8090       21610.28   41.373     10223      6559      
1295.8     1075       8.84       382        839        0          116.516    6706       14         0          0          3.5999     -1860      8092       21609.9    41.375     10224      6585      
1296       1075       8.86       382        962        0          116.54     6707       14         0          0          3.5999     -1797      8093       21609.5    41.382     10226      6590      
1296.2     1075       8.87       382        1000       0          116.544    6707       14         0          0          3.5999     -1856      8094       21609.1    41.383     10226      6584      
1296.4     1075       8.9        381        726        0          116.564    6708       14         0          0          3.5999     -1860      8094       21608.7    41.39      10228      6578      
1296.6     1075       8.93       381        637        0          116.569    6708       14         0          0          3.5999     -1860      8096       21608.32   41.388     10227      6578      
1296.8     1076       8.97       381        757        0          116.59     6709       14         0          0          3.6033     -1790      8097       21607.92   41.394     10229      6581      
1297       1076       9.03       381        700        0          116.616    6710       13         0          0          3.6047     -1860      8097       21607.52   41.399     10230      6590      
1297.2     1076       9.09       381        874        0          116.641    6711       13         0          0          3.6047     -1860      8098       21607.14   41.403     10231      6591      
1297.4     1076       9.17       381        988        0          116.644    6711       14         0          0          3.6047     -1860      8097       21606.74   41.411     10233      6585      
