~Version
 VERS              .         2.0                           : CWLS LOG ASCII STANDARD - VERSION 2.0
 WRAP              .         NO                            : ONE LINE PER DEPTH STEP
 DLM               .         SPACE                         : DELIMITING CHARACTER(SPACE TAB OR COMMA)
~Well Information
#_______________________________________________________________________________
#
#PARAMETER_NAME    .UNIT     VALUE                         : DESCRIPTION
#_______________________________________________________________________________
STRT               .M        44.8                          : First reference value
STOP               .M        2755.2                        : Last reference value
STEP               .M        0.2                           : Step increment
NULL               .         -9999                         : Missing value
COMP               .                                       : Company
WELL               .         616                           : Well name
FLD                .                                       : Field
LOC                .                                       : Location
CNTY               .                                       : County
STAT               .                                       : State
CTRY               .                                       : Country
SRVC               .                                       : Service Company
DATE               .                                       : Date
API                .                                       : API number
PROJECT_UPGRADE_TIME .         2021-03-18T21_24_50           : 
group              .         Good                          : 
~Parameter Information Block
#_______________________________________________________________________________
#
#PARAMETER_NAME    .UNIT     VALUE                         : DESCRIPTION
#_______________________________________________________________________________
SET                .         D4390_D_2                     : 
COMM               .                                       : 
OTHER              .         Запись производится в присутствии: 
OTHER_10           .         Максимальная температура      : 
OTHER_100          .         GK.FLT = 0.1*GR.UR/H[-1] + (1-0.1)*GR.UR/H[0]: 
OTHER_11           .         Тип промывочной жидкости      : 
OTHER_12           .         Сопротивление ПЖ (Ом*м) при 20°C: 
OTHER_13           .         Плотность ПЖ(г/см3)           : 
OTHER_14           .         Вязкость ПЖ(с)                : 
OTHER_15           .         Водоотдача ПЖ(см3/30мин)      : 
OTHER_16           .         Уровень ПЖ                    : 
OTHER_17           .         Нефть ПЖ (%)                  : 
OTHER_18           .         Барит ПЖ (%)                  : 
OTHER_19           .         Гематит ПЖ (%)                : 
OTHER_2            .         Заказчик ННСН  ЦДНГ-1         : 
OTHER_20           .         КМЦ ПЖ (%)                    : 
OTHER_21           .         Разгазирование ПЖ (да,нет)    : 
OTHER_22           .         Подъемник                     : 
OTHER_23           .         Лаборатория                   : 
OTHER_24           .         Тип кабеля                    : 
OTHER_25           .         Длина кабеля (м)              : 
OTHER_26           .         Цена последней метки          : 
OTHER_27           .         Цена контрольной метки        : 
OTHER_28           .         Диаметр долота (мм)           : 
OTHER_29           .         Глубина бурения (м)           : 
OTHER_3            .         Площадь                       : 
OTHER_30           .         Искусственный забой (м)       : 
OTHER_31           .         Диаметр колонны (мм)          : 
OTHER_32           .         Толщина колонны (мм)          : 
OTHER_33           .         Башмак колонны (м)            : 
OTHER_34           .         Диаметр НКТ (мм)              : 
OTHER_35           .         Толщина НКТ (мм)              : 
OTHER_36           .         Воронка НКТ (м)               : 
OTHER_37           .         Дата цементожа                : 
OTHER_38           .         Тип, количество(т) и плотность цемента: 
OTHER_39           .         Интервалы перфорации (м)      : 
OTHER_4            .         Категория                     : 
OTHER_40           .         Направление, диаметр (мм)     : 
OTHER_41           .         Направление, глубина (м)      : 
OTHER_42           .         Кондуктор, диаметр (мм)       : 
OTHER_43           .         Кондуктор, глубина (м)        : 
OTHER_44           .         Техническая колонна, диаметр (мм): 
OTHER_45           .         Техническая колонна, глубина (м): 
OTHER_46           .         Эксплуатационная колонна, диаметр (мм): 
OTHER_47           .         Эксплуатационная колонна, глубина (м): 
OTHER_48           .         Программа Кедр-02 версия 3.4  : 
OTHER_49           .         Операционная система Windows NT 5.1 build 2600 Service Pack 2: 
OTHER_5            .         Назначение исследований       : 
OTHER_50           .         Программное обеспечение станции MONITOR-386EX 25/12/99 15_08_10   BGF V54 20/09/05 15_32_17   3.3__BGF_9030071: 
OTHER_51           .         Kedr.exe версия 3.4.2.74      : 
OTHER_52           .         KedrData.dll версия 3.4.2.29  : 
OTHER_53           .         Мнемоники версия 3.18 S       : 
OTHER_54           .         Драйвер версия 2.1.1.4        : 
OTHER_55           .         LasInf.dll 4.3.0.35           : 
OTHER_56           .         Прибор_ КСА-Т4                : 
OTHER_57           .         Номер прибора_ 160            : 
OTHER_58           .         Режим_ КСА-Т4                 : 
OTHER_59           .         Форма_ С.А.Б.                 : 
OTHER_6            .         Альтитуда стола ротора        : 
OTHER_60           .         Тарировки_                    : 
OTHER_61           .         <_techsia_sc_> Дата тарировки температуры 25.05.2010: 
OTHER_62           .         Ручной ввод коэффициентов     : 
OTHER_63           .         TM.DEGC = 0.00402*RTM.E.ACP + -0.994: 
OTHER_64           .         <_techsia_sc_> Дата тарировки давления 25.05.2010: 
OTHER_65           .         Ручной ввод коэффициентов     : 
OTHER_66           .         MN.ATM = (2.27521e-006*TM.DEGC + 0.02078)*(RMN.E.ACP + 6.2*TM.DEGC + -1688): 
OTHER_67           .         <_techsia_sc_> Дата тарировки ГК 25.05.2010: 
OTHER_68           .         Ручной ввод коэффициентов     : 
OTHER_69           .         GR.UR/H = RGR.IMP/MIN / 45.5144: 
OTHER_7            .         Вид исследований 3  6         : 
OTHER_70           .         GK.FLT = 0.1*GR.UR/H[-1] + (1-0.1)*GR.UR/H[0]: 
OTHER_71           .         <_techsia_sc_> Дата тарировки температуры 25.05.2010: 
OTHER_72           .         Ручной ввод коэффициентов     : 
OTHER_73           .         TM.DEGC = 0.00402*RTM.E.ACP + -0.994: 
OTHER_74           .         <_techsia_sc_> Дата тарировки давления 25.05.2010: 
OTHER_75           .         Ручной ввод коэффициентов     : 
OTHER_76           .         MN.ATM = (2.27521e-006*TM.DEGC + 0.02078)*(RMN.E.ACP + 6.2*TM.DEGC + -1688): 
OTHER_77           .         <_techsia_sc_> Дата тарировки ГК 25.05.2010: 
OTHER_78           .         Ручной ввод коэффициентов     : 
OTHER_79           .         GR.UR/H = RGR.IMP/MIN / 45.5144: 
OTHER_8            .         Начало бурения интервала каротажа: 
OTHER_80           .         GK.FLT = 0.1*GR.UR/H[-1] + (1-0.1)*GR.UR/H[0]: 
OTHER_81           .         <_techsia_sc_> Дата тарировки температуры 25.05.2010: 
OTHER_82           .         Ручной ввод коэффициентов     : 
OTHER_83           .         TM.DEGC = 0.00402*RTM.E.ACP + -0.994: 
OTHER_84           .         <_techsia_sc_> Дата тарировки давления 25.05.2010: 
OTHER_85           .         Ручной ввод коэффициентов     : 
OTHER_86           .         MN.ATM = (2.27521e-006*TM.DEGC + 0.02078)*(RMN.E.ACP + 6.2*TM.DEGC + -1688): 
OTHER_87           .         <_techsia_sc_> Дата тарировки ГК 25.05.2010: 
OTHER_88           .         Ручной ввод коэффициентов     : 
OTHER_89           .         GR.UR/H = RGR.IMP/MIN / 45.5144: 
OTHER_9            .         Окончание бурения интервала каротажа: 
OTHER_90           .         GK.FLT = 0.1*GR.UR/H[-1] + (1-0.1)*GR.UR/H[0]: 
OTHER_91           .         <_techsia_sc_> Дата тарировки температуры 25.05.2010: 
OTHER_92           .         Ручной ввод коэффициентов     : 
OTHER_93           .         TM.DEGC = 0.00402*RTM.E.ACP + -0.994: 
OTHER_94           .         <_techsia_sc_> Дата тарировки давления 25.05.2010: 
OTHER_95           .         Ручной ввод коэффициентов     : 
OTHER_96           .         MN.ATM = (2.27521e-006*TM.DEGC + 0.02078)*(RMN.E.ACP + 6.2*TM.DEGC + -1688): 
OTHER_97           .         <_techsia_sc_> Дата тарировки ГК 25.05.2010: 
OTHER_98           .         Ручной ввод коэффициентов     : 
OTHER_99           .         GR.UR/H = RGR.IMP/MIN / 45.5144: 
PROJECT_UPGRADE_TIME .         2021-03-18T21_24_50           : 
PRTY               .         ПП-601-1                      : N партии
SRVC               .         Барковский                    : Начальник партии
TLFamily_DEPT      .         Measured Depth                : 
TLFamily_LM        .         Casing Collar locator         : 
TLFamily_METKA     .                                       : 
TLFamily_MN        .                                       : 
TLFamily_TM        .         Temperature                   : 
group              .         second                        : 
~Curve Information
#_______________________________________________________________________________
#
#LOGNAME           .UNIT     LOG_ID                        : DESCRIPTION
#_______________________________________________________________________________
DEPT               .M                                      : Depth curve 
LM                 .е.ацп                                  : Локатор муфт,е.ацп 
METKA              .е.ацп                                  : Магнитные метки,е.ацп 
MN                 .атм                                    : 12 Давление, атм. -  160.0 см 
TM                 .град.C                                 : Термограмма по стволу скважины,град.C 
~Ascii
# ...
1300.4     806.993    0          116.441    35.821    
1300.6     733.998    0          116.467    35.826    
1300.8     707.013    0          116.491    35.83     
1301       852.988    0          116.475    35.835    
1301.2     721.009    0          116.5      35.837    
1301.4     825.991    0          116.516    35.841    
1301.6     723        0          116.529    35.841    
1301.8     718.991    0          116.555    35.846    
1302       615.988    0          116.559    35.849    
1302.2     486.665    0          116.567    35.852    
1302.4     7884.605   0          116.602    35.856    
1302.6     3487.893   0          116.613    35.857    
1302.8     2295.931   0          116.639    35.862    
1303       1529.958   0          116.645    35.867    
1303.2     1061.973   0          116.667    35.871    
1303.4     763.984    0          116.672    35.876    
1303.6     586.998    0          116.697    35.881    
1303.8     560.995    0          116.699    35.885    
1304       502.993    0          116.707    35.89     
1304.2     427.997    0          116.754    35.895    
1304.4     394.998    0          116.773    35.902    
1304.6     378.006    0          116.762    35.908    
1304.8     443.997    0          116.787    35.913    
1305       414.006    0          116.811    35.918    
1305.2     478.001    0          116.82     35.918    
1305.4     488.004    0          116.862    35.923    
1305.6     531.01     0          116.867    35.928    
1305.8     644.003    0          116.869    35.933    
1306       677.994    0          116.878    35.934    
1306.2     610.02     0          116.922    35.938    
1306.4     832.986    0          116.927    35.943    
1306.6     675.007    0          116.93     35.948    
1306.8     753.999    0          116.955    35.95     
1307       746.988    0          116.971    35.953    
1307.2     614        0          116.999    35.958    
1307.4     613.997    0          117.014    35.963    
1307.6     578.011    0          117.014    35.966    
1307.8     704.002    0          117.019    35.968    
1308       730.013    0          117.036    35.973    
1308.2     869.003    0          117.06     35.978    
1308.4     904.987    0          117.079    35.983    
1308.6     763.03     0          117.08     35.987    
1308.8     1094.983   0          117.091    35.992    
1309       906.984    0          117.144    35.997    
1309.2     728.008    0          117.155    36.002    
1309.4     821.993    0          117.151    36.007    
1309.6     750.007    0          117.198    36.011    
1309.8     824.011    0          117.207    36.014    
1310       949.032    0          117.193    36.017    
1310.2     1306.026   0          117.225    36.018    
1310.4     1589.03    0          117.252    36.022    
1310.6     1924.963   0          117.252    36.027    
1310.8     1512.968   0          117.253    36.032    
1311       1153.98    0          117.295    36.036    
1311.2     930.972    0          117.301    36.041    
1311.4     621.995    0          117.327    36.046    
1311.6     566.993    0          117.339    36.05     
1311.8     489.019    0          117.339    36.051    
1312       698.474    0          117.361    36.056    
1312.2     5934.819   0          117.403    36.061    
1312.4     3932.805   0          117.403    36.062    
1312.6     1783.963   0          117.414    36.069    
1312.8     1380.962   0          117.455    36.075    
1313       965.984    0          117.45     36.08     
1313.2     786.006    0          117.471    36.082    
1313.4     853.99     0          117.506    36.085    
1313.6     739.982    0          117.49     36.09     
1313.8     545.997    0          117.502    36.09     
1314       516.989    0          117.542    36.099    
1314.2     400.016    0          117.555    36.1      
1314.4     570.992    0          117.555    36.104    
1314.6     479.991    0          117.598    36.109    
1314.8     376.005    0          117.598    36.114    
1315       430.994    2          117.611    36.119    
1315.2     366.997    0          117.636    36.123    
1315.4     329.013    0          117.662    36.124    
1315.6     472.004    0          117.667    36.129    
1315.8     520.013    0          117.691    36.131    
1316       662.993    0          117.705    36.134    
1316.2     583.999    0          117.706    36.135    
1316.4     574.993    0          117.726    36.139    
1316.6     492.998    0          117.748    36.142    
1316.8     476.008    0          117.761    36.147    
1317       559.003    0          117.804    36.148    
1317.2     591.009    0          117.793    36.152    
1317.4     689.992    0          117.817    36.157    
1317.6     605.001    0          117.835    36.162    
1317.8     617.001    0          117.847    36.17     
1318       630.994    0          117.857    36.175    
1318.2     564.99     0          117.893    36.18     
1318.4     459.004    0          117.882    36.185    
1318.6     503.994    0          117.922    36.19     
1318.8     442.016    0          117.932    36.198    
1319       614.99     0          117.944    36.199    
1319.2     503.005    0          117.977    36.204    
1319.4     559        0          117.987    36.207    
1319.6     557.998    0          117.969    36.209    
1319.8     536.011    0          118.015    36.214    
1320       659.997    0          118.041    36.215    
1320.2     621.993    0          118.051    36.215    
1320.4     539.997    0          118.051    36.215    
1320.6     509.035    0          118.073    36.215    
1320.8     893.438    0          118.092    36.215    
1321       5691.826   0          118.101    36.215    
1321.2     3789.896   0          118.126    36.215    
1321.4     2647.925   0          118.15     36.216    
1321.6     1827.954   0          118.135    36.221    
1321.8     1322.966   0          118.181    36.226    
1322       948.978    0          118.193    36.23     
1322.2     703.99     0          118.189    36.235    
1322.4     596.008    0          118.231    36.24     
1322.6     681.991    0          118.243    36.249    
1322.8     586.991    0          118.245    36.253    
1323       491.008    0          118.275    36.258    
1323.2     578.005    0          118.308    36.262    
1323.4     628.998    0          118.309    36.271    
1323.6     611.993    0          118.325    36.276    
1323.8     531.004    0          118.35     36.281    
1324       578.018    0          118.332    36.285    
1324.2     777        0          118.364    36.293    
1324.4     779.997    0          118.397    36.299    
1324.6     745.986    0          118.386    36.304    
1324.8     591.011    0          118.407    36.308    
1325       715.01     2          118.439    36.313    
1325.2     821.997    0          118.427    36.318    
1325.4     788.986    0          118.469    36.323    
1325.6     635.018    0          118.483    36.324    
1325.8     831.998    0          118.484    36.324    
1326       815.005    0          118.518    36.328    
1326.2     864.999    0          118.526    36.329    
1326.4     858.991    0          118.534    36.332    
1326.6     756.995    0          118.569    36.335    
1326.8     697.995    0          118.569    36.34     
1327       646.003    0          118.598    36.344    
1327.2     680.997    0          118.612    36.349    
1327.4     645.004    0          118.612    36.352    
1327.6     686.01     0          118.639    36.354    
1327.8     790.001    0          118.656    36.359    
1328       802        0          118.668    36.364    
1328.2     798.005    0          118.694    36.365    
1328.4     848.003    0          118.72     36.373    
1328.6     877.025    0          118.722    36.378    
1328.8     1149       0          118.749    36.383    
1329       1147.996   0          118.753    36.388    
1329.2     1103.984   0          118.759    36.393    
1329.4     932.016    0          118.8      36.397    
