~Version
 VERS              .         2.0                           : CWLS LOG ASCII STANDARD - VERSION 2.0
 WRAP              .         NO                            : ONE LINE PER DEPTH STEP
 DLM               .         SPACE                         : DELIMITING CHARACTER(SPACE TAB OR COMMA)
~Well Information
#_______________________________________________________________________________
#
#PARAMETER_NAME    .UNIT     VALUE                         : DESCRIPTION
#_______________________________________________________________________________
STRT               .M        10.2                          : First reference value
STOP               .M        2753.6                        : Last reference value
STEP               .M        0.2                           : Step increment
NULL               .         -9999                         : Missing value
COMP               .                                       : Company
WELL               .         616                           : Well name
FLD                .                                       : Field
LOC                .                                       : Location
CNTY               .                                       : County
STAT               .                                       : State
CTRY               .                                       : Country
SRVC               .                                       : Service Company
DATE               .                                       : Date
API                .                                       : API number
PROJECT_UPGRADE_TIME .         2021-03-18T21_24_50           : 
group              .         Good                          : 
~Parameter Information Block
#_______________________________________________________________________________
#
#PARAMETER_NAME    .UNIT     VALUE                         : DESCRIPTION
#_______________________________________________________________________________
SET                .         D7028_D                       : 
OTHER              .         Kedr.exe версия 2.1.2.32      : 
OTHER_10           .         TM.GRD = 0.00404*TM$.UE + 0.07: 
OTHER_11           .         MN.ATM = (6.33279e-006*TM.GRD + 0.02401)*(MN$.UE + 2.72*TM.GRD + -2018): 
OTHER_12           .         GK.MKR/H = GK$.UE / 43.5489 + 0: 
OTHER_13           .         RES.SM = 0.00476*CRES.UE - 1.51709: 
OTHER_14           .         PL.GSM3 = 0 + 0 * (PL.UE / 1) +  0 * (PL.UE / 1)^2: 
OTHER_15           .         Постоянная времени ГГП = 6 сек: 
OTHER_16           .         Постоянная времени ГК = 6 сек : 
OTHER_2            .         KedrData.dll версия 3.2.2.14  : 
OTHER_3            .         LasInf.dll версия 3.2.0.13    : 
OTHER_4            .         Драйвер версия 1.2.0.5        : 
OTHER_5            .         Прибор_ КСА-M1                : 
OTHER_6            .         Номер прибора_ 155+р204       : 
OTHER_7            .         Режим_ КСА-М1 + ГГП + Резистивиметр: 
OTHER_8            .         Форма_ 223\2                  : 
OTHER_9            .         Тарировки_                    : 
PROJECT_UPGRADE_TIME .         2021-03-18T21_24_50           : 
TLFamily_CRES      .                                       : 
TLFamily_DEPT      .         Measured Depth                : 
TLFamily_GK        .         Gamma Ray                     : 
TLFamily_GK$       .                                       : 
TLFamily_LM        .         Casing Collar locator         : 
TLFamily_METKA     .                                       : 
TLFamily_MN        .                                       : 
TLFamily_MN$       .                                       : 
TLFamily_PL        .                                       : 
TLFamily_PL_2      .                                       : 
TLFamily_RCOR      .                                       : 
TLFamily_RES       .         Mud Resistivity               : 
TLFamily_SPID      .         Spontaneous Potential         : 
TLFamily_STD       .                                       : 
TLFamily_TIME      .         Time                          : 
TLFamily_TM        .         Temperature                   : 
TLFamily_TM$       .         Temperature                   : 
TLFamily_VGD       .         Gas Volume                    : 
group              .         prim                          : 
~Curve Information
#_______________________________________________________________________________
#
#LOGNAME           .UNIT     LOG_ID                        : DESCRIPTION
#_______________________________________________________________________________
DEPT               .M                                      : 1 Глубина, м -    0.0 см 
CRES               .UE                                     : 9 Проводимость, усл.ед. -  222.0 см 
GK                 .MKR/H                                  : 16 Гамма-активность, мкр./ч -  106.0 см 
GK$                .UE                                     : 13 Гамма-активность, усл.ед. -  106.0 см 
LM                 .                                       : 11 Локатор муфт,  -   16.0 см 
METKA              .                                       : 3 Метки,  -    0.0 см 
MN                 .ATM                                    : 15 Давление, атм. -  160.0 см 
MN$                .UE                                     : 7 Давление, усл.ед. -  160.0 см 
PL                 .UE                                     : 10 Плотность, усл.ед. -  270.0 см 
PL_2               .GSM3                                   : 18 Плотность, г./см3 -  270.0 см 
RCOR               .CM/KM                                  : 5 Коррекция по ролику, см/км -    0.0 см 
RES                .SM                                     : 17 Проводимость,  -  222.0 см 
SPID               .M/H                                    : 2 Скорость, м/час -    0.0 см 
STD                .                                       : 12 Приток,  -  170.0 см 
TIME               .S                                      : 4 Время, сек -    0.0 см 
TM                 .GRD                                    : 14 Температура, °C -  180.0 см 
TM$                .UE                                     : 6 Температура, усл.ед. -  180.0 см 
VGD                .                                       : 8 Влагомер,  -  170.0 см 
~Ascii
# ...
379.2      817        4.25       187        2298       0          35.954     3456       14         0          0          2.3731     -1879      3724       23443.12   19.022     4691       6574      
379.4      819        4.24       182        2163       0          35.981     3457       15         0          0          2.3811     -1819      3726       23442.72   19.027     4692       6573      
379.6      819        4.26       182        1260       0          35.997     3458       14         0          0          2.3814     -1790      3729       23442.34   19.031     4693       6573      
379.8      819        4.28       182        1269       1          36.008     3458       14         0          0          2.3798     -1846      3728       23441.96   19.037     4695       6574      
380        815        4.3        182        968        0          36.035     3460       14         0          0          2.3611     -1860      3729       23441.4    19.045     4697       6578      
380.2      810        4.33       182        1355       0          36.047     3460       15         0          0          2.3373     -1860      3731       23441      19.052     4699       6577      
380.4      812        4.37       182        1626       0          36.063     3461       14         0          0          2.3488     -1833      3731       23440.62   19.058     4700       6585      
380.6      819        4.42       183        2025       0          36.088     3462       15         0          0          2.3814     -1790      3733       23440.22   19.065     4702       6584      
380.8      819        4.47       183        1954       0          36.114     3463       14         0          0          2.3814     -1827      3731       23439.82   19.071     4703       6578      
381        819        4.56       183        1628       0          36.14      3464       15         0          0          2.3814     -1860      3734       23439.43   19.077     4705       6577      
381.2      819        4.65       183        1666       0          36.146     3464       15         0          0          2.3814     -1860      3735       23439.05   19.078     4705       6577      
381.4      819        4.76       183        1816       0          36.166     3465       15         0          0          2.3814     -1811      3736       23438.64   19.085     4707       6577      
381.6      819        4.9        188        2102       0          36.195     3466       15         0          0          2.3814     -1840      3737       23438.26   19.09      4708       6581      
381.8      819        5.04       217        2227       0          36.204     3466       14         0          0          2.3814     -1860      3740       23437.86   19.096     4709       6579      
382        818        5.05       217        1836       0          36.229     3467       14         0          0          2.378      -1800      3739       23437.47   19.1       4710       6578      
382.2      817        5.07       217        2429       0          36.255     3468       14         0          0          2.3728     -1790      3742       23437.07   19.104     4711       6576      
382.4      818        5.09       217        1645       0          36.269     3469       15         0          0          2.3766     -1790      3744       23436.67   19.108     4712       6576      
382.6      818        5.12       217        1359       0          36.283     3470       14         0          0          2.3753     -1860      3743       23436.27   19.113     4714       6575      
382.8      817        5.15       217        1816       0          36.308     3471       14         0          0          2.3702     -1860      3745       23435.87   19.117     4715       6577      
383        814        5.19       224        1534       0          36.318     3471       14         0          0          2.3592     -1845      3747       23435.47   19.123     4716       6585      
383.2      811        5.2        230        1777       0          36.336     3472       15         0          0          2.3456     -1790      3747       23435.07   19.13      4718       6578      
383.4      812        5.18       230        1983       0          36.363     3473       14         0          0          2.3457     -1790      3749       23434.69   19.134     4719       6577      
383.6      813        5.15       230        1594       0          36.388     3474       14         0          0          2.3508     -1815      3750       23434.29   19.141     4721       6576      
383.8      813        5.12       230        1543       0          36.392     3474       14         0          0          2.3528     -1831      3752       23433.9    19.146     4722       6576      
384        812        5.08       230        1702       0          36.417     3475       15         0          0          2.3494     -1790      3753       23433.49   19.15      4723       6579      
384.2      812        5.03       230        1676       0          36.419     3475       14         0          0          2.348      -1833      3755       23433.09   19.159     4725       6578      
384.4      811        4.97       215        1412       0          36.446     3476       14         0          0          2.3443     -1815      3757       23432.7    19.168     4727       6576      
384.6      811        4.98       215        1456       0          36.472     3477       14         0          0          2.3433     -1790      3757       23432.32   19.176     4729       6576      
384.8      810        4.99       215        1858       0          36.498     3478       15         0          0          2.3388     -1844      3758       23431.91   19.181     4730       6577      
385        810        5          215        1958       0          36.516     3479       14         0          0          2.3385     -1801      3761       23431.5    19.188     4732       6577      
385.2      810        5.02       215        1601       0          36.525     3479       14         0          0          2.3385     -1790      3761       23431.1    19.194     4734       6576      
385.4      810        5.04       216        1663       0          36.551     3480       14         0          0          2.3385     -1856      3764       23430.72   19.202     4736       6585      
385.6      809        5.06       218        1729       0          36.566     3481       14         0          0          2.3325     -1860      3766       23430.32   19.211     4738       6592      
385.8      804        5.07       218        1570       0          36.581     3482       14         0          0          2.3076     -1856      3766       23429.94   19.218     4740       6591      
386        801        5.09       218        1731       0          36.607     3483       14         0          0          2.2948     -1794      3767       23429.56   19.222     4741       6592      
386.2      798        5.11       218        1487       0          36.631     3484       14         0          0          2.2814     -1860      3768       23429.14   19.226     4742       6591      
386.4      798        5.13       218        1458       0          36.64      3484       14         0          0          2.2814     -1860      3769       23428.76   19.233     4743       6591      
386.6      798        5.16       218        1349       0          36.661     3485       14         0          0          2.2814     -1860      3771       23428.35   19.239     4745       6590      
386.8      798        5.2        225        1237       0          36.688     3486       14         0          0          2.2814     -1860      3772       23427.96   19.243     4746       6590      
387        798        5.21       227        1401       0          36.713     3487       14         0          0          2.2814     -1832      3774       23427.57   19.251     4748       6590      
387.2      798        5.21       227        1812       0          36.714     3487       14         0          0          2.2814     -1790      3775       23427.18   19.256     4749       6591      
