~Version
 VERS              .         2.0                           : CWLS LOG ASCII STANDARD - VERSION 2.0
 WRAP              .         NO                            : ONE LINE PER DEPTH STEP
 DLM               .         SPACE                         : DELIMITING CHARACTER(SPACE TAB OR COMMA)
~Well Information
#_______________________________________________________________________________
#
#PARAMETER_NAME    .UNIT     VALUE                         : DESCRIPTION
#_______________________________________________________________________________
STRT               .M        2338.9                        : First reference value
STOP               .M        2799.2                        : Last reference value
STEP               .M        0.1                           : Step increment
NULL               .         -9999                         : Missing value
COMP               .                                       : Company
WELL               .         616                           : Well name
FLD                .                                       : Field
LOC                .                                       : Location
CNTY               .                                       : County
STAT               .                                       : State
CTRY               .                                       : Country
SRVC               .                                       : Service Company
DATE               .                                       : Date
API                .                                       : API number
PROJECT_UPGRADE_TIME .         2021-03-18T21_24_50           : 
group              .         Good                          : 
~Parameter Information Block
#_______________________________________________________________________________
#
#PARAMETER_NAME    .UNIT     VALUE                         : DESCRIPTION
#_______________________________________________________________________________
SET                .         D2662_D                       : 
OTHER              .         Программное обеспечение станции MONITOR-386EX 25/12/99 15_08_10   BGF V50 26/12/00 07_26_01   3.1_SNGF___BGF_N_092085: 
OTHER_10           .         Тарировки_                    : 
OTHER_11           .         IK1.GRD = IK1$.UE - -5.96     : 
OTHER_12           .         IK5.GRD = IK5$.UE - -0.74     : 
OTHER_13           .         IK4.GRD = IK4$.UE - -0.9      : 
OTHER_14           .         IK3.GRD = IK3$.UE - -1.28     : 
OTHER_15           .         IK2.GRD = IK2$.UE - -3.55     : 
OTHER_2            .         Kedr.exe версия 3.3.2.32      : 
OTHER_3            .         KedrData.dll версия 3.3.2.17  : 
OTHER_4            .         Драйвер версия 2.1.0.4        : 
OTHER_5            .         Мнемоники версия 3.3 S        : 
OTHER_6            .         Прибор_ Викиз                 : 
OTHER_7            .         Номер прибора_ 0006012        : 
OTHER_8            .         Режим_ Викиз                  : 
OTHER_9            .         Форма_ ВИКИЗ                  : 
PROJECT_UPGRADE_TIME .         2021-03-18T21_24_49           : 
TLFamily_DEPT      .         Measured Depth                : 
TLFamily_IK1       .         Extra Shallow Resistivity     : 
TLFamily_IK1$      .         Extra Shallow Resistivity     : 
TLFamily_IK2       .         Shallow Resistivity           : 
TLFamily_IK2$      .         Shallow Resistivity           : 
TLFamily_IK3       .         Medium Resistivity            : 
TLFamily_IK3$      .         Medium Resistivity            : 
TLFamily_IK4       .         Deep Resistivity              : 
TLFamily_IK4$      .         Deep Resistivity              : 
TLFamily_IK5       .         Resistivity 20                : 
TLFamily_IK5$      .         Resistivity 20                : 
TLFamily_METKA     .                                       : 
TLFamily_PS        .         Spontaneous Potential         : 
TLFamily_RCOR      .                                       : 
TLFamily_SPID      .         Spontaneous Potential         : 
TLFamily_TENS      .         Cable Tension                 : 
TLFamily_TIME      .         Time                          : 
group              .         prim                          : 
~Curve Information
#_______________________________________________________________________________
#
#LOGNAME           .UNIT     LOG_ID                        : DESCRIPTION
#_______________________________________________________________________________
DEPT               .M                                      : 1 Глубина, м -    0.0 см 
IK1                .GRD                                    : 13 3Ф0.5, град. -  226.0 см 
IK1$               .UE                                     : 7 3Ф0.5, усл.ед. -  226.0 см 
IK2                .GRD                                    : 17 3Ф0.7, град. -  240.0 см 
IK2$               .UE                                     : 11 3Ф0.7, усл.ед. -  240.0 см 
IK3                .GRD                                    : 16 3Ф1.0, град. -  260.0 см 
IK3$               .UE                                     : 10 3Ф1.0, усл.ед. -  260.0 см 
IK4                .GRD                                    : 15 3Ф1.4, град. -  288.0 см 
IK4$               .UE                                     : 9 3Ф1.4, усл.ед. -  288.0 см 
IK5                .GRD                                    : 14 3Ф2.0, град. -  328.0 см 
IK5$               .UE                                     : 8 3Ф2.0, усл.ед. -  328.0 см 
METKA              .                                       : 3 Метки,  -    0.0 см 
PS                 .mV                                     : 12 ПС, мВ -  372.0 см 
RCOR               .CM/KM                                  : 5 Коррекция по ролику, см/км -    0.0 см 
SPID               .M/H                                    : 2 Скорость, м/час -    0.0 см 
TENS               .T                                      : 6 Натяжение кабеля, т -    0.0 см 
TIME               .S                                      : 4 Время, сек -    0.0 см 
~Ascii
# ...
2584       14.99      9.03       14.49      10.94      14.32      13.04      13.82      12.92      13.6       12.86      0          315.61     -356       -1752      0          35011.25  
2584.1     14.83      8.87       14.42      10.87      14.26      12.98      13.76      12.86      13.56      12.82      0          315.66     -356       -1758      0          35011.03  
2584.2     14.7       8.74       14.34      10.79      14.19      12.91      13.72      12.82      13.54      12.8       0          315.39     -356       -1765      0          35010.82  
2584.3     14.59      8.63       14.24      10.69      14.16      12.88      13.69      12.79      13.53      12.79      0          315.35     -356       -1773      0          35010.63  
2584.4     14.48      8.52       14.17      10.62      14.13      12.85      13.69      12.79      13.54      12.8       0          315.39     -356       -1772      0          35010.43  
2584.5     14.37      8.41       14.1       10.55      14.12      12.84      13.72      12.82      13.58      12.84      0          315.32     -356       -1767      0          35010.2   
2584.6     14.32      8.36       14.09      10.54      14.15      12.87      13.78      12.88      13.63      12.89      0          315.51     -356       -1761      0          35010.01  
2584.7     14.38      8.42       14.19      10.64      14.27      12.99      13.89      12.99      13.74      13         0          315.74     -356       -1754      0          35009.81  
2584.8     14.68      8.72       14.41      10.86      14.51      13.23      14.1       13.2       13.9       13.16      0          315.91     -356       -1743      0          35009.59  
2584.9     15.08      9.12       14.77      11.22      14.76      13.48      14.29      13.39      14.04      13.3       0          315.48     -356       -1737      0          35009.4   
2585       15.5       9.54       15.08      11.53      14.98      13.7       14.46      13.56      14.18      13.44      0          315.02     -356       -1739      0          35009.19  
2585.1     15.82      9.86       15.27      11.72      15.16      13.88      14.61      13.71      14.31      13.57      0          314.58     -356       -1742      0          35008.98  
2585.2     15.97      10.01      15.36      11.81      15.24      13.96      14.69      13.79      14.42      13.68      0          314.31     -356       -1745      0          35008.79  
2585.3     16.13      10.17      15.46      11.91      15.31      14.03      14.73      13.83      14.49      13.75      0          314.02     -356       -1749      0          35008.58  
2585.4     16.34      10.38      15.57      12.02      15.38      14.1       14.81      13.91      14.55      13.81      0          313.88     -356       -1749      0          35008.39  
2585.5     16.47      10.51      15.64      12.09      15.43      14.15      14.86      13.96      14.61      13.87      0          313.67     -356       -1737      0          35008.17  
2585.6     16.53      10.57      15.73      12.18      15.45      14.17      14.9       14         14.67      13.93      0          313.53     -356       -1725      0          35007.98  
2585.7     16.61      10.65      15.82      12.27      15.51      14.23      14.97      14.07      14.72      13.98      0          313.46     -356       -1724      0          35007.79  
2585.8     16.7       10.74      15.89      12.34      15.62      14.34      15.05      14.15      14.8       14.06      0          313.72     -356       -1744      0          35007.56  
2585.9     16.82      10.86      16.03      12.48      15.73      14.45      15.14      14.24      14.88      14.14      0          313.69     -356       -1765      0          35007.36  
2586       16.97      11.01      16.17      12.62      15.87      14.59      15.27      14.37      14.97      14.23      0          313.75     -356       -1764      0          35007.14  
2586.1     17.19      11.23      16.34      12.79      16.03      14.75      15.41      14.51      15.06      14.32      0          313.52     -356       -1757      0          35006.91  
2586.2     17.31      11.35      16.44      12.89      16.09      14.81      15.46      14.56      15.1       14.36      0          313.14     -356       -1752      0          35006.73  
2586.3     17.27      11.31      16.37      12.82      16.04      14.76      15.43      14.53      15.09      14.35      0          312.58     -356       -1757      0          35006.54  
2586.4     17.02      11.06      16.18      12.63      15.84      14.56      15.3       14.4       15.02      14.28      0          312.1      -356       -1764      0          35006.32  
2586.5     16.71      10.75      15.85      12.3       15.6       14.32      15.11      14.21      14.89      14.15      0          311.18     -356       -1767      0          35006.13  
2586.6     16.24      10.28      15.44      11.89      15.34      14.06      14.92      14.02      14.76      14.02      0          310.27     -356       -1761      0          35005.94  
2586.7     15.57      9.61       15.09      11.54      15.06      13.78      14.74      13.84      14.66      13.92      0          309.88     -356       -1754      0          35005.74  
2586.8     15.2       9.24       14.88      11.33      14.96      13.68      14.68      13.78      14.6       13.86      0          310.06     -356       -1746      0          35005.51  
2586.9     15.17      9.21       14.96      11.41      15.04      13.76      14.73      13.83      14.63      13.89      0          310.51     -356       -1750      0          35005.33  
2587       15.41      9.45       15.12      11.57      15.2       13.92      14.85      13.95      14.68      13.94      0          310.51     -356       -1756      0          35005.12  
2587.1     15.56      9.6        15.18      11.63      15.29      14.01      14.91      14.01      14.75      14.01      0          310.49     -356       -1763      0          35004.89  
2587.2     15.6       9.64       15.12      11.57      15.25      13.97      14.92      14.02      14.78      14.04      0          309.98     -356       -1772      0          35004.7   
2587.3     15.61      9.65       15.03      11.48      15.14      13.86      14.84      13.94      14.77      14.03      0          309.44     -356       -1780      0          35004.5   
2587.4     15.58      9.62       14.9       11.35      14.97      13.69      14.74      13.84      14.7       13.96      0          308.91     -356       -1777      0          35004.29  
2587.5     15.46      9.5        14.75      11.2       14.79      13.51      14.62      13.72      14.64      13.9       0          308.18     -356       -1774      0          35004.08  
2587.6     15.23      9.27       14.58      11.03      14.57      13.29      14.48      13.58      14.56      13.82      0          307.73     -356       -1770      0          35003.89  
2587.7     14.87      8.91       14.37      10.82      14.36      13.08      14.32      13.42      14.49      13.75      0          307.42     -356       -1764      0          35003.68  
2587.8     14.42      8.46       14.14      10.59      14.23      12.95      14.24      13.34      14.47      13.73      0          307.67     -356       -1758      0          35003.47  
2587.9     14.17      8.21       14.08      10.53      14.28      13         14.25      13.35      14.51      13.77      0          308.71     -356       -1751      0          35003.29  
2588       14.33      8.37       14.34      10.79      14.57      13.29      14.44      13.54      14.64      13.9       0          309.66     -356       -1741      0          35003.09  
2588.1     14.91      8.95       14.77      11.22      15.04      13.76      14.72      13.82      14.85      14.11      0          310.69     -356       -1727      0          35002.87  
2588.2     15.51      9.55       15.32      11.77      15.4       14.12      15.01      14.11      15.02      14.28      0          311.17     -356       -1724      0          35002.68  
