~Version
 VERS              .         2.0                           : CWLS LOG ASCII STANDARD - VERSION 2.0
 WRAP              .         NO                            : ONE LINE PER DEPTH STEP
 DLM               .         SPACE                         : DELIMITING CHARACTER(SPACE TAB OR COMMA)
~Well Information
#_______________________________________________________________________________
#
#PARAMETER_NAME    .UNIT     VALUE                         : DESCRIPTION
#_______________________________________________________________________________
STRT               .M        8.21                          : First reference value
STOP               .M        2780.41                       : Last reference value
STEP               .M        0.2                           : Step increment
NULL               .         -9999                         : Missing value
COMP               .                                       : Company
WELL               .         616                           : Well name
FLD                .                                       : Field
LOC                .                                       : Location
CNTY               .                                       : County
STAT               .                                       : State
CTRY               .                                       : Country
SRVC               .                                       : Service Company
DATE               .                                       : Date
API                .                                       : API number
PROJECT_UPGRADE_TIME .         2021-03-18T21_24_50           : 
group              .         Good                          : 
~Parameter Information Block
#_______________________________________________________________________________
#
#PARAMETER_NAME    .UNIT     VALUE                         : DESCRIPTION
#_______________________________________________________________________________
SET                .         ULN_2                         : 
PROJECT_UPGRADE_TIME .         2021-03-18T21_24_50           : 
TLFamily_AK4       .                                       : 
TLFamily_ALFAK     .                                       : 
TLFamily_AMPL      .                                       : 
TLFamily_DEPTH     .         Measured Depth                : 
TLFamily_DK1       .                                       : 
TLFamily_DK2       .                                       : 
TLFamily_DTK       .         Compressional Slowness        : 
TLFamily_QCBL      .                                       : 
TLFamily_T1        .         Travel Time 1                 : 
TLFamily_T2        .         Travel Time 2                 : 
group              .         prim                          : 
~Curve Information
#_______________________________________________________________________________
#
#LOGNAME           .UNIT     LOG_ID                        : DESCRIPTION
#_______________________________________________________________________________
DEPTH              .M                                      : 0 Depth curve 
AK4                .                                       : 2 Амплитуда - Волна по колонне - Канал1 
ALFAK              .дБ/м                                   : 1 Затухание - Волна по колонне 
AMPL               .                                       : 8 Коэффициент усиления ВС 
DK1                .дБ                                     : 3 Кривая ослабления - Волна по колонне - Канал1 
DK2                .дБ                                     : 4 Кривая ослабления - Волна по колонне - Канал2 
DTK                .мкс/м                                  : 5 ДельтаТ - Волна по породе 
QCBL               .                                       : 9 Контакт цемент-колонна 
T1                 .мкс                                    : 6 Время пробега - Волна по породе - Канал1 
T2                 .мкс                                    : 7 Время пробега - Волна по породе - Канал2 
~Ascii
# ...
738.21     6045.549   22.262     1          12.426     23.557     162.259    2          347.716    430.815   
738.41     5820.533   22.34      1          12.743     23.913     164.567    2          348.289    430.573   
738.61     5827.381   22.503     1          12.751     24.035     163.605    2          348.71     430.513   
738.81     6528.698   21.632     1          12.01      23.818     166.666    2          347.337    430.67    
739.01     8029.792   23.553     1          10.349     23.119     170.963    2          345.939    431.421   
739.21     9624.921   24.737     1          8.567      21.896     173.526    2          343.945    430.708   
739.41     10416.96   24.561     1          7.686      19.966     171.521    2          343.369    429.13    
739.61     10477.08   22.345     1          7.636      18.808     166.749    2          343.262    426.637   
739.81     10438.62   20.933     1          7.668      18.134     164.198    2          343.492    425.592   
740.01     10488.66   20.878     1          7.626      18.065     163.27     2          344.073    425.709   
740.21     10540.65   20.611     1          7.584      17.889     164.023    2          344.18     426.192   
740.41     10554.55   20.621     1          7.572      17.883     164.292    2          343.956    426.103   
740.61     10611.38   21.054     1          7.526      18.053     164.374    2          343.737    425.924   
740.81     10693.57   21.26      1          7.46       18.09      165.216    2          343.873    426.481   
741.01     10995.05   21.651     1          7.219      18.044     164.901    2          344.098    426.549   
741.21     11214.87   21.815     1          7.046      17.954     164.955    2          344.254    426.732   
741.41     11378.63   22.031     1          6.919      17.934     164.198    2          344.107    426.206   
741.61     11491.31   22.154     1          6.834      17.91      164.496    2          343.883    426.131   
741.81     11592.69   22.315     1          6.758      17.915     164.529    2          344.343    426.608   
742.01     11665.99   22.206     1          6.702      17.805     165.387    2          344.467    427.161   
742.21     11763.06   22.202     1          6.631      17.732     166.074    2          344.635    427.673   
742.41     11861      22.192     1          6.559      17.655     165.988    2          344.219    427.214   
742.61     12060.91   22.625     1          6.413      17.726     164.913    2          344.196    426.653   
742.81     12106.05   22.64      1          6.381      17.7       164.103    2          344.698    426.75    
743.01     12095.7    22.669     1          6.388      17.723     165.043    2          344.742    427.263   
743.21     12128.42   22.776     1          6.365      17.753     165.936    2          344.775    427.743   
743.41     12244.98   23.102     1          6.282      17.833     166.065    2          344.211    427.244   
743.61     12316.05   23.175     1          6.231      17.819     165.501    2          344.016    426.767   
743.81     12290.72   22.969     1          6.249      17.734     164.958    2          344.474    426.954   
744.01     12234.07   22.78      1          6.289      17.679     165.624    2          344.605    427.417   
744.21     12231.47   22.818     1          6.291      17.7       166.089    2          344.785    427.83    
744.41     12287.12   22.921     1          6.252      17.712     165.841    2          344.327    427.248   
744.61     12332.66   23.116     1          6.22       17.778     165.12     2          344.784    427.344   
744.81     12221.78   23.153     1          6.3        17.876     163.234    2          345.188    426.805   
745.01     12134.22   23.322     1          6.362      18.023     163.996    2          345.258    427.256   
745.21     12093.04   23.188     1          6.391      17.985     164.648    2          344.756    427.08    
745.41     12192.23   23.211     1          6.319      17.925     166.015    2          344.259    427.267   
745.61     12153.5    23.191     1          6.347      17.942     166.751    2          344.071    427.447   
745.81     11996.14   23.347     1          6.46       18.134     166.135    2          344.509    427.577   
746.01     11826.19   23.675     1          6.584      18.422     166.464    2          344.653    427.885   
746.21     11765.45   23.613     1          6.629      18.435     165.027    2          344.736    427.25    
746.41     11757.47   23.651     1          6.634      18.46      166.083    2          344.289    427.331   
746.61     11745.92   23.57      1          6.643      18.428     164.15     2          344.8      426.876   
746.81     11621.98   23.594     1          6.735      18.532     164.182    2          345.283    427.374   
747.01     11567.18   23.93      1          6.776      18.741     163.795    2          345.325    427.223   
747.21     11634.55   24.346     1          6.726      18.899     165.214    2          344.761    427.368   
747.41     11719.17   24.805     1          6.663      19.066     166.324    2          344.293    427.456   
747.61     11715.73   24.916     1          6.665      19.123     165.77     2          344.696    427.581   
747.81     11535.73   24.512     1          6.801      19.057     166.437    2          344.745    427.964   
748.01     11247.71   23.939     1          7.023      18.993     165.328    2          344.724    427.389   
748.21     10652.95   23.041     1          7.506      19.027     164.699    2          344.307    426.658   
748.41     10075.97   22.506     1          7.989      19.242     164.697    2          343.612    425.961   
748.61     9540.514   22.315     1          8.458      19.615     164.569    2          343.639    425.946   
748.81     8541.25    22.607     1          9.512      20.816     164.587    2          344.245    426.677   
749.01     7664.08    24.601     1          10.446     22.746     173.538    2          346.924    428.081   
749.21     6905.436   28.035     1          11.258     25.275     178.149    2          348.885    429.623   
749.41     6794.185   29.402     1          11.404     26.105     178.198    2          350.282    430.928   
749.61     6378.218   27.769     1          11.981     25.865     168.622    2          350.043    431.651   
749.81     5792.931   24.275     1          12.833     25.042     163.942    2          349.899    431.87    
750.01     5993.426   22.22      1          12.682     25.225     166.752    2          347.828    431.205   
750.21     7068.495   23.274     1          11.376     24.446     169.405    2          345.992    430.695   
750.41     8409.289   22.593     1          9.71       22.368     173.942    2          344.237    431.208   
750.61     9442.001   23.471     1          8.555      20.291     171.023    2          344.288    429.8     
750.81     10109.86   23.335     1          7.967      19.634     167.997    2          344.29     428.289   
751.01     10868.5    25.134     1          7.328      19.896     163.464    2          344.181    425.914   
751.21     11401.63   26.285     1          6.906      20.049     164.899    2          344.67     427.12    
751.41     11725.92   25.683     1          6.658      19.5       186.605    2          345.182    438.484   
751.61     11887.4    25.488     1          6.539      19.283     208.354    2          345.689    449.867   
751.81     11961.13   24.768     1          6.485      18.869     228.974    2          345.622    460.11    
752.01     11981.36   24.678     1          6.47       18.809     228.429    2          345.812    460.027   
752.21     12053.93   24.643     1          6.418      18.74      228.199    2          345.965    460.065   
752.41     12126.97   24.394     1          6.366      18.563     227.125    2          345.993    459.556   
752.61     12215.28   24.253     1          6.302      18.429     206.751    2          345.425    448.801   
