~Version
 VERS              .         2.0                           : CWLS LOG ASCII STANDARD - VERSION 2.0
 WRAP              .         NO                            : ONE LINE PER DEPTH STEP
 DLM               .         SPACE                         : DELIMITING CHARACTER(SPACE TAB OR COMMA)
~Well Information
#_______________________________________________________________________________
#
#PARAMETER_NAME    .UNIT     VALUE                         : DESCRIPTION
#_______________________________________________________________________________
STRT               .M        2310.8                        : First reference value
STOP               .M        2792.2                        : Last reference value
STEP               .M        0.2                           : Step increment
NULL               .         -9999                         : Missing value
COMP               .                                       : Company
WELL               .         616                           : Well name
FLD                .                                       : Field
LOC                .                                       : Location
CNTY               .                                       : County
STAT               .                                       : State
CTRY               .                                       : Country
SRVC               .                                       : Service Company
DATE               .                                       : Date
API                .                                       : API number
PROJECT_UPGRADE_TIME .         2021-03-18T21_24_50           : 
group              .         Good                          : 
~Parameter Information Block
#_______________________________________________________________________________
#
#PARAMETER_NAME    .UNIT     VALUE                         : DESCRIPTION
#_______________________________________________________________________________
SET                .         D2660_D                       : 
OTHER              .         Программное обеспечение станции MONITOR-386EX 25/12/99 15_08_10   BGF V50 26/12/00 07_26_01   3.1_SNGF___BGF_N_092085: 
OTHER_10           .         Тарировки_                    : 
OTHER_2            .         Kedr.exe версия 3.3.2.32      : 
OTHER_3            .         KedrData.dll версия 3.3.2.17  : 
OTHER_4            .         Драйвер версия 2.1.0.1        : 
OTHER_5            .         Мнемоники версия 3.3 S        : 
OTHER_6            .         Прибор_ ПС                    : 
OTHER_7            .         Номер прибора_ 348\072        : 
OTHER_8            .         Режим_ ПС                     : 
OTHER_9            .         Форма_ ПС                     : 
PROJECT_UPGRADE_TIME .         2021-03-18T21_24_49           : 
TLFamily_DEPT      .         Measured Depth                : 
TLFamily_METKA     .                                       : 
TLFamily_PS        .         Spontaneous Potential         : 
TLFamily_RCOR      .                                       : 
TLFamily_SPID      .         Spontaneous Potential         : 
TLFamily_TENS      .         Cable Tension                 : 
TLFamily_TIME      .         Time                          : 
group              .         prim                          : 
~Curve Information
#_______________________________________________________________________________
#
#LOGNAME           .UNIT     LOG_ID                        : DESCRIPTION
#_______________________________________________________________________________
DEPT               .M                                      : 1 Глубина, м -    0.0 см 
METKA              .                                       : 3 Метки,  -    0.0 см 
PS                 .mV                                     : 7 ПС, мВ - 1210.0 см 
RCOR               .CM/KM                                  : 5 Коррекция по ролику, см/км -    0.0 см 
SPID               .M/H                                    : 2 Скорость, м/час -    0.0 см 
TENS               .T                                      : 6 Натяжение кабеля, т -    0.0 см 
TIME               .S                                      : 4 Время, сек -    0.0 см 
~Ascii
# ...
2498       0          540.69     -388       -2052      0          30380.32  
2498.2     0          540.32     -388       -2063      0          30379.96  
2498.4     0          540.39     -388       -2106      0          30379.61  
2498.6     0          541.25     -388       -2083      0          30379.26  
2498.8     0          540.36     -388       -2050      0          30378.94  
2499       0          540.8      -388       -2050      0          30378.58  
2499.2     0          540.53     -388       -2051      0          30378.25  
2499.4     0          540.92     -388       -2056      0          30377.9   
2499.6     0          540.69     -388       -2089      0          30377.53  
2499.8     1          540.39     -388       -2109      0          30377.22  
2500       0          539.9      -387       -2105      0          30376.81  
2500.2     0          538.37     -386       -2075      0          30376.46  
2500.4     0          538.68     -386       -2041      0          30376.11  
2500.6     0          538.23     -386       -1988      0          30375.74  
2500.8     0          541.25     -386       -2021      0          30375.42  
2501       0          542.01     -386       -2110      0          30375.07  
2501.2     0          541.85     -386       -2107      0          30374.69  
2501.4     0          542.19     -386       -2095      0          30374.37  
2501.6     0          539.3      -386       -2050      0          30374.02  
2501.8     0          542.18     -386       -2048      0          30373.68  
2502       0          542.41     -386       -2040      0          30373.33  
2502.2     0          542.81     -386       -1987      0          30372.98  
2502.4     0          542.14     -386       -2003      0          30372.63  
2502.6     0          541.81     -386       -2050      0          30372.29  
2502.8     0          542.05     -386       -2052      0          30371.92  
2503       0          542.65     -386       -2066      0          30371.55  
2503.2     0          542.6      -386       -2105      0          30371.23  
2503.4     0          542.7      -386       -2077      0          30370.88  
2503.6     0          543.43     -386       -2041      0          30370.53  
2503.8     0          542.28     -386       -1993      0          30370.19  
2504       0          542.65     -386       -2021      0          30369.83  
2504.2     0          542.47     -386       -2109      0          30369.49  
2504.4     0          542.51     -386       -2105      0          30369.13  
2504.6     0          542.27     -386       -2080      0          30368.79  
2504.8     0          541.44     -386       -1980      0          30368.44  
2505       0          542.84     -386       -1982      0          30368.13  
2505.2     0          543.2      -386       -1999      0          30367.74  
2505.4     0          543.12     -386       -2107      0          30367.39  
2505.6     0          542.56     -386       -2088      0          30367.01  
2505.8     0          543.19     -386       -2056      0          30366.7   
2506       0          543.35     -386       -2091      0          30366.34  
2506.2     0          543.86     -386       -2095      0          30366.01  
2506.4     0          543.46     -386       -2045      0          30365.64  
2506.6     0          543.66     -386       -2019      0          30365.31  
2506.8     0          544.11     -386       -1997      0          30364.96  
2507       0          543.15     -386       -2078      0          30364.63  
2507.2     0          542.6      -386       -2092      0          30364.26  
2507.4     0          544.38     -386       -2050      0          30363.91  
2507.6     0          542.79     -386       -2050      0          30363.59  
2507.8     0          544.56     -386       -2050      0          30363.21  
2508       0          542.29     -386       -2050      0          30362.87  
2508.2     0          542.94     -386       -2051      0          30362.55  
2508.4     0          542.93     -386       -2057      0          30362.2   
2508.6     1          543.15     -386       -2101      0          30361.83  
2508.8     0          543.27     -386       -2095      0          30361.5   
2509       0          543.64     -386       -2055      0          30361.16  
2509.2     0          543.21     -386       -2080      0          30360.81  
2509.4     0          543.46     -386       -2085      0          30360.46  
2509.6     0          543.69     -386       -1980      0          30360.12  
2509.8     1          543.4      -386       -1982      0          30359.77  
2510       0          543.37     -386       -1995      0          30359.41  
2510.2     0          542.88     -385       -2072      0          30359.07  
2510.4     0          543.27     -385       -2092      0          30358.67  
2510.6     0          543.82     -385       -2050      0          30358.33  
2510.8     0          542.33     -385       -2050      0          30358     
2511       0          542.93     -385       -2050      0          30357.66  
2511.2     0          542.45     -385       -2053      0          30357.31  
2511.4     0          542.49     -385       -2070      0          30356.97  
2511.6     0          541.3      -385       -2102      0          30356.59  
2511.8     1          541.47     -385       -2066      0          30356.27  
2512       0          540.71     -385       -2064      0          30355.92  
2512.2     0          540.07     -385       -2099      0          30355.58  
2512.4     0          539.01     -385       -2041      0          30355.23  
2512.6     0          538.27     -385       -1981      0          30354.89  
2512.8     0          537.75     -385       -1988      0          30354.54  
2513       0          539.2      -385       -2030      0          30354.19  
2513.2     0          539.81     -385       -2110      0          30353.83  
2513.4     0          541.48     -385       -2108      0          30353.48  
2513.6     0          541.5      -385       -2096      0          30353.14  
2513.8     0          541.3      -385       -2050      0          30352.82  
2514       0          541.42     -385       -2050      0          30352.46  
2514.2     0          541.54     -385       -2050      0          30352.1   
2514.4     0          540.26     -385       -2053      0          30351.77  
2514.6     0          539.49     -385       -2068      0          30351.4   
2514.8     0          537.61     -385       -2103      0          30351.05  
2515       0          530.16     -385       -2074      0          30350.73  
2515.2     0          524.43     -385       -2049      0          30350.36  
2515.4     0          528.12     -385       -2046      0          30350.04  
2515.6     0          536        -385       -2021      0          30349.69  
2515.8     0          538.72     -385       -2002      0          30349.32  
2516       0          538.09     -385       -2103      0          30348.99  
2516.2     0          538.34     -385       -2109      0          30348.63  
2516.4     0          538.42     -385       -2104      0          30348.27  
2516.6     0          539.38     -385       -2074      0          30347.95  
2516.8     0          540.4      -385       -2039      0          30347.61  
2517       0          539.93     -385       -1987      0          30347.27  
2517.2     0          539.98     -385       -2029      0          30346.91  
2517.4     0          540.3      -385       -2102      0          30346.57  
2517.6     0          541.44     -385       -2059      0          30346.21  
2517.8     0          541.77     -385       -2050      0          30345.87  
2518       0          541.71     -385       -2050      0          30345.53  
2518.2     0          542.43     -385       -2050      0          30345.16  
2518.4     0          542.3      -385       -2050      0          30344.82  
2518.6     0          542.22     -385       -2050      0          30344.47  
