~Version
 VERS              .         2.0                           : CWLS LOG ASCII STANDARD - VERSION 2.0
 WRAP              .         NO                            : ONE LINE PER DEPTH STEP
 DLM               .         SPACE                         : DELIMITING CHARACTER(SPACE TAB OR COMMA)
~Well Information
#_______________________________________________________________________________
#
#PARAMETER_NAME    .UNIT     VALUE                         : DESCRIPTION
#_______________________________________________________________________________
STRT               .M        10.2                          : First reference value
STOP               .M        2753.6                        : Last reference value
STEP               .M        0.2                           : Step increment
NULL               .         -9999                         : Missing value
COMP               .                                       : Company
WELL               .         616                           : Well name
FLD                .                                       : Field
LOC                .                                       : Location
CNTY               .                                       : County
STAT               .                                       : State
CTRY               .                                       : Country
SRVC               .                                       : Service Company
DATE               .                                       : Date
API                .                                       : API number
PROJECT_UPGRADE_TIME .         2021-03-18T21_24_50           : 
group              .         Good                          : 
~Parameter Information Block
#_______________________________________________________________________________
#
#PARAMETER_NAME    .UNIT     VALUE                         : DESCRIPTION
#_______________________________________________________________________________
SET                .         D7028_D                       : 
OTHER              .         Kedr.exe версия 2.1.2.32      : 
OTHER_10           .         TM.GRD = 0.00404*TM$.UE + 0.07: 
OTHER_11           .         MN.ATM = (6.33279e-006*TM.GRD + 0.02401)*(MN$.UE + 2.72*TM.GRD + -2018): 
OTHER_12           .         GK.MKR/H = GK$.UE / 43.5489 + 0: 
OTHER_13           .         RES.SM = 0.00476*CRES.UE - 1.51709: 
OTHER_14           .         PL.GSM3 = 0 + 0 * (PL.UE / 1) +  0 * (PL.UE / 1)^2: 
OTHER_15           .         Постоянная времени ГГП = 6 сек: 
OTHER_16           .         Постоянная времени ГК = 6 сек : 
OTHER_2            .         KedrData.dll версия 3.2.2.14  : 
OTHER_3            .         LasInf.dll версия 3.2.0.13    : 
OTHER_4            .         Драйвер версия 1.2.0.5        : 
OTHER_5            .         Прибор_ КСА-M1                : 
OTHER_6            .         Номер прибора_ 155+р204       : 
OTHER_7            .         Режим_ КСА-М1 + ГГП + Резистивиметр: 
OTHER_8            .         Форма_ 223\2                  : 
OTHER_9            .         Тарировки_                    : 
PROJECT_UPGRADE_TIME .         2021-03-18T21_24_50           : 
TLFamily_CRES      .                                       : 
TLFamily_DEPT      .         Measured Depth                : 
TLFamily_GK        .         Gamma Ray                     : 
TLFamily_GK$       .                                       : 
TLFamily_LM        .         Casing Collar locator         : 
TLFamily_METKA     .                                       : 
TLFamily_MN        .                                       : 
TLFamily_MN$       .                                       : 
TLFamily_PL        .                                       : 
TLFamily_PL_2      .                                       : 
TLFamily_RCOR      .                                       : 
TLFamily_RES       .         Mud Resistivity               : 
TLFamily_SPID      .         Spontaneous Potential         : 
TLFamily_STD       .                                       : 
TLFamily_TIME      .         Time                          : 
TLFamily_TM        .         Temperature                   : 
TLFamily_TM$       .         Temperature                   : 
TLFamily_VGD       .         Gas Volume                    : 
group              .         prim                          : 
~Curve Information
#_______________________________________________________________________________
#
#LOGNAME           .UNIT     LOG_ID                        : DESCRIPTION
#_______________________________________________________________________________
DEPT               .M                                      : 1 Глубина, м -    0.0 см 
CRES               .UE                                     : 9 Проводимость, усл.ед. -  222.0 см 
GK                 .MKR/H                                  : 16 Гамма-активность, мкр./ч -  106.0 см 
GK$                .UE                                     : 13 Гамма-активность, усл.ед. -  106.0 см 
LM                 .                                       : 11 Локатор муфт,  -   16.0 см 
METKA              .                                       : 3 Метки,  -    0.0 см 
MN                 .ATM                                    : 15 Давление, атм. -  160.0 см 
MN$                .UE                                     : 7 Давление, усл.ед. -  160.0 см 
PL                 .UE                                     : 10 Плотность, усл.ед. -  270.0 см 
PL_2               .GSM3                                   : 18 Плотность, г./см3 -  270.0 см 
RCOR               .CM/KM                                  : 5 Коррекция по ролику, см/км -    0.0 см 
RES                .SM                                     : 17 Проводимость,  -  222.0 см 
SPID               .M/H                                    : 2 Скорость, м/час -    0.0 см 
STD                .                                       : 12 Приток,  -  170.0 см 
TIME               .S                                      : 4 Время, сек -    0.0 см 
TM                 .GRD                                    : 14 Температура, °C -  180.0 см 
TM$                .UE                                     : 6 Температура, усл.ед. -  180.0 см 
VGD                .                                       : 8 Влагомер,  -  170.0 см 
~Ascii
# ...
1838.8     1193       7.81       354        555        0          164.246    8621       14         0          0          4.1626     -1860      10334      20523.36   52.856     13066      6631      
1839       1193       7.74       354        664        0          164.27     8622       14         0          0          4.1616     -1860      10335      20522.96   52.86      13067      6632      
1839.2     1193       7.65       354        648        0          164.274    8622       14         0          0          4.1616     -1797      10335      20522.58   52.864     13068      6634      
1839.4     1194       7.53       354        546        0          164.295    8623       14         0          0          4.1654     -1853      10335      20522.18   52.868     13069      6633      
1839.6     1194       7.39       334        548        0          164.321    8624       14         0          0          4.1663     -1860      10336      20521.78   52.876     13071      6634      
1839.8     1193       7.33       320        572        1          164.324    8624       14         0          0          4.1628     -1860      10336      20521.38   52.877     13071      6633      
1840       1194       7.32       320        496        0          164.346    8625       14         0          0          4.1652     -1860      10337      20520.98   52.88      13072      6632      
1840.2     1194       7.32       320        507        0          164.371    8626       14         0          0          4.1663     -1860      10338      20520.36   52.884     13073      6631      
1840.4     1194       7.31       320        527        0          164.396    8627       14         0          0          4.1663     -1860      10340      20519.97   52.889     13074      6631      
1840.6     1194       7.3        320        632        0          164.42     8628       14         0          0          4.1663     -1860      10341      20519.58   52.893     13075      6631      
1840.8     1194       7.29       320        678        0          164.423    8628       14         0          0          4.1663     -1860      10341      20519.18   52.893     13075      6630      
1841       1194       7.28       313        823        0          164.445    8629       14         0          0          4.1663     -1820      10342      20518.79   52.897     13076      6629      
1841.2     1194       7.32       310        971        0          164.471    8630       14         0          0          4.1663     -1831      10342      20518.39   52.901     13077      6631      
1841.4     1194       7.37       310        782        0          164.473    8630       14         0          0          4.1663     -1860      10343      20518.01   52.901     13077      6632      
1841.6     1194       7.43       310        987        0          164.498    8631       14         0          0          4.1663     -1860      10344      20517.63   52.909     13079      6632      
1841.8     1195       7.5        310        1336       0          164.537    8633       14         0          0          4.1704     -1819      10347      20517.22   52.913     13080      6633      
1842       1194       7.59       315        1941       0          164.562    8634       14         0          0          4.1671     -1830      10346      20516.82   52.92      13082      6633      
1842.2     1194       7.67       328        2780       0          164.573    8634       14         0          0          4.1663     -1860      10348      20516.43   52.926     13083      6632      
1842.4     1195       7.71       328        4246       0          164.587    8635       14         0          0          4.1689     -1860      10347      20516.04   52.929     13084      6632      
1842.6     1194       7.75       328        3763       0          164.598    8635       14         0          0          4.1686     -1823      10349      20515.66   52.934     13085      6634      
1842.8     1195       7.8        328        1027       0          164.627    8636       14         0          0          4.169      -1790      10349      20515.26   52.94      13087      6632      
1843       1194       7.86       328        1093       0          164.648    8637       14         0          0          4.1663     -1829      10351      20514.86   52.944     13088      6633      
1843.2     1194       7.93       328        1052       0          164.662    8638       14         0          0          4.1663     -1821      10352      20514.47   52.948     13089      6634      
1843.4     1194       8.03       335        1257       0          164.687    8639       14         0          0          4.1663     -1790      10351      20514.07   52.952     13090      6634      
1843.6     1194       8.1        353        1210       0          164.712    8640       14         0          0          4.1686     -1790      10353      20513.67   52.956     13091      6632      
1843.8     1195       8.1        353        1130       0          164.723    8640       14         0          0          4.169      -1832      10354      20513.27   52.96      13092      6633      
1844       1194       8.1        353        1349       0          164.737    8641       14         0          0          4.1663     -1818      10355      20512.88   52.964     13093      6632      
1844.2     1194       8.1        353        1495       0          164.76     8642       14         0          0          4.1663     -1790      10349      20512.47   52.968     13094      6632      
1844.4     1194       8.1        353        1063       0          164.785    8643       14         0          0          4.1686     -1833      10356      20512.08   52.97      13094      6634      
1844.6     1195       8.1        355        882        0          164.797    8643       14         0          0          4.1711     -1860      10356      20511.67   52.974     13095      6633      
1844.8     1195       8.09       360        798        0          164.811    8644       14         0          0          4.1711     -1860      10358      20511.28   52.978     13096      6631      
1845       1195       8.05       360        696        0          164.837    8645       14         0          0          4.1711     -1814      10358      20510.9    52.982     13097      6632      
1845.2     1195       7.99       360        609        0          164.847    8645       14         0          0          4.1711     -1835      10359      20510.5    52.988     13099      6633      
1845.4     1195       7.93       360        677        0          164.862    8646       14         0          0          4.1711     -1860      10360      20510.12   52.99      13099      6635      
1845.6     1195       7.85       360        755        0          164.887    8647       14         0          0          4.1711     -1813      10359      20509.71   52.995     13100      6634      
1845.8     1195       7.75       352        622        0          164.913    8648       14         0          0          4.1711     -1837      10362      20509.31   53         13102      6632      
1846       1195       7.67       339        594        0          164.937    8649       14         0          0          4.1711     -1860      10363      20508.93   53.002     13102      6633      
1846.2     1195       7.64       339        510        0          164.947    8649       14         0          0          4.1711     -1860      10362      20508.53   53.005     13103      6633      
1846.4     1195       7.61       339        659        0          164.963    8650       14         0          0          4.1711     -1860      10364      20508.13   53.009     13104      6633      
1846.6     1195       7.57       339        789        0          164.988    8651       14         0          0          4.1711     -1860      10365      20507.74   53.013     13105      6633      
1846.8     1195       7.52       339        879        0          164.997    8651       14         0          0          4.1711     -1860      10365      20507.35   53.019     13106      6635      
