~Version
 VERS              .         2.0                           : CWLS LOG ASCII STANDARD - VERSION 2.0
 WRAP              .         NO                            : ONE LINE PER DEPTH STEP
 DLM               .         SPACE                         : DELIMITING CHARACTER(SPACE TAB OR COMMA)
~Well Information
#_______________________________________________________________________________
#
#PARAMETER_NAME    .UNIT     VALUE                         : DESCRIPTION
#_______________________________________________________________________________
STRT               .M        8.21                          : First reference value
STOP               .M        2780.41                       : Last reference value
STEP               .M        0.2                           : Step increment
NULL               .         -9999                         : Missing value
COMP               .                                       : Company
WELL               .         616                           : Well name
FLD                .                                       : Field
LOC                .                                       : Location
CNTY               .                                       : County
STAT               .                                       : State
CTRY               .                                       : Country
SRVC               .                                       : Service Company
DATE               .                                       : Date
API                .                                       : API number
PROJECT_UPGRADE_TIME .         2021-03-18T21_24_50           : 
group              .         Good                          : 
~Parameter Information Block
#_______________________________________________________________________________
#
#PARAMETER_NAME    .UNIT     VALUE                         : DESCRIPTION
#_______________________________________________________________________________
SET                .         ULN_2                         : 
PROJECT_UPGRADE_TIME .         2021-03-18T21_24_50           : 
TLFamily_AK4       .                                       : 
TLFamily_ALFAK     .                                       : 
TLFamily_AMPL      .                                       : 
TLFamily_DEPTH     .         Measured Depth                : 
TLFamily_DK1       .                                       : 
TLFamily_DK2       .                                       : 
TLFamily_DTK       .         Compressional Slowness        : 
TLFamily_QCBL      .                                       : 
TLFamily_T1        .         Travel Time 1                 : 
TLFamily_T2        .         Travel Time 2                 : 
group              .         prim                          : 
~Curve Information
#_______________________________________________________________________________
#
#LOGNAME           .UNIT     LOG_ID                        : DESCRIPTION
#_______________________________________________________________________________
DEPTH              .M                                      : 0 Depth curve 
AK4                .                                       : 2 Амплитуда - Волна по колонне - Канал1 
ALFAK              .дБ/м                                   : 1 Затухание - Волна по колонне 
AMPL               .                                       : 8 Коэффициент усиления ВС 
DK1                .дБ                                     : 3 Кривая ослабления - Волна по колонне - Канал1 
DK2                .дБ                                     : 4 Кривая ослабления - Волна по колонне - Канал2 
DTK                .мкс/м                                  : 5 ДельтаТ - Волна по породе 
QCBL               .                                       : 9 Контакт цемент-колонна 
T1                 .мкс                                    : 6 Время пробега - Волна по породе - Канал1 
T2                 .мкс                                    : 7 Время пробега - Волна по породе - Канал2 
~Ascii
# ...
1293.01    914.854    34.852     1          28.821     46.247     230.968    3          344.056    459.637   
1293.21    878.895    35.862     1          29.171     47.102     238.172    3          344.205    463.291   
1293.41    909.766    35.626     1          28.894     46.707     238.432    3          344.124    463.341   
1293.61    933        33.629     1          28.671     45.486     239.297    3          344.114    463.768   
1293.81    992.079    33.121     1          28.118     44.679     238.819    3          343.998    463.502   
1294.01    1027.223   35.269     1          27.832     45.467     227.142    3          343.83     457.256   
1294.21    1056.615   35.751     1          27.573     45.449     221.873    3          343.053    454.299   
1294.41    1005.633   35.586     1          28.042     45.835     222.741    3          343.038    454.63    
1294.61    943.34     33.68      1          28.57      45.41      234.251    3          343.136    460.723   
1294.81    911.008    33.575     1          28.856     45.643     237.36     3          344.341    463.022   
1295.01    900.858    32.959     1          28.959     45.438     237.199    3          344.352    462.953   
1295.21    850.369    32.569     1          29.472     45.756     236.279    3          344.488    462.628   
1295.41    822.425    32.941     1          29.745     46.216     237.768    3          344.494    463.379   
1295.61    841.223    33.569     1          29.557     46.341     236.882    3          344.156    462.574   
1295.81    895.287    35.083     1          29.011     46.553     224.472    3          344.625    456.383   
1296.01    934.304    32.894     1          28.636     45.083     200.001    3          344.774    444.296   
1296.21    925.557    31.014     1          28.723     44.23      177.632    2          345.154    433.217   
1296.41    930.329    28.823     1          28.679     43.013     178.899    2          344.707    428.032   
1296.61    939.956    30.562     1          28.607     42.349     184.957    2          344.656    427.934   
1296.81    1149.609   30.11      1          27.034     40.55      182.035    2          345.285    427.4     
1297.01    1427.459   30.723     1          25.223     39.123     169.332    2          345.027    426.617   
1297.21    1643.738   28.917     1          23.751     38.209     163.694    2          344.296    426.144   
1297.41    1733.838   31.638     1          23.27      39.089     163.358    2          343.845    425.524   
1297.61    1813.586   32.178     1          22.914     39.003     162.886    2          343.904    425.348   
1297.81    1749.306   33.762     1          23.28      40.161     162.526    2          343.973    425.237   
1298.01    1535.662   30.631     1          24.581     39.896     163.665    2          344.004    425.837   
1298.21    1210.539   29.062     1          26.468     40.999     163.856    2          344.635    426.889   
1298.41    1063.495   27.434     1          27.517     41.234     164.13     2          344.797    433.511   
1298.61    999.627    29.966     1          28.055     43.038     164.93     2          345.184    437.189   
1298.81    955.44     30.753     1          28.443     43.82      166.785    2          345.175    437.779   
1299.01    934.149    32.04      1          28.633     44.653     180.527    2          345.718    438.781   
1299.21    934.74     33.107     1          28.627     45.181     205.075    2          345.764    447.927   
1299.41    932.448    33.771     1          28.649     45.534     227.381    2          345.762    453.705   
1299.61    916.27     33.417     1          28.802     45.511     215.976    2          345.727    448.055   
1299.81    891.52     31.646     1          29.042     44.864     192.259    2          345.232    435.985   
1300.01    901.954    31.22      1          28.944     44.554     170.465    2          344.765    429.999   
1300.21    920.912    29.071     1          28.766     43.301     169.915    2          344.705    429.664   
1300.41    946.725    26.97      1          28.517     42.002     170.67     2          345.288    430.624   
1300.61    977.958    24.797     1          28.247     40.646     168.722    2          345.75     430.111   
1300.81    941.978    24.35      1          28.538     40.775     167.019    2          345.771    429.281   
1301.01    863.608    22.866     1          28.218     40.973     165.67     2          345.375    428.21    
1301.21    938.555    23.218     1          27.65      42.113     167.552    2          346.809    430.586   
1301.41    1032.135   25.095     1          26.885     43.732     192.587    2          348.178    444.472   
1301.61    1055.188   28.473     1          27.765     45.041     216.813    2          349.965    458.372   
1301.81    875.034    29.936     1          29.28      45.764     237.5      2          350.53     469.281   
1302.01    713.7      33.584     1          29.244     46.222     235.884    2          351.174    469.082   
1302.21    1034.046   34.358     1          28.777     46.865     224.648    2          351.103    462.733   
1302.41    1043.333   33.009     1          28.77      46.176     206.484    2          348.687    451.235   
1302.61    1172.565   29.686     1          29.076     44.656     189.336    2          346.025    440.033   
1302.81    1144.297   28.376     1          27.36      41.844     175.201    2          344.002    431.604   
1303.01    1622.435   28.945     1          24.271     39.04      171.477    2          343.344    429.084   
1303.21    2174.66    28.873     1          21.473     36.19      163.736    2          343.34     425.21    
1303.41    2683.408   28.577     1          19.574     33.863     162.623    2          343.354    424.666   
1303.61    3189.203   28.529     1          18.047     32.311     160.388    2          343.774    423.969   
1303.81    3644.365   28.41      1          16.854     31.058     160.599    2          343.818    424.119   
1304.01    3870.224   25.962     1          16.295     29.275     161.82     2          343.79     424.701   
1304.21    4162.262   23.929     1          15.681     27.645     160.68     2          344.42     424.761   
1304.41    4502.802   23.524     1          15.03      26.792     159.192    2          345.055    424.652   
1304.61    4698.756   25.582     1          14.617     27.408     159.119    2          345.054    424.615   
1304.81    4741.736   26.173     1          14.537     27.623     160.886    2          344.629    425.073   
1305.01    4774.545   23.653     1          14.48      26.306     162.05     2          344.044    425.07    
1305.21    5076.293   22.614     1          13.944     25.251     160.709    2          344.26     424.615   
1305.41    5094.618   23.803     1          13.912     25.814     159.624    2          344.34     424.153   
1305.61    4637.074   26.131     1          14.82      27.886     158.659    2          344.811    424.146   
1305.81    3639.522   25.46      1          17.194     29.924     159.585    2          344.786    424.669   
1306.01    2727.581   23.786     1          19.663     31.556     162.11     2          344.568    425.713   
1306.21    2111.747   22.605     1          21.579     32.881     162.614    2          344.182    425.575   
1306.41    1949.041   22.761     1          22.252     33.632     161.696    2          344.079    424.928   
1306.61    2018.255   21.318     1          21.974     32.633     159.552    2          344.002    423.779   
1306.81    2319.995   22.386     1          20.875     32.169     160.999    2          343.453    423.953   
1307.01    2922.524   23.207     1          18.92      32.545     159.874    2          343.976    423.914   
1307.21    3090.275   24.743     1          18.332     32.725     159.854    2          343.977    423.905   
1307.41    3252.814   24.35      1          17.872     31.968     159.279    2          344.367    424.008   
