~Version
 VERS              .         2.0                           : CWLS LOG ASCII STANDARD - VERSION 2.0
 WRAP              .         NO                            : ONE LINE PER DEPTH STEP
 DLM               .         SPACE                         : DELIMITING CHARACTER(SPACE TAB OR COMMA)
~Well Information
#_______________________________________________________________________________
#
#PARAMETER_NAME    .UNIT     VALUE                         : DESCRIPTION
#_______________________________________________________________________________
STRT               .M        2668.8                        : First reference value
STOP               .M        2773                          : Last reference value
STEP               .M        0.1999999                     : Step increment
NULL               .         -9999                         : Missing value
COMP               .                                       : Company
WELL               .         616                           : Well name
FLD                .                                       : Field
LOC                .                                       : Location
CNTY               .                                       : County
STAT               .                                       : State
CTRY               .                                       : Country
SRVC               .                                       : Service Company
DATE               .                                       : Date
API                .                                       : API number
PROJECT_UPGRADE_TIME .         2021-03-18T21_24_50           : 
group              .         Good                          : 
~Parameter Information Block
#_______________________________________________________________________________
#
#PARAMETER_NAME    .UNIT     VALUE                         : DESCRIPTION
#_______________________________________________________________________________
SET                .         D0403_D                       : 
OTHER              .         Прибор_ АКП4_90               : 
OTHER_2            .         Номер прибора_ 56             : 
OTHER_3            .         Режим_ АКП4_90 - все каналы   : 
OTHER_4            .         Форма_ Г-1                    : 
OTHER_5            .         Тарировки_                    : 
OTHER_6            .         TM.GRD = 0.00379*TM$.UE + 7.11: 
OTHER_7            .         MN.ATM = (8e-006*TM.GRD + 0.02)*(MN$.UE + -8*TM.GRD + -1800): 
OTHER_8            .         GK.MKR/H = GK$.UE / 57.17 + 0 : 
PROJECT_UPGRADE_TIME .         2021-03-18T21_24_49           : 
TLFamily_DEPT      .         Measured Depth                : 
TLFamily_GK        .         Gamma Ray                     : 
TLFamily_GK$       .                                       : 
TLFamily_LM        .         Casing Collar locator         : 
TLFamily_METKA     .                                       : 
TLFamily_METKA_1   .                                       : 
TLFamily_MN        .                                       : 
TLFamily_MN$       .                                       : 
TLFamily_RCOR      .                                       : 
TLFamily_SPID      .         Spontaneous Potential         : 
TLFamily_TIME      .         Time                          : 
TLFamily_TM        .         Temperature                   : 
TLFamily_TM$       .         Temperature                   : 
group              .         second                        : 
~Curve Information
#_______________________________________________________________________________
#
#LOGNAME           .UNIT     LOG_ID                        : DESCRIPTION
#_______________________________________________________________________________
DEPT               .M                                      : 1 Глубина, м -    0.0 см 
GK                 .MKR/H                                  : 12 Гамма-активность, мкр./ч -   65.0 см 
GK$                .UE                                     : 9 Гамма-активность, усл.ед. -   65.0 см 
LM                 .                                       : 8 Локатор муфт,  -   30.0 см 
METKA              .                                       : 3 Метки,  -    0.0 см 
METKA_1            .                                       : 13 Маркеры - 65 см 
MN                 .ATM                                    : 11 Давление, атм. -  140.0 см 
MN$                .UE                                     : 7 Давление, усл.ед. -  140.0 см 
RCOR               .CM/KM                                  : 5 Коррекция по ролику, см/км -    0.0 см 
SPID               .M/H                                    : 2 Скорость, м/час -    0.0 см 
TIME               .S                                      : 4 Время, сек -    0.0 см 
TM                 .GRD                                    : 10 Температура, °C -  145.0 см 
TM$                .UE                                     : 6 Температура, усл.ед. -  145.0 см 
~Ascii
# ...
2680       6.58       372        442        0          0          258.096    14955      0          -320       2699.3     83.281     20098     
2680.2     6.71       366        588        0          0          258.13     14957      0          -260       2696.98    83.285     20099     
2680.4     6.83       384        413        0          0          258.137    14957      0          -290       2694.47    83.289     20100     
2680.6     7.06       372        449        0          0          258.198    14960      0          -260       2691.97    83.289     20100     
2680.8     7.41       424        422        0          0          258.177    14959      0          -320       2689.52    83.297     20102     
2681       7.27       435        561        0          0          258.211    14961      0          -320       2687.14    83.304     20104     
2681.2     7.19       411        520        0          0          258.238    14962      0          -280       2684.76    83.316     20107     
2681.4     7.24       407        451        0          0          258.258    14963      0          -320       2682.32    83.318     20108     
2681.6     7.39       404        502        0          0          258.278    14964      0          -300       2679.86    83.331     20111     
2681.8     7.56       415        397        0          0          258.309    14965      0          -320       2677.43    83.338     20113     
2682       7.64       433        556        0          0          258.318    14966      0          -260       2674.99    83.35      20116     
2682.2     7.53       448        466        0          0          258.325    14966      0          -320       2672.57    83.36      20119     
2682.4     7.48       423        411        0          0          258.359    14968      0          -280       2670.1     83.365     20120     
2682.6     7.57       422        506        0          0          258.386    14969      0          -320       2667.65    83.369     20121     
2682.8     7.47       455        559        0          0          258.379    14969      0          -320       2665.33    83.376     20123     
2683       7.31       422        580        0          0          258.413    14971      0          -280       2662.88    83.383     20125     
2683.2     7.41       399        460        0          0          258.433    14972      0          -280       2660.44    83.395     20128     
2683.4     7.59       426        449        0          0          258.439    14972      0          -305       2658.1     83.399     20129     
2683.6     7.62       445        487        0          0          258.444    14972      0          -300       2655.58    83.409     20132     
2683.8     7.53       435        539        0          0          258.459    14973      0          -300       2653.17    83.414     20133     
2684       7.46       433        443        0          0          258.479    14974      0          -260       2650.74    83.418     20134     
2684.2     7.45       417        502        0          0          258.52     14976      0          -260       2648.35    83.424     20135     
2684.4     7.57       413        574        0          0          258.554    14978      0          -300       2645.9     83.429     20137     
2684.6     7.77       441        445        0          0          258.567    14978      0          -320       2643.46    83.437     20139     
2684.8     7.74       456        422        0          0          258.575    14979      0          -320       2641.05    83.446     20141     
2685       7.58       440        501        0          0          258.614    14981      0          -260       2638.71    83.456     20144     
2685.2     7.47       440        484        0          0          258.621    14981      0          -320       2636.26    83.471     20148     
2685.4     7.32       418        591        0          0          258.641    14982      0          -280       2633.81    83.475     20149     
2685.6     7.36       408        2430       0          0          258.661    14983      0          -275       2631.44    83.484     20152     
2685.8     7.57       404        4393       0          0          258.681    14984      0          -320       2629.02    83.497     20155     
2686       7.98       438        635        0          0          258.694    14985      0          -280       2626.58    83.509     20158     
2686.2     8.25       482        394        0          0          258.729    14986      0          -280       2624.14    83.519     20161     
2686.4     8.1        462        615        0          0          258.72     14986      0          -320       2621.7     83.524     20162     
2686.6     8.12       480        379        0          0          258.754    14988      0          -280       2619.24    83.532     20164     
2686.8     7.87       459        567        0          0          258.761    14988      0          -320       2616.8     83.539     20166     
2687       7.72       449        478        0          0          258.781    14989      0          -260       2614.36    83.544     20167     
2687.2     7.72       439        418        0          0          258.821    14991      0          -275       2611.96    83.558     20171     
2687.4     7.75       443        401        0          0          258.848    14992      0          -300       2609.6     83.569     20174     
2687.6     7.76       440        463        0          0          258.876    14994      0          -320       2607.15    83.573     20175     
2687.8     7.91       438        508        0          0          258.923    14996      0          -320       2604.71    83.583     20178     
2688       8.1        441        734        0          0          258.936    14997      0          -320       2602.27    83.599     20182     
2688.2     7.91       485        472        0          0          258.949    14997      0          -300       2599.83    83.611     20185     
2688.4     7.52       473        488        0          0          258.942    14997      0          -320       2597.37    83.616     20186     
2688.6     7.47       413        474        0          0          258.977    14999      0          -280       2594.94    83.629     20190     
2688.8     7.75       409        547        0          0          259.002    15000      0          -320       2592.49    83.645     20194     
2689       8.24       416        892        0          0          259.008    15000      0          -260       2590.18    83.645     20194     
2689.2     8.6        466        426        0          0          259.022    15001      0          -260       2587.73    83.654     20196     
2689.4     8.67       505        430        0          0          259.035    15002      0          -300       2585.28    83.66      20198     
2689.6     8.78       479        447        0          0          259.062    15003      0          -320       2582.84    83.672     20201     
2689.8     9.06       491        508        0          0          259.082    15004      0          -320       2580.39    83.677     20202     
2690       9.39       505        494        1          0          259.109    15005      0          -320       2578.08    83.687     20205     
2690.2     9.68       543        417        0          0          259.136    15007      0          -320       2574.74    83.698     20208     
2690.4     9.48       593        465        0          0          259.142    15007      0          -260       2572.29    83.71      20211     
2690.6     8.67       586        551        0          0          259.162    15008      0          -320       2569.72    83.717     20213     
2690.8     7.27       518        468        0          0          259.176    15009      0          -260       2567.28    83.725     20215     
2691       6.27       446        487        0          0          259.203    15010      0          -320       2564.97    83.732     20217     
