~Version
 VERS              .         2.0                           : CWLS LOG ASCII STANDARD - VERSION 2.0
 WRAP              .         NO                            : ONE LINE PER DEPTH STEP
 DLM               .         SPACE                         : DELIMITING CHARACTER(SPACE TAB OR COMMA)
~Well Information
#_______________________________________________________________________________
#
#PARAMETER_NAME    .UNIT     VALUE                         : DESCRIPTION
#_______________________________________________________________________________
STRT               .M        2718.8                        : First reference value
STOP               .M        2774.8                        : Last reference value
STEP               .M        0.2                           : Step increment
NULL               .         -9999                         : Missing value
COMP               .                                       : Company
WELL               .         616                           : Well name
FLD                .                                       : Field
LOC                .                                       : Location
CNTY               .                                       : County
STAT               .                                       : State
CTRY               .                                       : Country
SRVC               .                                       : Service Company
DATE               .                                       : Date
API                .                                       : API number
PROJECT_UPGRADE_TIME .         2021-03-18T21_24_50           : 
group              .         Good                          : 
~Parameter Information Block
#_______________________________________________________________________________
#
#PARAMETER_NAME    .UNIT     VALUE                         : DESCRIPTION
#_______________________________________________________________________________
SET                .         D1746_D                       : 
OTHER              .         Программное обеспечение станции MONITOR-386EX 25/12/99 15_08_10   BGF V52 22/08/01 16_56_30   3.1_SNGF___BGF_N_111239: 
OTHER_10           .         Тарировки_                    : 
OTHER_11           .         <_techsia_sc_> Постоянная времени фильтра ГК  3.0 сек, kf=0.016529: 
OTHER_12           .         <_techsia_sc_> Постоянная времени фильтра ННК  3.0 сек, kf=0.016529: 
OTHER_13           .         GK.MKR/H = GK$.IMP/476        : 
OTHER_14           .         WSAT.PERC = -12.5 + 78.0 * (NKT2$.IMP / NKT1$.IMP) * 1731/33716: 
OTHER_15           .         NKT2.PRIV = NKT2$.IMP/33716   : 
OTHER_16           .         NKT1.PRIV = NKT1$.IMP/1731    : 
OTHER_2            .         Kedr.exe версия 3.3.2.32      : 
OTHER_3            .         KedrData.dll версия 3.3.2.17  : 
OTHER_4            .         Драйвер версия 2.1.1.9        : 
OTHER_5            .         Мнемоники версия 3.2 S        : 
OTHER_6            .         Прибор_ СРК-73Ц-1N            : 
OTHER_7            .         Номер прибора_ 906            : 
OTHER_8            .         Режим_ с локатором            : 
OTHER_9            .         Форма_ 623-1                  : 
PROJECT_UPGRADE_TIME .         2021-03-18T21_24_49           : 
TLFamily_DEPT      .         Measured Depth                : 
TLFamily_GK        .         Gamma Ray                     : 
TLFamily_GK$       .                                       : 
TLFamily_LM        .         Casing Collar locator         : 
TLFamily_METKA     .                                       : 
TLFamily_NKT1      .         Neutron Far                   : 
TLFamily_NKT1$     .         Neutron Far                   : 
TLFamily_NKT2      .         Neutron Near                  : 
TLFamily_NKT2$     .         Neutron Near                  : 
TLFamily_RCOR      .                                       : 
TLFamily_SPID      .         Spontaneous Potential         : 
TLFamily_TENS      .         Cable Tension                 : 
TLFamily_TIME      .         Time                          : 
TLFamily_WSAT      .         Neutron Porosity              : 
group              .         prim                          : 
~Curve Information
#_______________________________________________________________________________
#
#LOGNAME           .UNIT     LOG_ID                        : DESCRIPTION
#_______________________________________________________________________________
DEPT               .M                                      : 1 Глубина, м -    0.0 см 
GK                 .MKR/H                                  : 11 Гамма-активность, мкр./ч -   97.0 см 
GK$                .IMP                                    : 9 Гамма-активность, имп/мин -   97.0 см 
LM                 .                                       : 10 Локатор муфт,  -   27.0 см 
METKA              .                                       : 3 Метки,  -    0.0 см 
NKT1               .PRIV                                   : 14 Большой зонд приведенный,  -  278.0 см 
NKT1$              .IMP                                    : 8 Большой зонд, имп/мин -  278.0 см 
NKT2               .PRIV                                   : 13 Малый зонд приведенный,  -  289.0 см 
NKT2$              .IMP                                    : 7 Малый зонд, имп/мин -  289.0 см 
RCOR               .CM/KM                                  : 5 Коррекция по ролику, см/км -    0.0 см 
SPID               .M/H                                    : 2 Скорость, м/час -    0.0 см 
TENS               .T                                      : 6 Натяжение кабеля, т -    0.0 см 
TIME               .S                                      : 4 Время, сек -    0.0 см 
WSAT               .PERC                                   : 12 Водонасыщенная пористость, % -  284.0 см 
~Ascii
# ...
2729.2     5.17       2462       22         0          1.89       3277.63    1.02       34379.48   -420       -322       0          12799.01   33.53     
2729.4     5.62       2675       22         0          1.97       3401.77    1.04       35052.98   -420       -357       0          12797.01   29.61     
2729.6     5.69       2710       28         0          1.94       3351.83    1.05       35243.05   -420       -378       0          12795.11   33.43     
2729.8     6.26       2978       16         1          1.84       3188.77    1.03       34634.08   -420       -380       0          12793.2    37.15     
2730       6.29       2992       37         0          1.88       3260.33    1.02       34486.08   -419       -380       0          12791.14   36.83     
2730.2     5.86       2788       28         0          1.86       3211.25    1.02       34322.34   -419       -380       0          12789.14   38.01     
2730.4     5.62       2677       18         0          1.94       3358.85    1.03       34716.89   -419       -323       0          12787.19   33.43     
2730.6     5.46       2597       23         0          1.92       3330.21    1.02       34520.66   -419       -360       0          12785.18   32.57     
2730.8     5.43       2586       37         0          1.92       3332.08    1.05       35359.48   -419       -380       0          12783.18   36.75     
2731       5.26       2502       18         0          1.85       3194.54    1.04       35228.81   -419       -380       0          12781.23   39.91     
2731.2     5.31       2528       32         0          1.93       3344.8     1.02       34324.72   -419       -323       0          12779.33   38.86     
2731.4     5.34       2541       9          0          1.93       3333.43    1.03       34867.75   -419       -354       0          12777.37   37.27     
2731.6     5.71       2720       16         0          1.85       3207.92    1.02       34433.01   -419       -326       0          12775.32   36.69     
2731.8     5.66       2694       14         0          1.85       3198.15    1          33723.91   -419       -380       0          12773.32   34.96     
2732       6.47       3078       17         0          1.73       3001.28    1.01       34205.55   -419       -327       0          12771.36   38.28     
2732.2     6.52       3103       28         0          1.85       3196       1.03       34672.79   -419       -380       0          12769.36   35.86     
2732.4     5.97       2840       31         0          1.89       3273.76    1.03       34888.55   -419       -380       0          12767.41   36.66     
2732.6     5.64       2684       12         0          1.86       3220.02    1.03       34680.64   -419       -380       0          12765.46   37.17     
2732.8     5.79       2755       10         0          1.94       3350.57    1.04       35033.98   -419       -330       0          12763.5    36.52     
2733       6.21       2954       12         0          2.17       3755.15    1.02       34507.72   -419       -380       0          12761.54   34.81     
2733.2     7.22       3434       14         0          2.09       3621.61    1.05       35409.22   -419       -328       0          12759.68   34.71     
2733.4     8.2        3904       19         0          1.98       3422.25    1.06       35612.56   -419       -379       0          12757.58   38.3      
2733.6     7.72       3677       12         0          1.84       3185.55    1.04       35069.76   -419       -368       0          12755.63   38.61     
2733.8     7.83       3727       13         0          1.94       3363.59    1.03       34848.84   -419       -377       0          12753.63   37.9      
2734       8.03       3822       10         0          1.9        3285.05    1.01       33918.67   -419       -380       0          12751.63   37.51     
2734.2     7.82       3722       36         0          1.95       3370.56    1          33849.19   -419       -380       0          12749.67   36.66     
2734.4     7.11       3384       25         0          1.89       3276.06    1.01       33888.72   -419       -339       0          12747.72   34.92     
2734.6     7.15       3402       30         0          1.78       3081.13    1.01       34034.67   -419       -380       0          12745.77   40.43     
2734.8     7.97       3794       36         0          1.83       3174.85    0.99       33447.42   -419       -380       0          12743.76   39.73     
2735       8.46       4029       23         0          1.71       2967.38    0.99       33398.31   -419       -378       0          12741.81   35.82     
2735.2     8.42       4006       25         0          1.73       2998.79    1          33582.57   -419       -341       0          12739.81   36.79     
2735.4     8.2        3902       37         0          1.65       2851.01    0.98       33059.91   -419       -377       0          12737.86   33.51     
2735.6     7.77       3697       33         0          1.56       2703.86    0.99       33231.82   -419       -380       0          12735.9    35.61     
2735.8     7.45       3548       42         0          1.62       2810.4     0.98       33115.65   -419       -380       0          12734      36.21     
2736       7.25       3452       16         0          1.72       2978.48    0.96       32429.06   -419       -380       0          12732.05   37.58     
2736.2     6.84       3255       14         0          1.76       3040.94    0.93       31450.38   -419       -263       0          12730.09   35.61     
2736.4     6.55       3118       35         0          1.69       2925.89    0.97       32557.55   -419       -359       0          12728.03   37.97     
2736.6     6.18       2943       33         0          1.65       2857.69    0.98       33030.44   -419       -375       0          12726.03   38.75     
2736.8     6.28       2991       18         0          1.56       2700.53    0.96       32435.47   -419       -380       0          12724.08   37.04     
2737       7.14       3400       14         0          1.64       2833.85    0.96       32272.35   -419       -380       0          12722.12   37.14     
2737.2     7.17       3412       62         0          1.67       2890.59    0.96       32443.19   -419       -359       0          12720.17   36.03     
2737.4     6.88       3277       793        0          1.59       2752.25    0.94       31570.16   -419       -380       0          12718.17   34.83     
2737.6     7.18       3420       1442       0          1.64       2839.32    0.91       30617.43   -419       -380       0          12716.21   34.99     
2737.8     7.7        3666       8          0          1.64       2845.58    0.91       30686.66   -419       -380       0          12714.26   38.74     
2738       7.67       3650       37         0          1.65       2853.14    0.92       31106.11   -419       -374       0          12712.31   39.3      
2738.2     7.78       3706       42         0          1.63       2816.03    0.92       31165.11   -419       -380       0          12710.36   37.67     
2738.4     8.53       4060       32         0          1.7        2934.34    0.94       31772.17   -419       -380       0          12708.4    40.42     
2738.6     8.25       3928       73         0          1.66       2873.67    0.96       32432.95   -419       -324       0          12706.54   36.96     
2738.8     8.29       3945       37         0          1.77       3068.19    0.96       32264.69   -419       -380       0          12704.35   38.63     
2739       8.34       3969       23         0          1.74       3015.01    0.95       32167.57   -419       -328       0          12702.45   35.58     
2739.2     8.24       3924       26         0          1.62       2805.41    0.96       32354.87   -419       -380       0          12700.49   36.27     
2739.4     8.29       3945       17         0          1.7        2934.33    0.94       31693.71   -419       -370       0          12698.49   33.36     
