~Version
 VERS              .         2.0                           : CWLS LOG ASCII STANDARD - VERSION 2.0
 WRAP              .         NO                            : ONE LINE PER DEPTH STEP
 DLM               .         SPACE                         : DELIMITING CHARACTER(SPACE TAB OR COMMA)
~Well Information
#_______________________________________________________________________________
#
#PARAMETER_NAME    .UNIT     VALUE                         : DESCRIPTION
#_______________________________________________________________________________
STRT               .M        2658.8                        : First reference value
STOP               .M        2768.199891                   : Last reference value
STEP               .M        0.1999998                     : Step increment
NULL               .         -9999                         : Missing value
COMP               .                                       : Company
WELL               .         616                           : Well name
FLD                .                                       : Field
LOC                .                                       : Location
CNTY               .                                       : County
STAT               .                                       : State
CTRY               .                                       : Country
SRVC               .                                       : Service Company
DATE               .                                       : Date
API                .                                       : API number
PROJECT_UPGRADE_TIME .         2021-03-18T21_24_50           : 
group              .         Good                          : 
~Parameter Information Block
#_______________________________________________________________________________
#
#PARAMETER_NAME    .UNIT     VALUE                         : DESCRIPTION
#_______________________________________________________________________________
SET                .         D7017_D_2                     : 
NPR                .         155                           : Номер прибора
OTHER              .         Kedr.exe версия 2.1.2.32      : 
OTHER_10           .         TM.GRD = 0.00404*TM$.UE + 0.07: 
OTHER_11           .         MN.ATM = (6.33279e-006*TM.GRD + 0.02401)*(MN$.UE + 2.72*TM.GRD + -2018): 
OTHER_12           .         GK.MKR/H = GK$.UE / 43.5489 + 0: 
OTHER_13           .         RES.SM = 0.00476*CRES.UE - 1.51709: 
OTHER_14           .         PL.GSM3 = 0 + 0 * (PL.UE / 1) +  0 * (PL.UE / 1)^2: 
OTHER_15           .         Постоянная времени ГГП = 6 сек: 
OTHER_16           .         Постоянная времени ГК = 6 сек : 
OTHER_2            .         KedrData.dll версия 3.2.2.14  : 
OTHER_3            .         LasInf.dll версия 3.2.0.13    : 
OTHER_4            .         Драйвер версия 1.2.0.5        : 
OTHER_5            .         Прибор_ КСА-M1                : 
OTHER_6            .         Номер прибора_ 155+р204       : 
OTHER_7            .         Режим_ КСА-М1 + ГГП + Резистивиметр: 
OTHER_8            .         Форма_ 223\2                  : 
OTHER_9            .         Тарировки_                    : 
PR                 .         КСА-Т7 М1                     : Тип прибора
PROJECT_UPGRADE_TIME .         2021-03-18T21_24_50           : 
PRTY               .         ПП-223_2                      : Номер партии
SRV                .         ЦКРС                          : Заказчик
SRVC               .         Лузин  А.Б.                   : Начальник партии
TLFamily_DEPT      .         Measured Depth                : 
TLFamily_GK        .         Gamma Ray                     : 
TLFamily_LM        .         Casing Collar locator         : 
TLFamily_MN        .                                       : 
TLFamily_SPID      .         Spontaneous Potential         : 
TLFamily_TM        .         Temperature                   : 
group              .         second                        : 
~Curve Information
#_______________________________________________________________________________
#
#LOGNAME           .UNIT     LOG_ID                        : DESCRIPTION
#_______________________________________________________________________________
DEPT               .M                                      : Depth curve 
GK                 .мкР/час                                : Гамма каротаж, мкр/час 
LM                 .е.ацп                                  : Локация муфт 
MN                 .атм                                    : Манометрия, атм 
SPID               .м/ч                                    : Скорость записи,м/час 
TM                 .град.С                                 : Термометрия,град.С 
~Ascii
2658.8000488 -9999      -9999      -9999      -9999      -9999     
2659       -9999      62.5       -9999      -260       -9999     
2659.2     -9999      62.5       -9999      -260       -9999     
2659.399999 -9999      62.511     -9999      -260       -9999     
2659.599999 -9999      109.386    -9999      -260       -9999     
2659.799999 -9999      156.273    -9999      -260       -9999     
2659.999999 9.73       250        -9999      -260       -9999     
2660.199999 9.65       250        -9999      -260       -9999     
2660.399998 9.21       250        -9999      -260       -9999     
2660.599998 9.15       250        243.41     -260       -9999     
2660.799998 9.61       250        243.43     -260       49.6      
2660.999998 9.82       249.992    243.43     -260       49.59     
2661.199998 9.71       218.742    243.45     -260       49.58     
2661.399997 9.6        187.492    243.48     -260       49.57     
2661.599997 9.54       156.239    243.51     -260       49.56     
2661.799997 9.63       109.364    243.5      -260       49.53     
2661.999997 9.73       62.5       243.54     -260       49.52     
2662.199997 9.64       62.5       243.57     -260       49.51     
2662.399996 10.34      62.5       243.59     -260       49.5      
2662.599996 10.18      62.506     243.61     -260       49.49     
2662.799996 9.94       85.943     243.63     -260.015   49.47     
2662.999996 9.8        109.381    243.66     -319.985   49.45     
2663.199996 9.87       132.818    243.66     -260       49.44     
2663.399995 10.1       156.258    243.7      -260       49.43     
2663.599995 10.02      187.508    243.7      -260       49.41     
2663.799995 9.51       218.758    243.74     -260       49.39     
2663.999995 9.39       250        243.75     -260       49.39     
2664.199995 9.67       250        243.77     -260       49.37     
2664.399994 9.79       250        243.84     -260       49.35     
2664.599994 10.14      250        243.81     -260       49.34     
2664.799994 10.63      249.977    243.84     -260       49.33     
2664.999994 10.33      156.227    243.86     -260       49.33     
2665.199994 9.4        62.477     243.88     -259.983   49.32     
2665.399993 9.14       -31.25     243.86     -190.017   49.29     
2665.599993 8.64       -31.25     243.93     -260       49.3      
2665.799993 7.58       -31.25     243.93     -260       49.28     
2665.999993 7.06       -31.25     243.95     -260       49.27     
2666.199993 7.8        -31.209    243.97     -260       49.25     
2666.399992 8.43       134.999    244.01     -260       49.24     
2666.599992 7.98       129.006    244.04     -260.015   49.23     
2666.799992 7.58       154        244.01     -319.985   49.21     
2666.999992 8.05       151.991    244.04     -260       49.2      
2667.199992 8.29       117.001    244.07     -260.015   49.2      
2667.399991 8.24       123        244.08     -319.985   49.16     
2667.599991 8.9        123.005    244.12     -260       49.12     
2667.799991 9.05       143.037    244.14     -260       49.13     
2667.999991 8.51       292.964    244.15     -260       49.12     
2668.199991 9.13       144        244.17     -260       49.13     
2668.39999 9.93       144.996    244.2      -260       49.11     
2668.59999 9.69       130.113    244.22     -260       49.09     
2668.79999 8.74       591.736    244.24     -260       49.08     
2668.99999 8.07       3597.238   244.26     -260       49.07     
2669.19999 8.33       4567.656   244.27     -260       49.04     
2669.399989 8.37       7242.293   244.32     -260       49.02     
2669.599989 7.72       275.959    244.3      -260       49.01     
2669.799989 7.77       109.386    244.35     -260       49        
2669.999989 8.04       156.273    244.34     -260       48.98     
2670.199989 8.14       250        244.34     -259.994   48.94     
2670.399988 8.41       250        244.39     -237.006   48.92     
2670.599988 9.09       250        244.41     -260       48.9      
2670.799988 9.38       250        244.41     -260       48.89     
2670.999988 9.21       250        244.44     -260       48.89     
2671.199988 9.02       250        244.48     -260       48.88     
2671.399987 9.12       250        244.5      -260       48.88     
2671.599987 9.59       250        244.5      -260       48.86     
2671.799987 9.17       250        244.51     -260       48.83     
2671.999987 8.09       250        244.54     -260       48.81     
2672.199987 7.13       250        244.57     -260       48.78     
2672.399986 7.18       249.977    244.56     -260       48.77     
2672.599986 6.95       156.227    244.61     -260       48.76     
2672.799986 6.59       62.516     244.63     -260.015   48.74     
2672.999986 6.73       126.999    244.65     -319.985   48.72     
2673.199986 6.39       124.006    244.65     -260       48.7      
2673.399985 5.95       146.998    244.7      -260       48.68     
2673.599985 5.79       137        244.7      -260       48.66     
2673.799985 6.15       138.001    244.74     -260       48.64     
2673.999985 6.72       142.994    244.79     -260       48.63     
2674.199985 6.88       116.992    244.78     -260       48.62     
2674.399984 6.82       85.943     244.79     -260.01    48.6      
2674.599984 6.76       109.381    244.81     -299.99    48.6      
2674.799984 6.47       132.818    244.84     -260       48.59     
2674.999984 6.36       156.25     244.86     -260       48.58     
2675.199984 6.76       156.25     244.86     -260       48.56     
2675.399983 7.11       156.25     244.9      -260       48.56     
2675.599983 7.06       156.25     244.91     -260       48.55     
2675.799983 7.2        156.25     244.94     -260.004   48.54     
2675.999983 7.17       156.25     244.93     -276       48.51     
2676.199983 7          156.25     244.96     -276.996   48.5      
2676.399982 6.98       156.238    245        -260       48.46     
2676.599982 7.3        109.352    245.01     -260       48.46     
2676.799982 7.1        15.651     245.01     -260.015   48.42     
2676.999982 6.92       121.993    245.05     -319.985   48.4      
2677.199982 7.34       94.001     245.07     -260       48.38     
2677.399981 7.38       100.004    245.1      -260       48.36     
2677.599981 6.97       117.998    245.14     -260       48.35     
2677.799981 6.43       109        245.14     -260       48.36     
2677.999981 6.68       110.997    245.14     -260       48.33     
2678.199981 6.76       99.999     245.16     -260       48.31     
2678.39998 6.73       95.001     245.18     -260       48.29     
2678.59998 7.11       99.006     245.18     -260       48.29     
2678.79998 6.99       124.001    245.24     -260       48.28     
2678.99998 7.05       129.999    245.23     -260       48.26     
2679.19998 7.43       123.995    245.25     -260.005   48.25     
2679.399979 7.8        104        245.27     -280       48.24     
2679.599979 8.31       103.016    245.32     -279.995   48.21     
2679.799979 8.26       169.012    245.33     -260       48.19     
2679.999979 7.78       217.199    245.34     -260       48.18     
2680.199979 7.48       1028.822   245.36     -260.01    48.17     
2680.399978 7.93       4373.063   245.36     -299.995   48.15     
2680.599978 8.52       562.886    245.4      -279.995   48.13     
2680.799978 8.88       100.991    245.42     -260       48.11     
2680.999978 9.14       62.5       245.43     -259.994   48.11     
2681.199978 9.14       62.5       245.47     -237.006   48.09     
2681.399977 9.78       62.5       245.47     -260       48.08     
2681.599977 10.09      62.5       245.49     -260       48.07     
2681.799977 9.33       62.508     245.52     -260       48.06     
2681.999977 8.57       93.758     245.54     -259.983   48.05     
2682.199977 8.62       125.008    245.57     -190.017   48.04     
2682.399976 8.57       156.25     245.59     -260       48.04     
2682.599976 8.95       156.25     245.6      -260       48.03     
