~Version
 VERS              .         2.0                           : CWLS LOG ASCII STANDARD - VERSION 2.0
 WRAP              .         NO                            : ONE LINE PER DEPTH STEP
 DLM               .         SPACE                         : DELIMITING CHARACTER(SPACE TAB OR COMMA)
~Well Information
#_______________________________________________________________________________
#
#PARAMETER_NAME    .UNIT     VALUE                         : DESCRIPTION
#_______________________________________________________________________________
STRT               .M        1550                          : First reference value
STOP               .M        2290                          : Last reference value
STEP               .M        10                            : Step increment
NULL               .         -9999                         : Missing value
COMP               .                                       : Company
WELL               .         616                           : Well name
FLD                .                                       : Field
LOC                .                                       : Location
CNTY               .                                       : County
STAT               .                                       : State
CTRY               .                                       : Country
SRVC               .                                       : Service Company
DATE               .                                       : Date
API                .                                       : API number
PROJECT_UPGRADE_TIME .         2021-03-18T21_24_50           : 
group              .         Good                          : 
~Parameter Information Block
#_______________________________________________________________________________
#
#PARAMETER_NAME    .UNIT     VALUE                         : DESCRIPTION
#_______________________________________________________________________________
SET                .         10                            : 
ALT                .м        78.80                         : Альтитуда
COND               .м        0.00                          : Кондуктор
KWRK               .         Контpол                       : Вид работ
KX                 .м        0.00                          : Координата X устья скважины
KY                 .м        0.00                          : Координата Y устья скважины
NPR                .         980119                        : Номер прибора
Operator           .         Емельянова                    : 
PART               .         Палагутин                     : Начальник партии
PROJECT_UPGRADE_TIME .         2021-03-18T21_24_49           : 
PRZK               .         Якименко                      : Представитель заказчика
SCLN               .         18.24                         : Поправка на магн.склон. и сближ.мерид.
TLFamily_AZIM      .         Hole Azimuth                  : 
TLFamily_DEPT      .         Measured Depth                : 
TLFamily_METKA     .                                       : 
TLFamily_ROLL      .                                       : 
TLFamily_SPEE      .         Cable Speed                   : 
TLFamily_ZENI      .                                       : 
TPR                .         ИОН-1                         : Тип скважинного прибора
group              .         second                        : 
~Curve Information
#_______________________________________________________________________________
#
#LOGNAME           .UNIT     LOG_ID                        : DESCRIPTION
#_______________________________________________________________________________
DEPT               .M                                      :  
AZIM               .DEG                                    :  
METKA              .                                       :  
ROLL               .DEG                                    :  
SPEE               .M/H                                    :  
ZENI               .DEG                                    :  
~Ascii
1550.0     -9999      0          229.48     612        30.99     
1560       259.71     0          36.64      612        30.39     
1570       259.26     0          39.87      648        29.9      
1580       259.45     0          39.73      612        29.7      
1590       259.04     0          148        612        29.33     
1600       260.19     0          177        648        28.84     
1610       261.49     0          222.79     648        28.29     
1620       259.56     0          310.84     612        27.65     
1630       260.12     0          218.24     612        27.32     
1640       259.83     0          39.2       612        26.68     
1650       260.14     0          25.08      648        26.27     
1660       261.06     0          39.09      612        26.07     
1670       261.53     0          198.83     648        25.82     
1680       260.82     0          36.82      612        25.05     
1690       260.36     0          224.75     648        24.48     
1700       260.93     0          37.14      648        23.8      
1710       261.49     0          35.78      540        23.35     
1720       261.86     0          39.93      648        22.81     
1730       260.87     0          37.62      576        22.08     
1740       261.28     0          41.72      612        21.13     
1750       260.69     0          142.33     576        20.95     
1760       261.36     0          32.69      612        20.48     
1770       262.02     0          150.15     648        20.3      
1780       263.43     0          221.3      720        20.17     
1790       263.84     0          166.43     720        19.71     
1800       264.24     0          149.88     684        19.57     
1810       -9999      0          70.3       612        19.43     
1820       -9999      0          29.57      684        19.45     
1830       -9999      0          222.14     612        19.43     
1840       -9999      0          38.69      684        19.04     
1850       -9999      0          38.35      684        18.8      
1860       -9999      0          162.85     720        18.6      
1870       -9999      0          74.89      684        18.33     
1880       -9999      0          147.15     648        18.19     
1890       -9999      0          33.13      684        17.9      
1900       -9999      0          37.95      684        17.66     
1910       -9999      0          30.05      612        17.66     
1920       -9999      0          143.66     612        17.71     
1930       -9999      0          45.15      648        17.75     
1940       -9999      0          38.56      648        17.83     
1950       -9999      0          221.4      684        17.77     
1960       -9999      0          153.8      684        17.44     
1970       -9999      0          144.85     684        17.09     
1980       -9999      0          41         684        16.7      
1990       -9999      0          35.95      684        16.68     
2000       -9999      0          204.9      648        16.71     
2010       -9999      0          158.45     612        16.7      
2020       -9999      0          101.45     612        16.66     
2030       -9999      0          37.24      576        16.48     
2040       -9999      0          217.51     684        16.44     
2050       -9999      0          40.6       684        16.41     
2060       -9999      0          38.55      684        16.22     
2070       -9999      0          34.81      684        15.78     
2080       -9999      0          27.29      684        15.23     
2090       -9999      0          230.01     684        14.73     
2100       -9999      0          161.1      684        14.58     
2110       -9999      0          154.74     648        14.38     
2120       -9999      0          36.84      684        14.26     
2130       -9999      0          147.52     648        14.34     
2140       -9999      0          153.6      720        14.4      
2150       -9999      0          224.23     684        14.12     
2160       -9999      0          226.99     648        14.08     
2170       -9999      0          227.34     684        13.65     
2180       -9999      0          219.87     648        12.5      
2190       -9999      0          224.98     684        11.44     
2200       -9999      0          230.34     504        10.02     
2210       -9999      0          230.96     576        8.48      
2220       -9999      0          231.08     576        6.91      
2230       -9999      0          199.75     612        5.85      
2240       -9999      0          21.02      576        5.04      
2250       -9999      0          177.91     396        4.88      
2260       -9999      0          278.37     432        4.69      
2270       -9999      0          210.39     360        4.42      
2280       -9999      0          170.65     144        3.72      
2290       -9999      0          136.94     108        2.95      
