~Version
 VERS              .         2.0                           : CWLS LOG ASCII STANDARD - VERSION 2.0
 WRAP              .         NO                            : ONE LINE PER DEPTH STEP
 DLM               .         SPACE                         : DELIMITING CHARACTER(SPACE TAB OR COMMA)
~Well Information
#_______________________________________________________________________________
#
#PARAMETER_NAME    .UNIT     VALUE                         : DESCRIPTION
#_______________________________________________________________________________
STRT               .M        46                            : First reference value
STOP               .M        2756.6                        : Last reference value
STEP               .M        0.2                           : Step increment
NULL               .         -9999                         : Missing value
COMP               .                                       : Company
WELL               .         616                           : Well name
FLD                .                                       : Field
LOC                .                                       : Location
CNTY               .                                       : County
STAT               .                                       : State
CTRY               .                                       : Country
SRVC               .                                       : Service Company
DATE               .                                       : Date
API                .                                       : API number
PROJECT_UPGRADE_TIME .         2021-03-18T21_24_50           : 
group              .         Good                          : 
~Parameter Information Block
#_______________________________________________________________________________
#
#PARAMETER_NAME    .UNIT     VALUE                         : DESCRIPTION
#_______________________________________________________________________________
SET                .         D4390_D                       : 
OTHER              .         Запись производится в присутствии: 
OTHER_10           .         Максимальная температура      : 
OTHER_100          .         GK.FLT = 0.1*GR.UR/H[-1] + (1-0.1)*GR.UR/H[0]: 
OTHER_11           .         Тип промывочной жидкости      : 
OTHER_12           .         Сопротивление ПЖ (Ом*м) при 20°C: 
OTHER_13           .         Плотность ПЖ(г/см3)           : 
OTHER_14           .         Вязкость ПЖ(с)                : 
OTHER_15           .         Водоотдача ПЖ(см3/30мин)      : 
OTHER_16           .         Уровень ПЖ                    : 
OTHER_17           .         Нефть ПЖ (%)                  : 
OTHER_18           .         Барит ПЖ (%)                  : 
OTHER_19           .         Гематит ПЖ (%)                : 
OTHER_2            .         Заказчик ННСН  ЦДНГ-1         : 
OTHER_20           .         КМЦ ПЖ (%)                    : 
OTHER_21           .         Разгазирование ПЖ (да,нет)    : 
OTHER_22           .         Подъемник                     : 
OTHER_23           .         Лаборатория                   : 
OTHER_24           .         Тип кабеля                    : 
OTHER_25           .         Длина кабеля (м)              : 
OTHER_26           .         Цена последней метки          : 
OTHER_27           .         Цена контрольной метки        : 
OTHER_28           .         Диаметр долота (мм)           : 
OTHER_29           .         Глубина бурения (м)           : 
OTHER_3            .         Площадь                       : 
OTHER_30           .         Искусственный забой (м)       : 
OTHER_31           .         Диаметр колонны (мм)          : 
OTHER_32           .         Толщина колонны (мм)          : 
OTHER_33           .         Башмак колонны (м)            : 
OTHER_34           .         Диаметр НКТ (мм)              : 
OTHER_35           .         Толщина НКТ (мм)              : 
OTHER_36           .         Воронка НКТ (м)               : 
OTHER_37           .         Дата цементожа                : 
OTHER_38           .         Тип, количество(т) и плотность цемента: 
OTHER_39           .         Интервалы перфорации (м)      : 
OTHER_4            .         Категория                     : 
OTHER_40           .         Направление, диаметр (мм)     : 
OTHER_41           .         Направление, глубина (м)      : 
OTHER_42           .         Кондуктор, диаметр (мм)       : 
OTHER_43           .         Кондуктор, глубина (м)        : 
OTHER_44           .         Техническая колонна, диаметр (мм): 
OTHER_45           .         Техническая колонна, глубина (м): 
OTHER_46           .         Эксплуатационная колонна, диаметр (мм): 
OTHER_47           .         Эксплуатационная колонна, глубина (м): 
OTHER_48           .         Программа Кедр-02 версия 3.4  : 
OTHER_49           .         Операционная система Windows NT 5.1 build 2600 Service Pack 2: 
OTHER_5            .         Назначение исследований       : 
OTHER_50           .         Программное обеспечение станции MONITOR-386EX 25/12/99 15_08_10   BGF V54 20/09/05 15_32_17   3.3__BGF_9030071: 
OTHER_51           .         Kedr.exe версия 3.4.2.74      : 
OTHER_52           .         KedrData.dll версия 3.4.2.29  : 
OTHER_53           .         Мнемоники версия 3.18 S       : 
OTHER_54           .         Драйвер версия 2.1.1.4        : 
OTHER_55           .         LasInf.dll 4.3.0.35           : 
OTHER_56           .         Прибор_ КСА-Т4                : 
OTHER_57           .         Номер прибора_ 160            : 
OTHER_58           .         Режим_ КСА-Т4                 : 
OTHER_59           .         Форма_ С.А.Б.                 : 
OTHER_6            .         Альтитуда стола ротора        : 
OTHER_60           .         Тарировки_                    : 
OTHER_61           .         <_techsia_sc_> Дата тарировки температуры 25.05.2010: 
OTHER_62           .         Ручной ввод коэффициентов     : 
OTHER_63           .         TM.DEGC = 0.00402*RTM.E.ACP + -0.994: 
OTHER_64           .         <_techsia_sc_> Дата тарировки давления 25.05.2010: 
OTHER_65           .         Ручной ввод коэффициентов     : 
OTHER_66           .         MN.ATM = (2.27521e-006*TM.DEGC + 0.02078)*(RMN.E.ACP + 6.2*TM.DEGC + -1688): 
OTHER_67           .         <_techsia_sc_> Дата тарировки ГК 25.05.2010: 
OTHER_68           .         Ручной ввод коэффициентов     : 
OTHER_69           .         GR.UR/H = RGR.IMP/MIN / 45.5144: 
OTHER_7            .         Вид исследований 3  6         : 
OTHER_70           .         GK.FLT = 0.1*GR.UR/H[-1] + (1-0.1)*GR.UR/H[0]: 
OTHER_71           .         <_techsia_sc_> Дата тарировки температуры 25.05.2010: 
OTHER_72           .         Ручной ввод коэффициентов     : 
OTHER_73           .         TM.DEGC = 0.00402*RTM.E.ACP + -0.994: 
OTHER_74           .         <_techsia_sc_> Дата тарировки давления 25.05.2010: 
OTHER_75           .         Ручной ввод коэффициентов     : 
OTHER_76           .         MN.ATM = (2.27521e-006*TM.DEGC + 0.02078)*(RMN.E.ACP + 6.2*TM.DEGC + -1688): 
OTHER_77           .         <_techsia_sc_> Дата тарировки ГК 25.05.2010: 
OTHER_78           .         Ручной ввод коэффициентов     : 
OTHER_79           .         GR.UR/H = RGR.IMP/MIN / 45.5144: 
OTHER_8            .         Начало бурения интервала каротажа: 
OTHER_80           .         GK.FLT = 0.1*GR.UR/H[-1] + (1-0.1)*GR.UR/H[0]: 
OTHER_81           .         <_techsia_sc_> Дата тарировки температуры 25.05.2010: 
OTHER_82           .         Ручной ввод коэффициентов     : 
OTHER_83           .         TM.DEGC = 0.00402*RTM.E.ACP + -0.994: 
OTHER_84           .         <_techsia_sc_> Дата тарировки давления 25.05.2010: 
OTHER_85           .         Ручной ввод коэффициентов     : 
OTHER_86           .         MN.ATM = (2.27521e-006*TM.DEGC + 0.02078)*(RMN.E.ACP + 6.2*TM.DEGC + -1688): 
OTHER_87           .         <_techsia_sc_> Дата тарировки ГК 25.05.2010: 
OTHER_88           .         Ручной ввод коэффициентов     : 
OTHER_89           .         GR.UR/H = RGR.IMP/MIN / 45.5144: 
OTHER_9            .         Окончание бурения интервала каротажа: 
OTHER_90           .         GK.FLT = 0.1*GR.UR/H[-1] + (1-0.1)*GR.UR/H[0]: 
OTHER_91           .         <_techsia_sc_> Дата тарировки температуры 25.05.2010: 
OTHER_92           .         Ручной ввод коэффициентов     : 
OTHER_93           .         TM.DEGC = 0.00402*RTM.E.ACP + -0.994: 
OTHER_94           .         <_techsia_sc_> Дата тарировки давления 25.05.2010: 
OTHER_95           .         Ручной ввод коэффициентов     : 
OTHER_96           .         MN.ATM = (2.27521e-006*TM.DEGC + 0.02078)*(RMN.E.ACP + 6.2*TM.DEGC + -1688): 
OTHER_97           .         <_techsia_sc_> Дата тарировки ГК 25.05.2010: 
OTHER_98           .         Ручной ввод коэффициентов     : 
OTHER_99           .         GR.UR/H = RGR.IMP/MIN / 45.5144: 
PROJECT_UPGRADE_TIME .         2021-03-18T21_24_50           : 
TLFamily_CCLC      .                                       : 
TLFamily_DEPT      .         Measured Depth                : 
TLFamily_GK        .         Gamma Ray                     : 
TLFamily_GR        .         Gamma Ray                     : 
TLFamily_METKA     .                                       : 
TLFamily_MN        .                                       : 
TLFamily_RCOR      .                                       : 
TLFamily_RGR       .                                       : 
TLFamily_RMN       .                                       : 
TLFamily_RTEN      .                                       : 
TLFamily_RTM       .                                       : 
TLFamily_SPEE      .         Cable Speed                   : 
TLFamily_TIME      .         Time                          : 
TLFamily_TM        .         Temperature                   : 
group              .         prim                          : 
~Curve Information
#_______________________________________________________________________________
#
#LOGNAME           .UNIT     LOG_ID                        : DESCRIPTION
#_______________________________________________________________________________
DEPT               .M                                      : 1 Глубина, м -    0.0 см 
CCLC               .E.ACP                                  : 9 Локатор муфт,  -   20.0 см 
GK                 .FLT                                    : 14 Гамма-активность фильтрованная, мкр./ч -  110.0 см 
GR                 .UR/H                                   : 13 Гамма-активность, мкр./ч -  110.0 см 
METKA              .CU                                     : 3 Метки,  -    0.0 см 
MN                 .ATM                                    : 12 Давление, атм. -  160.0 см 
RCOR               .CM/KM                                  : 5 Коррекция по ролику, см/км -    0.0 см 
RGR                .IMP/MIN                                : 10 Гамма-активность, усл.ед. -  110.0 см 
RMN                .E.ACP                                  : 8 Давление, усл.ед. -  160.0 см 
RTEN               .T                                      : 6 Натяжение кабеля, т -    0.0 см 
RTM                .E.ACP                                  : 7 Температура, усл.ед. -  170.0 см 
SPEE               .M/H                                    : 2 Скорость, м/час -    0.0 см 
TIME               .S                                      : 4 Время, сек -    0.0 см 
TM                 .DEGC                                   : 11 Температура, °C -  170.0 см 
~Ascii
# ...
763.6      796        1.82       1.82       0          71.75      -461       83         4997       0.05       5677       1635       1567.54    21.826    
763.8      896        1.82       1.82       0          71.766     -461       83         4998       0.05       5678       1635       1567.96    21.831    
764        690        1.98       1.98       0          71.782     -461       90         4999       0.05       5679       1636       1568.41    21.836    
764.2      6707       2.02       2.02       0          71.808     -461       92         5000       0.05       5680       1637       1568.86    21.84     
764.4      2886       2.02       2.02       0          71.813     -461       92         5000       0.05       5681       1637       1569.29    21.842    
764.6      1994       2.02       2.02       0          71.839     -461       92         5001       0.05       5682       1638       1569.73    21.847    
764.8      1377       2.02       2.02       0          71.865     -461       92         5003       0.05       5683       1638       1570.17    21.852    
765        981        2.02       2.02       0          71.891     -461       92         5004       0.05       5684       1638       1570.61    21.857    
765.2      811        2.46       2.46       0          71.896     -461       112        5004       0.05       5685       1638       1571.05    21.861    
765.4      487        2.46       2.46       0          71.917     -461       112        5005       0.05       5687       1636       1571.48    21.866    
765.6      402        2.46       2.46       0          71.926     -461       112        5005       0.05       5688       1635       1571.93    21.871    
765.8      329        2.46       2.46       0          71.939     -461       112        5006       0.05       5689       1635       1572.37    21.876    
766        369        2.46       2.46       0          71.957     -461       112        5007       0.05       5690       1636       1572.8     21.88     
766.2      340        2.44       2.44       2          71.965     -469       111        5007       0.05       5691       1637       1573.43    21.882    
766.4      437        2.28       2.28       0          72.002     -469       104        5009       0.05       5691       1637       1573.87    21.884    
766.6      421        2.28       2.28       0          72.013     -469       104        5010       0.05       5692       1636       1574.31    21.888    
766.8      464        2.28       2.28       0          72.024     -469       104        5010       0.05       5692       1634       1574.73    21.888    
767        382        2.28       2.28       0          72.043     -469       104        5011       0.05       5693       1633       1575.18    21.892    
767.2      525        2.28       2.28       0          72.049     -469       104        5011       0.05       5694       1634       1575.64    21.894    
767.4      456        2.15       2.15       0          72.067     -469       98         5012       0.05       5695       1635       1576.07    21.899    
767.6      455        2.15       2.15       0          72.08      -469       98         5013       0.05       5695       1636       1576.53    21.9      
767.8      395        2.15       2.15       0          72.117     -469       98         5014       0.05       5696       1636       1576.96    21.902    
768        517        2.15       2.15       0          72.13      -469       98         5015       0.05       5696       1635       1577.4     21.904    
768.2      436        2.15       2.15       0          72.148     -469       98         5016       0.05       5697       1633       1577.85    21.909    
768.4      369        2.16       2.16       0          72.173     -469       99         5017       0.05       5698       1634       1578.31    21.914    
768.6      331        2.22       2.22       0          72.174     -469       101        5017       0.05       5700       1635       1578.73    21.918    
768.8      375        2.22       2.22       0          72.197     -469       101        5018       0.05       5702       1635       1579.17    21.927    
769        360        2.22       2.22       0          72.217     -469       101        5019       0.05       5703       1633       1579.61    21.933    
769.2      445        2.22       2.22       0          72.239     -469       101        5020       0.05       5704       1633       1580.06    21.937    
769.4      362        2.22       2.22       0          72.243     -469       101        5020       0.05       5705       1634       1580.48    21.94     
769.6      346        2.29       2.29       0          72.26      -469       104        5021       0.05       5705       1635       1580.93    21.94     
769.8      317        2.35       2.35       0          72.288     -469       107        5022       0.05       5706       1635       1581.36    21.944    
770        296        2.35       2.35       0          72.303     -469       107        5023       0.05       5708       1636       1581.79    21.951    
770.2      348        2.35       2.35       0          72.273     -469       107        5022       0.05       5710       1634       1582.24    21.96     
770.4      346        2.35       2.35       0          72.34      -469       107        5025       0.05       5713       1633       1582.69    21.97     
770.6      384        2.35       2.35       0          72.339     -469       107        5025       0.05       5714       1632       1583.13    21.976    
770.8      340        2.73       2.73       0          72.349     -469       124        5025       0.05       5715       1633       1583.57    21.981    
771        335        2.81       2.81       0          72.391     -469       128        5027       0.05       5716       1634       1584.01    21.984    
771.2      386        2.81       2.81       0          72.38      -469       128        5026       0.05       5716       1635       1584.44    21.984    
771.4      340        2.81       2.81       0          72.421     -469       128        5028       0.05       5716       1636       1584.88    21.984    
771.6      414        2.81       2.81       0          72.419     -469       128        5028       0.05       5716       1636       1585.31    21.984    
771.8      339        2.81       2.81       0          72.411     -469       128        5028       0.05       5716       1637       1585.75    21.983    
772        344        2.94       2.94       0          72.473     -469       134        5031       0.05       5715       1636       1586.19    21.978    
772.2      289        2.94       2.94       0          72.473     -469       134        5031       0.05       5714       1634       1586.64    21.976    
772.4      291        2.94       2.94       0          72.484     -469       134        5032       0.05       5713       1635       1587.08    21.972    
772.6      344        2.94       2.94       0          72.509     -469       134        5033       0.05       5712       1636       1587.53    21.968    
772.8      315        2.94       2.94       0          72.493     -469       134        5032       0.05       5712       1636       1587.97    21.968    
773        308        2.79       2.79       0          72.556     -469       127        5035       0.05       5713       1636       1588.43    21.971    
773.2      343        2.33       2.33       0          72.557     -469       106        5035       0.05       5714       1634       1588.84    21.976    
773.4      901        2.33       2.33       0          72.558     -469       106        5035       0.05       5716       1633       1589.29    21.985    
773.6      5458       2.33       2.33       0          72.577     -469       106        5036       0.05       5718       1634       1589.73    21.99     
773.8      2509       2.33       2.33       0          72.62      -469       106        5038       0.05       5720       1633       1590.17    21.998    
