~Version
 VERS              .         2.0                           : CWLS LOG ASCII STANDARD - VERSION 2.0
 WRAP              .         NO                            : ONE LINE PER DEPTH STEP
 DLM               .         SPACE                         : DELIMITING CHARACTER(SPACE TAB OR COMMA)
~Well Information
#_______________________________________________________________________________
#
#PARAMETER_NAME    .UNIT     VALUE                         : DESCRIPTION
#_______________________________________________________________________________
STRT               .M        11                            : First reference value
STOP               .M        2775.8                        : Last reference value
STEP               .M        0.2                           : Step increment
NULL               .         -9999                         : Missing value
COMP               .                                       : Company
WELL               .         616                           : Well name
FLD                .                                       : Field
LOC                .                                       : Location
CNTY               .                                       : County
STAT               .                                       : State
CTRY               .                                       : Country
SRVC               .                                       : Service Company
DATE               .                                       : Date
API                .                                       : API number
PROJECT_UPGRADE_TIME .         2021-03-18T21_24_50           : 
group              .         Good                          : 
~Parameter Information Block
#_______________________________________________________________________________
#
#PARAMETER_NAME    .UNIT     VALUE                         : DESCRIPTION
#_______________________________________________________________________________
SET                .         D1813_D                       : 
OTHER              .         Программное обеспечение станции MONITOR-386EX 25/12/99 15_08_10   BGF V52 22/08/01 16_56_30   3.1_SNGF___BGF_N_092049: 
OTHER_10           .         Тарировки_                    : 
OTHER_11           .         TM.GRD = 0.00403*TM$.UE + -1.07: 
OTHER_12           .         MN.ATM = (9.34907e-006*TM.GRD + 0.02171)*(MN$.UE + -7.93*TM.GRD + -1787): 
OTHER_13           .         GK.MKR/H = LM. / 42.4676      : 
OTHER_14           .         GK.FLT = 0.1*GK.MKR/H[-1] + (1-0.1)*GK.MKR/H[0]: 
OTHER_2            .         Kedr.exe версия 3.4.2.51      : 
OTHER_3            .         KedrData.dll версия 3.4.2.24  : 
OTHER_4            .         Драйвер версия 2.1.1.3        : 
OTHER_5            .         Мнемоники версия 3.3 S        : 
OTHER_6            .         Прибор_ КСА-Т4                : 
OTHER_7            .         Номер прибора_ 03             : 
OTHER_8            .         Режим_ КСА-Т4                 : 
OTHER_9            .         Форма_ КВА.                   : 
PROJECT_UPGRADE_TIME .         2021-03-18T21_24_49           : 
TLFamily_DEPT      .         Measured Depth                : 
TLFamily_GK        .         Gamma Ray                     : 
TLFamily_GK$       .                                       : 
TLFamily_GK_2      .         Gamma Ray                     : 
TLFamily_LM        .         Casing Collar locator         : 
TLFamily_METKA     .                                       : 
TLFamily_MN        .                                       : 
TLFamily_MN$       .                                       : 
TLFamily_RCOR      .                                       : 
TLFamily_SPID      .         Spontaneous Potential         : 
TLFamily_TENS      .         Cable Tension                 : 
TLFamily_TIME      .         Time                          : 
TLFamily_TM        .         Temperature                   : 
TLFamily_TM$       .         Temperature                   : 
group              .         prim                          : 
~Curve Information
#_______________________________________________________________________________
#
#LOGNAME           .UNIT     LOG_ID                        : DESCRIPTION
#_______________________________________________________________________________
DEPT               .M                                      : 1 Глубина, м -    0.0 см 
GK                 .MKR/H                                  : 13 Гамма-активность, мкр./ч -  110.0 см 
GK$                .UE                                     : 10 Гамма-активность, усл.ед. -  110.0 см 
GK_2               .FLT                                    : 14 Гамма-активность фильтрованная, мкр./ч -  110.0 см 
LM                 .                                       : 9 Локатор муфт,  -   20.0 см 
METKA              .                                       : 3 Метки,  -    0.0 см 
MN                 .ATM                                    : 12 Давление, атм. -  160.0 см 
MN$                .UE                                     : 8 Давление, усл.ед. -  160.0 см 
RCOR               .CM/KM                                  : 5 Коррекция по ролику, см/км -    0.0 см 
SPID               .M/H                                    : 2 Скорость, м/час -    0.0 см 
TENS               .T                                      : 6 Натяжение кабеля, т -    0.0 см 
TIME               .S                                      : 4 Время, сек -    0.0 см 
TM                 .GRD                                    : 11 Температура, °C -  170.0 см 
TM$                .UE                                     : 7 Температура, усл.ед. -  170.0 см 
~Ascii
# ...
198.2      3.16       134        3.15       739        0          20.212     2852       -1218      -2026      -0.09      12036.65   17.817     4687      
198.4      3.16       134        3.13       859        0          20.233     2853       -1218      -2024      -0.09      12036.31   17.821     4688      
198.6      3.16       134        3.09       817        0          20.253     2854       -1218      -2021      -0.09      12035.95   17.825     4689      
198.8      3.16       134        2.98       840        0          20.274     2855       -1218      -2025      -0.09      12035.61   17.827     4689      
199        2.79       119        2.68       953        0          20.293     2856       -1218      -2023      -0.09      12035.23   17.829     4690      
199.2      2.5        106        2.5        734        0          20.294     2856       -1218      -2020      -0.09      12034.91   17.833     4691      
199.4      2.5        106        2.5        662        0          20.314     2857       -1218      -2024      -0.09      12034.53   17.837     4692      
199.6      2.5        106        2.5        699        0          20.336     2858       -1218      -2021      -0.09      12034.17   17.841     4693      
199.8      2.5        106        2.5        817        2          20.358     2859       -1218      -2018      -0.09      12033.81   17.843     4693      
200        2.5        106        2.51       821        0          20.378     2860       -1218      -2015      -0.09      12033.51   17.845     4694      
200.2      2.5        106        2.54       690        0          20.399     2861       -1221      -2017      -0.09      12033.18   17.849     4695      
200.4      2.59       110        2.62       764        0          20.42      2862       -1222      -2021      -0.09      12032.84   17.853     4696      
200.6      2.68       114        2.68       623        0          20.441     2863       -1222      -2020      -0.09      12032.48   17.857     4697      
200.8      2.68       114        2.69       535        0          20.462     2864       -1222      -2017      -0.09      12032.12   17.861     4697      
201        2.68       114        2.69       571        0          20.484     2865       -1222      -2013      -0.09      12031.77   17.863     4698      
201.2      2.68       114        2.69       640        0          20.506     2866       -1222      -2014      -0.09      12031.43   17.865     4699      
201.4      2.68       114        2.7        665        0          20.527     2867       -1222      -2019      -0.09      12031.04   17.869     4700      
201.6      2.68       114        2.71       547        0          20.545     2868       -1222      -2017      -0.09      12030.68   17.873     4700      
201.8      2.73       116        2.77       534        0          20.564     2869       -1222      -2019      -0.09      12030.34   17.876     4701      
202        2.85       121        2.85       565        0          20.584     2870       -1222      -2023      -0.09      12029.99   17.88      4702      
202.2      2.85       121        2.85       573        0          20.59      2870       -1222      -2023      -0.09      12029.64   17.884     4703      
202.4      2.85       121        2.85       557        0          20.606     2871       -1222      -2020      -0.09      12029.29   17.888     4704      
202.6      2.85       121        2.85       574        0          20.627     2872       -1222      -2016      -0.09      12028.94   17.891     4705      
202.8      2.85       121        2.86       609        0          20.647     2873       -1222      -2018      -0.09      12028.59   17.892     4705      
203        2.85       121        2.87       546        0          20.67      2874       -1222      -2022      -0.09      12028.24   17.896     4706      
203.2      2.87       122        2.91       627        0          20.675     2874       -1222      -2022      -0.09      12027.89   17.9       4707      
203.4      2.97       126        2.97       761        0          20.706     2875       -1222      -2023      -0.09      12027.51   17.904     4708      
203.6      2.97       126        2.97       1058       0          20.717     2876       -1222      -2028      -0.09      12027.15   17.908     4709      
203.8      2.97       126        2.96       1483       0          20.732     2877       -1222      -2029      -0.09      12026.8    17.912     4710      
204        2.97       126        2.96       2209       0          20.753     2878       -1222      -2026      -0.09      12026.44   17.916     4711      
204.2      2.97       126        2.95       3368       0          20.774     2879       -1222      -2024      -0.09      12026.09   17.919     4712      
204.4      2.97       126        2.93       5209       0          20.795     2880       -1222      -2025      -0.09      12025.74   17.92      4712      
204.6      2.92       124        2.84       1381       0          20.815     2881       -1222      -2026      -0.09      12025.38   17.924     4713      
204.8      2.71       115        2.71       946        0          20.837     2882       -1222      -2023      -0.09      12025.02   17.928     4714      
205        2.71       115        2.71       817        0          20.859     2883       -1222      -2025      -0.09      12024.67   17.932     4715      
205.2      2.71       115        2.71       628        0          20.88      2884       -1222      -2029      -0.09      12024.33   17.936     4716      
205.4      2.71       115        2.7        563        0          20.901     2885       -1222      -2031      -0.09      12023.97   17.94      4717      
205.6      2.71       115        2.7        534        0          20.923     2886       -1222      -2029      -0.09      12023.61   17.944     4718      
205.8      2.71       115        2.67       593        0          20.93      2886       -1222      -2026      -0.09      12023.27   17.944     4718      
206        2.7        114        2.61       593        0          20.942     2887       -1222      -2027      -0.09      12022.92   17.948     4719      
206.2      2.47       105        2.47       649        0          20.964     2888       -1222      -2029      -0.09      12022.56   17.952     4720      
206.4      2.47       105        2.47       804        0          20.985     2889       -1222      -2027      -0.09      12022.21   17.952     4720      
206.6      2.47       105        2.47       969        0          21.006     2890       -1222      -2027      -0.09      12021.87   17.956     4721      
206.8      2.47       105        2.48       900        0          21.027     2891       -1222      -2029      -0.09      12021.5    17.956     4721      
207        2.47       105        2.48       657        0          21.049     2892       -1222      -2027      -0.09      12021.13   17.96      4722      
207.2      2.47       105        2.5        647        0          21.07      2893       -1222      -2024      -0.09      12020.77   17.964     4723      
207.4      2.47       105        2.56       516        0          21.09      2893       -1222      -2022      -0.09      12020.42   17.968     4724      
207.6      2.69       114        2.69       584        0          21.111     2894       -1222      -2022      -0.09      12020.07   17.972     4725      
207.8      2.71       115        2.71       667        0          21.132     2895       -1222      -2023      -0.09      12019.73   17.972     4725      
208        2.71       115        2.71       711        0          21.153     2896       -1222      -2020      -0.09      12019.37   17.979     4727      
208.2      2.71       115        2.71       869        0          21.164     2897       -1222      -2017      -0.09      12019.02   17.983     4728      
208.4      2.71       115        2.73       1233       0          21.173     2897       -1222      -2016      -0.09      12018.68   17.987     4729      
