~Version
 VERS              .         2.0                           : CWLS LOG ASCII STANDARD - VERSION 2.0
 WRAP              .         NO                            : ONE LINE PER DEPTH STEP
 DLM               .         SPACE                         : DELIMITING CHARACTER(SPACE TAB OR COMMA)
~Well Information
#_______________________________________________________________________________
#
#PARAMETER_NAME    .UNIT     VALUE                         : DESCRIPTION
#_______________________________________________________________________________
STRT               .M        0.2                           : First reference value
STOP               .M        2774.2                        : Last reference value
STEP               .M        0.2                           : Step increment
NULL               .         -9999                         : Missing value
COMP               .                                       : Company
WELL               .         616                           : Well name
FLD                .                                       : Field
LOC                .                                       : Location
CNTY               .                                       : County
STAT               .                                       : State
CTRY               .                                       : Country
SRVC               .                                       : Service Company
DATE               .                                       : Date
API                .                                       : API number
PROJECT_UPGRADE_TIME .         2021-03-18T21_24_50           : 
group              .         Good                          : 
~Parameter Information Block
#_______________________________________________________________________________
#
#PARAMETER_NAME    .UNIT     VALUE                         : DESCRIPTION
#_______________________________________________________________________________
SET                .         D1799_D_2                     : 
NPR                .                                       : 
OTHER              .         Программное обеспечение станции MONITOR-386EX 25/12/99 15_08_10   BGF V52 22/08/01 16_56_30   3.1_SNGF___BGF_N_092049: 
OTHER_10           .         Тарировки_                    : 
OTHER_11           .         TM.GRD = 0.00403*TM$.UE + -1.07: 
OTHER_12           .         MN.ATM = (9.34907e-006*TM.GRD + 0.02171)*(MN$.UE + -7.93*TM.GRD + -1787): 
OTHER_13           .         GK.MKR/H = LM. / 42.4676      : 
OTHER_14           .         GK.FLT = 0.1*GK.MKR/H[-1] + (1-0.1)*GK.MKR/H[0]: 
OTHER_2            .         Kedr.exe версия 3.4.2.51      : 
OTHER_3            .         KedrData.dll версия 3.4.2.24  : 
OTHER_4            .         Драйвер версия 2.1.1.3        : 
OTHER_5            .         Мнемоники версия 3.3 S        : 
OTHER_6            .         Прибор_ КСА-Т4                : 
OTHER_7            .         Номер прибора_ 03             : 
OTHER_8            .         Режим_ КСА-Т4                 : 
OTHER_9            .         Форма_ КВА.                   : 
PR                 .                                       : 
PROJECT_UPGRADE_TIME .         2021-03-18T21_24_49           : 
PRTY               .         ПП-603-1                      : N партии
SRV                .                                       : 
SRVC               .         Карпов                        : Начальник партии
TLFamily_DEPT      .         Measured Depth                : 
TLFamily_LM        .         Casing Collar locator         : 
TLFamily_MN        .                                       : 
TLFamily_TM        .         Temperature                   : 
group              .         second                        : 
~Curve Information
#_______________________________________________________________________________
#
#LOGNAME           .UNIT     LOG_ID                        : DESCRIPTION
#_______________________________________________________________________________
DEPT               .M                                      : Depth curve 
LM                 .е.ацп                                  : Локатор муфт,е.ацп 
MN                 .атм                                    : Манометрия, атм 
TM                 .град.C                                 : Термограмма по стволу скважины,град.C 
~Ascii
# ...
2366.2     297.997    214.084    55.537    
2366.4     282.997    214.106    55.533    
2366.6     266.996    214.127    55.531    
2366.8     245.994    214.147    55.533    
2367       214        214.188    55.534    
2367.2     214.001    214.192    55.531    
2367.4     219        214.211    55.53     
2367.6     218.999    214.232    55.526    
2367.8     210.999    214.253    55.522    
2368       206.998    214.275    55.519    
2368.2     195.002    214.282    55.519    
2368.4     208.005    214.309    55.515    
2368.6     238.003    214.339    55.515    
2368.8     256.007    214.35     55.511    
2369       293.005    214.359    55.508    
2369.2     321.005    214.381    55.504    
2369.4     347.002    214.402    55.5      
2369.6     355.993    214.423    55.502    
2369.8     318.992    214.443    55.5      
2370       273.521    214.466    55.496    
2370.2     3224.788   214.49     55.492    
2370.4     2022.869   214.511    55.491    
2370.6     1282.923   214.532    55.488    
2370.8     847.953    214.553    55.487    
2371       582.969    214.575    55.483    
2371.2     404.983    214.597    55.471    
2371.4     307.997    214.597    55.468    
2371.6     293        214.634    55.472    
2371.8     292.996    214.591    55.467    
2372       273.002    214.643    55.466    
2372.2     282.998    214.694    55.462    
2372.4     269.007    214.71     55.459    
2372.6     308.005    214.723    55.458    
2372.8     335.996    214.745    55.45     
2373       312.99     214.766    55.447    
2373.2     254.994    214.787    55.443    
2373.4     223.002    214.808    55.443    
2373.6     232.999    214.83     55.439    
2373.8     228.002    214.85     55.436    
2374       241.006    214.871    55.435    
2374.2     273.001    214.892    55.435    
2374.4     276        214.914    55.432    
2374.6     274.002    214.935    55.428    
2374.8     286.998    214.957    55.425    
2375       277        214.977    55.424    
2375.2     275.993    214.999    55.425    
2375.4     236        215.019    55.423    
2375.6     236.007    215.024    55.423    
2375.8     277.996    215.057    55.423    
2376       253        215.069    55.422    
2376.2     252        215.082    55.419    
2376.4     253.002    215.104    55.418    
2376.6     264.002    215.125    55.414    
2376.8     277.001    215.146    55.41     
2377       280.999    215.167    55.407    
2377.2     272.999    215.189    55.406    
2377.4     269.003    215.21     55.403    
2377.6     288.002    215.231    55.402    
2377.8     297.001    215.251    55.4      
2378       303.001    215.274    55.396    
2378.2     305.992    215.295    55.392    
2378.4     261.998    215.316    55.388    
2378.6     253.004    215.316    55.386    
2378.8     272.995    215.336    55.386    
2379       243.999    215.359    55.385    
2379.2     238.997    215.379    55.381    
2379.4     222        215.4      55.377    
2379.6     222.005    215.421    55.373    
2379.8     251.007    215.443    55.37     
2380       292.008    215.466    55.366    
2380.2     337.007    215.489    55.361    
2380.4     377.994    215.51     55.358    
2380.6     345.997    215.531    55.358    
2380.8     327.428    215.552    55.354    
2381       2738.823   215.573    55.354    
2381.2     1742.888   215.595    55.35     
2381.4     1112.935   215.615    55.35     
2381.6     743.96     215.631    55.347    
2381.8     517.981    215.643    55.343    
2382       412.984    215.68     55.339    
2382.2     321.989    215.698    55.335    
2382.4     258.992    215.701    55.331    
2382.6     214.002    215.744    55.326    
2382.8     228.004    215.744    55.32     
2383       249        215.764    55.318    
2383.2     249        215.785    55.316    
2383.4     248.999    215.808    55.314    
2383.6     245.007    215.828    55.313    
2383.8     286.001    215.849    55.309    
2384       290.002    215.87     55.305    
2384.2     299.002    215.893    55.301    
2384.4     312.002    215.913    55.297    
2384.6     321.998    215.934    55.294    
2384.8     311.001    215.947    55.29     
2385       318.996    215.955    55.286    
2385.2     294.999    215.976    55.286    
2385.4     287.995    216        55.283    
2385.6     262.001    216.036    55.281    
2385.8     266        216.039    55.281    
2386       267.996    216.061    55.279    
2386.2     245.003    216.082    55.275    
2386.4     259.999    216.102    55.275    
2386.6     253.995    216.124    55.277    
2386.8     227        216.145    55.277    
2387       227.004    216.166    55.276    
2387.2     249.008    216.187    55.273    
2387.4     291.994    216.208    55.273    
2387.6     257.008    216.229    55.269    
2387.8     302.003    216.238    55.265    
2388       318.002    216.249    55.265    
2388.2     326.999    216.271    55.265    
2388.4     318.995    216.292    55.262    
2388.6     292.996    216.313    55.258    
2388.8     272.997    216.342    55.257    
2389       254.996    216.378    55.254    
2389.2     234.002    216.394    55.253    
2389.4     247.999    216.399    55.25     
2389.6     241.001    216.419    55.247    
2389.8     245.001    216.441    55.243    
2390       249.001    216.462    55.237    
2390.2     254        216.487    55.229    
2390.4     254.991    216.507    55.223    
2390.6     201.999    216.529    55.219    
2390.8     195        216.55     55.214    
2391       195.005    216.572    55.209    
2391.2     220.997    216.593    55.208    
2391.4     206.551    216.614    55.203    
2391.6     3299.784   216.635    55.196    
2391.8     2086.866   216.657    55.192    
2392       1334.918   216.667    55.184    
2392.2     872.954    216.678    55.181    
2392.4     615.968    216.699    55.177    
2392.6     434.989    216.721    55.177    
2392.8     370.992    216.742    55.173    
2393       324        216.763    55.173    
2393.2     322.991    216.783    55.173    
2393.4     271.997    216.802    55.17     
2393.6     255.004    216.806    55.169    
2393.8     280.011    216.846    55.169    
2394       341.993    216.846    55.169    
2394.2     301.991    216.867    55.169    
2394.4     254        216.887    55.169    
2394.6     253.994    216.909    55.167    
2394.8     219.004    216.946    55.164    
2395       239        216.958    55.161    
2395.2     238.999    216.972    55.16     
2395.4     235.006    216.993    55.156    
2395.6     266.993    217.015    55.153    
2395.8     228.008    217.047    55.153    
2396       274.993    217.07     55.149    
2396.2     233.001    217.078    55.148    
2396.4     235.996    217.099    55.145    
2396.6     213.001    217.121    55.144    
2396.8     215.999    217.142    55.142    
2397       212.003    217.164    55.135    
2397.2     229.004    217.185    55.13     
2397.4     249.001    217.205    55.126    
2397.6     255.992    217.206    55.122    
2397.8     209.995    217.248    55.118    
2398       179.996    217.251    55.115    
2398.2     155        217.287    55.111    
2398.4     155        217.296    55.107    
2398.6     157.002    217.312    55.104    
2398.8     169.006    217.333    55.103    
2399       200.008    217.354    55.1      
2399.2     244.009    217.388    55.096    
2399.4     296.004    217.409    55.088    
2399.6     317.997    217.42     55.08     
2399.8     301.997    217.441    55.076    
2400       287.004    217.462    55.069    
2400.2     309.997    217.486    55.064    
2400.4     295.002    217.507    55.06     
2400.6     304.992    217.522    55.057    
2400.8     258.001    217.529    55.059    
2401       260.999    217.57     55.057    
2401.2     254.998    217.591    55.053    
2401.4     244.001    217.612    55.05     
2401.6     250.996    217.612    55.048    
2401.8     227        217.633    55.046    
2402       226.997    217.653    55.044    
2402.2     212.999    217.657    55.043    
2402.4     204.997    217.687    55.04     
