~Version
 VERS              .         2.0                           : CWLS LOG ASCII STANDARD - VERSION 2.0
 WRAP              .         NO                            : ONE LINE PER DEPTH STEP
 DLM               .         SPACE                         : DELIMITING CHARACTER(SPACE TAB OR COMMA)
~Well Information
#_______________________________________________________________________________
#
#PARAMETER_NAME    .UNIT     VALUE                         : DESCRIPTION
#_______________________________________________________________________________
STRT               .M        2656                          : First reference value
STOP               .M        2756.3999                     : Last reference value
STEP               .M        0.1999998                     : Step increment
NULL               .         -9999                         : Missing value
COMP               .                                       : Company
WELL               .         616                           : Well name
FLD                .                                       : Field
LOC                .                                       : Location
CNTY               .                                       : County
STAT               .                                       : State
CTRY               .                                       : Country
SRVC               .                                       : Service Company
DATE               .                                       : Date
API                .                                       : API number
PROJECT_UPGRADE_TIME .         2021-03-18T21_24_50           : 
group              .         Good                          : 
~Parameter Information Block
#_______________________________________________________________________________
#
#PARAMETER_NAME    .UNIT     VALUE                         : DESCRIPTION
#_______________________________________________________________________________
SET                .         D4404_D                       : 
OTHER              .         Запись производится в присутствии: 
OTHER_10           .         Максимальная температура      : 
OTHER_11           .         Тип промывочной жидкости      : 
OTHER_12           .         Сопротивление ПЖ (Ом*м) при 20°C: 
OTHER_13           .         Плотность ПЖ(г/см3)           : 
OTHER_14           .         Вязкость ПЖ(с)                : 
OTHER_15           .         Водоотдача ПЖ(см3/30мин)      : 
OTHER_16           .         Уровень ПЖ                    : 
OTHER_17           .         Нефть ПЖ (%)                  : 
OTHER_18           .         Барит ПЖ (%)                  : 
OTHER_19           .         Гематит ПЖ (%)                : 
OTHER_2            .         Заказчик ННСН  ЦДНГ-1         : 
OTHER_20           .         КМЦ ПЖ (%)                    : 
OTHER_21           .         Разгазирование ПЖ (да,нет)    : 
OTHER_22           .         Подъемник                     : 
OTHER_23           .         Лаборатория                   : 
OTHER_24           .         Тип кабеля                    : 
OTHER_25           .         Длина кабеля (м)              : 
OTHER_26           .         Цена последней метки          : 
OTHER_27           .         Цена контрольной метки        : 
OTHER_28           .         Диаметр долота (мм)           : 
OTHER_29           .         Глубина бурения (м)           : 
OTHER_3            .         Площадь                       : 
OTHER_30           .         Искусственный забой (м)       : 
OTHER_31           .         Диаметр колонны (мм)          : 
OTHER_32           .         Толщина колонны (мм)          : 
OTHER_33           .         Башмак колонны (м)            : 
OTHER_34           .         Диаметр НКТ (мм)              : 
OTHER_35           .         Толщина НКТ (мм)              : 
OTHER_36           .         Воронка НКТ (м)               : 
OTHER_37           .         Дата цементожа                : 
OTHER_38           .         Тип, количество(т) и плотность цемента: 
OTHER_39           .         Интервалы перфорации (м)      : 
OTHER_4            .         Категория                     : 
OTHER_40           .         Направление, диаметр (мм)     : 
OTHER_41           .         Направление, глубина (м)      : 
OTHER_42           .         Кондуктор, диаметр (мм)       : 
OTHER_43           .         Кондуктор, глубина (м)        : 
OTHER_44           .         Техническая колонна, диаметр (мм): 
OTHER_45           .         Техническая колонна, глубина (м): 
OTHER_46           .         Эксплуатационная колонна, диаметр (мм): 
OTHER_47           .         Эксплуатационная колонна, глубина (м): 
OTHER_48           .         Программа Кедр-02 версия 3.4  : 
OTHER_49           .         Операционная система Windows NT 5.1 build 2600 Service Pack 2: 
OTHER_5            .         Назначение исследований       : 
OTHER_50           .         Программное обеспечение станции MONITOR-386EX 25/12/99 15_08_10   BGF V54 20/09/05 15_32_17   3.3__BGF_9030071: 
OTHER_51           .         Kedr.exe версия 3.4.2.74      : 
OTHER_52           .         KedrData.dll версия 3.4.2.29  : 
OTHER_53           .         Мнемоники версия 3.18 S       : 
OTHER_54           .         Драйвер версия 2.1.1.4        : 
OTHER_55           .         LasInf.dll 4.3.0.35           : 
OTHER_56           .         Прибор_ КСА-Т4                : 
OTHER_57           .         Номер прибора_ 160            : 
OTHER_58           .         Режим_ КСА-Т4                 : 
OTHER_59           .         Форма_ С.А.Б.                 : 
OTHER_6            .         Альтитуда стола ротора        : 
OTHER_60           .         Тарировки_                    : 
OTHER_61           .         <_techsia_sc_> Дата тарировки температуры 25.05.2010: 
OTHER_62           .         Ручной ввод коэффициентов     : 
OTHER_63           .         TM.DEGC = 0.00402*RTM.E.ACP + -0.994: 
OTHER_64           .         <_techsia_sc_> Дата тарировки давления 25.05.2010: 
OTHER_65           .         Ручной ввод коэффициентов     : 
OTHER_66           .         MN.ATM = (2.27521e-006*TM.DEGC + 0.02078)*(RMN.E.ACP + 6.2*TM.DEGC + -1688): 
OTHER_67           .         <_techsia_sc_> Дата тарировки ГК 25.05.2010: 
OTHER_68           .         Ручной ввод коэффициентов     : 
OTHER_69           .         GR.UR/H = RGR.IMP/MIN / 45.5144: 
OTHER_7            .         Вид исследований 3  6         : 
OTHER_70           .         GK.FLT = 0.1*GR.UR/H[-1] + (1-0.1)*GR.UR/H[0]: 
OTHER_8            .         Начало бурения интервала каротажа: 
OTHER_9            .         Окончание бурения интервала каротажа: 
PROJECT_UPGRADE_TIME .         2021-03-18T21_24_50           : 
TLFamily_CCLC      .                                       : 
TLFamily_DEPT      .         Measured Depth                : 
TLFamily_GK        .         Gamma Ray                     : 
TLFamily_GR        .         Gamma Ray                     : 
TLFamily_METKA     .                                       : 
TLFamily_MN        .                                       : 
TLFamily_RCOR      .                                       : 
TLFamily_RGR       .                                       : 
TLFamily_RMN       .                                       : 
TLFamily_RTEN      .                                       : 
TLFamily_RTM       .                                       : 
TLFamily_SPEE      .         Cable Speed                   : 
TLFamily_TIME      .         Time                          : 
TLFamily_TM        .         Temperature                   : 
group              .         prim                          : 
~Curve Information
#_______________________________________________________________________________
#
#LOGNAME           .UNIT     LOG_ID                        : DESCRIPTION
#_______________________________________________________________________________
DEPT               .M                                      : 1 Глубина, м -    0.0 см 
CCLC               .E.ACP                                  : 9 Локатор муфт,  -   20.0 см 
GK                 .FLT                                    : 14 Гамма-активность фильтрованная, мкр./ч -  110.0 см 
GR                 .UR/H                                   : 13 Гамма-активность, мкр./ч -  110.0 см 
METKA              .CU                                     : 3 Метки,  -    0.0 см 
MN                 .ATM                                    : 12 Давление, атм. -  160.0 см 
RCOR               .CM/KM                                  : 5 Коррекция по ролику, см/км -    0.0 см 
RGR                .IMP/MIN                                : 10 Гамма-активность, усл.ед. -  110.0 см 
RMN                .E.ACP                                  : 8 Давление, усл.ед. -  160.0 см 
RTEN               .T                                      : 6 Натяжение кабеля, т -    0.0 см 
RTM                .E.ACP                                  : 7 Температура, усл.ед. -  170.0 см 
SPEE               .M/H                                    : 2 Скорость, м/час -    0.0 см 
TIME               .S                                      : 4 Время, сек -    0.0 см 
TM                 .DEGC                                   : 11 Температура, °C -  170.0 см 
~Ascii
# ...
2728.799927 97         10.52      10.52      0          245.397    -1110      479        13126      0.21       12602      583        453.65     49.665    
2728.999927 159        10.52      10.52      0          245.408    -1110      479        13126      0.21       12603      583        454.84     49.67     
2729.199927 125        11.86      11.86      0          245.451    -1110      540        13128      0.21       12604      582        456.09     49.674    
2729.399927 139        11.86      11.86      0          245.472    -1110      540        13129      0.21       12604      583        457.34     49.674    
2729.599926 141        11.12      11.12      0          245.494    -1110      506        13130      0.21       12605      582        458.63     49.679    
2729.799926 222        11.12      11.12      0          245.519    -1110      506        13131      0.21       12607      583        459.84     49.684    
2729.999926 155        9.43       9.43       0          245.535    -1110      429        13132      0.21       12606      583        461.04     49.683    
2730.199926 186        9.43       9.43       0          245.566    -1110      429        13134      0.21       12602      583        462.28     49.666    
2730.399926 217        7.73       7.73       0          245.591    -1110      352        13135      0.21       12597      583        463.53     49.644    
2730.599925 100        7.73       7.73       0          245.611    -1110      352        13136      0.21       12593      581        464.86     49.63     
2730.799925 99         7.01       7.01       0          245.624    -1110      319        13137      0.21       12591      581        466.08     49.622    
2730.999925 46         7.01       7.01       0          245.651    -1110      319        13138      0.21       12591      582        467.3      49.62     
2731.199925 80         6.92       6.92       0          245.672    -1110      315        13139      0.21       12590      582        468.55     49.62     
2731.399925 149        6.92       6.92       0          245.693    -1110      315        13140      0.21       12591      581        469.86     49.622    
2731.599924 106        7.14       7.14       0          245.715    -1110      325        13141      0.21       12592      581        471.05     49.626    
2731.799924 127        7.14       7.14       0          245.735    -1110      325        13142      0.21       12592      582        472.3      49.626    
2731.999924 80         7.01       7.01       0          245.719    -1110      319        13141      0.21       12588      581        473.48     49.608    
2732.199924 86         6.99       6.99       0          245.761    -1110      318        13144      0.21       12572      582        474.73     49.547    
2732.399924 73         6.83       6.83       0          245.795    -1110      311        13146      0.21       12559      581        476.05     49.492    
2732.599923 89         6.83       6.83       0          245.81     -1110      311        13147      0.21       12548      582        477.29     49.451    
2732.799923 95         7.6        7.6        0          245.827    -1110      346        13148      0.21       12541      582        478.49     49.419    
2732.999923 87         7.6        7.6        0          245.846    -1110      346        13149      0.21       12537      583        479.73     49.403    
2733.199923 66         7.83       7.83       0          245.865    -1110      356        13150      0.21       12534      582        480.98     49.393    
2733.399923 74         7.89       7.89       0          245.884    -1110      359        13151      0.21       12531      582        482.27     49.381    
2733.599922 77         8.31       8.31       0          245.902    -1110      378        13152      0.21       12526      581        483.5      49.36     
2733.799922 499        8.31       8.31       0          245.928    -1110      378        13153      0.21       12522      581        484.75     49.345    
2733.999922 229        8.72       8.72       0          245.958    -1110      397        13155      0.21       12520      582        485.95     49.336    
2734.199922 92         8.72       8.72       0          245.962    -1110      397        13155      0.21       12518      582        487.25     49.326    
2734.399922 78         8.55       8.55       0          245.999    -1110      389        13157      0.21       12514      582        488.5      49.314    
2734.599921 68         8.55       8.55       0          246.018    -1110      389        13158      0.21       12511      583        489.73     49.3      
2734.799921 579        8.2        8.2        0          246.037    -1110      373        13159      0.21       12508      581        490.97     49.288    
2734.999921 256        8.2        8.2        0          246.056    -1110      373        13160      0.21       12504      582        492.25     49.273    
2735.199921 236        7.67       7.67       0          246.076    -1110      349        13161      0.21       12502      583        493.44     49.264    
2735.399921 426        7.67       7.67       0          246.094    -1110      349        13162      0.21       12499      582        494.69     49.251    
2735.59992 154        8.24       8.24       0          246.118    -1110      375        13163      0.21       12496      582        495.94     49.241    
2735.79992 105        8.24       8.24       0          246.133    -1110      375        13164      0.21       12494      581        497.2      49.232    
2735.99992 70         9.67       9.67       0          246.174    -1110      440        13166      0.21       12492      581        498.45     49.224    
2736.19992 628        9.67       9.67       0          246.179    -1110      440        13166      0.21       12491      580        499.72     49.22     
2736.39992 6745       8.9        8.9        0          246.214    -1110      405        13168      0.21       12489      580        500.91     49.212    
2736.599919 2961       8.74       8.74       0          246.233    -1110      398        13169      0.21       12487      582        502.16     49.203    
2736.799919 878        7.05       7.05       0          246.253    -1110      321        13170      0.21       12485      583        503.47     49.196    
2736.999919 190        7.05       7.05       0          246.273    -1110      321        13171      0.21       12483      582        504.67     49.188    
2737.199919 91         7.21       7.21       0          246.293    -1110      328        13172      0.21       12482      582        505.92     49.184    
2737.399919 79         7.21       7.21       0          246.314    -1110      328        13173      0.21       12481      583        507.17     49.18     
2737.599918 69         7.66       7.66       0          246.335    -1110      349        13174      0.21       12481      583        508.42     49.18     
2737.799918 56         7.89       7.89       0          246.357    -1110      359        13175      0.21       12482      582        509.67     49.184    
2737.999918 73         8.22       8.22       0          246.379    -1110      374        13176      0.21       12484      582        510.92     49.19     
2738.199918 92         8.22       8.22       1          246.401    -1110      374        13177      0.21       12486      581        512.17     49.198    
2738.399918 89         8.26       8.26       1          246.44     -1110      376        13179      0.21       12487      581        513.37     49.204    
2738.599917 72         8.26       8.26       0          246.445    -1110      376        13179      0.21       12489      572        514.74     49.214    
2738.799917 72         8.55       8.55       0          246.481    -1110      389        13181      0.21       12492      575        515.92     49.223    
2738.999917 68         8.7        8.7        0          246.503    -1110      396        13182      0.21       12494      577        517.18     49.232    
