~Version
 VERS              .         2.0                           : CWLS LOG ASCII STANDARD - VERSION 2.0
 WRAP              .         NO                            : ONE LINE PER DEPTH STEP
 DLM               .         SPACE                         : DELIMITING CHARACTER(SPACE TAB OR COMMA)
~Well Information
#_______________________________________________________________________________
#
#PARAMETER_NAME    .UNIT     VALUE                         : DESCRIPTION
#_______________________________________________________________________________
STRT               .M        5.8                           : First reference value
STOP               .M        2774.6                        : Last reference value
STEP               .M        0.2                           : Step increment
NULL               .         -9999                         : Missing value
COMP               .                                       : Company
WELL               .         616                           : Well name
FLD                .                                       : Field
LOC                .                                       : Location
CNTY               .                                       : County
STAT               .                                       : State
CTRY               .                                       : Country
SRVC               .                                       : Service Company
DATE               .                                       : Date
API                .                                       : API number
PROJECT_UPGRADE_TIME .         2021-03-18T21_24_50           : 
group              .         Good                          : 
~Parameter Information Block
#_______________________________________________________________________________
#
#PARAMETER_NAME    .UNIT     VALUE                         : DESCRIPTION
#_______________________________________________________________________________
SET                .         D1747_D                       : 
OTHER              .         Программное обеспечение станции MONITOR-386EX 25/12/99 15_08_10   BGF V52 22/08/01 16_56_30   3.1_SNGF___BGF_N_111239: 
OTHER_10           .         Тарировки_                    : 
OTHER_11           .         <_techsia_sc_> Постоянная времени фильтра ГК  3.0 сек, kf=0.016529: 
OTHER_12           .         <_techsia_sc_> Постоянная времени фильтра ННК  3.0 сек, kf=0.016529: 
OTHER_13           .         GK.MKR/H = GK$.IMP/476        : 
OTHER_14           .         WSAT.PERC = -12.5 + 78.0 * (NKT2$.IMP / NKT1$.IMP) * 1731/33716: 
OTHER_15           .         NKT2.PRIV = NKT2$.IMP/33716   : 
OTHER_16           .         NKT1.PRIV = NKT1$.IMP/1731    : 
OTHER_2            .         Kedr.exe версия 3.3.2.32      : 
OTHER_3            .         KedrData.dll версия 3.3.2.17  : 
OTHER_4            .         Драйвер версия 2.1.1.9        : 
OTHER_5            .         Мнемоники версия 3.2 S        : 
OTHER_6            .         Прибор_ СРК-73Ц-1N            : 
OTHER_7            .         Номер прибора_ 906            : 
OTHER_8            .         Режим_ с локатором            : 
OTHER_9            .         Форма_ 623-1                  : 
PROJECT_UPGRADE_TIME .         2021-03-18T21_24_49           : 
TLFamily_DEPT      .         Measured Depth                : 
TLFamily_GK        .         Gamma Ray                     : 
TLFamily_GK$       .                                       : 
TLFamily_LM        .         Casing Collar locator         : 
TLFamily_METKA     .                                       : 
TLFamily_NKT1      .         Neutron Far                   : 
TLFamily_NKT1$     .         Neutron Far                   : 
TLFamily_NKT2      .         Neutron Near                  : 
TLFamily_NKT2$     .         Neutron Near                  : 
TLFamily_RCOR      .                                       : 
TLFamily_SPID      .         Spontaneous Potential         : 
TLFamily_TENS      .         Cable Tension                 : 
TLFamily_TIME      .         Time                          : 
TLFamily_WSAT      .         Neutron Porosity              : 
group              .         prim                          : 
~Curve Information
#_______________________________________________________________________________
#
#LOGNAME           .UNIT     LOG_ID                        : DESCRIPTION
#_______________________________________________________________________________
DEPT               .M                                      : 1 Глубина, м -    0.0 см 
GK                 .MKR/H                                  : 11 Гамма-активность, мкр./ч -   97.0 см 
GK$                .IMP                                    : 9 Гамма-активность, имп/мин -   97.0 см 
LM                 .                                       : 10 Локатор муфт,  -   27.0 см 
METKA              .                                       : 3 Метки,  -    0.0 см 
NKT1               .PRIV                                   : 14 Большой зонд приведенный,  -  278.0 см 
NKT1$              .IMP                                    : 8 Большой зонд, имп/мин -  278.0 см 
NKT2               .PRIV                                   : 13 Малый зонд приведенный,  -  289.0 см 
NKT2$              .IMP                                    : 7 Малый зонд, имп/мин -  289.0 см 
RCOR               .CM/KM                                  : 5 Коррекция по ролику, см/км -    0.0 см 
SPID               .M/H                                    : 2 Скорость, м/час -    0.0 см 
TENS               .T                                      : 6 Натяжение кабеля, т -    0.0 см 
TIME               .S                                      : 4 Время, сек -    0.0 см 
WSAT               .PERC                                   : 12 Водонасыщенная пористость, % -  284.0 см 
~Ascii
# ...
2210.6     8.19       3901       27         0          1.27       2196.4     0.91       30753.78   -482       -621       0          17950.39   42.87     
2210.8     7.87       3745       58         0          1.3        2251.12    0.9        30295.15   -482       -608       0          17949.19   40.77     
2211       7.74       3685       42         0          1.34       2320.21    0.91       30553.38   -482       -581       0          17947.99   41.69     
2211.2     7.53       3583       23         0          1.28       2218.81    0.9        30342.39   -482       -580       0          17946.84   43.69     
2211.4     7.84       3732       31         0          1.25       2155.36    0.89       30034.19   -482       -580       0          17945.58   43.08     
2211.6     7.82       3725       24         0          1.32       2291.08    0.87       29373.47   -482       -633       0          17944.35   36.52     
2211.8     8.1        3853       39         0          1.31       2273.24    0.87       29209.39   -482       -580       0          17943.12   38.15     
2212       7.85       3736       37         0          1.32       2291.71    0.88       29780.34   -482       -580       0          17941.87   38.51     
2212.2     8.03       3821       49         0          1.38       2391.84    0.89       30118.82   -482       -580       0          17940.67   36.54     
2212.4     7.88       3753       24         0          1.39       2410.4     0.89       30072.57   -482       -638       0          17939.47   38.83     
2212.6     8.01       3811       16         0          1.32       2286.58    0.9        30316.39   -482       -637       0          17938.26   40.96     
2212.8     8.24       3924       20         0          1.29       2240.89    0.88       29771.66   -482       -584       0          17937.11   37.91     
2213       8.18       3893       26         0          1.28       2221.39    0.87       29238.03   -482       -580       0          17935.95   35.32     
2213.2     7.87       3747       25         0          1.35       2335.04    0.86       28943.56   -482       -580       0          17934.66   35.88     
2213.4     7.79       3709       46         0          1.31       2259.66    0.85       28648      -482       -586       0          17933.46   35.21     
2213.6     7.88       3752       13         0          1.34       2327       0.85       28542.64   -482       -639       0          17932.25   32.95     
2213.8     7.51       3574       37         0          1.29       2229.41    0.83       28133.82   -482       -580       0          17931.05   35.14     
2214       8.07       3841       28         0          1.22       2118.68    0.84       28282.31   -482       -580       0          17929.8    39.19     
2214.2     7.63       3630       36         0          1.27       2205.07    0.85       28567.6    -482       -591       0          17928.6    38.22     
2214.4     7.82       3721       43         0          1.21       2088.11    0.85       28763.08   -482       -580       0          17927.4    37.42     
2214.6     7.88       3751       29         0          1.37       2377.76    0.87       29413.3    -482       -581       0          17926.15   36.86     
2214.8     8.25       3928       25         0          1.35       2331.22    0.86       29153.67   -482       -639       0          17924.95   38.07     
2215       8.35       3975       22         0          1.25       2164.24    0.86       28877.49   -482       -638       0          17923.77   40.9      
2215.2     8.41       4003       38         0          1.31       2270.61    0.85       28638.84   -482       -637       0          17922.59   39.43     
2215.4     8.47       4029       43         0          1.2        2078.03    0.84       28329.05   -482       -580       0          17921.41   35.78     
2215.6     8.14       3874       55         0          1.21       2102.13    0.84       28300      -482       -630       0          17920.19   34.86     
2215.8     8          3808       37         0          1.27       2192.84    0.84       28390.25   -482       -580       0          17918.99   35.59     
2216       8.3        3951       29         0          1.15       1998.58    0.84       28324.21   -482       -639       0          17917.73   38.45     
2216.2     8.34       3971       31         0          1.13       1960.14    0.83       27991.29   -482       -580       0          17916.48   38.44     
2216.4     7.96       3791       44         0          1.11       1928.18    0.83       28129.87   -482       -637       0          17915.28   35.63     
2216.6     8.25       3928       29         0          1.12       1946.83    0.85       28671.91   -482       -587       0          17914.08   40.22     
2216.8     8.26       3932       40         0          1.12       1940.37    0.85       28508.29   -482       -580       0          17912.88   40.47     
2217       8.07       3843       39         0          1.18       2035.76    0.83       27878.59   -482       -608       0          17911.67   36.62     
2217.2     8.1        3854       25         0          1.24       2148.34    0.82       27623.48   -482       -580       0          17910.46   33.36     
2217.4     7.85       3735       11         0          1.21       2086.83    0.83       28124.45   -482       -639       0          17909.26   33.59     
2217.6     7.77       3698       29         0          1.23       2135.98    0.85       28825.59   -482       -580       0          17908.06   34.49     
2217.8     7.71       3669       103        0          1.23       2135.89    0.87       29282.3    -482       -636       0          17906.86   34.93     
2218       8          3810       52         0          1.2        2071.85    0.86       28986.47   -482       -580       0          17905.68   35.13     
2218.2     7.88       3750       41         0          1.24       2152.64    0.86       29001.09   -482       -601       0          17904.41   36.1      
2218.4     7.82       3721       92         0          1.27       2190.19    0.87       29374.26   -482       -580       0          17903.2    36.96     
2218.6     8.11       3858       2207       0          1.39       2400.16    0.89       29872.33   -482       -639       0          17902      36.38     
2218.8     8.29       3947       1981       0          1.34       2315.49    0.88       29574.98   -482       -580       0          17900.75   38.03     
2219       8.55       4071       60         0          1.29       2234.72    0.89       30106.35   -482       -586       0          17899.55   40.74     
2219.2     8.18       3895       62         0          1.3        2248.49    0.89       30075.21   -482       -580       0          17898.38   42.6      
2219.4     8.26       3931       47         0          1.27       2204.93    0.89       30100.58   -482       -621       0          17897.14   45.22     
2219.6     7.96       3791       46         0          1.24       2154.36    0.88       29769.36   -482       -614       0          17895.99   42.82     
2219.8     7.94       3778       40         1          1.27       2205.29    0.88       29627.16   -482       -586       0          17894.79   40.63     
2220       7.95       3784       44         0          1.14       1980.9     0.89       29845.79   -482       -579       0          17893.59   39.77     
2220.2     7.93       3775       42         0          1.19       2055.1     0.88       29823.77   -482       -580       0          17892.34   39.66     
2220.4     8.1        3853       40         0          1.17       2030.58    0.89       29853.25   -482       -588       0          17891.09   37.9      
2220.6     8.69       4134       47         0          1.21       2097.45    0.89       29866.18   -482       -580       0          17889.88   36.75     
2220.8     8.31       3955       35         0          1.31       2270.24    0.89       30002.83   -482       -615       0          17888.68   40.1      
