~Version
 VERS              .         2.0                           : CWLS LOG ASCII STANDARD - VERSION 2.0
 WRAP              .         NO                            : ONE LINE PER DEPTH STEP
 DLM               .         SPACE                         : DELIMITING CHARACTER(SPACE TAB OR COMMA)
~Well Information
#_______________________________________________________________________________
#
#PARAMETER_NAME    .UNIT     VALUE                         : DESCRIPTION
#_______________________________________________________________________________
STRT               .M        2658.8                        : First reference value
STOP               .M        2768.199891                   : Last reference value
STEP               .M        0.1999998                     : Step increment
NULL               .         -9999                         : Missing value
COMP               .                                       : Company
WELL               .         616                           : Well name
FLD                .                                       : Field
LOC                .                                       : Location
CNTY               .                                       : County
STAT               .                                       : State
CTRY               .                                       : Country
SRVC               .                                       : Service Company
DATE               .                                       : Date
API                .                                       : API number
PROJECT_UPGRADE_TIME .         2021-03-18T21_24_50           : 
group              .         Good                          : 
~Parameter Information Block
#_______________________________________________________________________________
#
#PARAMETER_NAME    .UNIT     VALUE                         : DESCRIPTION
#_______________________________________________________________________________
SET                .         D7017_D_2                     : 
NPR                .         155                           : Номер прибора
OTHER              .         Kedr.exe версия 2.1.2.32      : 
OTHER_10           .         TM.GRD = 0.00404*TM$.UE + 0.07: 
OTHER_11           .         MN.ATM = (6.33279e-006*TM.GRD + 0.02401)*(MN$.UE + 2.72*TM.GRD + -2018): 
OTHER_12           .         GK.MKR/H = GK$.UE / 43.5489 + 0: 
OTHER_13           .         RES.SM = 0.00476*CRES.UE - 1.51709: 
OTHER_14           .         PL.GSM3 = 0 + 0 * (PL.UE / 1) +  0 * (PL.UE / 1)^2: 
OTHER_15           .         Постоянная времени ГГП = 6 сек: 
OTHER_16           .         Постоянная времени ГК = 6 сек : 
OTHER_2            .         KedrData.dll версия 3.2.2.14  : 
OTHER_3            .         LasInf.dll версия 3.2.0.13    : 
OTHER_4            .         Драйвер версия 1.2.0.5        : 
OTHER_5            .         Прибор_ КСА-M1                : 
OTHER_6            .         Номер прибора_ 155+р204       : 
OTHER_7            .         Режим_ КСА-М1 + ГГП + Резистивиметр: 
OTHER_8            .         Форма_ 223\2                  : 
OTHER_9            .         Тарировки_                    : 
PR                 .         КСА-Т7 М1                     : Тип прибора
PROJECT_UPGRADE_TIME .         2021-03-18T21_24_50           : 
PRTY               .         ПП-223_2                      : Номер партии
SRV                .         ЦКРС                          : Заказчик
SRVC               .         Лузин  А.Б.                   : Начальник партии
TLFamily_DEPT      .         Measured Depth                : 
TLFamily_GK        .         Gamma Ray                     : 
TLFamily_LM        .         Casing Collar locator         : 
TLFamily_MN        .                                       : 
TLFamily_SPID      .         Spontaneous Potential         : 
TLFamily_TM        .         Temperature                   : 
group              .         second                        : 
~Curve Information
#_______________________________________________________________________________
#
#LOGNAME           .UNIT     LOG_ID                        : DESCRIPTION
#_______________________________________________________________________________
DEPT               .M                                      : Depth curve 
GK                 .мкР/час                                : Гамма каротаж, мкр/час 
LM                 .е.ацп                                  : Локация муфт 
MN                 .атм                                    : Манометрия, атм 
SPID               .м/ч                                    : Скорость записи,м/час 
TM                 .град.С                                 : Термометрия,град.С 
~Ascii
# ...
2682.799976 9.15       156.25     245.63     -260.01    48.01     
2682.999976 9.35       156.227    245.65     -299.99    47.99     
2683.199976 9.37       62.512     245.68     -260       47.97     
2683.399975 9.56       109.999    245.7      -260       47.97     
2683.599975 9.45       107.001    245.72     -260.01    47.94     
2683.799975 9.62       113.009    245.74     -299.998   47.93     
2683.999975 9.45       149.991    245.75     -289.993   47.92     
2684.199975 8.72       113.996    245.77     -260       47.93     
2684.399974 8.51       98.991     245.79     -260       47.92     
2684.599974 8.89       62.5       245.82     -260       47.87     
2684.799974 9.75       62.5       245.84     -260       47.86     
2684.999974 10.58      62.5       245.86     -260       47.84     
2685.199974 10.42      62.5       245.88     -260       47.83     
2685.399973 9.84       62.5       245.9      -260       47.81     
2685.599973 9.6        62.477     245.91     -260       47.79     
2685.799973 9.6        -31.25     245.94     -260       47.78     
2685.999973 9.81       -31.258    245.95     -260       47.77     
2686.199973 9.87       -62.508    245.96     -260.015   47.74     
2686.399972 9.68       -93.758    245.99     -319.985   47.72     
2686.599972 9.34       -124.977   246.01     -260       47.71     
2686.799972 9.16       -31.219    245.99     -260       47.7      
2686.999972 9.23       93.758     246.03     -260       47.67     
2687.199972 9.43       125.008    246.05     -260       47.66     
2687.399971 9.93       156.243    246.1      -260       47.64     
2687.599971 10.28      129.005    246.12     -259.993   47.62     
2687.799971 9.82       148.002    246.14     -232.012   47.62     
2687.999971 9.83       154.988    246.12     -279.988   47.61     
2688.199971 10.28      105.007    246.17     -233.007   47.59     
2688.39997 10.28      135.001    246.18     -260       47.57     
2688.59997 10.8       138        246.2      -260.015   47.55     
2688.79997 11.16      136.995    246.24     -320       47.53     
2688.99997 10.73      117.999    246.23     -319.985   47.52     
2689.19997 10.76      112.007    246.26     -260       47.51     
2689.399969 11.06      142.019    246.28     -260       47.49     
2689.599969 10.98      220.98     246.31     -260       47.48     
2689.799969 10.81      138.997    246.32     -260       47.47     
2689.999969 10.83      125.995    246.34     -259.991   47.45     
2690.199969 10.97      104.998    246.35     -225.009   47.44     
2690.399968 10.72      96.004     246.38     -259.988   47.42     
2690.599968 10.8       111.994    246.41     -213.026   47.41     
2690.799968 11.48      87.004     246.45     -319.985   47.39     
2690.999968 11.1       105.826    246.45     -260       47.37     
2691.199968 10.29      3453.869   246.47     -260       47.35     
2691.399967 9.42       2923.746   246.49     -260       47.35     
2691.599967 9.78       1892.543   246.52     -260       47.33     
2691.799967 10.51      41.001     246.53     -260       47.32     
2691.999967 10.51      44.999     246.54     -260       47.29     
2692.199967 10.38      41.001     246.58     -259.983   47.29     
2692.399966 11         45         246.58     -190.017   47.28     
2692.599966 10.87      45.999     246.6      -259.993   47.26     
2692.799966 10.82      42         246.65     -232.007   47.22     
2692.999966 10.84      44         246.65     -260       47.2      
2693.199966 10.95      42.999     246.67     -260       47.2      
2693.399965 10.91      39.001     246.7      -260       47.2      
2693.599965 10.79      45.002     246.73     -260       47.2      
2693.799965 11.43      55         246.74     -260       47.18     
2693.999965 11.52      56.999     246.74     -260       47.15     
2694.199965 11.08      52.999     246.8      -260       47.13     
2694.399964 11.44      48         246.81     -260       47.13     
2694.599964 11.65      46         246.83     -260       47.13     
2694.799964 11.58      46         246.85     -260       47.12     
2694.999964 11.93      44         246.86     -260       47.1      
2695.199964 12.03      43         246.88     -260       47.09     
2695.399963 12.55      45         246.92     -260       47.08     
2695.599963 13.17      44.001     246.92     -260       47.07     
2695.799963 13.24      49.002     246.96     -260       47.05     
2695.999963 13.81      56         246.96     -260       47.03     
2696.199963 14.33      55.986     246.99     -260       47.02     
2696.399962 13.91      0.008      247.01     -260       47.01     
2696.599962 12.63      31.258     247.03     -259.994   47        
2696.799962 10.62      62.5       247.05     -236.006   46.97     
2696.999962 9.05       62.5       247.05     -260       46.96     
2697.199962 7.96       62.5       247.08     -260.005   46.94     
2697.399961 7.88       62.519     247.1      -279.995   46.93     
2697.599961 7.72       140        247.12     -260       46.91     
2697.799961 8.02       139.003    247.14     -259.993   46.89     
2697.999961 8.53       152.986    247.19     -233.007   46.89     
2698.199961 8.73       94.993     247.19     -260       46.87     
2698.39996 9.04       65.999     247.21     -260       46.85     
2698.59996 8.58       62.996     247.19     -260       46.83     
2698.79996 8.07       46.998     247.21     -260       46.8      
2698.99996 8.47       40         247.26     -260.005   46.78     
2699.19996 8.81       38.002     247.21     -279.988   46.78     
2699.399959 8.95       48.002     247.28     -233.011   46.76     
2699.599959 9.21       57         247.31     -276.996   46.73     
2699.799959 9.74       59.023     247.33     -260       46.71     
2699.999959 9.7        153.08     247.34     -260       46.72     
2700.199959 9.3        474.919    247.36     -260.01    46.7      
2700.399958 9.07       146.995    247.41     -299.99    46.7      
2700.599958 9.53       126.998    247.38     -260       46.69     
2700.799958 9.67       119.007    247.41     -260       46.66     
2700.999958 10.01      146.994    247.44     -260       46.66     
2701.199958 10.4       124.002    247.45     -260       46.65     
2701.399957 10.1       133.003    247.47     -260       46.63     
2701.599957 9.96       147        247.49     -260       46.63     
2701.799957 10.4       147.053    247.52     -260       46.61     
2701.999957 10.07      361.259    247.54     -260       46.59     
2702.199957 9.24       5447.844   247.55     -259.993   46.58     
2702.399956 9.69       775.836    247.57     -233.007   46.56     
2702.599956 9.47       113.999    247.58     -260       46.56     
2702.799956 9.45       110.003    247.63     -260       46.55     
2702.999956 10.15      124.005    247.64     -260       46.53     
2703.199956 10.14      143.998    247.65     -260       46.52     
2703.399955 9.51       133.995    247.7      -259.988   46.51     
2703.599955 9.29       114.008    247.7      -213.012   46.51     
2703.799955 10.01      145.995    247.72     -260       46.49     
2703.999955 10.48      125.998    247.74     -260       46.47     
2704.199955 10.37      116.998    247.77     -260.015   46.46     
2704.399954 10.46      107.003    247.77     -319.985   46.46     
2704.599954 10.64      120.998    247.79     -259.989   46.45     
2704.799954 10.59      113.999    247.81     -214.011   46.44     
2704.999954 10.16      111.002    247.82     -260       46.43     
2705.199954 10.12      118        247.86     -259.983   46.41     
2705.399953 10.5       117.987    247.87     -190.017   46.4      
2705.599953 10.82      66.996     247.88     -260       46.4      
2705.799953 10.8       51.001     247.9      -260       46.38     
2705.999953 10.61      57         247.92     -260       46.37     
2706.199953 10.5       59.001     247.95     -260       46.35     
2706.399952 10.24      64.018     247.97     -259.991   46.34     
2706.599952 9.81       138.034    247.98     -224.992   46.32     
