~Version
 VERS              .         2.0                           : CWLS LOG ASCII STANDARD - VERSION 2.0
 WRAP              .         NO                            : ONE LINE PER DEPTH STEP
 DLM               .         SPACE                         : DELIMITING CHARACTER(SPACE TAB OR COMMA)
~Well Information
#_______________________________________________________________________________
#
#PARAMETER_NAME    .UNIT     VALUE                         : DESCRIPTION
#_______________________________________________________________________________
STRT               .M        209.2                         : First reference value
STOP               .M        612.6                         : Last reference value
STEP               .M        0.2                           : Step increment
NULL               .         -9999                         : Missing value
COMP               .                                       : Company
WELL               .         616                           : Well name
FLD                .                                       : Field
LOC                .                                       : Location
CNTY               .                                       : County
STAT               .                                       : State
CTRY               .                                       : Country
SRVC               .                                       : Service Company
DATE               .                                       : Date
API                .                                       : API number
PROJECT_UPGRADE_TIME .         2021-03-18T21_24_50           : 
group              .         Good                          : 
~Parameter Information Block
#_______________________________________________________________________________
#
#PARAMETER_NAME    .UNIT     VALUE                         : DESCRIPTION
#_______________________________________________________________________________
SET                .         616_3                         : 
CONF               .         00                            : 
END                .         0                             : 
ERR                .         0                             : 
GS00               .M        0610.64                       : 
GS01               .M        0206.79                       : 
MM00               .M        0060.00                       : 
NOKG               .         1                             : 
NPR                .         980119                        : 
PART               .         Палагутин                     : 
PROJECT_UPGRADE_TIME .         2021-03-18T21_24_49           : 
PRZK               .         Шакиров                       : 
TLFamily_AZIMUTH   .         True Dip Azimuth              : 
TLFamily_DEPTH     .         Measured Depth                : 
TLFamily_METKA     .                                       : 
TLFamily_ROLL      .                                       : 
TLFamily_SPEED     .         Spontaneous Potential         : 
TLFamily_ZENIT     .                                       : 
VPRG               .         310                           : 
WAY                .         UP                            : 
group              .         prim                          : 
~Curve Information
#_______________________________________________________________________________
#
#LOGNAME           .UNIT     LOG_ID                        : DESCRIPTION
#_______________________________________________________________________________
DEPTH              .M                                      :  
AZIMUTH            .DEG                                    :  
METKA              .                                       :  
ROLL               .DEG                                    :  
SPEED              .M/H                                    :  
ZENIT              .DEG                                    :  
~Ascii
# ...
258        261.72     0          30.33      648        26.88     
258.2      257.52     0          31.86      648        26.12     
258.4      259.7      0          35.51      648        26.21     
258.6      259.22     0          37.88      648        26.25     
258.8      260.96     0          39.19      648        26.7      
259        261.12     0          40.08      648        26.63     
259.2      262.26     0          39.99      612        26.88     
259.4      261.53     0          39.5       648        26.75     
259.6      260.88     0          39.07      648        26.58     
259.8      260.48     0          38.85      612        26.53     
260        259.76     0          39.02      684        26.51     
260.2      260.41     0          39.02      612        26.79     
260.4      261.51     0          39.21      612        26.9      
260.6      262.51     0          39.65      648        27.07     
260.8      261.75     0          39.92      612        26.98     
261        260.76     0          39.88      684        26.78     
261.2      261.06     0          39.91      648        26.83     
261.4      260.91     0          40.05      576        26.77     
261.6      261.38     0          39.88      576        26.94     
261.8      261.59     0          39.46      648        26.98     
262        261.82     0          39.21      648        27.03     
262.2      261.78     1          39.15      648        27.04     
262.4      261.68     0          39.71      612        27        
262.6      260.64     0          40.47      612        26.73     
262.8      260.75     0          40.03      648        26.84     
263        261.24     0          39.65      648        26.96     
263.2      262.3      0          39.75      648        27.19     
263.4      262.4      0          40.07      648        27.26     
263.6      262.81     0          40.44      612        27.31     
263.8      260.54     0          40.68      648        26.86     
264        261.01     0          41.18      648        26.97     
264.2      261.84     0          41.58      648        27.21     
264.4      262.44     0          41.49      612        27.27     
264.6      262.58     0          41.17      612        27.33     
264.8      263.26     0          40.84      648        27.44     
265        262.98     0          40.44      648        27.39     
265.2      262.16     0          39.89      612        27.21     
265.4      261.11     0          39.91      612        26.97     
265.6      261.68     0          40.12      648        27.07     
265.8      262.05     0          40.46      576        27.11     
266        262.82     0          41.27      684        27.27     
266.2      262.96     0          41.83      648        27.36     
266.4      263.15     0          42.11      648        27.37     
266.6      263.49     0          42.1       612        27.45     
266.8      263.28     0          41.83      612        27.36     
267        263.4      0          41.6       648        27.36     
267.2      264.23     0          41.15      648        27.41     
267.4      265.95     0          39.98      576        27.48     
267.6      269        0          39.76      648        27.53     
267.8      278.68     0          39.93      648        27.74     
268        309.65     0          39.65      648        27.76     
268.2      305.02     0          39.58      612        27.53     
268.4      166.32     0          39.54      648        27.52     
268.6      26.81      0          39.66      612        27.54     
268.8      304.55     0          39.62      684        27.77     
269        277.53     0          39.31      648        28.07     
269.2      268.23     0          38.51      612        27.94     
269.4      265.64     0          38.99      612        27.75     
269.6      264.98     0          39.17      648        27.73     
269.8      261.79     0          38.48      648        26.99     
270        263.67     0          38.62      648        27.35     
270.2      264.08     0          38.99      612        27.52     
270.4      264.66     0          39.1       612        27.63     
270.6      265.92     0          39.46      648        27.92     
270.8      265.47     0          40.01      612        27.85     
271        263.96     0          39.84      684        27.5      
271.2      263.7      0          39.14      648        27.4      
271.4      263.2      0          38.96      576        27.27     
271.6      264.13     0          39.6       612        27.41     
271.8      264.63     0          40.24      648        27.54     
272        264.41     0          40.92      648        27.48     
272.2      265.67     1          41.29      648        27.65     
272.4      264.59     0          41.67      612        27.74     
272.6      264.44     0          41.95      612        27.66     
272.8      264.22     0          41.32      684        27.65     
273        264.37     0          41.48      612        27.7      
273.2      265.28     0          42.42      648        27.83     
273.4      264.9      0          42.88      648        27.76     
273.6      265.2      0          42.99      576        27.8      
273.8      264.28     0          43.17      648        27.67     
274        264.65     0          43.13      648        27.78     
274.2      264.34     0          42.9       648        27.73     
274.4      265.29     0          43.14      612        27.87     
274.6      265.27     0          43.66      648        27.88     
274.8      264.41     0          44.05      576        27.7      
275        264.63     0          43.99      648        27.75     
275.2      265.07     0          44.09      648        27.85     
275.4      264.24     0          44.1       576        27.7      
275.6      264.98     0          44.34      648        27.79     
275.8      264.99     0          44.61      612        27.82     
276        265.22     0          44.98      648        27.89     
276.2      265.54     0          45.63      648        27.92     
276.4      265.27     0          46.03      648        27.84     
276.6      264.45     0          46.66      612        27.69     
276.8      264.3      0          49.35      612        27.72     
277        265.96     0          54.93      648        27.91     
277.2      266.56     0          59.84      648        28.18     
277.4      266.07     0          63.1       576        28.03     
277.6      263.82     0          64.49      612        27.62     
277.8      263.55     0          64.91      648        27.55     
278        263.55     0          65.94      648        27.65     
278.2      266.1      0          68.31      612        28.11     
278.4      267.33     0          69.71      648        28.54     
278.6      267.33     0          71.32      648        28.45     
278.8      266.64     0          73.66      648        28.3      
279        264.23     0          76.74      684        27.78     
279.2      262.14     0          80.33      576        27.25     
279.4      265.19     0          83.39      612        27.81     
279.6      270.26     0          85.93      648        28.59     
279.8      276.96     0          87.7       648        29.25     
280        287.69     0          88.54      648        28.87     
280.2      320.4      0          89.04      612        28.37     
280.4      233.92     0          90.24      612        27.47     
280.6      178.65     0          91.75      648        27.53     
280.8      333.35     0          93.56      648        27.79     
281        295.8      0          95.79      648        28.51     
281.2      278.73     0          96.91      648        29.16     
281.4      272.33     0          95.51      576        29.06     
281.6      267.93     0          94.54      648        28.66     
281.8      265.38     0          94.17      648        28.25     
282        263.57     0          93.13      648        27.71     
282.2      263.82     1          91.27      612        27.73     
