~Version
 VERS              .         2.0                           : CWLS LOG ASCII STANDARD - VERSION 2.0
 WRAP              .         NO                            : ONE LINE PER DEPTH STEP
 DLM               .         SPACE                         : DELIMITING CHARACTER(SPACE TAB OR COMMA)
~Well Information
#_______________________________________________________________________________
#
#PARAMETER_NAME    .UNIT     VALUE                         : DESCRIPTION
#_______________________________________________________________________________
STRT               .M        2310.8                        : First reference value
STOP               .M        2792.2                        : Last reference value
STEP               .M        0.2                           : Step increment
NULL               .         -9999                         : Missing value
COMP               .                                       : Company
WELL               .         616                           : Well name
FLD                .                                       : Field
LOC                .                                       : Location
CNTY               .                                       : County
STAT               .                                       : State
CTRY               .                                       : Country
SRVC               .                                       : Service Company
DATE               .                                       : Date
API                .                                       : API number
PROJECT_UPGRADE_TIME .         2021-03-18T21_24_50           : 
group              .         Good                          : 
~Parameter Information Block
#_______________________________________________________________________________
#
#PARAMETER_NAME    .UNIT     VALUE                         : DESCRIPTION
#_______________________________________________________________________________
SET                .         D2660_D                       : 
OTHER              .         Программное обеспечение станции MONITOR-386EX 25/12/99 15_08_10   BGF V50 26/12/00 07_26_01   3.1_SNGF___BGF_N_092085: 
OTHER_10           .         Тарировки_                    : 
OTHER_2            .         Kedr.exe версия 3.3.2.32      : 
OTHER_3            .         KedrData.dll версия 3.3.2.17  : 
OTHER_4            .         Драйвер версия 2.1.0.1        : 
OTHER_5            .         Мнемоники версия 3.3 S        : 
OTHER_6            .         Прибор_ ПС                    : 
OTHER_7            .         Номер прибора_ 348\072        : 
OTHER_8            .         Режим_ ПС                     : 
OTHER_9            .         Форма_ ПС                     : 
PROJECT_UPGRADE_TIME .         2021-03-18T21_24_49           : 
TLFamily_DEPT      .         Measured Depth                : 
TLFamily_METKA     .                                       : 
TLFamily_PS        .         Spontaneous Potential         : 
TLFamily_RCOR      .                                       : 
TLFamily_SPID      .         Spontaneous Potential         : 
TLFamily_TENS      .         Cable Tension                 : 
TLFamily_TIME      .         Time                          : 
group              .         prim                          : 
~Curve Information
#_______________________________________________________________________________
#
#LOGNAME           .UNIT     LOG_ID                        : DESCRIPTION
#_______________________________________________________________________________
DEPT               .M                                      : 1 Глубина, м -    0.0 см 
METKA              .                                       : 3 Метки,  -    0.0 см 
PS                 .mV                                     : 7 ПС, мВ - 1210.0 см 
RCOR               .CM/KM                                  : 5 Коррекция по ролику, см/км -    0.0 см 
SPID               .M/H                                    : 2 Скорость, м/час -    0.0 см 
TENS               .T                                      : 6 Натяжение кабеля, т -    0.0 см 
TIME               .S                                      : 4 Время, сек -    0.0 см 
~Ascii
# ...
2643.6     0          549.58     -366       -2028      0          30124.12  
2643.8     0          548.21     -366       -1980      0          30123.76  
2644       0          548.99     -366       -1980      0          30123.41  
2644.2     0          549.14     -366       -1980      0          30123.05  
2644.4     0          549.88     -366       -1980      0          30122.7   
2644.6     0          549.65     -366       -1982      0          30122.32  
2644.8     0          550.07     -366       -1993      0          30122     
2645       0          550.03     -366       -2044      0          30121.6   
2645.2     0          549.91     -366       -2015      0          30121.26  
2645.4     0          550.21     -366       -1981      0          30120.9   
2645.6     0          547.94     -366       -1984      0          30120.55  
2645.8     0          549.71     -366       -2006      0          30120.2   
2646       0          549.81     -366       -2050      0          30119.84  
2646.2     0          550.02     -366       -2047      0          30119.48  
2646.4     0          548.84     -366       -2030      0          30119.12  
2646.6     0          550.51     -366       -1980      0          30118.8   
2646.8     0          549.96     -366       -1980      0          30118.42  
2647       0          549.97     -366       -1981      0          30118.08  
2647.2     0          549.56     -366       -1985      0          30117.71  
2647.4     0          550.78     -366       -2012      0          30117.36  
2647.6     0          550.24     -366       -2049      0          30116.98  
2647.8     0          549.89     -366       -2042      0          30116.64  
2648       0          550.35     -366       -2002      0          30116.29  
2648.2     0          550.34     -366       -1938      0          30115.94  
2648.4     0          550.61     -366       -2037      0          30115.57  
2648.6     0          551.02     -366       -2049      0          30115.22  
2648.8     0          550.54     -366       -2043      0          30114.84  
2649       0          549.98     -366       -2002      0          30114.49  
2649.2     0          550.83     -366       -1995      0          30114.16  
2649.4     0          548.99     -366       -2050      0          30113.79  
2649.6     0          550.94     -366       -2050      0          30113.44  
2649.8     1          550.37     -366       -2049      0          30113.09  
2650       0          550.99     -366       -2046      0          30112.72  
2650.2     0          550.19     -365       -2027      0          30112.38  
2650.4     0          549.97     -365       -1990      0          30111.98  
2650.6     0          550.45     -365       -2046      0          30111.61  
2650.8     0          549.96     -365       -2027      0          30111.28  
2651       0          550.16     -365       -1980      0          30110.94  
2651.2     0          549.79     -365       -1983      0          30110.58  
2651.4     0          549.03     -365       -1999      0          30110.21  
2651.6     0          548.84     -365       -2043      0          30109.85  
2651.8     0          549.43     -365       -2006      0          30109.5   
2652       0          549.36     -365       -1994      0          30109.14  
2652.2     0          548.47     -365       -2045      0          30108.82  
2652.4     0          549.17     -365       -2019      0          30108.46  
2652.6     0          549.31     -365       -1973      0          30108.09  
2652.8     0          549.91     -365       -1932      0          30107.74  
2653       0          549.91     -365       -1963      0          30107.35  
2653.2     0          549.71     -365       -2050      0          30107     
2653.4     0          549.8      -365       -2050      0          30106.64  
2653.6     0          550.14     -365       -2048      0          30106.29  
2653.8     0          549.85     -365       -2038      0          30105.94  
2654       0          550.36     -365       -1969      0          30105.57  
2654.2     0          549.49     -365       -1945      0          30105.24  
2654.4     0          549.69     -365       -2045      0          30104.9   
2654.6     0          552.19     -365       -2016      0          30104.51  
2654.8     0          549.8      -365       -1991      0          30104.16  
2655       0          550.51     -365       -2043      0          30103.8   
2655.2     0          550.72     -365       -2005      0          30103.45  
2655.4     0          551.11     -365       -1935      0          30103.1   
2655.6     0          550.29     -365       -2034      0          30102.73  
2655.8     0          550.12     -365       -2029      0          30102.37  
2656       0          550.31     -365       -1980      0          30102.02  
2656.2     0          550.25     -365       -1982      0          30101.67  
2656.4     0          547.92     -365       -1996      0          30101.29  
2656.6     0          547.37     -365       -2049      0          30100.94  
2656.8     0          549.47     -365       -2047      0          30100.58  
2657       0          548.96     -365       -2027      0          30100.23  
2657.2     0          548.9      -365       -1928      0          30099.88  
2657.4     0          549.62     -365       -1970      0          30099.54  
2657.6     0          549.87     -365       -2049      0          30099.17  
2657.8     0          548.25     -365       -2047      0          30098.82  
2658       0          547.17     -365       -2027      0          30098.46  
2658.2     0          547.66     -365       -1980      0          30098.1   
2658.4     0          547.65     -365       -1980      0          30097.74  
2658.6     0          548.49     -365       -1980      0          30097.39  
2658.8     0          548.6      -365       -1980      0          30097.03  
2659       0          549.41     -365       -1982      0          30096.69  
2659.2     0          550.07     -365       -1991      0          30096.33  
2659.4     0          548.2      -365       -2050      0          30095.95  
2659.6     0          545.4      -365       -2050      0          30095.59  
2659.8     1          546.22     -365       -2049      0          30095.25  
2660       0          546.79     -365       -2046      0          30094.87  
2660.2     0          546.92     -364       -2022      0          30094.5   
2660.4     0          546.78     -364       -1974      0          30094.17  
2660.6     0          546.86     -364       -1934      0          30093.8   
2660.8     0          546.93     -364       -1959      0          30093.44  
2661       0          547.18     -364       -2050      0          30093.09  
2661.2     0          546.91     -364       -2047      0          30092.71  
2661.4     0          548.03     -364       -2035      0          30092.38  
2661.6     0          547.4      -364       -1980      0          30092.01  
2661.8     0          546.67     -364       -1982      0          30091.65  
2662       0          547.89     -364       -1992      0          30091.29  
2662.2     0          546.97     -364       -2050      0          30090.94  
2662.4     0          546.87     -364       -2049      0          30090.58  
2662.6     0          547.22     -364       -2040      0          30090.21  
2662.8     0          546.82     -364       -1996      0          30089.9   
2663       0          546.64     -364       -1979      0          30089.54  
2663.2     0          547.13     -364       -1974      0          30089.17  
2663.4     0          547.15     -364       -1945      0          30088.82  
2663.6     0          547.79     -364       -1951      0          30088.46  
2663.8     0          547.26     -364       -2044      0          30088.1   
2664       0          547.92     -364       -2006      0          30087.71  
2664.2     0          547.89     -364       -1996      0          30087.35  
