~Version
 VERS              .         2.0                           : CWLS LOG ASCII STANDARD - VERSION 2.0
 WRAP              .         NO                            : ONE LINE PER DEPTH STEP
 DLM               .         SPACE                         : DELIMITING CHARACTER(SPACE TAB OR COMMA)
~Well Information
#_______________________________________________________________________________
#
#PARAMETER_NAME    .UNIT     VALUE                         : DESCRIPTION
#_______________________________________________________________________________
STRT               .M        2664                          : First reference value
STOP               .M        2769.2                        : Last reference value
STEP               .M        0.1999999                     : Step increment
NULL               .         -9999                         : Missing value
COMP               .                                       : Company
WELL               .         616                           : Well name
FLD                .                                       : Field
LOC                .                                       : Location
CNTY               .                                       : County
STAT               .                                       : State
CTRY               .                                       : Country
SRVC               .                                       : Service Company
DATE               .                                       : Date
API                .                                       : API number
PROJECT_UPGRADE_TIME .         2021-03-18T21_24_50           : 
group              .         Good                          : 
~Parameter Information Block
#_______________________________________________________________________________
#
#PARAMETER_NAME    .UNIT     VALUE                         : DESCRIPTION
#_______________________________________________________________________________
SET                .         D1161_D                       : 
OTHER              .         Программное обеспечение станции MONITOR-386EX 25/12/99 15_08_10   BGF V52 22/08/01 16_56_30   3.2_BGF_N_3070031: 
OTHER_10           .         Тарировки_                    : 
OTHER_11           .         TM.GRD = 0.00403*TM$.UE + -1.19: 
OTHER_12           .         MN.ATM = (7.1e-006*TM.GRD + 0.02017)*(MN$.UE + -3.03*TM.GRD + -1833): 
OTHER_13           .         Id error                      : 
OTHER_2            .         Kedr.exe версия 3.4.2.51      : 
OTHER_3            .         KedrData.dll версия 3.4.2.24  : 
OTHER_4            .         Драйвер версия 2.1.1.8        : 
OTHER_5            .         Мнемоники версия 3.3 S        : 
OTHER_6            .         Прибор_ КСА-М1                : 
OTHER_7            .         Номер прибора_ 265            : 
OTHER_8            .         Режим_ КСА-М1                 : 
OTHER_9            .         Форма_ ТЕРМОМЕТР              : 
PROJECT_UPGRADE_TIME .         2021-03-18T21_24_49           : 
TLFamily_DEPT      .         Measured Depth                : 
TLFamily_GK        .         Gamma Ray                     : 
TLFamily_GK$       .                                       : 
TLFamily_LM        .         Casing Collar locator         : 
TLFamily_METKA     .                                       : 
TLFamily_MN        .                                       : 
TLFamily_MN$       .                                       : 
TLFamily_RCOR      .                                       : 
TLFamily_SPID      .         Spontaneous Potential         : 
TLFamily_STD       .                                       : 
TLFamily_TENS      .         Cable Tension                 : 
TLFamily_TIME      .         Time                          : 
TLFamily_TM        .         Temperature                   : 
TLFamily_TM$       .         Temperature                   : 
TLFamily_VGD       .         Gas Volume                    : 
group              .         prim                          : 
~Curve Information
#_______________________________________________________________________________
#
#LOGNAME           .UNIT     LOG_ID                        : DESCRIPTION
#_______________________________________________________________________________
DEPT               .M                                      : 1 Глубина, м -    0.0 см 
GK                 .MKR/H                                  : 15 Гамма-активность, мкр./ч -  110.0 см 
GK$                .UE                                     : 12 Гамма-активность, усл.ед. -  110.0 см 
LM                 .                                       : 10 Локатор муфт,  -   20.0 см 
METKA              .                                       : 3 Метки,  -    0.0 см 
MN                 .ATM                                    : 14 Давление, атм. -  160.0 см 
MN$                .UE                                     : 8 Давление, усл.ед. -  160.0 см 
RCOR               .CM/KM                                  : 5 Коррекция по ролику, см/км -    0.0 см 
SPID               .M/H                                    : 2 Скорость, м/час -    0.0 см 
STD                .                                       : 11 Приток,  -  170.0 см 
TENS               .T                                      : 6 Натяжение кабеля, т -    0.0 см 
TIME               .S                                      : 4 Время, сек -    0.0 см 
TM                 .GRD                                    : 13 Температура, °C -  180.0 см 
TM$                .UE                                     : 7 Температура, усл.ед. -  180.0 см 
VGD                .                                       : 9 Влагомер,  -  170.0 см 
~Ascii
# ...
2732.6     8.53       360        1          0          254.014    14313      -1400      -309       32373      0          16537.49   89.67      22546      6470      
2732.8     9.44       395        1          0          254.035    14314      -1400      -304       32373      0          16535.1    89.672     22547      6470      
2733       10.16      431        1          0          254.061    14315      -1400      -297       32373      0          16532.71   89.674     22547      6470      
2733.2     9.11       394        1          0          254.082    14316      -1400      -297       32373      0          16530.34   89.668     22545      6469      
2733.4     8.25       362        1          0          254.097    14317      -1400      -296       32373      0          16527.85   89.678     22548      6470      
2733.6     8.34       346        1          0          254.125    14318      -1400      -293       32372      0          16525.5    89.678     22548      6470      
2733.8     8.43       362        1          0          254.139    14319      -1400      -290       32373      0          16523.19   89.678     22548      6469      
2734       8.2        361        1          0          254.16     14320      -1400      -292       32373      0          16520.73   89.681     22549      6469      
2734.2     7.53       345        1          0          254.181    14321      -1400      -297       32373      0          16518.31   89.682     22549      6468      
2734.4     6.85       308        1          0          254.202    14322      -1400      -298       32373      0          16515.94   89.691     22551      6468      
2734.6     6.65       277        1          0          254.243    14324      -1400      -294       32373      0          16513.55   89.691     22551      6467      
2734.8     7.19       289        1          0          254.243    14324      -1400      -299       32374      0          16511.06   89.695     22552      6468      
2735       8.23       343        1          0          254.264    14325      -1400      -302       32372      0          16508.79   89.695     22552      6468      
2735.2     8.2        369        1          0          254.285    14326      -1400      -297       32373      0          16506.4    89.7       22553      6467      
2735.4     7.36       319        1          0          254.306    14327      -1400      -295       32373      0          16503.99   89.703     22554      6466      
2735.6     7.19       301        1060       0          254.327    14328      -1400      -300       32373      0          16501.53   89.703     22554      6466      
2735.8     7.89       319        1229       0          254.332    14328      -1400      -294       32373      0          16499.13   89.705     22555      6465      
2736       9.09       381        1          0          254.369    14330      -1400      -297       32373      0          16496.73   89.708     22555      6465      
2736.2     9.59       411        1          0          254.384    14331      -1400      -305       32372      0          16494.23   89.711     22556      6465      
2736.4     9.47       407        1          0          254.41     14332      -1400      -302       32373      0          16491.84   89.715     22557      6464      
2736.6     9.19       399        1          0          254.436    14333      -1400      -298       32373      0          16489.47   89.715     22557      6464      
2736.8     8.34       353        1          0          254.436    14333      -1400      -303       32373      0          16487.15   89.715     22557      6464      
2737       8.76       372        1          0          254.466    14335      -1400      -304       32372      0          16484.68   89.719     22558      6464      
2737.2     9.11       391        1          0          254.494    14336      -1400      -303       32373      0          16482.35   89.723     22559      6463      
2737.4     8.83       379        1          0          254.515    14337      -1400      -298       32373      0          16479.96   89.723     22559      6463      
2737.6     8.64       373        1          0          254.556    14339      -1400      -297       32374      0          16477.45   89.725     22560      6462      
2737.8     8.01       344        1          0          254.551    14339      -1400      -295       32373      0          16475.05   89.731     22561      6461      
2738       7.67       325        1          0          254.577    14340      -1400      -294       32373      0          16472.66   89.735     22562      6459      
2738.2     8.34       342        1          0          254.598    14341      -1400      -294       32373      0          16470.3    89.739     22563      6459      
2738.4     9.29       398        1          0          254.64     14343      -1400      -297       32373      0          16467.83   89.743     22564      6458      
2738.6     9.17       396        1          0          254.654    14344      -1400      -301       32373      0          16465.36   89.743     22564      6458      
2738.8     8.71       393        1          0          254.661    14344      -1400      -294       32373      0          16463.06   89.747     22565      6458      
2739       8.35       363        1          0          254.703    14346      -1400      -300       32373      0          16460.67   89.751     22566      6457      
2739.2     8.33       350        1          0          254.708    14346      -1400      -304       32372      0          16458.28   89.755     22567      6457      
2739.4     8.25       360        1          0          254.739    14348      -1400      -301       32373      0          16455.88   89.755     22567      6456      
2739.6     8.15       347        1          0          254.749    14348      -1400      -305       32372      0          16453.45   89.759     22568      6456      
2739.8     8.06       352        1          0          254.786    14350      -1400      -306       32372      0          16450.98   89.764     22569      6455      
2740       7.59       335        1          2          254.807    14351      -1400      -301       32372      0          16448.25   89.764     22569      6455      
2740.2     7.31       310        1          0          254.828    14352      -1400      -301       32373      0          16445.89   89.767     22570      6455      
2740.4     7.56       313        1          0          254.849    14353      -1400      -302       32374      0          16443.35   89.767     22570      6454      
2740.6     8.24       346        1          0          254.864    14354      -1400      -300       32372      0          16441.06   89.774     22572      6454      
2740.8     8.69       373        1          0          254.875    14354      -1400      -293       32373      0          16438.66   89.775     22572      6453      
2741       8.7        367        1          0          254.89     14355      -1400      -302       32373      0          16436.15   89.779     22573      6453      
2741.2     9.13       386        1          0          254.932    14357      -1400      -300       32373      0          16433.83   89.783     22574      6453      
2741.4     9.38       401        1          0          254.953    14358      -1400      -292       32372      0          16431.47   89.783     22574      6452      
2741.6     9.36       401        1          0          254.974    14359      -1400      -296       32372      0          16429.08   89.791     22576      6452      
2741.8     9.34       397        1          0          254.981    14359      -1400      -299       32373      0          16426.57   89.792     22576      6451      
2742       9.51       408        1          0          255.016    14361      -1400      -298       32372      0          16424.24   89.795     22577      6451      
2742.2     9.42       399        1          0          255.031    14362      -1400      -297       32373      0          16421.77   89.797     22578      6450      
