~Version
 VERS              .         2.0                           : CWLS LOG ASCII STANDARD - VERSION 2.0
 WRAP              .         NO                            : ONE LINE PER DEPTH STEP
 DLM               .         SPACE                         : DELIMITING CHARACTER(SPACE TAB OR COMMA)
~Well Information
#_______________________________________________________________________________
#
#PARAMETER_NAME    .UNIT     VALUE                         : DESCRIPTION
#_______________________________________________________________________________
STRT               .M        2647.6                        : First reference value
STOP               .M        2755.199839                   : Last reference value
STEP               .M        0.1999997                     : Step increment
NULL               .         -9999                         : Missing value
COMP               .                                       : Company
WELL               .         616                           : Well name
FLD                .                                       : Field
LOC                .                                       : Location
CNTY               .                                       : County
STAT               .                                       : State
CTRY               .                                       : Country
SRVC               .                                       : Service Company
DATE               .                                       : Date
API                .                                       : API number
PROJECT_UPGRADE_TIME .         2021-03-18T21_24_50           : 
group              .         Good                          : 
~Parameter Information Block
#_______________________________________________________________________________
#
#PARAMETER_NAME    .UNIT     VALUE                         : DESCRIPTION
#_______________________________________________________________________________
SET                .         D7024_D                       : 
OTHER              .         Kedr.exe версия 2.1.2.32      : 
OTHER_10           .         TM.GRD = 0.00404*TM$.UE + 0.07: 
OTHER_11           .         MN.ATM = (6.33279e-006*TM.GRD + 0.02401)*(MN$.UE + 2.72*TM.GRD + -2018): 
OTHER_12           .         GK.MKR/H = GK$.UE / 43.5489 + 0: 
OTHER_13           .         RES.SM = 0.00476*CRES.UE - 1.51709: 
OTHER_14           .         PL.GSM3 = 0 + 0 * (PL.UE / 1) +  0 * (PL.UE / 1)^2: 
OTHER_15           .         Постоянная времени ГГП = 6 сек: 
OTHER_16           .         Постоянная времени ГК = 6 сек : 
OTHER_2            .         KedrData.dll версия 3.2.2.14  : 
OTHER_3            .         LasInf.dll версия 3.2.0.13    : 
OTHER_4            .         Драйвер версия 1.2.0.5        : 
OTHER_5            .         Прибор_ КСА-M1                : 
OTHER_6            .         Номер прибора_ 155+р204       : 
OTHER_7            .         Режим_ КСА-М1 + ГГП + Резистивиметр: 
OTHER_8            .         Форма_ 223\2                  : 
OTHER_9            .         Тарировки_                    : 
PROJECT_UPGRADE_TIME .         2021-03-18T21_24_50           : 
TLFamily_CRES      .                                       : 
TLFamily_DEPT      .         Measured Depth                : 
TLFamily_GK        .         Gamma Ray                     : 
TLFamily_GK$       .                                       : 
TLFamily_LM        .         Casing Collar locator         : 
TLFamily_METKA     .                                       : 
TLFamily_MN        .                                       : 
TLFamily_MN$       .                                       : 
TLFamily_PL        .                                       : 
TLFamily_PL_2      .                                       : 
TLFamily_RCOR      .                                       : 
TLFamily_RES       .         Mud Resistivity               : 
TLFamily_SPID      .         Spontaneous Potential         : 
TLFamily_STD       .                                       : 
TLFamily_TIME      .         Time                          : 
TLFamily_TM        .         Temperature                   : 
TLFamily_TM$       .         Temperature                   : 
TLFamily_VGD       .         Gas Volume                    : 
group              .         prim                          : 
~Curve Information
#_______________________________________________________________________________
#
#LOGNAME           .UNIT     LOG_ID                        : DESCRIPTION
#_______________________________________________________________________________
DEPT               .M                                      : 1 Глубина, м -    0.0 см 
CRES               .UE                                     : 9 Проводимость, усл.ед. -  222.0 см 
GK                 .MKR/H                                  : 16 Гамма-активность, мкр./ч -  106.0 см 
GK$                .UE                                     : 13 Гамма-активность, усл.ед. -  106.0 см 
LM                 .                                       : 11 Локатор муфт,  -   16.0 см 
METKA              .                                       : 3 Метки,  -    0.0 см 
MN                 .ATM                                    : 15 Давление, атм. -  160.0 см 
MN$                .UE                                     : 7 Давление, усл.ед. -  160.0 см 
PL                 .UE                                     : 10 Плотность, усл.ед. -  270.0 см 
PL_2               .GSM3                                   : 18 Плотность, г./см3 -  270.0 см 
RCOR               .CM/KM                                  : 5 Коррекция по ролику, см/км -    0.0 см 
RES                .SM                                     : 17 Проводимость,  -  222.0 см 
SPID               .M/H                                    : 2 Скорость, м/час -    0.0 см 
STD                .                                       : 12 Приток,  -  170.0 см 
TIME               .S                                      : 4 Время, сек -    0.0 см 
TM                 .GRD                                    : 14 Температура, °C -  180.0 см 
TM$                .UE                                     : 6 Температура, усл.ед. -  180.0 см 
VGD                .                                       : 8 Влагомер,  -  170.0 см 
~Ascii
# ...
2737.799865 1202       11.33      485        96         0          378.74     17450      14         0          0          4.2021     568        9818       16422.41   50.098     12383      6712      
2737.999864 1204       11.23      485        115        0          379.114    17465      14         0          0          4.214      580        9834       16423.72   50.18      12404      6710      
2738.199864 1206       10.99      456        135        0          380.08     17504      14         0          0          4.2235     510        9853       16425.02   50.268     12425      6708      
2738.399864 1208       10.74      456        225        0          379.852    17494      14         0          0          4.2346     580        9865       16426.35   50.348     12445      6710      
2738.599864 1211       10.36      424        156        0          380.449    17517      14         0          0          4.2489     580        9876       16427.62   50.429     12465      6710      
2738.799863 1215       10.05      424        79         0          380.972    17538      14         0          0          4.2643     580        9894       16428.89   50.558     12497      6721      
2738.999863 1217       10         440        77         0          381.229    17548      14         0          0          4.2742     540        9918       16430.21   50.693     12530      6721      
2739.199863 1214       10.05      440        86         0          382.064    17582      14         0          0          4.2616     450        9940       16431.58   50.772     12550      6721      
2739.399862 1217       10.33      472        100        0          381.452    17556      14         0          0          4.2751     580        9958       16432.85   50.849     12569      6714      
2739.599862 1221       10.57      472        77         0          380.318    17509      14         0          0          4.2948     556        9977       16434.12   50.948     12594      6714      
2739.799862 1213       10.83      486        87         0          379.918    17491      14         0          0          4.2569     580        9998       16435.38   51.074     12625      6716      
2739.999861 1222       10.99      486        101        0          378.077    17415      14         0          0          4.2996     580        10022      16436.69   51.175     12650      6715      
2740.199861 1212       11.38      514        93         1          378.987    17451      14         0          0          4.252      580        10043      16438.58   51.289     12678      6720      
2740.399861 1210       11.58      513        111        0          378.502    17430      14         0          0          4.2441     557        10072      16439.88   51.45      12718      6718      
2740.59986 1217       11.6       506        150        0          378.791    17441      14         0          0          4.2775     510        10099      16441.21   51.588     12752      6717      
2740.79986 1230       11.61      506        107        0          377.48     17386      14         0          0          4.338      568        10128      16442.48   51.75      12792      6716      
2740.99986 1236       11.07      453        91         0          378.636    17433      14         0          0          4.3663     580        10156      16443.75   51.903     12830      6715      
2741.19986 1238       10.65      452        84         0          379.166    17454      14         0          0          4.3771     545        10183      16445.04   51.997     12853      6715      
2741.399859 1239       10.52      452        102        0          380.671    17515      14         0          0          4.379      580        10214      16446.37   52.147     12890      6715      
2741.599859 1245       10.74      489        100        0          380.233    17496      14         0          0          4.4091     580        10239      16447.7    52.267     12920      6716      
2741.799859 1247       10.97      489        94         0          380.665    17512      14         0          0          4.4186     560        10282      16448.96   52.376     12947      6714      
2741.999858 1250       11.14      494        132        0          379.564    17466      14         0          0          4.4337     580        10311      16450.24   52.61      13005      6713      
2742.199858 1253       11.24      494        92         0          378.744    17431      14         0          0          4.4465     580        10338      16451.53   52.764     13043      6712      
2742.399858 1256       11.25      488        108        0          378.87     17435      14         0          0          4.4621     580        10362      16452.87   52.946     13088      6709      
2742.599857 1259       11.23      488        95         0          379.56     17463      14         0          0          4.4741     510        10390      16454.14   53.102     13127      6702      
2742.799857 1260       11.06      470        89         0          379.613    17464      14         0          0          4.4789     580        10412      16455.44   53.218     13155      6707      
2742.999857 1262       10.93      470        86         0          382.23     17570      14         0          0          4.4924     533        10449      16456.74   53.434     13209      6707      
2743.199857 1264       10.57      441        80         0          379.332    17450      14         0          0          4.4995     580        10485      16458.01   53.606     13252      6701      
2743.399856 1269       10.35      441        109        0          382.925    17597      14         0          0          4.5241     580        10512      16459.3    53.696     13274      6695      
2743.599856 1270       10.21      438        116        0          380.83     17510      14         0          0          4.5281     534        10536      16460.63   53.776     13294      6700      
2743.799856 1274       10.16      443        85         0          382.089    17561      14         0          0          4.5464     540        10560      16461.93   53.913     13328      6701      
2743.999855 1274       10.26      451        81         0          383.59     17622      14         0          0          4.5472     580        10585      16463.24   54.038     13358      6694      
2744.199855 1277       10.3       451        82         0          382.653    17583      13         0          0          4.5614     580        10610      16464.5    54.182     13394      6690      
2744.399855 1279       10.46      463        85         0          382.214    17564      13         0          0          4.571      560        10633      16465.82   54.279     13418      6698      
2744.599854 1280       10.53      460        83         0          381.802    17546      14         0          0          4.5757     580        10658      16467.09   54.401     13448      6701      
2744.799854 1284       10.48      454        64         0          381.575    17536      14         0          0          4.5932     580        10686      16468.4    54.555     13486      6704      
2744.999854 1286       10.32      424        62         0          381.789    17544      14         0          0          4.6036     580        10709      16469.67   54.65      13510      6704      
2745.199854 1287       9.97       418        68         0          380.935    17507      14         0          0          4.609      522        10734      16471      54.776     13541      6702      
2745.399853 1293       9.79       418        87         0          380.684    17496      14         0          0          4.6352     580        10761      16472.31   54.96      13587      6702      
2745.599853 1294       9.7        418        95         0          379.842    17461      14         0          0          4.641      510        10789      16473.61   55.114     13625      6702      
2745.799853 1296       9.66       420        80         0          379.605    17450      14         0          0          4.6519     580        10816      16474.88   55.208     13648      6691      
