~Version
 VERS              .         2.0                           : CWLS LOG ASCII STANDARD - VERSION 2.0
 WRAP              .         NO                            : ONE LINE PER DEPTH STEP
 DLM               .         SPACE                         : DELIMITING CHARACTER(SPACE TAB OR COMMA)
~Well Information
#_______________________________________________________________________________
#
#PARAMETER_NAME    .UNIT     VALUE                         : DESCRIPTION
#_______________________________________________________________________________
STRT               .M        2648.8                        : First reference value
STOP               .M        2754.8                        : Last reference value
STEP               .M        0.2                           : Step increment
NULL               .         -9999                         : Missing value
COMP               .                                       : Company
WELL               .         616                           : Well name
FLD                .                                       : Field
LOC                .                                       : Location
CNTY               .                                       : County
STAT               .                                       : State
CTRY               .                                       : Country
SRVC               .                                       : Service Company
DATE               .                                       : Date
API                .                                       : API number
PROJECT_UPGRADE_TIME .         2021-03-18T21_24_50           : 
group              .         Good                          : 
~Parameter Information Block
#_______________________________________________________________________________
#
#PARAMETER_NAME    .UNIT     VALUE                         : DESCRIPTION
#_______________________________________________________________________________
SET                .         D7019_D                       : 
OTHER              .         Kedr.exe версия 2.1.2.32      : 
OTHER_10           .         TM.GRD = 0.00404*TM$.UE + 0.07: 
OTHER_11           .         MN.ATM = (6.33279e-006*TM.GRD + 0.02401)*(MN$.UE + 2.72*TM.GRD + -2018): 
OTHER_12           .         GK.MKR/H = GK$.UE / 43.5489 + 0: 
OTHER_13           .         RES.SM = 0.00476*CRES.UE - 1.51709: 
OTHER_14           .         PL.GSM3 = 0 + 0 * (PL.UE / 1) +  0 * (PL.UE / 1)^2: 
OTHER_15           .         Постоянная времени ГГП = 6 сек: 
OTHER_16           .         Постоянная времени ГК = 6 сек : 
OTHER_2            .         KedrData.dll версия 3.2.2.14  : 
OTHER_3            .         LasInf.dll версия 3.2.0.13    : 
OTHER_4            .         Драйвер версия 1.2.0.5        : 
OTHER_5            .         Прибор_ КСА-M1                : 
OTHER_6            .         Номер прибора_ 155+р204       : 
OTHER_7            .         Режим_ КСА-М1 + ГГП + Резистивиметр: 
OTHER_8            .         Форма_ 223\2                  : 
OTHER_9            .         Тарировки_                    : 
PROJECT_UPGRADE_TIME .         2021-03-18T21_24_50           : 
TLFamily_CRES      .                                       : 
TLFamily_DEPT      .         Measured Depth                : 
TLFamily_GK        .         Gamma Ray                     : 
TLFamily_GK$       .                                       : 
TLFamily_LM        .         Casing Collar locator         : 
TLFamily_METKA     .                                       : 
TLFamily_MN        .                                       : 
TLFamily_MN$       .                                       : 
TLFamily_PL        .                                       : 
TLFamily_PL_2      .                                       : 
TLFamily_RCOR      .                                       : 
TLFamily_RES       .         Mud Resistivity               : 
TLFamily_SPID      .         Spontaneous Potential         : 
TLFamily_STD       .                                       : 
TLFamily_TIME      .         Time                          : 
TLFamily_TM        .         Temperature                   : 
TLFamily_TM$       .         Temperature                   : 
TLFamily_VGD       .         Gas Volume                    : 
group              .         prim                          : 
~Curve Information
#_______________________________________________________________________________
#
#LOGNAME           .UNIT     LOG_ID                        : DESCRIPTION
#_______________________________________________________________________________
DEPT               .M                                      : 1 Глубина, м -    0.0 см 
CRES               .UE                                     : 9 Проводимость, усл.ед. -  222.0 см 
GK                 .MKR/H                                  : 16 Гамма-активность, мкр./ч -  106.0 см 
GK$                .UE                                     : 13 Гамма-активность, усл.ед. -  106.0 см 
LM                 .                                       : 11 Локатор муфт,  -   16.0 см 
METKA              .                                       : 3 Метки,  -    0.0 см 
MN                 .ATM                                    : 15 Давление, атм. -  160.0 см 
MN$                .UE                                     : 7 Давление, усл.ед. -  160.0 см 
PL                 .UE                                     : 10 Плотность, усл.ед. -  270.0 см 
PL_2               .GSM3                                   : 18 Плотность, г./см3 -  270.0 см 
RCOR               .CM/KM                                  : 5 Коррекция по ролику, см/км -    0.0 см 
RES                .SM                                     : 17 Проводимость,  -  222.0 см 
SPID               .M/H                                    : 2 Скорость, м/час -    0.0 см 
STD                .                                       : 12 Приток,  -  170.0 см 
TIME               .S                                      : 4 Время, сек -    0.0 см 
TM                 .GRD                                    : 14 Температура, °C -  180.0 см 
TM$                .UE                                     : 6 Температура, усл.ед. -  180.0 см 
VGD                .                                       : 8 Влагомер,  -  170.0 см 
~Ascii
# ...
2665.2     1250       6.26       295        107        0          244.707    11948      13         0          0          4.4329     510        9526       10374.25   48.647     12024      6653      
2665.4     1250       6.64       305        87         0          244.791    11952      14         0          0          4.4337     580        9524       10375.57   48.635     12021      6654      
2665.6     1251       6.81       305        94         0          244.814    11953      13         0          0          4.4377     545        9520       10376.88   48.626     12019      6652      
2665.8     1250       6.88       303        75         0          244.836    11954      14         0          0          4.4353     580        9518       10378.15   48.62      12017      6650      
2666       1250       6.92       302        118        0          244.833    11954      14         0          0          4.4329     580        9517       10379.46   48.6       12012      6652      
2666.2     1248       6.93       302        107        0          244.856    11955      14         0          0          4.4234     522        9513       10380.71   48.578     12007      6652      
2666.4     1250       7.02       321        91         0          244.879    11956      14         0          0          4.4313     510        9511       10382.05   48.569     12005      6655      
2666.6     1249       7.2        321        78         0          244.894    11957      14         0          0          4.4298     580        9509       10383.32   48.557     12002      6656      
2666.8     1248       7.27       319        54         0          244.925    11958      15         0          0          4.4234     580        9507       10384.61   48.543     11998      6655      
2667       1248       7.29       318        63         0          244.923    11958      14         0          0          4.4234     580        9505       10385.88   48.535     11996      6655      
2667.2     1248       7.36       332        71         0          244.957    11960      13         0          0          4.4218     510        9504       10387.2    48.524     11994      6651      
2667.4     1248       7.49       332        101        0          244.959    11960      14         0          0          4.4234     522        9500       10388.51   48.499     11987      6654      
2667.6     1247       7.73       356        47         0          245.015    11962      13         0          0          4.4194     580        9496       10389.78   48.484     11984      6654      
2667.8     1247       7.95       356        44         0          244.99     11961      14         0          0          4.4186     580        9492       10391.1    48.477     11982      6655      
2668       1247       7.85       314        55         0          245.012    11962      14         0          0          4.4186     580        9492       10392.34   48.472     11981      6656      
2668.2     1246       7.53       314        84         0          245.035    11963      13         0          0          4.4139     568        9490       10393.68   48.457     11977      6656      
2668.4     1246       7.17       286        109        0          245.058    11964      14         0          0          4.4131     580        9483       10394.93   48.445     11974      6656      
2668.6     1246       6.88       286        55         0          245.08     11965      14         0          0          4.4139     580        9480       10396.22   48.437     11972      6654      
2668.8     1246       6.65       278        101        0          245.089    11965      13         0          0          4.4118     580        9476       10397.5    48.415     11967      6656      
2669       1246       6.52       278        105        0          245.119    11967      14         0          0          4.4139     568        9475       10398.83   48.392     11961      6657      
2669.2     1246       6.46       279        85         0          245.121    11967      14         0          0          4.4139     580        9470       10400.13   48.373     11956      6657      
2669.4     1245       6.44       279        76         0          245.128    11967      14         0          0          4.4083     557        9467       10401.39   48.364     11954      6656      
2669.6     1245       6.66       306        66         0          245.142    11968      14         0          0          4.4067     533        9465       10402.73   48.355     11952      6655      
2669.8     1243       6.84       306        64         0          245.184    11970      15         0          0          4.4012     580        9462       10403.98   48.334     11946      6658      
2670       1243       7.34       346        81         0          245.185    11970      15         0          0          4.3996     522        9460       10405.29   48.316     11942      6660      
2670.2     1245       7.66       351        168        1          245.207    11971      15         0          0          4.4075     570        9456       10407.15   48.287     11935      6659      
2670.4     1244       8.12       375        100        0          245.218    11972      14         0          0          4.4067     580        9453       10408.47   48.273     11931      6656      
2670.6     1243       8.37       375        5829       0          245.211    11971      14         0          0          4.3996     510        9449       10409.78   48.263     11929      6659      
2670.8     1242       8.08       337        3660       0          245.252    11973      13         0          0          4.3948     580        9444       10411.04   48.24      11923      6659      
2671       1242       7.91       336        1698       0          245.272    11974      13         0          0          4.3948     522        9443       10412.33   48.222     11919      6660      
2671.2     1241       7.7        330        3200       0          245.296    11975      14         0          0          4.3901     580        9437       10413.59   48.209     11916      6661      
2671.4     1241       7.97       370        3454       0          245.314    11976      13         0          0          4.3893     580        9434       10414.91   48.209     11916      6660      
2671.6     1241       8.23       370        3785       0          245.343    11977      14         0          0          4.3901     545        9431       10416.2    48.188     11910      6660      
2671.8     1240       8.35       369        3584       0          245.34     11977      14         0          0          4.3853     580        9430       10417.53   48.17      11906      6661      
2672       1241       8.41       369        2970       0          245.384    11979      14         0          0          4.3901     580        9427       10418.78   48.151     11901      6661      
2672.2     1238       8.52       378        1163       0          245.392    11979      12         0          0          4.3766     580        9426       10420.1    48.138     11898      6660      
2672.4     1239       8.6        378        307        0          245.404    11980      14         0          0          4.3785     545        9419       10421.37   48.12      11894      6660      
2672.6     1239       8.77       392        192        0          245.423    11981      15         0          0          4.3813     580        9417       10422.63   48.107     11890      6661      
2672.8     1239       8.88       392        124        0          245.45     11982      12         0          0          4.3799     510        9415       10423.93   48.098     11888      6659      
2673       1239       8.91       389        73         0          245.454    11982      14         0          0          4.3826     510        9415       10425.32   48.081     11884      6661      
2673.2     1239       8.92       389        94         0          245.494    11984      13         0          0          4.3782     580        9414       10426.6    48.065     11880      6661      
