~Version
 VERS              .         2.0                           : CWLS LOG ASCII STANDARD - VERSION 2.0
 WRAP              .         NO                            : ONE LINE PER DEPTH STEP
 DLM               .         SPACE                         : DELIMITING CHARACTER(SPACE TAB OR COMMA)
~Well Information
#_______________________________________________________________________________
#
#PARAMETER_NAME    .UNIT     VALUE                         : DESCRIPTION
#_______________________________________________________________________________
STRT               .M        2700.4                        : First reference value
STOP               .M        2799                          : Last reference value
STEP               .M        0.2000002                     : Step increment
NULL               .         -9999                         : Missing value
COMP               .                                       : Company
WELL               .         616                           : Well name
FLD                .                                       : Field
LOC                .                                       : Location
CNTY               .                                       : County
STAT               .                                       : State
CTRY               .                                       : Country
SRVC               .                                       : Service Company
DATE               .                                       : Date
API                .                                       : API number
PROJECT_UPGRADE_TIME .         2021-03-18T21_24_50           : 
group              .         Good                          : 
~Parameter Information Block
#_______________________________________________________________________________
#
#PARAMETER_NAME    .UNIT     VALUE                         : DESCRIPTION
#_______________________________________________________________________________
SET                .         D2658_D                       : 
OTHER              .         Программное обеспечение станции MONITOR-386EX 25/12/99 15_08_10   BGF V50 26/12/00 07_26_01   3.1_SNGF___BGF_N_092085: 
OTHER_10           .         Тарировки_                    : 
OTHER_11           .         <_techsia_sc_> Постоянная времени фильтра ПС  0.5 сек, kf=0.139292: 
OTHER_2            .         Kedr.exe версия 3.3.2.32      : 
OTHER_3            .         KedrData.dll версия 3.3.2.17  : 
OTHER_4            .         Драйвер версия 2.1.0.7        : 
OTHER_5            .         Мнемоники версия 3.3 S        : 
OTHER_6            .         Прибор_ К1a-723м              : 
OTHER_7            .         Номер прибора_ 348/72         : 
OTHER_8            .         Режим_ K1A-723M               : 
OTHER_9            .         Форма_ БКЗ                    : 
PROJECT_UPGRADE_TIME .         2021-03-18T21_24_49           : 
TLFamily_BK        .         Lateral Log Resistivity       : 
TLFamily_DEPT      .         Measured Depth                : 
TLFamily_GZ1       .         Extra Shallow Resistivity     : 
TLFamily_GZ2       .         Shallow Resistivity           : 
TLFamily_GZ3       .         Medium Resistivity            : 
TLFamily_GZ4       .         Deep Resistivity              : 
TLFamily_GZ5       .         Extra Deep Resistivity        : 
TLFamily_GZ6       .         Medium Resistivity Inverted   : 
TLFamily_IBK       .                                       : 
TLFamily_IK        .         Conductivity                  : 
TLFamily_IPR       .                                       : 
TLFamily_METKA     .                                       : 
TLFamily_PS        .         Spontaneous Potential         : 
TLFamily_PZ        .         Potential Resistivity         : 
TLFamily_RCOR      .                                       : 
TLFamily_RES       .         Mud Resistivity               : 
TLFamily_SPID      .         Spontaneous Potential         : 
TLFamily_TENS      .         Cable Tension                 : 
TLFamily_TIME      .         Time                          : 
TLFamily_UBK       .         Uranium Concentration         : 
group              .         prim                          : 
~Curve Information
#_______________________________________________________________________________
#
#LOGNAME           .UNIT     LOG_ID                        : DESCRIPTION
#_______________________________________________________________________________
DEPT               .M                                      : 1 Глубина, м -    0.0 см 
BK                 .OHMM                                   : 20 БК, Ом*м - 1768.0 см 
GZ1                .OHMM                                   : 12 A0.4M0.1N, Ом*м - 1295.0 см 
GZ2                .OHMM                                   : 11 A1.0M0.1N, Ом*м - 1355.0 см 
GZ3                .OHMM                                   : 9 A2.0M0.5N, Ом*м - 1475.0 см 
GZ4                .OHMM                                   : 8 A4.0M0.5N, Ом*м - 1025.0 см 
GZ5                .OHMM                                   : 7 A8.0M1.0N, Ом*м - 1450.0 см 
GZ6                .OHMM                                   : 10 N0.5M2.0A, Ом*м - 1025.0 см 
IBK                .A                                      : 18 Ток БК, А - 1768.0 см 
IK                 .MSM/M                                  : 14 ИК, мСм/м - 1961.0 см 
IPR                .MA                                     : 17 Ток прибора, мA -    0.0 см 
METKA              .                                       : 3 Метки,  -    0.0 см 
PS                 .mV                                     : 16 ПС, мВ - 1210.0 см 
PZ                 .OHMM                                   : 13 N11M0.5A, Ом*м - 1225.0 см 
RCOR               .CM/KM                                  : 5 Коррекция по ролику, см/км -    0.0 см 
RES                .OHMM                                   : 15 Резистивиметр, Ом*м -  600.0 см 
SPID               .M/H                                    : 2 Скорость, м/час -    0.0 см 
TENS               .T                                      : 6 Натяжение кабеля, т -    0.0 см 
TIME               .S                                      : 4 Время, сек -    0.0 см 
UBK                .V                                      : 19 Напр. БК, В - 1768.0 см 
~Ascii
# ...
2722.6     21.22      18.9       9.1        7.7        6.5        10.2       39.4       0.013      67.4       428        0          541.46     30.7       -275       2.76       -1815      0          28306.04   1.165     
2722.8     20.78      22.9       12.2       7.9        7          10.4       36.5       0.015      60.7       426.804    0          534.21     32.1       -275       2.762      -1834      0          28305.65   1.335     
2723       20.13      24.2       17.4       8.1        7          10.3       32.4       0.018      56.8       426.667    0          530.11     33.1       -275       2.761      -1834      0          28305.28   1.567     
2723.2     19.22      24.3       25.7       8.6        7.3        10.3       30.2       0.022      54.1       428        0          527.59     34.1       -275       2.758      -1823      0          28304.87   1.814     
2723.4     20.62      24.7       31.1       9.2        7.3        10.2       28.7       0.023      51.5       426        0          526.11     35.1       -275       2.761      -1850      0          28304.46   1.975     
2723.6     22.4       25.1       33.1       9.9        7.7        10.5       28.3       0.021      49.5       426        0          526.71     36.7       -275       2.762      -1854      0          28304.08   1.993     
2723.8     21.35      25.4       33.3       11.3       8          11         27.9       0.022      48         428        0          527.56     37.9       -275       2.762      -1850      0          28303.85   2.003     
2724       22.7       25.8       34.5       13.4       8.4        11.5       27.5       0.021      47         427        0          527.99     38.3       -275       2.764      -1842      0          28303.31   1.995     
2724.2     29.5       26.4       35.7       17         8.8        12.2       27.2       0.016      45.4       426        0          529.95     37.9       -275       2.763      -1830      0          28302.93   2.003     
2724.4     27.49      26.6       37         22.7       9.7        12.7       27         0.017      45.4       425        0          532.76     36         -275       2.762      -1830      0          28302.54   2.015     
2724.6     23.5       28.9       40.9       27.3       10.5       13         25.4       0.02       45.8       424.512    0          535.69     33.3       -275       2.763      -1859      0          28302.14   2.002     
2724.8     15.85      30.9       44.2       29.3       11.3       13.1       22.6       0.03       47.5       427.5      0          539.87     31.6       -275       2.762      -1858      0          28301.76   2.001     
2725       15.79      32.5       46.9       29.5       11.7       13.6       19.9       0.03       50.3       428        0          545.34     31.3       -275       2.763      -1857      0          28301.37   1.976     
2725.2     22.98      30.6       45.9       30.1       11.9       13.6       19         0.02       51.9       427.333    0          549.67     32.8       -275       2.762      -1854      0          28301.01   1.941     
2725.4     20.93      25.6       41.4       29.7       11.8       13.6       18.2       0.021      53.4       427        0          547.45     33.4       -275       2.762      -1849      0          28300.59   1.855     
2725.6     20.51      24.4       40.2       28.7       11.6       13.4       16.7       0.02       58.3       425.488    0          539.73     32.3       -275       2.762      -1841      0          28300.2    1.703     
2725.8     20.92      25.3       37.8       28         11.1       12.9       15.4       0.017      60.8       426        0          534.47     31.1       -275       2.759      -1827      0          28299.82   1.514     
2726       20.94      27.1       36         27.6       11.1       11.9       14.7       0.016      64.1       426        0          533.13     29.4       -275       2.762      -1802      0          28299.43   1.404     
2726.2     21.13      27.7       35.5       27.6       11.3       11.3       14.4       0.015      67.9       427.333    0          533.34     26.2       -275       2.762      -1811      0          28299.04   1.332     
2726.4     21.16      27         36.6       27.6       11.9       10.8       14.3       0.014      70.5       428        0          535.8      21.1       -275       2.762      -1827      0          28298.63   1.267     
2726.6     18.06      27.3       39         28         13         10.2       13.8       0.016      74.6       426        0          540.44     16.7       -275       2.76       -1853      0          28298.31   1.207     
2726.8     7.84       28.2       40.5       29         14.6       9.6        13.2       0.036      77.8       426.4      0          547.91     14.4       -275       2.761      -1847      0          28297.86   1.188     
2727       7.57       29.7       41.5       28.5       15.4       9.1        12.6       0.037      82.4       426        0          558.58     13.1       -275       2.759      -1838      0          28297.48   1.184     
2727.2     7.59       23.1       32.2       25         14.6       8.5        12.5       0.037      85.3       427        0          568.76     13.1       -275       2.759      -1825      0          28297.09   1.177     
2727.4     7.47       14.6       22.4       20.1       13         8.4        12.9       0.037      85.3       424        0          572.18     13.5       -275       2.761      -1852      0          28296.7    1.172     
2727.6     7.44       11.1       17.2       17.7       12.1       7.9        14         0.037      83.3       427.012    0          571.94     15         -275       2.759      -1858      0          28296.29   1.167     
2727.8     7.32       10.1       14.7       16.3       11.8       7.7        15.6       0.038      81.6       426        0          570        17.8       -275       2.758      -1857      0          28295.9    1.167     
2728       7.24       9.7        12.4       15.5       11.8       8          18.5       0.038      78         426        0          564.38     22.6       -275       2.761      -1855      0          28295.55   1.167     
2728.2     9          9.2        11         15.2       12.4       8.3        21.6       0.031      74         425.333    0          553.41     26.3       -275       2.76       -1851      0          28295.13   1.177     
2728.4     18.84      10.5       11.3       15.2       13.3       8.5        22.5       0.015      68.5       426        0          540.6      27.9       -275       2.762      -1845      0          28294.75   1.212     
2728.6     20.55      15.2       12.8       15.5       14         8.4        21.8       0.015      66         428        0          533.25     28.5       -275       2.761      -1833      0          28294.41   1.268     
2728.8     18.86      21.5       14.4       15.4       14.6       8.5        20.8       0.017      66         426        0          528.9      28.8       -275       2.76       -1814      0          28293.98   1.338     
2729       17.94      23.5       16.7       15.2       14.8       8.6        20         0.019      65.7       428        0          525.47     28.9       -275       2.763      -1805      0          28293.6    1.429     
2729.2     18.01      23.9       20.5       15         15.4       8.4        19.8       0.02       65.6       427.333    0          523.36     28.9       -275       2.759      -1816      0          28293.27   1.547     
2729.4     18.69      24.8       27.4       14.8       15.8       8.3        19.2       0.021      65.5       428        0          522.88     28.7       -275       2.762      -1836      0          28292.8    1.671     
2729.6     17.95      25.4       30.2       14.7       15.7       8          18.4       0.023      66.3       427.317    0          523.06     28.6       -275       2.761      -1842      0          28292.42   1.712     
2729.8     17.29      25.4       30.6       14.5       15.6       7.9        17.7       0.024      66.4       426        1          522.92     28.6       -275       2.761      -1827      0          28292.05   1.721     
