~Version
 VERS              .         2.0                           : CWLS LOG ASCII STANDARD - VERSION 2.0
 WRAP              .         NO                            : ONE LINE PER DEPTH STEP
 DLM               .         SPACE                         : DELIMITING CHARACTER(SPACE TAB OR COMMA)
~Well Information
#_______________________________________________________________________________
#
#PARAMETER_NAME    .UNIT     VALUE                         : DESCRIPTION
#_______________________________________________________________________________
STRT               .M        19.65                         : First reference value
STOP               .M        2766.85                       : Last reference value
STEP               .M        0.2                           : Step increment
NULL               .         -9999                         : Missing value
COMP               .                                       : Company
WELL               .         616                           : Well name
FLD                .                                       : Field
LOC                .                                       : Location
CNTY               .                                       : County
STAT               .                                       : State
CTRY               .                                       : Country
SRVC               .                                       : Service Company
DATE               .                                       : Date
API                .                                       : API number
PROJECT_UPGRADE_TIME .         2021-03-18T21_24_50           : 
group              .         Good                          : 
~Parameter Information Block
#_______________________________________________________________________________
#
#PARAMETER_NAME    .UNIT     VALUE                         : DESCRIPTION
#_______________________________________________________________________________
SET                .         D7016_D_2                     : 
NPR                .         155                           : Номер прибора
OTHER              .         Kedr.exe версия 2.1.2.32      : 
OTHER_10           .         TM.GRD = 0.00404*TM$.UE + 0.07: 
OTHER_11           .         MN.ATM = (6.33279e-006*TM.GRD + 0.02401)*(MN$.UE + 2.72*TM.GRD + -2018): 
OTHER_12           .         GK.MKR/H = GK$.UE / 43.5489 + 0: 
OTHER_13           .         RES.SM = 0.00476*CRES.UE - 1.51709: 
OTHER_14           .         PL.GSM3 = 0 + 0 * (PL.UE / 1) +  0 * (PL.UE / 1)^2: 
OTHER_15           .         Постоянная времени ГГП = 6 сек: 
OTHER_16           .         Постоянная времени ГК = 6 сек : 
OTHER_2            .         KedrData.dll версия 3.2.2.14  : 
OTHER_3            .         LasInf.dll версия 3.2.0.13    : 
OTHER_4            .         Драйвер версия 1.2.0.5        : 
OTHER_5            .         Прибор_ КСА-M1                : 
OTHER_6            .         Номер прибора_ 155+р204       : 
OTHER_7            .         Режим_ КСА-М1 + ГГП + Резистивиметр: 
OTHER_8            .         Форма_ 223\2                  : 
OTHER_9            .         Тарировки_                    : 
PR                 .         КСА-Т7 М1                     : Тип прибора
PROJECT_UPGRADE_TIME .         2021-03-18T21_24_50           : 
PRTY               .         ПП-223_2                      : Номер партии
SRV                .         ЦКРС                          : Заказчик
SRVC               .         Лузин  А.Б.                   : Начальник партии
TLFamily_DEPT      .         Measured Depth                : 
TLFamily_LM        .         Casing Collar locator         : 
TLFamily_MN        .                                       : 
TLFamily_SPID      .         Spontaneous Potential         : 
TLFamily_TM        .         Temperature                   : 
group              .         second                        : 
~Curve Information
#_______________________________________________________________________________
#
#LOGNAME           .UNIT     LOG_ID                        : DESCRIPTION
#_______________________________________________________________________________
DEPT               .M                                      : Depth curve 
LM                 .е.ацп                                  : Локация муфт 
MN                 .атм                                    : Манометрия, атм 
SPID               .м/ч                                    : Скорость записи,м/час 
TM                 .град.С                                 : Термометрия,град.С 
~Ascii
# ...
1275.25    1174.064   113.83     1660       42.93     
1275.45    1872.932   113.85     1660       42.94     
1275.65    1133.986   113.88     1660       42.94     
1275.85    978.984    113.9      1660.002   42.95     
1276.05    800.155    113.91     1681.004   42.96     
1276.25    2492.924   113.93     1729.996   42.96     
1276.45    1667.959   113.93     1690.997   42.97     
1276.65    1217.024   113.95     1660       42.97     
1276.85    1482.981   113.98     1660       42.97     
1277.05    1270.969   113.98     1660       42.97     
1277.25    936.966    113.98     1660       42.98     
1277.45    563.039    114        1660       42.99     
1277.65    988.988    114.02     1660       42.99     
1277.85    861.989    114.04     1660       42.99     
1278.05    741.015    114.06     1660       43        
1278.25    901.018    114.08     1660       43        
1278.45    1099.033   114.08     1660       43.01     
1278.65    1462.992   114.1      1659.994   43.01     
1278.85    1370.998   114.1      1600       43.01     
1279.05    1348.008   114.11     1600.002   43.02     
1279.25    1436.974   114.16     1620.004   43.02     
1279.45    1150.997   114.17     1660       43.02     
1279.65    1115.977   114.18     1660       43.02     
1279.85    869.998    114.22     1660       43.03     
1280.05    851.992    114.23     1660.003   43.04     
1280.25    759.99     114.25     1689       43.04     
1280.45    646.019    114.25     1688.997   43.04     
1280.65    849.003    114.26     1659.996   43.05     
1280.85    883.561    114.29     1613.004   43.05     
1281.05    6977.632   114.3      1653.001   43.05     
1281.25    2985.924   114.33     1660       43.06     
1281.45    2164.938   114.33     1660       43.06     
1281.65    1486.965   114.35     1660       43.06     
1281.85    1107.034   114.37     1660.004   43.07     
1282.05    1475.962   114.42     1698.995   43.07     
1282.25    1066.981   114.43     1647.996   43.08     
1282.45    866.155    114.45     1600.005   43.08     
1282.65    2548.921   114.47     1656       43.09     
1282.85    1687.96    114.45     1660       43.1      
1283.05    1249.991   114.48     1660       43.1      
1283.25    1149.003   114.48     1660       43.11     
1283.45    1181.978   114.52     1660.003   43.11     
1283.65    941        114.55     1691       43.12     
1283.85    944.092    114.57     1690.997   43.13     
1284.05    1944.97    114.56     1659.995   43.13     
1284.25    1619.049   114.6      1610.004   43.14     
1284.45    2150.953   114.6      1657       43.14     
1284.65    1641.954   114.65     1660       43.14     
1284.85    1148.977   114.66     1660       43.15     
1285.05    899.988    114.68     1660       43.15     
1285.25    767.983    114.68     1660       43.15     
1285.45    580.997    114.74     1660       43.16     
1285.65    549.143    114.75     1660       43.16     
1285.85    2091.945   114.75     1660       43.17     
1286.05    1494.09    114.75     1660       43.17     
1286.25    2470.919   114.77     1660.001   43.18     
1286.45    1592.954   114.78     1667.005   43.18     
1286.65    1096.994   114.78     1717.995   43.19     
1286.85    1027.033   114.81     1660       43.19     
1287.05    1381.991   114.83     1660       43.19     
1287.25    1281.141   114.84     1659.996   43.2      
1287.45    2804.909   114.87     1618.998   43.2      
1287.65    1817.993   114.87     1600.006   43.2      
1287.85    1740.998   114.87     1659.994   43.21     
1288.05    1715.991   114.9      1600.002   43.21     
1288.25    1616.035   114.93     1617.004   43.21     
1288.45    1997.965   114.95     1660       43.22     
1288.65    1615.01    114.96     1660.004   43.22     
1288.85    1725.982   114.97     1700.994   43.23     
1289.05    1536.997   114.99     1635.997   43.23     
1289.25    1502.001   115.02     1600.006   43.23     
1289.45    1517.952   115.05     1660       43.24     
1289.65    1004.98    115.05     1660       43.24     
1289.85    789.135    115.07     1660       43.25     
1290.05    2240.929   115.08     1660       43.25     
1290.25    1473.928   115.1      1660       43.25     
1290.45    695.08     115.1      1659.999   43.26     
1290.65    1557.959   115.12     1648.995   43.26     
1290.85    1115.971   115.14     1600.003   43.25     
1291.05    804.985    115.17     1629.999   43.26     
1291.25    644.987    115.16     1620.998   43.27     
1291.45    503.261    115.21     1600.005   43.28     
1291.65    3318.116   115.22     1653.001   43.28     
1291.85    4563.871   115.22     1660.001   43.29     
1292.05    3169.912   115.25     1668.004   43.29     
1292.25    2227.956   115.25     1713.995   43.29     
1292.45    1756.951   115.27     1660       43.3      
1292.65    1234.971   115.29     1660       43.3      
1292.85    918.097    115.3      1659.996   43.31     
1293.05    1958.996   115.32     1617.998   43.31     
1293.25    1916.956   115.34     1600.006   43.31     
1293.45    1441.988   115.37     1660       43.32     
1293.65    1312.019   115.37     1660       43.33     
1293.85    1521.067   115.36     1660       43.32     
1294.05    2235.965   115.42     1660       43.33     
1294.25    1863.054   115.43     1660       43.33     
1294.45    2445.021   115.45     1659.996   43.34     
1294.65    2666.987   115.45     1617.998   43.35     
1294.85    2531.976   115.47     1600       43.35     
1295.05    2270.903   115.47     1600.006   43.35     
1295.25    1225.99    115.52     1660       43.36     
1295.45    1122.989   115.52     1660       43.36     
1295.65    1007.094   115.53     1660       43.37     
1295.85    2015.942   115.56     1660       43.37     
1296.05    1398.032   115.57     1660       43.38     
1296.25    1740.054   115.59     1659.995   43.38     
1296.45    2323.93    115.62     1606.999   43.38     
1296.65    1577.96    115.64     1600.012   43.38     
1296.85    1146.024   115.64     1725.994   43.39     
1297.05    1405.978   115.63     1660       43.4      
1297.25    1170.983   115.67     1660.003   43.4      
1297.45    983.986    115.68     1687.004   43.4      
1297.65    838.076    115.71     1729.996   43.41     
1297.85    1653.962   115.74     1686.997   43.41     
1298.05    1244.991   115.75     1660       43.41     
1298.25    1146.119   115.77     1660       43.42     
1298.45    2416.912   115.77     1660       43.42     
1298.65    1477.966   115.8      1660       43.43     
1298.85    1118.98    115.83     1660       43.43     
1299.05    908.043    115.83     1659.997   43.43     
1299.25    1368.993   115.83     1631.997   43.44     
1299.45    1289.967   115.86     1600.001   43.44     
1299.65    940.999    115.87     1614.004   43.44     
1299.85    927.027    115.89     1660       43.45     
1300.05    1217.982   115.9      1660       43.46     
1300.25    1029       115.94     1660       43.46     
1300.45    1033.028   115.94     1660       43.46     
1300.65    1327.979   115.95     1660       43.47     
1300.85    1107.985   115.98     1659.994   43.47     
1301.05    948.093    115.99     1600.001   43.48     
1301.25    1946.962   116.04     1616.002   43.48     
1301.45    1544.984   116.03     1636.997   43.49     
1301.65    1376.978   116.04     1600.004   43.49     
1301.85    1136.999   116.06     1639.002   43.5      
1302.05    1124.025   116.07     1660       43.5      
1302.25    1394.958   116.09     1660       43.5      
1302.45    942.981    116.12     1660       43.51     
1302.65    745.421    116.14     1659.998   43.51     
1302.85    5242.823   116.15     1641.999   43.51     
1303.05    3354.916   116.17     1627.003   43.52     
1303.25    2454.94    116.18     1660       43.52     
1303.45    1809.97    116.19     1660       43.53     
1303.65    1495.03    116.21     1660       43.53     
1303.85    1818.979   116.22     1660       43.54     
1304.05    1598.016   116.25     1660       43.54     
1304.25    1765.952   116.29     1660       43.55     
