~Version
 VERS              .         2.0                           : CWLS LOG ASCII STANDARD - VERSION 2.0
 WRAP              .         NO                            : ONE LINE PER DEPTH STEP
 DLM               .         SPACE                         : DELIMITING CHARACTER(SPACE TAB OR COMMA)
~Well Information
#_______________________________________________________________________________
#
#PARAMETER_NAME    .UNIT     VALUE                         : DESCRIPTION
#_______________________________________________________________________________
STRT               .M        2658.8                        : First reference value
STOP               .M        2765.199894                   : Last reference value
STEP               .M        0.1999998                     : Step increment
NULL               .         -9999                         : Missing value
COMP               .                                       : Company
WELL               .         616                           : Well name
FLD                .                                       : Field
LOC                .                                       : Location
CNTY               .                                       : County
STAT               .                                       : State
CTRY               .                                       : Country
SRVC               .                                       : Service Company
DATE               .                                       : Date
API                .                                       : API number
PROJECT_UPGRADE_TIME .         2021-03-18T21_24_50           : 
group              .         Good                          : 
~Parameter Information Block
#_______________________________________________________________________________
#
#PARAMETER_NAME    .UNIT     VALUE                         : DESCRIPTION
#_______________________________________________________________________________
SET                .         D7023_D_2                     : 
NPR                .         155                           : Номер прибора
OTHER              .         Kedr.exe версия 2.1.2.32      : 
OTHER_10           .         TM.GRD = 0.00404*TM$.UE + 0.07: 
OTHER_11           .         MN.ATM = (6.33279e-006*TM.GRD + 0.02401)*(MN$.UE + 2.72*TM.GRD + -2018): 
OTHER_12           .         GK.MKR/H = GK$.UE / 43.5489 + 0: 
OTHER_13           .         RES.SM = 0.00476*CRES.UE - 1.51709: 
OTHER_14           .         PL.GSM3 = 0 + 0 * (PL.UE / 1) +  0 * (PL.UE / 1)^2: 
OTHER_15           .         Постоянная времени ГГП = 6 сек: 
OTHER_16           .         Постоянная времени ГК = 6 сек : 
OTHER_2            .         KedrData.dll версия 3.2.2.14  : 
OTHER_3            .         LasInf.dll версия 3.2.0.13    : 
OTHER_4            .         Драйвер версия 1.2.0.5        : 
OTHER_5            .         Прибор_ КСА-M1                : 
OTHER_6            .         Номер прибора_ 155+р204       : 
OTHER_7            .         Режим_ КСА-М1 + ГГП + Резистивиметр: 
OTHER_8            .         Форма_ 223\2                  : 
OTHER_9            .         Тарировки_                    : 
PR                 .         КСА-Т7 М1                     : Тип прибора
PROJECT_UPGRADE_TIME .         2021-03-18T21_24_50           : 
PRTY               .         ПП-223_2                      : Номер партии
SRV                .         ЦКРС                          : Заказчик
SRVC               .         Лузин  А.Б.                   : Начальник партии
TLFamily_DEPT      .         Measured Depth                : 
TLFamily_LM        .         Casing Collar locator         : 
TLFamily_MN        .                                       : 
TLFamily_SPID      .         Spontaneous Potential         : 
TLFamily_TM        .         Temperature                   : 
group              .         second                        : 
~Curve Information
#_______________________________________________________________________________
#
#LOGNAME           .UNIT     LOG_ID                        : DESCRIPTION
#_______________________________________________________________________________
DEPT               .M                                      : Depth curve 
LM                 .е.ацп                                  : Локация муфт 
MN                 .атм                                    : Манометрия, атм 
SPID               .м/ч                                    : Скорость записи,м/час 
TM                 .град.С                                 : Термометрия,град.С 
~Ascii
2658.8000488 -9999      -9999      -9999      -9999     
2659       -9999      -9999      130.032    -9999     
2659.2     100.003    -9999      260.046    -9999     
2659.399999 111.112    -9999      450.032    -9999     
2659.599999 570.922    -9999      580.015    -9999     
2659.799999 252.999    -9999      639.985    -9999     
2659.999999 249.988    -9999      580        -9999     
2660.199999 202.045    -9999      580.015    -9999     
2660.399998 384.968    -9999      639.985    -9999     
2660.599998 251.979    352.73     580        -9999     
2660.799998 167.004    354.54     579.989    54.91     
2660.999998 183.997    353.07     533.011    54.92     
2661.199998 170        352.75     579.997    54.92     
2661.399997 168.014    353.4      568.003    54.92     
2661.599997 224        355.55     580        54.91     
2661.799997 224.988    355.7      579.983    54.91     
2661.999997 176.007    355.07     510.017    54.91     
2662.199997 205.997    355.25     580        54.91     
2662.399996 194.993    354.84     580        54.91     
2662.599996 165.998    354.08     580        54.9      
2662.799996 155.995    353.97     579.983    54.9      
2662.999996 134.016    353.82     510.017    54.89     
2663.199996 197.991    353.78     579.997    54.89     
2663.399995 160.999    353.37     568.003    54.89     
2663.599995 154.995    352.76     579.991    54.88     
2663.799995 134.004    353.53     544.996    54.88     
2663.999995 149.996    353        529.995    54.87     
2664.199995 134.001    352.84     510.014    54.87     
2664.399994 136.992    353.87     568.008    54.86     
2664.599994 105.009    355.4      599.985    54.86     
2664.799994 140.002    355.04     536.993    54.85     
2664.999994 147.002    355.45     510.017    54.85     
2665.199994 155.996    356.24     579.993    54.84     
2665.399993 138.999    355.27     552.999    54.84     
2665.599993 134        355.46     549.99     54.83     
2665.799993 133.003    355.59     510.015    54.83     
2665.999993 144.994    355.59     570.002    54.82     
2666.199993 121.004    355.17     580        54.82     
2666.399992 136.001    354.53     579.983    54.81     
2666.599992 141.992    353.06     510.017    54.81     
2666.799992 111.005    353.84     580        54.8      
2666.999992 131.997    353.92     579.988    54.8      
2667.199992 121.026    353.25     533.012    54.8      
2667.399991 228.98     353.03     580        54.79     
2667.599991 146.997    353.23     579.988    54.78     
2667.799991 135.006    354.2      533.002    54.78     
2667.999991 159.99     355.18     539.998    54.78     
2668.199991 118.002    356.43     532.012    54.77     
2668.39999 126.001    356.25     579.992    54.76     
2668.59999 128.992    355.91     547.999    54.76     
2668.79999 95.01      356.66     544.997    54.75     
2668.99999 135.074    357.01     533.012    54.75     
2669.19999 4518.577   356.84     580        54.74     
2669.399989 2789.483   356.64     579.989    54.73     
2669.599989 680.892    356        533.994    54.73     
2669.799989 239.967    355.24     510.017    54.72     
2669.999989 105.007    355.48     579.993    54.72     
2670.199989 134.999    355.32     549.993    54.71     
2670.399988 131.994    355.06     522.011    54.7      
2670.599988 106.001    354.8      568.003    54.7      
2670.799988 110.993    353.87     579.993    54.69     
2670.999988 83.01      354.57     549.99     54.68     
2671.199988 122.995    354.76     510.003    54.68     
2671.399987 103.007    354.81     522.006    54.67     
2671.599987 130.999    355.6      545.009    54.66     
2671.799987 125.992    356.39     580        54.65     
2671.999987 92         356.26     580        54.65     
2672.199987 94.005     355.25     580        54.64     
2672.399986 112.996    355.05     580        54.63     
2672.599986 95.997     355.25     579.983    54.63     
2672.799986 85.006     353.98     510.017    54.62     
2672.999986 109.003    354.9      579.997    54.62     
2673.199986 120.989    355.73     565.986    54.62     
2673.399985 75.013     356.13     510.017    54.61     
2673.599985 128.997    357.2      580        54.6      
2673.799985 117.998    356.08     579.993    54.6      
2673.999985 108.997    356.72     552.004    54.59     
2674.199985 96.001     357.92     567.986    54.59     
2674.399984 101.996    358.52     510.01     54.59     
2674.599984 84.007     358.27     550.007    54.59     
2674.799984 111.998    357.44     579.997    54.58     
2674.999984 104.999    357.38     567.988    54.57     
2675.199984 100.004    357.08     520.007    54.56     
2675.399983 116.994    357.1      550.007    54.56     
2675.599983 94.007     356.57     580        54.55     
2675.799983 122.992    355.58     579.986    54.55     
2675.999983 89.002     355.64     522.014    54.54     
2676.199983 98.006     355.64     579.983    54.53     
2676.399982 121.999    355.81     510.017    54.52     
2676.599982 116.994    357.42     580        54.52     
2676.799982 91.001     355.66     580        54.52     
2676.999982 95.002     356.31     579.983    54.51     
2677.199982 104.999    358.04     510        54.51     
2677.399981 100.997    357.8      510        54.5      
2677.599981 89.998     358.29     510.009    54.49     
2677.799981 83.003     358.28     545.009    54.49     
2677.999981 94.995     358.62     579.983    54.48     
2678.199981 73.006     358.21     510.014    54.48     
2678.39998 95.997     358.68     567.994    54.48     
2678.59998 83.005     358.08     545.009    54.47     
2678.79998 103.997    356.92     580        54.46     
2678.99998 89.997     356.53     580        54.46     
2679.19998 76.001     356.87     579.991    54.45     
2679.399979 82.001     356.04     545.009    54.44     
2679.599979 87.015     355.65     580        54.44     
2679.799979 148.003    355.8      580        54.44     
2679.999979 159.982    355.87     579.997    54.43     
2680.199979 88.022     357.3      568.003    54.42     
2680.399978 4244.362   357.97     579.991    54.42     
2680.599978 1646.696   358.43     545.003    54.41     
2680.799978 410.926    359.11     557.006    54.4      
2680.999978 110.998    358.46     579.997    54.39     
2681.199978 102.997    358.74     568.003    54.38     
2681.399977 89.018     359.94     579.995    54.37     
2681.599977 160.993    359.43     560.005    54.37     
2681.799977 132.993    355.7      580        54.35     
2681.999977 105.012    356.65     579.991    54.34     
2682.199977 154.997    357.56     545.009    54.34     
2682.399976 140.985    358.33     579.983    54.33     
2682.599976 81.002     358.6      510        54.33     
2682.799976 89.002     359.8      510.017    54.33     
2682.999976 96.997     359.44     580        54.32     
2683.199976 83.007     359.3      579.998    54.31     
2683.399975 110.011    360.23     569.988    54.31     
2683.599975 154.99     359.88     522.014    54.3      
2683.799975 112.997    358.83     579.988    54.29     
2683.999975 102.005    358.66     533.012    54.29     
2684.199975 121.002    358.23     579.983    54.28     
2684.399974 130.998    357.68     510.007    54.27     
2684.599974 122.001    357.7      540.01     54.27     
2684.799974 124.996    357.29     580        54.26     
2684.999974 109.993    356.89     580        54.26     
2685.199974 83.001     357.13     580        54.26     
2685.399973 85.999     357.65     579.994    54.25     
2685.599973 83         358.54     556.988    54.24     
2685.799973 82.013     358.01     510        54.23     
2685.999973 133.002    358.81     510.017    54.22     
2686.199973 142.997    358.52     580        54.21     
2686.399972 129.993    359.45     580        54.21     
2686.599972 99.997     360.43     580        54.21     
2686.799972 89.003     360.31     580        54.2      
2686.999972 102.006    360.21     579.988    54.2      
2687.199972 126.003    359.83     532.012    54.2      
2687.399971 139.992    360.22     580        54.19     
