~Version
 VERS              .         2.0                           : CWLS LOG ASCII STANDARD - VERSION 2.0
 WRAP              .         NO                            : ONE LINE PER DEPTH STEP
 DLM               .         SPACE                         : DELIMITING CHARACTER(SPACE TAB OR COMMA)
~Well Information
#_______________________________________________________________________________
#
#PARAMETER_NAME    .UNIT     VALUE                         : DESCRIPTION
#_______________________________________________________________________________
STRT               .M        2664                          : First reference value
STOP               .M        2769.2                        : Last reference value
STEP               .M        0.1999999                     : Step increment
NULL               .         -9999                         : Missing value
COMP               .                                       : Company
WELL               .         616                           : Well name
FLD                .                                       : Field
LOC                .                                       : Location
CNTY               .                                       : County
STAT               .                                       : State
CTRY               .                                       : Country
SRVC               .                                       : Service Company
DATE               .                                       : Date
API                .                                       : API number
PROJECT_UPGRADE_TIME .         2021-03-18T21_24_50           : 
group              .         Good                          : 
~Parameter Information Block
#_______________________________________________________________________________
#
#PARAMETER_NAME    .UNIT     VALUE                         : DESCRIPTION
#_______________________________________________________________________________
SET                .         D1161_D                       : 
OTHER              .         Программное обеспечение станции MONITOR-386EX 25/12/99 15_08_10   BGF V52 22/08/01 16_56_30   3.2_BGF_N_3070031: 
OTHER_10           .         Тарировки_                    : 
OTHER_11           .         TM.GRD = 0.00403*TM$.UE + -1.19: 
OTHER_12           .         MN.ATM = (7.1e-006*TM.GRD + 0.02017)*(MN$.UE + -3.03*TM.GRD + -1833): 
OTHER_13           .         Id error                      : 
OTHER_2            .         Kedr.exe версия 3.4.2.51      : 
OTHER_3            .         KedrData.dll версия 3.4.2.24  : 
OTHER_4            .         Драйвер версия 2.1.1.8        : 
OTHER_5            .         Мнемоники версия 3.3 S        : 
OTHER_6            .         Прибор_ КСА-М1                : 
OTHER_7            .         Номер прибора_ 265            : 
OTHER_8            .         Режим_ КСА-М1                 : 
OTHER_9            .         Форма_ ТЕРМОМЕТР              : 
PROJECT_UPGRADE_TIME .         2021-03-18T21_24_49           : 
TLFamily_DEPT      .         Measured Depth                : 
TLFamily_GK        .         Gamma Ray                     : 
TLFamily_GK$       .                                       : 
TLFamily_LM        .         Casing Collar locator         : 
TLFamily_METKA     .                                       : 
TLFamily_MN        .                                       : 
TLFamily_MN$       .                                       : 
TLFamily_RCOR      .                                       : 
TLFamily_SPID      .         Spontaneous Potential         : 
TLFamily_STD       .                                       : 
TLFamily_TENS      .         Cable Tension                 : 
TLFamily_TIME      .         Time                          : 
TLFamily_TM        .         Temperature                   : 
TLFamily_TM$       .         Temperature                   : 
TLFamily_VGD       .         Gas Volume                    : 
group              .         prim                          : 
~Curve Information
#_______________________________________________________________________________
#
#LOGNAME           .UNIT     LOG_ID                        : DESCRIPTION
#_______________________________________________________________________________
DEPT               .M                                      : 1 Глубина, м -    0.0 см 
GK                 .MKR/H                                  : 15 Гамма-активность, мкр./ч -  110.0 см 
GK$                .UE                                     : 12 Гамма-активность, усл.ед. -  110.0 см 
LM                 .                                       : 10 Локатор муфт,  -   20.0 см 
METKA              .                                       : 3 Метки,  -    0.0 см 
MN                 .ATM                                    : 14 Давление, атм. -  160.0 см 
MN$                .UE                                     : 8 Давление, усл.ед. -  160.0 см 
RCOR               .CM/KM                                  : 5 Коррекция по ролику, см/км -    0.0 см 
SPID               .M/H                                    : 2 Скорость, м/час -    0.0 см 
STD                .                                       : 11 Приток,  -  170.0 см 
TENS               .T                                      : 6 Натяжение кабеля, т -    0.0 см 
TIME               .S                                      : 4 Время, сек -    0.0 см 
TM                 .GRD                                    : 13 Температура, °C -  180.0 см 
TM$                .UE                                     : 7 Температура, усл.ед. -  180.0 см 
VGD                .                                       : 9 Влагомер,  -  170.0 см 
~Ascii
2664.0000000 -9999      -9999      -9999      -9999      -9999      -9999      -9999      -9999      -9999      -9999      -9999      -9999      -9999      -9999     
2664.2     -9999      -9999      -9999      -9999      -9999      -9999      -1400      -303       -9999      0          17350.27   -9999      -9999      -9999     
2664.4     -9999      -9999      -9999      0          -9999      -9999      -1400      -301       -9999      0          17347.96   -9999      -9999      -9999     
2664.6     -9999      -9999      1          0          -9999      -9999      -1400      -302       -9999      0          17345.51   -9999      -9999      -9999     
2664.8     -9999      -9999      1          0          -9999      -9999      -1400      -304       -9999      0          17343.19   -9999      -9999      -9999     
2665       -9999      -9999      1          0          -9999      -9999      -1400      -296       -9999      0          17340.89   -9999      -9999      -9999     
2665.2     -9999      -9999      1          0          -9999      -9999      -1400      -308       -9999      0          17338.47   -9999      -9999      -9999     
2665.4     6.77       286        1          0          -9999      -9999      -1400      -303       -9999      0          17336.19   -9999      -9999      -9999     
2665.6     6.8        296        1          0          -9999      -9999      -1400      -306       -9999      0          17333.91   -9999      -9999      -9999     
2665.8     6.53       281        1          0          247.139    13985      -1400      -309       -9999      0          17331.5    -9999      -9999      -9999     
2666       6.49       276        1          0          247.16     13986      -1400      -310       32195      0          17329.15   87.317     21962      6518      
2666.2     6.57       280        1          0          247.181    13987      -1400      -310       32195      0          17326.91   87.321     21963      6517      
2666.4     6.59       286        1          0          247.202    13988      -1400      -302       32192      0          17324.53   87.321     21963      6517      
2666.6     6.14       267        1          0          247.222    13989      -1400      -307       32192      0          17322.13   87.325     21964      6518      
2666.8     5.52       235        1          0          247.249    13990      -1400      -302       32195      0          17319.84   87.329     21965      6517      
2667       5.67       241        1          0          247.254    13991      -1400      -301       32200      0          17317.5    87.337     21967      6517      
2667.2     5.93       251        1          0          247.285    13992      -1400      -301       32203      0          17315.25   87.341     21968      6517      
2667.4     6.43       269        1          0          247.306    13993      -1400      -309       32205      0          17312.77   87.345     21969      6517      
2667.6     6.83       275        1          0          247.322    13994      -1400      -310       32202      0          17310.51   87.349     21970      6517      
2667.8     6.77       292        1          0          247.348    13995      -1400      -303       32202      0          17308.14   87.353     21971      6517      
2668       6.81       287        1          0          247.358    13996      -1400      -312       32204      0          17305.78   87.361     21973      6516      
2668.2     7.26       290        1          0          247.369    13996      -1400      -309       32207      0          17303.48   87.365     21974      6517      
2668.4     7.78       329        1          0          247.411    13998      -1400      -307       32208      0          17301.13   87.369     21975      6517      
2668.6     7.67       341        1          0          247.426    13999      -1400      -305       32211      0          17298.88   87.375     21976      6517      
2668.8     7.09       301        1          0          247.432    13999      -1400      -314       32214      0          17296.51   87.381     21978      6516      
2669       7.25       309        1          0          247.468    14001      -1400      -315       32223      0          17294.14   87.389     21980      6517      
2669.2     7.33       312        1          0          247.473    14001      -1400      -314       32225      0          17291.84   87.396     21982      6516      
2669.4     7.47       317        148        0          247.515    14003      -1400      -314       32222      0          17289.4    87.397     21982      6516      
2669.6     7.7        330        838        0          247.536    14004      -1400      -310       32221      0          17287.14   87.406     21984      6517      
2669.8     7.65       321        1          0          247.55     14005      -1400      -312       32220      0          17284.78   87.41      21985      6516      
2670       8.63       368        1          2          247.573    14006      -1400      -307       32221      0          17282.51   87.416     21987      6517      
2670.2     8.77       378        1          0          247.578    14006      -1400      -314       32225      0          17280.04   87.418     21987      6516      
2670.4     8.17       349        1          0          247.62     14008      -1400      -306       32224      0          17277.68   87.426     21989      6515      
2670.6     8.25       352        1          0          247.64     14009      -1400      -303       32228      0          17275.42   87.428     21989      6516      
2670.8     8.28       353        1          0          247.661    14010      -1400      -314       32232      0          17272.94   87.43      21990      6516      
2671       8.33       354        1          0          247.682    14011      -1400      -309       32235      0          17270.68   87.438     21992      6515      
2671.2     8.19       356        1          0          247.703    14012      -1400      -310       32237      0          17268.31   87.442     21993      6515      
2671.4     8.33       345        1          0          247.724    14013      -1400      -307       32234      0          17266.05   87.447     21994      6515      
2671.6     8.69       362        1          0          247.745    14014      -1400      -314       32236      0          17263.68   87.45      21995      6515      
2671.8     8.82       386        1          0          247.766    14015      -1400      -308       32240      0          17261.31   87.454     21996      6515      
2672       8.31       359        1          0          247.787    14016      -1400      -301       32243      0          17258.98   87.462     21998      6515      
2672.2     8.16       343        1          0          247.808    14017      -1400      -308       32245      0          17256.58   87.466     21999      6514      
2672.4     8.48       361        1          0          247.829    14018      -1400      -304       32247      0          17254.24   87.47      22000      6515      
2672.6     8.57       367        1          0          247.85     14019      -1400      -305       32250      0          17251.95   87.479     22002      6515      
2672.8     8.49       364        1          0          247.871    14020      -1400      -309       32254      0          17249.69   87.488     22005      6515      
2673       8.29       360        1          0          247.876    14020      -1400      -310       32259      0          17247.21   87.494     22006      6515      
2673.2     7.39       312        1          0          247.912    14022      -1400      -309       32263      0          17244.95   87.498     22007      6514      
2673.4     8          338        1          0          247.933    14023      -1400      -301       32268      0          17242.58   87.502     22008      6514      
2673.6     8.68       370        1          0          247.954    14024      -1400      -312       32266      0          17240.21   87.507     22009      6514      
