~Version
 VERS              .         2.0                           : CWLS LOG ASCII STANDARD - VERSION 2.0
 WRAP              .         NO                            : ONE LINE PER DEPTH STEP
 DLM               .         SPACE                         : DELIMITING CHARACTER(SPACE TAB OR COMMA)
~Well Information
#_______________________________________________________________________________
#
#PARAMETER_NAME    .UNIT     VALUE                         : DESCRIPTION
#_______________________________________________________________________________
STRT               .M        12                            : First reference value
STOP               .M        2758.6                        : Last reference value
STEP               .M        0.2                           : Step increment
NULL               .         -9999                         : Missing value
COMP               .                                       : Company
WELL               .         616                           : Well name
FLD                .                                       : Field
LOC                .                                       : Location
CNTY               .                                       : County
STAT               .                                       : State
CTRY               .                                       : Country
SRVC               .                                       : Service Company
DATE               .                                       : Date
API                .                                       : API number
PROJECT_UPGRADE_TIME .         2021-03-18T21_24_50           : 
group              .         Good                          : 
~Parameter Information Block
#_______________________________________________________________________________
#
#PARAMETER_NAME    .UNIT     VALUE                         : DESCRIPTION
#_______________________________________________________________________________
SET                .         616ULN                        : 
PROJECT_UPGRADE_TIME .         2021-03-18T21_24_49           : 
TLFamily_AK4       .                                       : 
TLFamily_ALFAK     .                                       : 
TLFamily_AMPL      .                                       : 
TLFamily_DEPTH     .         Measured Depth                : 
TLFamily_DK1       .                                       : 
TLFamily_DK2       .                                       : 
TLFamily_DTK       .         Compressional Slowness        : 
TLFamily_QCBL      .                                       : 
TLFamily_T1        .         Travel Time 1                 : 
TLFamily_T2        .         Travel Time 2                 : 
group              .         prim                          : 
~Curve Information
#_______________________________________________________________________________
#
#LOGNAME           .UNIT     LOG_ID                        : DESCRIPTION
#_______________________________________________________________________________
DEPTH              .M                                      : 0 Depth curve 
AK4                .                                       : 2 Амплитуда - Волна по колонне - Канал1 
ALFAK              .дБ/м                                   : 1 Затухание - Волна по колонне 
AMPL               .                                       : 8 Коэффициент усиления ВС 
DK1                .дБ                                     : 3 Кривая ослабления - Волна по колонне - Канал1 
DK2                .дБ                                     : 4 Кривая ослабления - Волна по колонне - Канал2 
DTK                .мкс/м                                  : 5 ДельтаТ - Волна по породе 
QCBL               .                                       : 9 Контакт цемент-колонна 
T1                 .мкс                                    : 6 Время пробега - Волна по породе - Канал1 
T2                 .мкс                                    : 7 Время пробега - Волна по породе - Канал2 
~Ascii
# ...
2742.2     208.51     34.124     1          35.04      47.735     426.356    3          308.316    521.378   
2742.4     211.832    33.975     1          34.906     48.031     429.417    3          307.717    522.427   
2742.6     219.403    33.847     1          34.614     48.137     430.09     3          307.366    522.412   
2742.8     226.885    33.654     1          34.326     48.452     431.296    3          307.17     522.819   
2743       233.987    33.219     1          34.056     48.619     432.634    3          307.292    523.61    
2743.2     236.823    32.581     1          33.948     48.301     434.145    3          307.416    524.489   
2743.4     240.381    31.862     1          33.814     47.787     435.445    3          307.763    525.487   
2743.6     247.207    31.238     1          33.601     47.036     435.88     3          308        525.941   
2743.8     264.891    30.813     1          33.092     46.047     434.663    3          308.323    525.656   
2744       288.415    30.778     1          32.411     45.161     431.905    3          308.464    524.418   
2744.2     313.109    31.05      1          31.679     44.8       427.722    3          308.741    522.603   
2744.4     332.485    31.403     1          31.091     44.576     423.208    3          308.809    520.414   
2744.6     344.553    31.659     1          30.72      44.67      419.57     3          308.867    518.653   
2744.8     340.885    31.888     1          30.797     45.26      417.498    3          308.707    517.456   
2745       328.225    31.95      1          31.134     46.21      416.868    3          308.624    517.059   
2745.2     314.85     31.836     1          31.493     46.797     418.094    3          308.389    517.436   
2745.4     306.792    31.593     1          31.714     46.828     420.713    3          308.375    518.733   
2745.6     298.427    31.447     1          31.946     46.777     423.947    3          308.497    520.472   
2745.8     298.021    31.372     1          31.952     46.462     427.781    3          308.62     522.512   
2746       303.389    31.525     1          31.798     45.888     432.41     3          308.646    524.852   
2746.2     313.107    31.743     1          31.524     45.472     437.046    3          308.548    527.072   
2746.4     316.798    32.005     1          31.422     45.253     441.396    3          308.422    529.121   
2746.6     319.126    32.131     1          31.356     45.101     444.995    3          308.13     530.628   
2746.8     311.561    32.157     1          31.582     45.083     448.305    3          307.942    532.095   
2747       304.461    31.859     1          31.797     45.196     448.986    3          307.757    532.251   
2747.2     295.134    31.377     1          32.074     45.853     443.644    3          307.697    529.637   
2747.4     292.607    30.823     1          32.15      46.92      428.097    3          307.813    522.096   
2747.6     292.49     30.369     1          32.16      47.675     412.343    3          308.46     514.775   
2747.8     307.538    29.956     1          31.759     47.428     399.522    3          309.409    507.194   
2748       326.769    29.284     1          31.249     46.692     387.541    3          310.489    499.186   
2748.2     348.487    28.402     1          30.681     44.998     380.563    3          311.576    492.613   
2748.4     364.514    27.269     1          30.265     42.793     382.039    3          312.227    486.756   
2748.6     380.386    26.229     1          29.853     41.14      387.521    3          312.208    482.511   
2748.8     386.277    26.097     1          29.681     40.665     389.541    3          311.539    479.878   
2749       378.36     26.808     1          29.876     41.353     387.921    3          310.893    477.512   
2749.2     361.098    27.894     1          30.308     42.556     382.66     3          310.25     476.401   
2749.4     342.7      29.445     1          30.785     44.25      381.406    3          309.839    479.442   
2749.6     328.68     31.026     1          31.144     45.598     378.99     3          309.574    485.038   
2749.8     318.954    31.707     1          31.387     46.304     378.569    3          309.679    490.024   
2750       316.404    31.88      1          31.44      46.057     378.695    3          309.752    494.1     
2750.2     314.723    31.966     1          31.483     45.718     379.366    3          309.705    496.28    
2750.4     312.17     31.886     1          31.569     45.286     369.7      3          309.433    494.226   
2750.6     305.988    31.669     1          31.753     44.897     356.813    3          309.215    487.474   
2750.8     300.148    31.356     1          31.922     45.105     341.114    3          309.101    479.43    
2751       297.85     31.118     1          31.981     45.807     330.645    3          309.095    474.09    
2751.2     302.177    30.949     1          31.855     46.366     325.406    3          309.194    471.453   
2751.4     310.496    30.949     1          31.607     46.783     337.059    3          309.207    477.177   
2751.6     322.437    31.024     1          31.273     46.357     357.835    3          309.107    487.43    
2751.8     329.967    31.284     1          31.067     45.292     382.842    3          308.877    498.747   
2752       336.246    31.592     1          30.91      43.877     405.214    3          308.643    508.237   
2752.2     334.548    31.983     1          30.963     42.621     425.239    3          308.538    515.9     
2752.4     331.787    32.224     1          31.045     41.541     436.156    3          308.536    518.006   
2752.6     319.955    32.335     1          31.364     41.738     438.615    3          308.721    514.815   
2752.8     308.776    32.329     1          31.668     42.56      436.959    3          308.647    509.55    
2753       293.365    32.321     1          32.089     43.633     435.145    3          308.339    505.666   
2753.2     286.888    32.403     1          32.27      44.906     432.439    3          307.803    504.79    
2753.4     283.653    32.57      1          32.357     46.196     428.479    3          307.538    506.012   
2753.6     284.912    32.795     1          32.32      46.857     422.793    3          307.42     507.773   
2753.8     284.864    32.918     1          32.321     46.792     416.395    3          307.452    510.184   
2754       281.691    33.078     1          32.431     46.49      410.235    3          307.588    511.713   
2754.2     275.985    33.229     1          32.617     45.953     406.1      3          307.841    511.422   
2754.4     268.649    33.425     1          32.855     45.103     403.148    3          307.969    510.059   
2754.6     265.962    33.528     1          32.939     44.501     401.858    3          307.855    509.114   
2754.8     260.881    33.592     1          33.125     44.515     393.769    3          307.463    504.316   
2755       257.291    33.461     1          33.264     45.043     376.931    3          307.078    495.149   
2755.2     251.319    33.035     1          33.478     45.927     358.44     3          306.455    482.83    
2755.4     249.351    32.384     1          33.544     47.188     339.108    3          305.991    470.495   
2755.6     247.493    31.681     1          33.608     48.121     321.124    3          305.751    457.949   
2755.8     253.121    31.08      1          33.411     48.333     316.47     3          306.139    450.183   
2756       268.873    30.571     1          32.91      47.692     325.468    3          306.541    449.428   
2756.2     291.504    30.226     1          32.209     46.584     341.19     3          307.057    455.518   
2756.4     315.812    29.97      1          31.505     45.031     359.993    3          307.518    465.553   
2756.6     336.09     29.821     1          30.938     43.69      377.028    3          307.758    476.841   
