~Version
 VERS              .         2.0                           : CWLS LOG ASCII STANDARD - VERSION 2.0
 WRAP              .         NO                            : ONE LINE PER DEPTH STEP
 DLM               .         SPACE                         : DELIMITING CHARACTER(SPACE TAB OR COMMA)
~Well Information
#_______________________________________________________________________________
#
#PARAMETER_NAME    .UNIT     VALUE                         : DESCRIPTION
#_______________________________________________________________________________
STRT               .M        3.4                           : First reference value
STOP               .M        832.4                         : Last reference value
STEP               .M        0.2                           : Step increment
NULL               .         -9999                         : Missing value
COMP               .                                       : Company
WELL               .         616                           : Well name
FLD                .                                       : Field
LOC                .                                       : Location
CNTY               .                                       : County
STAT               .                                       : State
CTRY               .                                       : Country
SRVC               .                                       : Service Company
DATE               .                                       : Date
API                .                                       : API number
PROJECT_UPGRADE_TIME .         2021-03-18T21_24_50           : 
group              .         Good                          : 
~Parameter Information Block
#_______________________________________________________________________________
#
#PARAMETER_NAME    .UNIT     VALUE                         : DESCRIPTION
#_______________________________________________________________________________
SET                .         ULN                           : 
PROJECT_UPGRADE_TIME .         2021-03-18T21_24_50           : 
TLFamily_AK4       .                                       : 
TLFamily_ALFAK     .                                       : 
TLFamily_AMPL      .                                       : 
TLFamily_DEPTH     .         Measured Depth                : 
TLFamily_DK1       .                                       : 
TLFamily_DK2       .                                       : 
TLFamily_DTK       .         Compressional Slowness        : 
TLFamily_QCBL      .                                       : 
TLFamily_T1        .         Travel Time 1                 : 
TLFamily_T2        .         Travel Time 2                 : 
group              .         prim                          : 
~Curve Information
#_______________________________________________________________________________
#
#LOGNAME           .UNIT     LOG_ID                        : DESCRIPTION
#_______________________________________________________________________________
DEPTH              .M                                      : 0 Depth curve 
AK4                .                                       : 2 Амплитуда - Волна по колонне - Канал1 
ALFAK              .дБ/м                                   : 1 Затухание - Волна по колонне 
AMPL               .                                       : 8 Коэффициент усиления ВС 
DK1                .дБ                                     : 3 Кривая ослабления - Волна по колонне - Канал1 
DK2                .дБ                                     : 4 Кривая ослабления - Волна по колонне - Канал2 
DTK                .мкс/м                                  : 5 ДельтаТ - Волна по породе 
QCBL               .                                       : 9 Контакт цемент-колонна 
T1                 .мкс                                    : 6 Время пробега - Волна по породе - Канал1 
T2                 .мкс                                    : 7 Время пробега - Волна по породе - Канал2 
~Ascii
# ...
718.8      1595.11    16.792     1          24.105     31.586     196        2          349        447.001   
719        2082.066   19.228     1          22.46      31.04      196        2          349        447.001   
719.2      2585.478   22.151     1          20.739     30.781     196        2          349        447.001   
719.4      3167.432   22.214     1          20.456     31.563     196        2          349        447.001   
719.6      2964.346   19.013     1          21.033     30.54      196        2          349        447.001   
719.8      2749.667   17.856     1          21.647     30.575     196        2          349        447.001   
720        3009.601   17.2       1          20.927     29.527     196        2          349        447.001   
720.2      3269.535   17.098     1          20.207     28.756     196        2          349        447.001   
720.4      3736.295   15.07      1          20.465     29.091     196        2          349        447.001   
720.6      3141.625   11.887     1          22.494     29.529     196        2          349        447.001   
720.8      2546.956   10.163     1          24.522     30.696     196        2          349        447.001   
721        1757.055   10.075     1          25.537     30.574     196        2          349        447.001   
721.2      1757.055   12.173     1          25.537     31.624     196        2          349        447.001   
721.4      2008.013   14.475     1          24.504     31.742     196        2          349        447.001   
721.6      2593.332   17.941     1          22.499     31.765     196        2          349        447.001   
721.8      3343.215   22.019     1          20.112     31.418     196        2          349        447.001   
722        3539.194   24.603     1          19.503     30.122     196        2          349        447.001   
722.2      3625.589   25.359     1          19.296     29.998     196        2          349        447.001   
722.4      3547.422   24.467     1          19.471     29.726     196        2          349        447.001   
722.6      3772.2     21.943     1          18.901     29.872     196        2          349        447.001   
722.8      3772.2     21.553     1          18.901     29.677     196        2          349        447.001   
723        3768.086   21.065     1          18.91      29.443     196        2          349        447.001   
723.2      3763.972   23.32      1          18.92      30.58      196        2          349        447.001   
723.4      3331.62    20.697     1          20.14      30.488     196        2          349        447.001   
723.6      2903.384   17.72      1          21.35      30.21      196        2          349        447.001   
723.8      2615.025   16.445     1          22.107     30.33      196        2          349        447.001   
724        2476.269   15.538     1          22.64      30.41      196        2          349        447.001   
724.2      2184.918   13.143     1          23.902     30.473     196        2          349        447.001   
724.4      1753.689   6.724      1          25.616     28.978     196        2          349        447.001   
724.6      1601.094   5.318      1          26.344     27.077     195.741    2          349        447.442   
724.8      1995.197   8.311      1          24.743     26.973     195.223    2          350.142    448.326   
725        2389.301   12.094     1          23.142     27.263     196.06     2          351.285    449.886   
725.2      3203.481   15.215     1          20.46      28.067     196.127    2          353.073    451.137   
725.4      3623.558   16.037     1          19.379     27.397     196.208    2          353.719    451.823   
725.6      3699.191   14.505     1          19.333     26.975     202.809    2          353.47     451.98    
725.8      3010.303   12.282     1          21.405     27.611     218.314    2          351.682    457.945   
726        2321.414   11.003     1          23.477     29.043     226.409    2          349.894    460.204   
726.2      1976.97    13.43      1          24.513     30.904     218.971    2          349        458.486   
726.4      2177.811   16.434     1          23.742     31.96      203.657    2          349        450.829   
726.6      2378.653   18.64      1          22.972     32.292     196        2          349        447.001   
726.8      2616.521   19.233     1          23.006     31.697     196        2          349        447.001   
727        2249.994   13.685     1          24.615     30.531     196        2          349        447.001   
727.2      1883.468   8.91       1          26.224     29.752     196        2          349        447.001   
727.4      1723.394   6.326      1          25.866     29.03      196        2          349        447.001   
727.6      2353.968   9.43       1          23.482     28.197     196        2          349        447.001   
727.8      3125.169   12.21      1          20.757     26.862     196        2          349        447.001   
728        3652.891   15.84      1          19.193     27.113     196        2          349        447.001   
728.2      3441.204   14.635     1          18.829     27.115     196        2          349        447.001   
728.4      3461.774   14.349     1          18.782     26.925     196        2          349        447.001   
728.6      3482.344   12.974     1          18.735     26.191     196        2          349        447.001   
728.8      3730.311   14.991     1          19.008     26.503     196        2          349        447.001   
729        3627.459   15.453     1          19.249     26.976     196        2          349        447.001   
729.2      3524.607   14.185     1          19.491     26.584     196        2          349        447.001   
729.4      3546.674   14.451     1          19.436     26.662     196        2          349        447.001   
729.6      3546.674   14.83      1          19.436     26.851     196        2          349        447.001   
729.8      3628.581   16.756     1          19.242     27.62      196        2          349        447.001   
730        3710.489   16.792     1          19.048     27.444     196        2          349        447.001   
730.2      3862.709   17.72      1          18.698     27.558     196        2          349        447.001   
730.4      3933.022   17.874     1          18.541     27.478     196        2          349        447.001   
730.6      3706.748   16.476     1          19.112     27.35      196        2          349        447.001   
730.8      3677.576   14.191     1          19.176     26.271     196        2          349        447.001   
731        3798.006   12.326     1          18.926     25.089     196        2          349        447.001   
731.2      4215.022   12.22      1          17.948     24.058     196        2          349        447.001   
731.4      4287.58    9.88       1          17.791     22.731     196        2          349        447.001   
731.6      4355.567   8.506      1          17.659     21.912     195.173    2          349.414    447.001   
731.8      4423.228   7.168      1          17.528     21.111     187.678    2          353.161    447.001   
732        4567.934   7.859      1          17.238     21.168     180.184    2          356.908    447.001   
732.2      4135.664   5.579      1          18.205     20.994     181.011    2          356.495    447.001   
732.4      3703.722   4.251      1          19.171     21.296     188.505    2          352.747    447.001   
732.6      3271.779   3.142      1          20.137     21.708     196        2          349        447.001   
732.8      3396.323   6.076      1          19.824     22.862     196        2          349        447.001   
733        3520.867   8.871      1          19.511     23.946     196        2          349        447.001   
733.2      3470.002   11.034     1          19.649     25.166     196        2          349        447.001   
