~Version
 VERS              .         2.0                           : CWLS LOG ASCII STANDARD - VERSION 2.0
 WRAP              .         NO                            : ONE LINE PER DEPTH STEP
 DLM               .         SPACE                         : DELIMITING CHARACTER(SPACE TAB OR COMMA)
~Well Information
#_______________________________________________________________________________
#
#PARAMETER_NAME    .UNIT     VALUE                         : DESCRIPTION
#_______________________________________________________________________________
STRT               .M        21.55                         : First reference value
STOP               .M        2764.75                       : Last reference value
STEP               .M        0.2                           : Step increment
NULL               .         -9999                         : Missing value
COMP               .                                       : Company
WELL               .         616                           : Well name
FLD                .                                       : Field
LOC                .                                       : Location
CNTY               .                                       : County
STAT               .                                       : State
CTRY               .                                       : Country
SRVC               .                                       : Service Company
DATE               .                                       : Date
API                .                                       : API number
PROJECT_UPGRADE_TIME .         2021-03-18T21_24_50           : 
group              .         Good                          : 
~Parameter Information Block
#_______________________________________________________________________________
#
#PARAMETER_NAME    .UNIT     VALUE                         : DESCRIPTION
#_______________________________________________________________________________
SET                .         D7028_D_2                     : 
NPR                .         155                           : Номер прибора
OTHER              .         Kedr.exe версия 2.1.2.32      : 
OTHER_10           .         TM.GRD = 0.00404*TM$.UE + 0.07: 
OTHER_11           .         MN.ATM = (6.33279e-006*TM.GRD + 0.02401)*(MN$.UE + 2.72*TM.GRD + -2018): 
OTHER_12           .         GK.MKR/H = GK$.UE / 43.5489 + 0: 
OTHER_13           .         RES.SM = 0.00476*CRES.UE - 1.51709: 
OTHER_14           .         PL.GSM3 = 0 + 0 * (PL.UE / 1) +  0 * (PL.UE / 1)^2: 
OTHER_15           .         Постоянная времени ГГП = 6 сек: 
OTHER_16           .         Постоянная времени ГК = 6 сек : 
OTHER_2            .         KedrData.dll версия 3.2.2.14  : 
OTHER_3            .         LasInf.dll версия 3.2.0.13    : 
OTHER_4            .         Драйвер версия 1.2.0.5        : 
OTHER_5            .         Прибор_ КСА-M1                : 
OTHER_6            .         Номер прибора_ 155+р204       : 
OTHER_7            .         Режим_ КСА-М1 + ГГП + Резистивиметр: 
OTHER_8            .         Форма_ 223\2                  : 
OTHER_9            .         Тарировки_                    : 
PR                 .         КСА-Т7 М1                     : Тип прибора
PROJECT_UPGRADE_TIME .         2021-03-18T21_24_50           : 
PRTY               .         ПП-223_2                      : Номер партии
SRV                .         ЦКРС                          : Заказчик
SRVC               .         Лузин  А.Б.                   : Начальник партии
TLFamily_DEPT      .         Measured Depth                : 
TLFamily_LM        .         Casing Collar locator         : 
TLFamily_MN        .                                       : 
TLFamily_SPID      .         Spontaneous Potential         : 
TLFamily_TM        .         Temperature                   : 
group              .         second                        : 
~Curve Information
#_______________________________________________________________________________
#
#LOGNAME           .UNIT     LOG_ID                        : DESCRIPTION
#_______________________________________________________________________________
DEPT               .M                                      : Depth curve 
LM                 .е.ацп                                  : Локация муфт 
MN                 .атм                                    : Манометрия, атм 
SPID               .м/ч                                    : Скорость записи,м/час 
TM                 .град.С                                 : Термометрия,град.С 
~Ascii
# ...
2737.15    152.015    250.56     -1839.004  49.69     
2737.35    225.992    250.57     -1859.99   49.63     
2737.55    187.992    250.59     -1811.006  49.58     
2737.75    147.993    250.59     -1839.004  49.53     
2737.95    112        250.6      -1859.99   49.48     
2738.15    112.008    250.62     -1809.996  49.43     
2738.35    152.009    250.64     -1790.01   49.39     
2738.55    198.998    250.65     -1842.004  49.35     
2738.75    188.989    250.66     -1859.99   49.32     
2738.95    135.994    250.68     -1808.006  49.29     
2739.15    104.008    250.7      -1840.004  49.27     
2739.35    144.002    250.73     -1860      49.26     
2739.55    155        250.75     -1859.99   49.25     
2739.75    157.005    250.76     -1810.996  49.25     
2739.95    183.013    250.78     -1790.01   49.26     
2740.15    248.007    250.78     -1840.004  49.26     
2740.35    283.973    250.82     -1859.99   49.27     
2740.55    150        250.84     -1810.996  49.28     
2740.75    151.014    250.86     -1790.01   49.29     
2740.95    220.993    250.88     -1838.004  49.31     
2741.15    186.993    250.89     -1859.992  49.33     
2741.35    154.011    250.91     -1820.985  49.35     
2741.55    208.001    250.94     -1748.013  49.38     
2741.75    214.983    250.97     -1812.01   49.41     
2741.95    127.012    251        -1859.995  49.45     
2742.15    188.005    251.03     -1834.996  49.48     
2742.35    213.984    251.04     -1816.009  49.51     
2742.55    132.014    251.06     -1859.99   49.55     
2742.75    201.008    251.09     -1811.994  49.6      
2742.95    239.978    251.12     -1780.016  49.65     
2743.15    131.015    251.15     -1859.994  49.73     
2743.35    204        251.18     -1829.992  49.78     
2743.55    204.994    251.22     -1790.006  49.84     
2743.75    176.02     251.25     -1819.008  49.9      
2743.95    276.985    251.28     -1859.994  49.97     
2744.15    203.01     251.31     -1829.992  50.04     
2744.35    254.022    251.34     -1790      50.12     
2744.55    364.984    251.38     -1790.006  50.19     
2744.75    287.028    251.39     -1819.008  50.26     
2744.95    427.988    251.41     -1860      50.34     
2745.15    369.037    251.44     -1860      50.42     
2745.35    554.037    251.48     -1859.994  50.5      
2745.55    742.083    251.51     -1829.992  50.59     
2745.75    1160.11    251.54     -1790      50.68     
2745.95    1711.201   251.59     -1790.006  50.76     
2746.15    2718.329   251.62     -1818.008  50.86     
2746.35    4372.545   251.64     -1860      50.96     
2746.55    7104.652   251.68     -1859.995  51.07     
2746.75    340.002    251.72     -1835.995  51.18     
2746.95    349.97     251.76     -1813.005  51.28     
2747.15    199.021    251.79     -1836.991  51.39     
2747.35    303.985    251.82     -1790.005  51.49     
2747.55    231.015    251.84     -1813.005  51.59     
2747.75    306.01     251.86     -1837.99   51.71     
2747.95    356.024    251.87     -1790.005  51.83     
2748.15    477.994    251.89     -1815.004  51.95     
2748.35    447.977    251.98     -1834.991  52.06     
2748.55    332.011    252.02     -1790      52.18     
2748.75    386.979    252.05     -1790      52.3      
2748.95    283.003    252.08     -1790.005  52.43     
2749.15    300.01     252.12     -1813.009  52.57     
2749.35    347.997    252.16     -1859.995  52.68     
2749.55    331.01     252.2      -1834.996  52.8      
2749.75    381.008    252.24     -1815.009  52.91     
2749.95    419.981    252.27     -1859.994  53.02     
2750.15    325.003    252.29     -1831.992  53.12     
2750.35    338.012    252.33     -1790      53.23     
2750.55    399.003    252.37     -1790      53.36     
2750.75    411.978    252.41     -1790.006  53.5      
2750.95    303.015    252.46     -1818.008  53.64     
2751.15    376        252.5      -1859.999  53.79     
2751.35    373.987    252.53     -1855.988  53.92     
2751.55    310.001    252.56     -1794.013  54.05     
2751.75    317.017    252.6      -1859.999  54.16     
2751.95    402.998    252.63     -1855.988  54.28     
2752.15    395.001    252.66     -1797.013  54.4      
2752.35    402.012    252.72     -1859.999  54.52     
2752.55    461.994    252.75     -1855.988  54.65     
2752.75    433.009    252.78     -1794.013  54.78     
2752.95    478.985    252.82     -1860      54.9      
2753.15    405.017    252.87     -1860      55.13     
2753.35    487.963    252.91     -1859.986  55.26     
2753.55    305.009    252.95     -1790      55.4      
2753.75    350.98     252.99     -1790.001  55.52     
2753.95    253.016    253.03     -1794.013  55.64     
2754.15    331.021    253.05     -1856.987  55.77     
2754.35    433.971    253.09     -1790      55.91     
2754.55    290.979    253.13     -1790.002  56.04     
2754.75    188.023    253.11     -1802.022  56.19     
2754.95    302.031    253.22     -1912.975  56.33     
2755.15    457.012    253.26     -1790      56.45     
2755.35    518.006    253.3      -1790.014  56.57     
2755.55    547.02     253.31     -1859.986  56.68     
2755.75    645.997    253.35     -1790      56.78     
2755.95    632.992    253.39     -1790.014  56.89     
2756.15    593.051    253.45     -1860      57.01     
2756.35    846.991    253.49     -1859.987  57.13     
2756.55    799.996    253.5      -1793.999  57.25     
2756.75    779.066    253.52     -1790.013  57.34     
2756.95    1110.087   253.55     -1856.987  57.43     
2757.15    1543.105   253.58     -1793.999  57.5      
2757.35    2067.215   253.64     -1790.013  57.58     
2757.55    3141.351   253.68     -1856.001  57.65     
2757.75    4895.49    253.68     -1860      57.71     
2757.95    7342.769   253.71     -1860      57.77     
2758.15    1192       253.72     -1860      57.8      
2758.35    1191.899   253.72     -1859.988  57.83     
2758.55    687.937    253.74     -1800.998  57.85     
2758.75    372.973    253.79     -1790      57.86     
2758.95    237.98     253.84     -1790.012  57.87     
2759.15    138.978    253.86     -1849.002  57.87     
2759.35    27.001     253.86     -1860      57.84     
2759.55    31         253.85     -1860.01   57.81     
2759.75    32         253.84     -1910.971  57.75     
2759.95    31         253.87     -1765.993  57.65     
2760.15    31         253.89     -1729.989  57.56     
2760.35    31         253.93     -1676.965  57.49     
2760.55    31         253.93     -1501.994  57.46     
2760.75    31         253.95     -1469.977  57.46     
2760.95    31         253.96     -1352.947  57.46     
2761.15    30         253.94     -1090      57.46     
2761.35    32         253.93     -1089.978  57.46     
2761.55    31         253.94     -979.989   57.46     
2761.75    31         253.95     -924.955   57.46     
2761.95    32         253.96     -697.962   57.46     
2762.15    31         253.96     -9999      57.46     
2762.35    -9999      253.96     -9999      57.46     
2762.55    -9999      253.96     -9999      57.46     
2762.75    -9999      253.96     -9999      57.47     
2762.95    -9999      253.96     -9999      57.47     
2763.15    -9999      253.96     -9999      57.47     
2763.35    -9999      253.98     -9999      57.47     
2763.55    -9999      254        -9999      57.47     
2763.75    -9999      -9999      -9999      57.47     
2763.95    -9999      -9999      -9999      -9999     
2764.15    -9999      -9999      -9999      -9999     
2764.35    -9999      -9999      -9999      -9999     
2764.55    -9999      -9999      -9999      -9999     
2764.75    -9999      -9999      -9999      -9999     
