~Version
 VERS              .         2.0                           : CWLS LOG ASCII STANDARD - VERSION 2.0
 WRAP              .         NO                            : ONE LINE PER DEPTH STEP
 DLM               .         SPACE                         : DELIMITING CHARACTER(SPACE TAB OR COMMA)
~Well Information
#_______________________________________________________________________________
#
#PARAMETER_NAME    .UNIT     VALUE                         : DESCRIPTION
#_______________________________________________________________________________
STRT               .M        2310.8                        : First reference value
STOP               .M        2792.2                        : Last reference value
STEP               .M        0.2                           : Step increment
NULL               .         -9999                         : Missing value
COMP               .                                       : Company
WELL               .         616                           : Well name
FLD                .                                       : Field
LOC                .                                       : Location
CNTY               .                                       : County
STAT               .                                       : State
CTRY               .                                       : Country
SRVC               .                                       : Service Company
DATE               .                                       : Date
API                .                                       : API number
PROJECT_UPGRADE_TIME .         2021-03-18T21_24_50           : 
group              .         Good                          : 
~Parameter Information Block
#_______________________________________________________________________________
#
#PARAMETER_NAME    .UNIT     VALUE                         : DESCRIPTION
#_______________________________________________________________________________
SET                .         D2660_D                       : 
OTHER              .         Программное обеспечение станции MONITOR-386EX 25/12/99 15_08_10   BGF V50 26/12/00 07_26_01   3.1_SNGF___BGF_N_092085: 
OTHER_10           .         Тарировки_                    : 
OTHER_2            .         Kedr.exe версия 3.3.2.32      : 
OTHER_3            .         KedrData.dll версия 3.3.2.17  : 
OTHER_4            .         Драйвер версия 2.1.0.1        : 
OTHER_5            .         Мнемоники версия 3.3 S        : 
OTHER_6            .         Прибор_ ПС                    : 
OTHER_7            .         Номер прибора_ 348\072        : 
OTHER_8            .         Режим_ ПС                     : 
OTHER_9            .         Форма_ ПС                     : 
PROJECT_UPGRADE_TIME .         2021-03-18T21_24_49           : 
TLFamily_DEPT      .         Measured Depth                : 
TLFamily_METKA     .                                       : 
TLFamily_PS        .         Spontaneous Potential         : 
TLFamily_RCOR      .                                       : 
TLFamily_SPID      .         Spontaneous Potential         : 
TLFamily_TENS      .         Cable Tension                 : 
TLFamily_TIME      .         Time                          : 
group              .         prim                          : 
~Curve Information
#_______________________________________________________________________________
#
#LOGNAME           .UNIT     LOG_ID                        : DESCRIPTION
#_______________________________________________________________________________
DEPT               .M                                      : 1 Глубина, м -    0.0 см 
METKA              .                                       : 3 Метки,  -    0.0 см 
PS                 .mV                                     : 7 ПС, мВ - 1210.0 см 
RCOR               .CM/KM                                  : 5 Коррекция по ролику, см/км -    0.0 см 
SPID               .M/H                                    : 2 Скорость, м/час -    0.0 см 
TENS               .T                                      : 6 Натяжение кабеля, т -    0.0 см 
TIME               .S                                      : 4 Время, сек -    0.0 см 
~Ascii
# ...
2518.8     0          542.76     -385       -2052      0          30344.13  
2519       0          542.93     -385       -2066      0          30343.77  
2519.2     0          541.83     -385       -2158      0          30343.42  
2519.4     0          542.42     -385       -2124      0          30343.08  
2519.6     0          542.4      -385       -1980      0          30342.73  
2519.8     1          542.71     -385       -1982      0          30342.42  
2520       0          542.65     -385       -1992      0          30342.06  
2520.2     0          542.78     -385       -2047      0          30341.72  
2520.4     0          540.72     -385       -2051      0          30341.37  
2520.6     0          536.21     -385       -2057      0          30341     
2520.8     0          533.35     -385       -2096      0          30340.64  
2521       0          529.96     -385       -2097      0          30340.32  
2521.2     0          531.59     -385       -2050      0          30339.96  
2521.4     0          534.08     -385       -2050      0          30339.63  
2521.6     0          534.33     -385       -2050      0          30339.28  
2521.8     0          533.89     -385       -2053      0          30338.94  
2522       0          533.03     -385       -2069      0          30338.58  
2522.2     0          533.46     -385       -2103      0          30338.24  
2522.4     0          535.32     -385       -2066      0          30337.89  
2522.6     0          536.26     -385       -2034      0          30337.54  
2522.8     0          536.85     -385       -1984      0          30337.2   
2523       0          537.35     -385       -2008      0          30336.85  
2523.2     0          538.22     -385       -2057      0          30336.53  
2523.4     0          537.21     -385       -2104      0          30336.14  
2523.6     0          535.79     -385       -2109      0          30335.8   
2523.8     0          534.97     -385       -2104      0          30335.46  
2524       0          534.86     -385       -2071      0          30335.1   
2524.2     0          533.1      -385       -2050      0          30334.76  
2524.4     0          531.84     -385       -2050      0          30334.41  
2524.6     0          533.86     -385       -2051      0          30334.08  
2524.8     0          535.87     -385       -2057      0          30333.72  
2525       0          536.22     -385       -2098      0          30333.36  
2525.2     0          536.29     -385       -2076      0          30333.04  
2525.4     0          534.72     -385       -1987      0          30332.68  
2525.6     0          536.89     -385       -2019      0          30332.35  
2525.8     0          536.31     -385       -2050      0          30332.01  
2526       0          533.73     -385       -2050      0          30331.63  
2526.2     0          536.42     -385       -2051      0          30331.3   
2526.4     0          536.87     -385       -2057      0          30330.95  
2526.6     0          537.08     -385       -2096      0          30330.58  
2526.8     0          536.24     -385       -2096      0          30330.25  
2527       0          538.34     -385       -2055      0          30329.9   
2527.2     0          540.52     -385       -2082      0          30329.54  
2527.4     0          541.39     -385       -2090      0          30329.21  
2527.6     0          540.38     -385       -1990      0          30328.88  
2527.8     0          540        -385       -2004      0          30328.52  
2528       0          539.05     -385       -2056      0          30328.18  
2528.2     0          529.95     -385       -2091      0          30327.82  
2528.4     0          518.98     -385       -2096      0          30327.48  
2528.6     0          508.67     -385       -2050      0          30327.12  
2528.8     0          513.03     -385       -2050      0          30326.78  
2529       0          524.54     -385       -2050      0          30326.43  
2529.2     0          531.77     -385       -2050      0          30326.09  
2529.4     0          534.2      -385       -2050      0          30325.73  
2529.6     0          529.64     -385       -2050      0          30325.39  
2529.8     1          522.82     -385       -2050      0          30325.04  
2530       0          529.01     -385       -2049      0          30324.69  
2530.2     0          534.74     -384       -2045      0          30324.34  
2530.4     0          538.62     -384       -2018      0          30323.99  
2530.6     0          538.22     -384       -1989      0          30323.66  
2530.8     0          538.74     -384       -2049      0          30323.29  
2531       0          537.22     -384       -2069      0          30322.94  
2531.2     0          535.03     -384       -2109      0          30322.58  
2531.4     0          539.05     -384       -2105      0          30322.23  
2531.6     0          541.02     -384       -2079      0          30321.9   
2531.8     0          540.76     -384       -1986      0          30321.54  
2532       0          541.37     -384       -2015      0          30321.21  
2532.2     0          540.5      -384       -2060      0          30320.86  
2532.4     0          539.01     -384       -2110      0          30320.5   
2532.6     0          540.83     -384       -2108      0          30320.16  
2532.8     0          540.93     -384       -2098      0          30319.81  
2533       0          540.06     -384       -2039      0          30319.49  
2533.2     0          540.19     -384       -1993      0          30319.14  
2533.4     0          539.92     -384       -2050      0          30318.8   
2533.6     0          541.87     -384       -2050      0          30318.45  
2533.8     0          540.16     -384       -2051      0          30318.09  
2534       0          540.83     -384       -2056      0          30317.71  
2534.2     0          539.68     -384       -2082      0          30317.39  
2534.4     0          539.47     -384       -2162      0          30317.04  
2534.6     0          539.74     -384       -2070      0          30316.71  
2534.8     0          541.84     -384       -1993      0          30316.35  
2535       0          541.98     -384       -2053      0          30316.01  
2535.2     0          541.89     -384       -2072      0          30315.65  
2535.4     0          542.05     -384       -2092      0          30315.3   
2535.6     0          541.59     -384       -1998      0          30314.95  
2535.8     0          539.26     -384       -2011      0          30314.61  
2536       0          535.02     -384       -2105      0          30314.26  
2536.2     0          535.9      -384       -2078      0          30313.92  
2536.4     0          537.59     -384       -2039      0          30313.56  
2536.6     0          540.6      -384       -1987      0          30313.22  
2536.8     0          540.81     -384       -2023      0          30312.87  
2537       0          538.23     -384       -2110      0          30312.51  
2537.2     0          539.33     -384       -2108      0          30312.17  
2537.4     0          538.84     -384       -2095      0          30311.82  
2537.6     0          540.75     -384       -2050      0          30311.48  
2537.8     0          539.88     -384       -2048      0          30311.16  
2538       0          539.76     -384       -2039      0          30310.79  
2538.2     0          538.99     -384       -1987      0          30310.44  
2538.4     0          536.89     -384       -2029      0          30310.07  
2538.6     0          531.38     -384       -2103      0          30309.76  
2538.8     0          518.43     -384       -2068      0          30309.41  
2539       0          504.43     -384       -2050      0          30309.06  
2539.2     0          495.45     -384       -2050      0          30308.7   
2539.4     0          489.55     -384       -2050      0          30308.37  
