~Version
 VERS              .         2.0                           : CWLS LOG ASCII STANDARD - VERSION 2.0
 WRAP              .         NO                            : ONE LINE PER DEPTH STEP
 DLM               .         SPACE                         : DELIMITING CHARACTER(SPACE TAB OR COMMA)
~Well Information
#_______________________________________________________________________________
#
#PARAMETER_NAME    .UNIT     VALUE                         : DESCRIPTION
#_______________________________________________________________________________
STRT               .M        9                             : First reference value
STOP               .M        197.4                         : Last reference value
STEP               .M        0.2                           : Step increment
NULL               .         -9999                         : Missing value
COMP               .                                       : Company
WELL               .         616                           : Well name
FLD                .                                       : Field
LOC                .                                       : Location
CNTY               .                                       : County
STAT               .                                       : State
CTRY               .                                       : Country
SRVC               .                                       : Service Company
DATE               .                                       : Date
API                .                                       : API number
PROJECT_UPGRADE_TIME .         2021-03-18T21_24_50           : 
group              .         Good                          : 
~Parameter Information Block
#_______________________________________________________________________________
#
#PARAMETER_NAME    .UNIT     VALUE                         : DESCRIPTION
#_______________________________________________________________________________
SET                .         616                           : 
CONF               .         00                            : 
END                .         0                             : 
ERR                .         0                             : 
GS00               .M        0195.38                       : 
GS01               .M        0006.66                       : 
MM00               .M        0080.00                       : 
NOKG               .         0                             : 
NPR                .         980402                        : 
PART               .         Палагутин                     : 
PROJECT_UPGRADE_TIME .         2021-03-18T21_24_49           : 
PRZK               .         Шакиров                       : 
TLFamily_AZIMUTH   .         True Dip Azimuth              : 
TLFamily_DEPTH     .         Measured Depth                : 
TLFamily_METKA     .                                       : 
TLFamily_ROLL      .                                       : 
TLFamily_SPEED     .         Spontaneous Potential         : 
TLFamily_ZENIT     .                                       : 
VPRG               .         310                           : 
WAY                .         UP                            : 
group              .         prim                          : 
~Curve Information
#_______________________________________________________________________________
#
#LOGNAME           .UNIT     LOG_ID                        : DESCRIPTION
#_______________________________________________________________________________
DEPTH              .M                                      :  
AZIMUTH            .DEG                                    :  
METKA              .                                       :  
ROLL               .DEG                                    :  
SPEED              .M/H                                    :  
ZENIT              .DEG                                    :  
~Ascii
# ...
155.4      248.22     0          290.94     540        12.57     
155.6      247.16     0          290.67     504        12.49     
155.8      247.95     0          290.15     540        12.57     
156        247.76     0          289.98     504        12.74     
156.2      248        0          289.99     504        12.62     
156.4      247.8      0          289.57     540        12.61     
156.6      248.19     0          288.77     540        12.74     
156.8      248        0          287.46     504        12.65     
157        247.3      0          286.42     504        12.63     
157.2      249.7      0          285.94     504        12.95     
157.4      248.68     0          285.36     540        12.77     
157.6      249        0          284.52     540        12.64     
157.8      251.6      0          282.97     504        13.02     
158        256.09     0          282.51     504        12.93     
158.2      293.05     0          283.22     540        13.12     
158.4      243.52     0          283.56     540        13.16     
158.6      111.68     0          283.33     540        13.11     
158.8      344.95     0          283.52     504        13.16     
159        263.52     0          285.13     468        13.18     
159.2      252.1      0          287.39     540        13.35     
159.4      249.11     0          290.21     540        13.22     
159.6      247.75     0          294.46     540        13.21     
159.8      248.37     0          297.45     504        13.05     
160        248.56     0          297.9      468        13.02     
160.2      248.86     0          296        540        13.08     
160.4      247.83     0          294.9      540        13.01     
160.6      248.4      0          294.2      504        12.94     
160.8      248.85     0          291.68     504        13.08     
161        248.56     0          288.51     504        13.07     
161.2      247.02     0          286.15     540        12.92     
161.4      248.3      0          285.62     540        13.11     
161.6      248.58     0          285.23     540        13.2      
161.8      247.42     0          283.55     540        13.04     
162        247.75     0          280.48     468        13.1      
162.2      249.02     1          277.12     540        13.41     
162.4      248.68     0          275.52     540        13.52     
162.6      246.79     0          273.66     504        13.21     
162.8      248.89     0          272.87     504        13.8      
163        248.05     0          272.53     504        13.57     
163.2      246.82     0          272.54     540        13.44     
163.4      247.6      0          272.88     468        13.5      
163.6      247.67     0          272.31     540        13.53     
163.8      248.06     0          271.61     504        13.66     
164        247.42     0          271.03     468        13.62     
164.2      248.16     0          270.55     540        13.76     
164.4      247.43     0          269.82     540        13.65     
164.6      247.94     0          269.24     504        13.81     
164.8      247.94     0          268.36     504        13.83     
165        246.83     0          267.37     540        13.66     
165.2      248.15     0          266.66     504        13.84     
165.4      247.81     0          266.62     504        13.92     
165.6      247.48     0          267.06     504        13.84     
165.8      247.55     0          268.01     540        13.89     
166        248.35     0          269.13     432        14.1      
166.2      247.06     0          270.03     540        13.92     
166.4      247.72     0          270.65     504        13.97     
166.6      247.11     0          270.7      540        13.94     
166.8      247.69     0          270.66     540        13.99     
167        247.4      0          271.06     540        14.05     
167.2      247.53     0          271.42     540        14.16     
167.4      246.99     0          271.56     540        13.9      
167.6      247.38     0          271.59     540        14.04     
167.8      250.83     0          270.66     504        14.5      
168        247.7      0          269.26     540        14.05     
168.2      247.72     0          268.24     504        13.97     
168.4      248.86     0          267.09     540        14.4      
168.6      248.06     0          266.02     504        14.27     
168.8      247.46     0          265.31     504        14.12     
169        247.37     0          264.59     468        14.16     
169.2      248.04     0          263.9      540        14.32     
169.4      248.13     0          262.9      540        14.4      
169.6      248.17     0          261.63     504        14.32     
169.8      249.41     0          260.61     540        14.5      
170        250.48     0          259.38     468        14.54     
170.2      253.07     0          259.03     540        14.53     
170.4      267.57     0          260.4      540        14.6      
170.6      252.78     0          262.48     504        14.74     
170.8      186.85     0          264.95     504        14.84     
171        207.09     0          267.02     540        14.81     
171.2      316.25     0          268.34     468        14.66     
171.4      257.12     0          269.5      540        14.75     
171.6      252.17     0          270.01     504        14.98     
171.8      249.32     0          271.01     540        14.81     
172        248.13     0          273.53     504        14.78     
172.2      248.68     1          274.95     576        14.84     
172.4      248.58     0          273.88     540        14.71     
172.6      247.62     0          271.85     540        14.72     
172.8      248.13     0          270.7      504        14.83     
173        248.4      0          269.54     540        14.69     
173.2      248.1      0          268.54     540        14.76     
173.4      248.05     0          268.1      504        15        
173.6      246.9      0          267.86     540        14.61     
173.8      247.36     0          266.91     504        14.75     
174        248.46     0          265.11     504        14.89     
174.2      247.08     0          264.22     540        14.73     
174.4      246.5      0          264.03     540        14.72     
174.6      251.63     0          263.6      504        15.71     
174.8      247.36     0          263.88     576        15.02     
175        246.02     0          264.41     504        14.78     
175.2      247.27     0          266.71     540        15.03     
175.4      248.2      0          268.37     504        15.16     
175.6      247.07     0          269.67     468        15        
175.8      247.57     0          269.91     540        15.08     
176        247.34     0          270.68     468        15.14     
176.2      247.88     0          271.28     540        15.03     
176.4      247.37     0          270.36     540        15.11     
176.6      246.57     0          270.96     504        14.99     
176.8      247.45     0          271.18     468        15.06     
177        247.77     0          270.91     540        15.16     
177.2      247.56     0          270.65     540        15.12     
177.4      247.36     0          270.1      540        15.05     
177.6      244.61     0          269.9      540        14.8      
177.8      247.38     0          270.9      432        15.18     
178        246.45     0          272.06     504        15.08     
178.2      245.82     0          272.7      540        14.97     
178.4      247.72     0          272.63     504        15.34     
178.6      245.71     0          272.95     504        14.8      
178.8      246.43     0          273.74     504        15.12     
179        248.55     0          274.4      504        15.45     
179.2      246.1      0          274.75     540        15.08     
179.4      246.85     0          275.17     540        15.14     
179.6      247.87     0          274.84     540        15.36     
