~Version
 VERS              .         2.0                           : CWLS LOG ASCII STANDARD - VERSION 2.0
 WRAP              .         NO                            : ONE LINE PER DEPTH STEP
 DLM               .         SPACE                         : DELIMITING CHARACTER(SPACE TAB OR COMMA)
~Well Information
#_______________________________________________________________________________
#
#PARAMETER_NAME    .UNIT     VALUE                         : DESCRIPTION
#_______________________________________________________________________________
STRT               .M        209.2                         : First reference value
STOP               .M        612.6                         : Last reference value
STEP               .M        0.2                           : Step increment
NULL               .         -9999                         : Missing value
COMP               .                                       : Company
WELL               .         616                           : Well name
FLD                .                                       : Field
LOC                .                                       : Location
CNTY               .                                       : County
STAT               .                                       : State
CTRY               .                                       : Country
SRVC               .                                       : Service Company
DATE               .                                       : Date
API                .                                       : API number
PROJECT_UPGRADE_TIME .         2021-03-18T21_24_50           : 
group              .         Good                          : 
~Parameter Information Block
#_______________________________________________________________________________
#
#PARAMETER_NAME    .UNIT     VALUE                         : DESCRIPTION
#_______________________________________________________________________________
SET                .         616_3                         : 
CONF               .         00                            : 
END                .         0                             : 
ERR                .         0                             : 
GS00               .M        0610.64                       : 
GS01               .M        0206.79                       : 
MM00               .M        0060.00                       : 
NOKG               .         1                             : 
NPR                .         980119                        : 
PART               .         Палагутин                     : 
PROJECT_UPGRADE_TIME .         2021-03-18T21_24_49           : 
PRZK               .         Шакиров                       : 
TLFamily_AZIMUTH   .         True Dip Azimuth              : 
TLFamily_DEPTH     .         Measured Depth                : 
TLFamily_METKA     .                                       : 
TLFamily_ROLL      .                                       : 
TLFamily_SPEED     .         Spontaneous Potential         : 
TLFamily_ZENIT     .                                       : 
VPRG               .         310                           : 
WAY                .         UP                            : 
group              .         prim                          : 
~Curve Information
#_______________________________________________________________________________
#
#LOGNAME           .UNIT     LOG_ID                        : DESCRIPTION
#_______________________________________________________________________________
DEPTH              .M                                      :  
AZIMUTH            .DEG                                    :  
METKA              .                                       :  
ROLL               .DEG                                    :  
SPEED              .M/H                                    :  
ZENIT              .DEG                                    :  
~Ascii
# ...
550.8      259.58     0          157.11     504        26.3      
551        260.63     0          157.47     504        26.46     
551.2      260.32     0          157.99     504        26.5      
551.4      259.65     0          157.47     504        26.23     
551.6      259.42     0          155.47     504        26.24     
551.8      259.68     0          155.05     504        26.09     
552        257.38     0          154.48     504        25.49     
552.2      260.32     1          154.7      432        26.2      
552.4      259.71     0          155.22     504        26.11     
552.6      260.87     0          156.4      504        26.37     
552.8      262.62     0          157.38     432        26.47     
553        260.83     0          157.16     504        26.46     
553.2      260.31     0          157.12     468        26.28     
553.4      260.4      0          157.28     504        26.32     
553.6      261.26     0          157.95     468        26.41     
553.8      259.9      0          158.78     504        26.19     
554        260.05     0          158.53     468        26.3      
554.2      260.28     0          158.19     504        26.3      
554.4      259.68     0          158.1      468        26.35     
554.6      259.71     0          158.66     468        26.34     
554.8      260.93     0          159        432        26.63     
555        260.05     0          159.79     504        26.44     
555.2      260.8      0          160.28     468        26.52     
555.4      261.07     0          159.83     504        26.59     
555.6      259.76     0          160.03     468        26.41     
555.8      260.1      0          160.36     504        26.45     
556        261        0          160.93     468        26.62     
556.2      259.28     0          162.08     504        26.33     
556.4      260.77     0          163.53     504        26.66     
556.6      260.22     0          164.71     468        26.51     
556.8      259.78     0          164.53     504        26.41     
557        259.7      0          162.88     468        26.43     
557.2      260.45     0          161.87     504        26.68     
557.4      259.6      0          161.69     504        26.47     
557.6      260.04     0          161.32     468        26.55     
557.8      260.22     0          161.24     504        26.66     
558        259.74     0          161.19     468        26.52     
558.2      260.82     0          161.35     504        26.83     
558.4      260.41     0          161.82     468        26.77     
558.6      259.71     0          161.93     504        26.57     
558.8      259.93     0          161.62     432        26.64     
559        260.64     0          161.19     468        26.77     
559.2      259.81     0          161.17     540        26.61     
559.4      260.74     0          161.5      504        26.78     
559.6      261.11     0          161.79     504        26.71     
559.8      261.54     0          162.14     468        26.7      
560        264.14     0          163.42     468        26.72     
560.2      271.54     0          164.1      504        26.91     
560.4      291.59     0          163.69     504        26.8      
560.6      335.27     0          163.01     504        26.87     
560.8      220.18     0          161.95     432        26.87     
561        217.73     0          161.1      504        26.66     
561.2      333.87     0          159.61     504        26.77     
561.4      286.2      0          157.9      504        26.9      
561.6      269.71     0          156.6      504        26.76     
561.8      263.29     0          155.56     504        26.63     
562        262.3      0          155.15     504        26.96     
562.2      259.77     1          154.64     432        26.54     
562.4      260.08     0          153.58     504        26.74     
562.6      260.03     0          153.55     504        26.69     
562.8      259.38     0          153.27     468        26.5      
563        259.2      0          153.18     504        26.55     
563.2      260.49     0          155.08     468        26.91     
563.4      258.31     0          157.13     504        26.45     
563.6      259.66     0          157.13     504        26.66     
563.8      259.39     0          156.36     468        26.58     
564        258.66     0          156.37     504        26.39     
564.2      258.94     0          157.01     504        26.46     
564.4      260.29     0          157.41     504        26.7      
564.6      258.87     0          158.43     468        26.51     
564.8      261.56     0          160.15     468        26.96     
565        259.76     0          161.35     504        26.82     
565.2      258.71     0          160.46     504        26.58     
565.4      259.74     0          160.55     504        26.85     
565.6      259.66     0          160.56     504        26.83     
565.8      259.1      0          160.16     468        26.73     
566        259.37     0          159.24     504        26.77     
566.2      259.56     0          158.76     468        26.92     
566.4      258.62     0          159.09     540        26.74     
566.6      259.5      0          159.41     468        26.91     
566.8      259.35     0          159.58     432        26.93     
567        259.02     0          160.62     468        26.78     
567.2      258.54     0          162.83     504        26.68     
567.4      259.99     0          163.52     504        26.96     
567.6      259.32     0          163.95     468        26.8      
567.8      260.36     0          163.65     468        27        
568        259.81     0          163.18     504        26.96     
568.2      258.82     0          163.38     504        26.81     
568.4      259.61     0          163.7      504        26.93     
568.6      259.46     0          163.59     468        26.89     
568.8      259.46     0          163.22     432        26.92     
569        259.55     0          162.43     504        26.96     
569.2      259.9      0          161.66     504        27.08     
569.4      258.75     0          161.34     504        26.89     
569.6      259.35     0          161.32     468        27.07     
569.8      259.44     0          161.25     468        27.06     
570        258.81     0          161.26     468        26.95     
570.2      258.7      0          161.35     504        26.89     
570.4      259.14     0          161.4      468        27.03     
570.6      258.85     0          161.23     504        26.92     
570.8      259.48     0          160.52     504        27.07     
571        259.47     0          159.95     504        27.09     
571.2      259.52     0          160.36     540        27.1      
571.4      259.4      0          160.87     504        27.03     
571.6      259.42     0          162.28     504        27.08     
571.8      259.37     0          166.21     504        27.05     
572        261.28     0          170.95     504        27.19     
572.2      262.74     1          172.7      468        27.17     
572.4      267.33     0          172.08     504        27.21     
572.6      284.27     0          171.48     504        27.43     
572.8      300.42     0          171.27     504        27.28     
573        190.67     0          171.02     504        27.34     
573.2      125.97     0          170.52     468        27.34     
573.4      356.26     0          169.31     504        27.47     
573.6      278.64     0          167.6      504        27.38     
573.8      266.49     0          166.09     468        27.66     
574        261.18     0          164.75     504        27.56     
574.2      260.44     0          164.38     504        27.54     
574.4      259.09     0          162.74     468        27.35     
574.6      258.88     0          161.63     468        27.21     
574.8      259.1      0          160.45     504        27.19     
575        259.3      0          159.09     468        27.31     
