~Version
 VERS              .         2.0                           : CWLS LOG ASCII STANDARD - VERSION 2.0
 WRAP              .         NO                            : ONE LINE PER DEPTH STEP
 DLM               .         SPACE                         : DELIMITING CHARACTER(SPACE TAB OR COMMA)
~Well Information
#_______________________________________________________________________________
#
#PARAMETER_NAME    .UNIT     VALUE                         : DESCRIPTION
#_______________________________________________________________________________
STRT               .M        827.6                         : First reference value
STOP               .M        1707.2                        : Last reference value
STEP               .M        0.2                           : Step increment
NULL               .         -9999                         : Missing value
COMP               .                                       : Company
WELL               .         616                           : Well name
FLD                .                                       : Field
LOC                .                                       : Location
CNTY               .                                       : County
STAT               .                                       : State
CTRY               .                                       : Country
SRVC               .                                       : Service Company
DATE               .                                       : Date
API                .                                       : API number
PROJECT_UPGRADE_TIME .         2021-03-18T21_24_50           : 
group              .         Good                          : 
~Parameter Information Block
#_______________________________________________________________________________
#
#PARAMETER_NAME    .UNIT     VALUE                         : DESCRIPTION
#_______________________________________________________________________________
SET                .         616_8                         : 
CONF               .         00                            : 
END                .         0                             : 
ERR                .         0                             : 
GS00               .M        1705.33                       : 
GS01               .M        0825.11                       : 
MM00               .M        0210.00                       : 
NOKG               .         0                             : 
NPR                .         980615                        : 
PART               .         Бутенко                       : 
PROJECT_UPGRADE_TIME .         2021-03-18T21_24_49           : 
PRZK               .         Шакиров                       : 
TLFamily_AZIMUTH   .         True Dip Azimuth              : 
TLFamily_DEPTH     .         Measured Depth                : 
TLFamily_METKA     .                                       : 
TLFamily_ROLL      .                                       : 
TLFamily_SPEED     .         Spontaneous Potential         : 
TLFamily_ZENIT     .                                       : 
VPRG               .         310                           : 
WAY                .         UP                            : 
group              .         prim                          : 
~Curve Information
#_______________________________________________________________________________
#
#LOGNAME           .UNIT     LOG_ID                        : DESCRIPTION
#_______________________________________________________________________________
DEPTH              .M                                      :  
AZIMUTH            .DEG                                    :  
METKA              .                                       :  
ROLL               .DEG                                    :  
SPEED              .M/H                                    :  
ZENIT              .DEG                                    :  
~Ascii
# ...
1559.6     22.24      0          212.21     612        30.66     
1559.8     6.8        0          212.03     612        30.46     
1560       347.85     0          211.57     612        30.45     
1560.2     349.59     0          211.83     612        30.66     
1560.4     24.39      0          212.48     612        30.35     
1560.6     13.48      0          213.04     648        30.54     
1560.8     27.32      0          213.44     612        30.16     
1561       9.81       0          213.35     612        30.4      
1561.2     357.53     0          210.54     612        30.48     
1561.4     12.37      0          209.14     612        30.54     
1561.6     5.8        0          210.29     648        30.73     
1561.8     11.45      0          210.81     612        30.92     
1562       15.48      0          211.29     612        30.97     
1562.2     351.03     1          212.65     612        30.64     
1562.4     347.1      0          214.27     648        31.1      
1562.6     22.68      0          214.47     612        30.71     
1562.8     357.68     0          214.51     612        30.91     
1563       0.92       0          213.9      612        30.31     
1563.2     358.41     0          214.07     648        30.2      
1563.4     358.47     0          214.64     576        29.82     
1563.6     40.82      0          213.9      612        29.75     
1563.8     208        0          213.64     612        29.63     
1564       270.35     0          213.44     612        29.74     
1564.2     312.42     0          213.31     612        30.02     
1564.4     273.3      0          214.75     648        29.78     
1564.6     10.44      0          217.31     612        30.08     
1564.8     323.64     0          215.89     612        29.95     
1565       336.91     0          213.31     648        30.28     
1565.2     343.68     0          212.66     612        30        
1565.4     333.81     0          213.08     612        29.93     
1565.6     340.2      0          213.26     576        29.99     
1565.8     330.52     0          213.22     648        29.85     
1566       14.99      0          213.43     612        30.05     
1566.2     330.58     0          213.48     648        29.73     
1566.4     21.35      0          213.27     612        30.05     
1566.6     18.2       0          213.21     612        29.86     
1566.8     18.05      0          213.36     612        29.98     
1567       16.71      0          213.63     648        29.82     
1567.2     346.36     0          213.74     612        29.95     
1567.4     18.64      0          213.25     612        30.09     
1567.6     327.82     0          212.73     612        29.72     
1567.8     323.61     0          212.05     576        30.09     
1568       354.73     0          211.83     648        29.88     
1568.2     345.3      0          212.11     612        29.88     
1568.4     9.04       0          211.67     648        29.8      
1568.6     350.81     0          211.4      612        29.93     
1568.8     343.52     0          211.6      648        29.92     
1569       315.46     0          211.74     612        29.82     
1569.2     334.17     0          211.92     612        29.97     
1569.4     351.74     0          211.85     612        29.93     
1569.6     351.34     0          211.8      648        29.94     
1569.8     356.84     0          211.45     612        29.73     
1570       340.79     0          212.36     612        29.98     
1570.2     322.47     0          213.89     648        29.96     
1570.4     335.36     0          214.75     612        29.98     
1570.6     326.69     0          215.44     612        29.84     
1570.8     332.99     0          215.62     648        30.1      
1571       334.44     0          215.24     612        29.81     
1571.2     10.29      0          214.59     612        29.99     
1571.4     16.72      0          213.95     648        29.86     
1571.6     359.72     0          212.74     612        29.71     
1571.8     354.38     0          213        612        30        
1572       40.1       0          213.34     612        29.9      
1572.2     21.6       1          213.46     576        30.22     
1572.4     32.12      0          214.31     612        29.75     
1572.6     28.51      0          214.75     648        30.08     
1572.8     4.07       0          215.18     612        29.92     
1573       19.64      0          214.35     648        30.27     
1573.2     343.56     0          211.92     612        30.33     
1573.4     354.58     0          209.86     612        30.39     
1573.6     3.2        0          209.66     612        30.22     
1573.8     2.36       0          210.43     612        30.13     
1574       352.81     0          211.15     612        30.42     
1574.2     1.73       0          212.05     612        30.01     
1574.4     20.06      0          213.85     576        30.44     
1574.6     202.39     0          214.54     648        30.17     
1574.8     292.67     0          214.63     612        30.06     
1575       43.79      0          215.58     612        29.85     
1575.2     6.11       0          215.53     648        30.13     
1575.4     353.92     0          215.04     612        30.13     
1575.6     346.63     0          214.75     612        29.85     
1575.8     8.65       0          212.89     612        29.33     
1576       22.33      0          210.58     648        29.2      
1576.2     0.04       0          208.98     612        29.25     
1576.4     27.37      0          205.47     612        29.83     
1576.6     18.52      0          195.8      612        30.61     
1576.8     28.49      0          184.35     612        29.74     
1577       0.37       0          174.67     648        29.98     
1577.2     19.91      0          169.74     612        29.14     
1577.4     16.46      0          169.16     648        29.84     
1577.6     9.61       0          169.38     612        29.29     
1577.8     23.44      0          169.29     612        29.47     
1578       10.9       0          168.33     648        29.59     
1578.2     15.3       0          167.85     612        29.66     
1578.4     8.79       0          167.69     612        29.86     
1578.6     46.36      0          167.84     612        29.41     
1578.8     12.63      0          168.57     612        30.09     
1579       17.48      0          170        612        29.42     
1579.2     26.79      0          171.52     648        29.87     
1579.4     18.51      0          173.41     612        29.36     
1579.6     23.42      0          175.33     648        29.98     
1579.8     19.32      0          176.08     612        29.29     
1580       53.92      0          175.63     612        29.91     
1580.2     26.94      0          174.64     612        29.75     
1580.4     21.07      0          173.59     648        29.65     
1580.6     28.78      0          173.14     612        29.65     
1580.8     16.83      0          172.92     612        29.62     
1581       20.05      0          171.93     648        30        
1581.2     20.17      0          170.75     648        29.04     
1581.4     42.05      0          169.56     612        30.22     
1581.6     23.81      0          167.96     648        29.39     
1581.8     23.11      0          166.35     612        29.69     
1582       22.22      0          165.31     648        29.63     
1582.2     18.59      1          165.5      612        29.84     
1582.4     23.95      0          175.9      540        29.42     
1582.6     19.63      0          331.83     216        30.65     
1582.8     14.77      0          333.36     216        28.45     
1583       3.46       0          329.18     144        29.81     
1583.2     350.6      2          328.34     540        29.86     
1583.4     20.62      0          328.71     612        29.77     
1583.6     5.82       0          328.65     612        29.63     
1583.8     345.74     0          328.26     648        30.02     
