~Version
 VERS              .         2.0                           : CWLS LOG ASCII STANDARD - VERSION 2.0
 WRAP              .         NO                            : ONE LINE PER DEPTH STEP
 DLM               .         SPACE                         : DELIMITING CHARACTER(SPACE TAB OR COMMA)
~Well Information
#_______________________________________________________________________________
#
#PARAMETER_NAME    .UNIT     VALUE                         : DESCRIPTION
#_______________________________________________________________________________
STRT               .M        209.2                         : First reference value
STOP               .M        612.6                         : Last reference value
STEP               .M        0.2                           : Step increment
NULL               .         -9999                         : Missing value
COMP               .                                       : Company
WELL               .         616                           : Well name
FLD                .                                       : Field
LOC                .                                       : Location
CNTY               .                                       : County
STAT               .                                       : State
CTRY               .                                       : Country
SRVC               .                                       : Service Company
DATE               .                                       : Date
API                .                                       : API number
PROJECT_UPGRADE_TIME .         2021-03-18T21_24_50           : 
group              .         Good                          : 
~Parameter Information Block
#_______________________________________________________________________________
#
#PARAMETER_NAME    .UNIT     VALUE                         : DESCRIPTION
#_______________________________________________________________________________
SET                .         616_3                         : 
CONF               .         00                            : 
END                .         0                             : 
ERR                .         0                             : 
GS00               .M        0610.64                       : 
GS01               .M        0206.79                       : 
MM00               .M        0060.00                       : 
NOKG               .         1                             : 
NPR                .         980119                        : 
PART               .         Палагутин                     : 
PROJECT_UPGRADE_TIME .         2021-03-18T21_24_49           : 
PRZK               .         Шакиров                       : 
TLFamily_AZIMUTH   .         True Dip Azimuth              : 
TLFamily_DEPTH     .         Measured Depth                : 
TLFamily_METKA     .                                       : 
TLFamily_ROLL      .                                       : 
TLFamily_SPEED     .         Spontaneous Potential         : 
TLFamily_ZENIT     .                                       : 
VPRG               .         310                           : 
WAY                .         UP                            : 
group              .         prim                          : 
~Curve Information
#_______________________________________________________________________________
#
#LOGNAME           .UNIT     LOG_ID                        : DESCRIPTION
#_______________________________________________________________________________
DEPTH              .M                                      :  
AZIMUTH            .DEG                                    :  
METKA              .                                       :  
ROLL               .DEG                                    :  
SPEED              .M/H                                    :  
ZENIT              .DEG                                    :  
~Ascii
# ...
306.8      265.9      0          134.45     612        28.54     
307        265.62     0          137.16     576        28.58     
307.2      265.18     0          141.43     648        28.75     
307.4      264.69     0          146.46     648        28.47     
307.6      263.86     0          150.36     648        28.25     
307.8      263.35     0          153.07     576        27.78     
308        263.93     0          155.76     648        28.03     
308.2      263.3      0          166.93     612        27.98     
308.4      260.65     0          183.91     648        27.12     
308.6      266.75     0          198.06     648        27.99     
308.8      266.97     0          209.24     612        28.12     
309        265.88     0          216.16     612        28.1      
309.2      265.44     0          218.77     648        28.15     
309.4      265.53     0          219.94     648        28.14     
309.6      265.7      0          221.14     648        28.21     
309.8      266.24     0          222.37     612        28.24     
310        265.77     0          223.65     612        28.2      
310.2      266.34     0          225.11     612        28.2      
310.4      265.96     0          226.09     648        28.22     
310.6      265.83     1          226.82     684        28.18     
310.8      266.24     0          227.19     1044       28.27     
311        265.75     0          227.25     1044       28.16     
311.2      266.25     0          227.46     612        28.27     
311.4      265.47     0          227.49     648        28.13     
311.6      264.7      0          227.59     684        27.99     
311.8      264.7      0          227.86     612        27.96     
312        265.01     0          228.09     648        28.06     
312.2      265.36     1          228.31     648        28.04     
312.4      266.15     0          228.24     648        28.19     
312.6      265.26     0          227.47     612        28.07     
312.8      265.42     0          226.91     612        28.02     
313        265.23     0          226.93     612        27.92     
313.2      265.93     0          227.18     648        28.04     
313.4      266.08     0          227.45     648        28.07     
313.6      265.88     0          227.6      612        28.09     
313.8      265.11     0          227.81     612        27.88     
314        265.36     0          228.08     648        28.03     
314.2      264.5      0          227.57     648        27.91     
314.4      265.01     0          227.15     648        27.83     
314.6      265.75     0          227.01     612        27.96     
314.8      266.04     0          226.91     612        28.03     
315        266.19     0          226.71     612        27.99     
315.2      266.72     0          226.78     612        28.07     
315.4      265.61     0          227.19     648        27.9      
315.6      266.26     0          227.36     648        27.98     
315.8      266.43     0          226.95     612        27.88     
316        267.2      0          226.83     612        27.85     
316.2      269.69     0          227.4      648        28.01     
316.4      274.09     0          227.99     648        28.12     
316.6      286.75     0          227.98     648        28.13     
316.8      323.23     0          227.87     648        28.12     
317        228.64     0          227.92     612        27.97     
317.2      241.78     0          227.67     612        28.08     
317.4      338.62     0          227.29     684        28.13     
317.6      300.79     0          227.35     648        28.2      
317.8      276.89     0          227.59     648        28.28     
318        270.2      0          227.82     576        28.25     
318.2      267.11     0          227.78     612        28.01     
318.4      266.57     0          228.21     648        28.01     
318.6      266.2      0          228.26     648        27.78     
318.8      265.65     0          228.17     648        27.68     
319        265.85     0          228.6      612        27.73     
319.2      266.28     0          228.73     612        27.86     
319.4      266.14     0          228.99     648        27.82     
319.6      265.3      0          228.96     648        27.73     
319.8      264.95     0          228.85     648        27.71     
320        264.94     0          229.03     612        27.6      
320.2      265.83     0          229.63     612        27.73     
320.4      266.04     0          229.82     648        27.7      
320.6      265.6      0          229.64     648        27.68     
320.8      266.62     0          229.46     648        27.96     
321        266.22     0          228.68     576        27.81     
321.2      265.83     0          227.57     648        27.89     
321.4      265.25     0          226.58     648        27.77     
321.6      265.84     0          225.89     648        27.85     
321.8      265.87     0          225.75     648        27.85     
322        266.46     0          226.4      648        27.92     
322.2      265.55     1          227.62     612        27.83     
322.4      265.58     0          229.46     576        27.81     
322.6      264.9      0          230.78     648        27.62     
322.8      263.88     0          231.54     648        27.4      
323        266.56     0          231.23     612        27.81     
323.2      266.17     0          230.99     648        27.92     
323.4      266.18     0          230.73     648        27.89     
323.6      266.08     0          230.49     612        27.85     
323.8      265.38     0          230.5      612        27.74     
324        264.65     0          230.4      648        27.65     
324.2      264.85     0          230.55     648        27.66     
324.4      265.15     0          230.54     648        27.65     
324.6      266.33     0          230.28     612        27.89     
324.8      265.97     0          229.91     648        27.79     
325        265.52     0          229.58     576        27.7      
325.2      265.65     0          229.6      648        27.72     
325.4      265.04     0          229.88     648        27.65     
325.6      265.23     0          230.25     648        27.66     
325.8      265.53     0          230.3      648        27.7      
326        265.54     0          230.1      612        27.77     
326.2      265.94     0          230.38     648        27.84     
326.4      266.3      0          230.75     648        27.88     
326.6      265.12     0          231.4      648        27.72     
326.8      264.65     0          231.63     648        27.51     
327        265.31     0          230.69     648        27.53     
327.2      265.77     0          230        648        27.45     
327.4      267.02     0          229.85     648        27.69     
327.6      267.21     0          229.7      612        27.73     
327.8      267.22     0          229.1      648        27.64     
328        266.36     0          228.86     612        27.44     
328.2      267.29     0          230.09     648        27.36     
328.4      267.96     0          231.51     612        27.22     
328.6      272.1      0          231.69     684        27.46     
328.8      281.3      0          231.61     576        27.45     
329        315.95     0          231.78     612        27.53     
329.2      253.66     0          231.81     648        27.38     
329.4      182.32     0          231.41     684        27.45     
329.6      306.8      0          230.63     648        27.55     
329.8      312.47     0          230.38     612        27.62     
330        278.4      0          230.04     648        27.42     
330.2      271.34     0          229.99     612        27.64     
330.4      267.83     0          230.16     612        27.31     
330.6      266.81     0          230.19     648        27.21     
330.8      266.13     0          230.62     612        27.04     
331        266.33     0          230.84     648        26.91     
