~Version
 VERS              .         2.0                           : CWLS LOG ASCII STANDARD - VERSION 2.0
 WRAP              .         NO                            : ONE LINE PER DEPTH STEP
 DLM               .         SPACE                         : DELIMITING CHARACTER(SPACE TAB OR COMMA)
~Well Information
#_______________________________________________________________________________
#
#PARAMETER_NAME    .UNIT     VALUE                         : DESCRIPTION
#_______________________________________________________________________________
STRT               .M        2667.8                        : First reference value
STOP               .M        2773.4                        : Last reference value
STEP               .M        0.1999997                     : Step increment
NULL               .         -9999                         : Missing value
COMP               .                                       : Company
WELL               .         616                           : Well name
FLD                .                                       : Field
LOC                .                                       : Location
CNTY               .                                       : County
STAT               .                                       : State
CTRY               .                                       : Country
SRVC               .                                       : Service Company
DATE               .                                       : Date
API                .                                       : API number
PROJECT_UPGRADE_TIME .         2021-03-18T21_24_50           : 
group              .         Good                          : 
~Parameter Information Block
#_______________________________________________________________________________
#
#PARAMETER_NAME    .UNIT     VALUE                         : DESCRIPTION
#_______________________________________________________________________________
SET                .         D0401_D                       : 
OTHER              .         Kedr.exe версия 2.1.2.32      : 
OTHER_10           .         TM.GRD = 0.00379*TM$.UE + 7.11: 
OTHER_11           .         MN.ATM = (8e-006*TM.GRD + 0.02)*(MN$.UE + -8*TM.GRD + -1800): 
OTHER_12           .         GK.MKR/H = GK$.UE / 57.17 + 0 : 
OTHER_2            .         KedrData.dll версия 3.2.2.14  : 
OTHER_3            .         LasInf.dll версия 3.2.0.13    : 
OTHER_4            .         Драйвер версия 1.2.0.4        : 
OTHER_5            .         Прибор_ АКП4_90               : 
OTHER_6            .         Номер прибора_ 56             : 
OTHER_7            .         Режим_ АКП4_90 - все каналы   : 
OTHER_8            .         Форма_ Г-1                    : 
OTHER_9            .         Тарировки_                    : 
PROJECT_UPGRADE_TIME .         2021-03-18T21_24_49           : 
TLFamily_DEPT      .         Measured Depth                : 
TLFamily_GK        .         Gamma Ray                     : 
TLFamily_GK$       .                                       : 
TLFamily_LM        .         Casing Collar locator         : 
TLFamily_METKA     .                                       : 
TLFamily_METKA_1   .                                       : 
TLFamily_MN        .                                       : 
TLFamily_MN$       .                                       : 
TLFamily_RCOR      .                                       : 
TLFamily_SPID      .         Spontaneous Potential         : 
TLFamily_TIME      .         Time                          : 
TLFamily_TM        .         Temperature                   : 
TLFamily_TM$       .         Temperature                   : 
group              .         second                        : 
~Curve Information
#_______________________________________________________________________________
#
#LOGNAME           .UNIT     LOG_ID                        : DESCRIPTION
#_______________________________________________________________________________
DEPT               .M                                      : 1 Глубина, м -    0.0 см 
GK                 .MKR/H                                  : 12 Гамма-активность, мкр./ч -   65.0 см 
GK$                .UE                                     : 9 Гамма-активность, усл.ед. -   65.0 см 
LM                 .                                       : 8 Локатор муфт,  -   30.0 см 
METKA              .                                       : 3 Метки,  -    0.0 см 
METKA_1            .                                       : 13 Маркеры - 65 см 
MN                 .ATM                                    : 11 Давление, атм. -  140.0 см 
MN$                .UE                                     : 7 Давление, усл.ед. -  140.0 см 
RCOR               .CM/KM                                  : 5 Коррекция по ролику, см/км -    0.0 см 
SPID               .M/H                                    : 2 Скорость, м/час -    0.0 см 
TIME               .S                                      : 4 Время, сек -    0.0 см 
TM                 .GRD                                    : 10 Температура, °C -  145.0 см 
TM$                .UE                                     : 6 Температура, усл.ед. -  145.0 см 
~Ascii
# ...
2679       7.43       413        525        0          0          259.597    15027      0          -260       6466.29    83.073     20043     
2679.2     7.59       419        456        0          0          259.597    15027      0          -260       6463.57    83.078     20044     
2679.4     7.72       434        723        0          0          259.627    15028      0          -260       6460.68    83.088     20047     
2679.6     7.61       451        430        0          0          259.637    15029      0          -260       6457.92    83.092     20048     
2679.8     7.48       431        601        1          0          259.679    15031      0          -260       6455.08    83.096     20049     
2680       7.42       426        577        0          0          259.698    15032      0          -260       6451.24    83.1       20050     
2680.2     7.47       403        1561       0          0          259.719    15033      0          -260       6448.52    83.106     20052     
2680.4     7.78       439        496        0          0          259.719    15033      0          -260       6445.7     83.111     20053     
2680.6     7.75       459        447        0          0          259.759    15035      0          -260       6442.86    83.118     20055     
2680.8     7.63       433        501        0          0          259.78     15036      0          -260       6440.03    83.126     20057     
2681       7.68       435        431        0          0          259.814    15038      0          -260       6437.34    83.126     20057     
2681.2     7.78       429        577        0          0          259.8      15037      0          -260       6434.5     83.13      20058     
2681.4     7.93       456        637        0          0          259.861    15040      0          -260       6431.67    83.136     20060     
2681.6     7.86       459        650        0          0          259.882    15041      0          -260       6428.84    83.141     20061     
2681.8     7.7        456        551        0          0          259.895    15042      0          -260       6426.01    83.141     20061     
2682       7.51       444        523        0          0          259.923    15043      0          -260       6423.24    83.149     20063     
2682.2     7.67       416        515        0          0          259.943    15044      0          -260       6420.48    83.156     20065     
2682.4     7.72       428        596        0          0          259.963    15045      0          -260       6417.64    83.16      20066     
2682.6     7.99       440        625        0          0          259.977    15046      0          -260       6414.81    83.166     20068     
2682.8     8.22       464        913        0          0          260.024    15048      0          -260       6411.99    83.172     20069     
2683       8.31       472        473        0          0          260.024    15048      0          -260       6409.15    83.179     20071     
2683.2     8.3        481        599        0          0          260.065    15050      0          -260       6406.45    83.187     20073     
2683.4     8.29       467        374        0          0          260.064    15050      0          -233       6403.63    83.193     20075     
2683.6     8.25       482        369        0          0          260.105    15052      0          -260       6400.79    83.202     20077     
2683.8     7.94       480        394        0          0          260.126    15053      0          -260       6397.96    83.209     20079     
2684       7.74       452        499        0          0          260.16     15055      0          -237       6395.14    83.213     20080     
2684.2     7.67       426        393        0          0          260.145    15054      0          -260       6392.3     83.221     20082     
2684.4     7.85       439        409        0          0          260.207    15057      0          -260       6389.47    83.228     20084     
2684.6     7.99       449        493        0          0          260.207    15057      0          -260       6386.77    83.233     20085     
2684.8     8.17       448        478        0          0          260.247    15059      0          -260       6383.94    83.236     20086     
2685       8.4        463        309        0          0          260.254    15059      0          -260       6381.1     83.247     20089     
2685.2     8.57       476        511        0          0          260.267    15060      0          -320       6378.28    83.252     20090     
2685.4     8.45       505        639        0          0          260.287    15061      0          -260       6375.57    83.262     20093     
2685.6     8          462        803        0          0          260.335    15063      0          -260       6372.74    83.278     20097     
2685.8     8.25       439        5263       0          0          260.348    15064      0          -260       6369.88    83.281     20098     
2686       8.75       500        5222       0          0          260.389    15066      0          -260       6367.06    83.289     20100     
2686.2     8.74       501        645        0          0          260.396    15066      0          -260       6364.17    83.293     20101     
2686.4     8.83       483        528        0          0          260.409    15067      0          -260       6361.26    83.297     20102     
2686.6     9.03       508        431        0          0          260.429    15068      0          -260       6358.56    83.308     20105     
2686.8     8.88       538        485        0          0          260.429    15068      0          -260       6355.74    83.319     20108     
2687       8.86       497        492        0          0          260.483    15071      0          -260       6352.91    83.329     20110     
2687.2     8.92       534        666        0          0          260.496    15071      0          -260       6350.07    83.338     20113     
2687.4     8.54       504        525        0          0          260.509    15072      0          -300       6347.25    83.346     20115     
2687.6     8.39       460        577        0          0          260.54     15074      0          -260       6344.47    83.35      20116     
2687.8     8.77       460        427        0          0          260.55     15074      0          -190       6341.58    83.353     20117     
2688       9.19       517        702        0          0          260.591    15076      0          -190       6338.88    83.357     20118     
2688.2     9.02       547        507        0          0          260.591    15076      0          -190       6335.99    83.363     20119     
2688.4     8.53       535        577        0          0          260.611    15077      0          -260       6333.22    83.372     20122     
2688.6     8.32       482        607        0          0          260.651    15079      0          -260       6330.39    83.384     20125     
2688.8     8.43       482        422        0          0          260.658    15079      0          -260       6327.55    83.393     20127     
2689       8.46       471        678        0          0          260.692    15081      0          -260       6324.79    83.398     20129     
2689.2     8.67       477        539        0          0          260.692    15081      0          -260       6322.03    83.403     20130     
2689.4     8.92       506        490        0          0          260.733    15083      0          -320       6319.19    83.406     20131     
2689.6     9.01       505        402        0          0          260.753    15084      0          -260       6316.36    83.41      20132     
2689.8     9.2        506        530        1          0          260.774    15085      0          -260       6313.54    83.414     20133     
2690       9.43       518        557        0          0          260.794    15086      0          -260       6309.93    83.418     20134     
