~Version
 VERS              .         2.0                           : CWLS LOG ASCII STANDARD - VERSION 2.0
 WRAP              .         NO                            : ONE LINE PER DEPTH STEP
 DLM               .         SPACE                         : DELIMITING CHARACTER(SPACE TAB OR COMMA)
~Well Information
#_______________________________________________________________________________
#
#PARAMETER_NAME    .UNIT     VALUE                         : DESCRIPTION
#_______________________________________________________________________________
STRT               .M        19.65                         : First reference value
STOP               .M        2766.85                       : Last reference value
STEP               .M        0.2                           : Step increment
NULL               .         -9999                         : Missing value
COMP               .                                       : Company
WELL               .         616                           : Well name
FLD                .                                       : Field
LOC                .                                       : Location
CNTY               .                                       : County
STAT               .                                       : State
CTRY               .                                       : Country
SRVC               .                                       : Service Company
DATE               .                                       : Date
API                .                                       : API number
PROJECT_UPGRADE_TIME .         2021-03-18T21_24_50           : 
group              .         Good                          : 
~Parameter Information Block
#_______________________________________________________________________________
#
#PARAMETER_NAME    .UNIT     VALUE                         : DESCRIPTION
#_______________________________________________________________________________
SET                .         D7016_D_2                     : 
NPR                .         155                           : Номер прибора
OTHER              .         Kedr.exe версия 2.1.2.32      : 
OTHER_10           .         TM.GRD = 0.00404*TM$.UE + 0.07: 
OTHER_11           .         MN.ATM = (6.33279e-006*TM.GRD + 0.02401)*(MN$.UE + 2.72*TM.GRD + -2018): 
OTHER_12           .         GK.MKR/H = GK$.UE / 43.5489 + 0: 
OTHER_13           .         RES.SM = 0.00476*CRES.UE - 1.51709: 
OTHER_14           .         PL.GSM3 = 0 + 0 * (PL.UE / 1) +  0 * (PL.UE / 1)^2: 
OTHER_15           .         Постоянная времени ГГП = 6 сек: 
OTHER_16           .         Постоянная времени ГК = 6 сек : 
OTHER_2            .         KedrData.dll версия 3.2.2.14  : 
OTHER_3            .         LasInf.dll версия 3.2.0.13    : 
OTHER_4            .         Драйвер версия 1.2.0.5        : 
OTHER_5            .         Прибор_ КСА-M1                : 
OTHER_6            .         Номер прибора_ 155+р204       : 
OTHER_7            .         Режим_ КСА-М1 + ГГП + Резистивиметр: 
OTHER_8            .         Форма_ 223\2                  : 
OTHER_9            .         Тарировки_                    : 
PR                 .         КСА-Т7 М1                     : Тип прибора
PROJECT_UPGRADE_TIME .         2021-03-18T21_24_50           : 
PRTY               .         ПП-223_2                      : Номер партии
SRV                .         ЦКРС                          : Заказчик
SRVC               .         Лузин  А.Б.                   : Начальник партии
TLFamily_DEPT      .         Measured Depth                : 
TLFamily_LM        .         Casing Collar locator         : 
TLFamily_MN        .                                       : 
TLFamily_SPID      .         Spontaneous Potential         : 
TLFamily_TM        .         Temperature                   : 
group              .         second                        : 
~Curve Information
#_______________________________________________________________________________
#
#LOGNAME           .UNIT     LOG_ID                        : DESCRIPTION
#_______________________________________________________________________________
DEPT               .M                                      : Depth curve 
LM                 .е.ацп                                  : Локация муфт 
MN                 .атм                                    : Манометрия, атм 
SPID               .м/ч                                    : Скорость записи,м/час 
TM                 .град.С                                 : Термометрия,град.С 
~Ascii
# ...
2560.05    847.078    233.15     1660       55.24     
2560.25    1261.986   233.15     1660       55.23     
2560.45    1185.977   233.18     1659.989   55.22     
2560.65    1062.994   233.21     1603.024   55.22     
2560.85    1032.06    233.24     1729.997   55.21     
2561.05    1349.982   233.25     1714.981   55.2      
2561.25    1253.972   233.27     1613.009   55.19     
2561.45    1107.077   233.29     1660       55.18     
2561.65    1518.939   233.31     1660       55.17     
2561.85    1192.986   233.33     1660       55.17     
2562.05    1117.021   233.36     1660       55.16     
2562.25    1227.007   233.39     1660       55.16     
2562.45    1266.135   233.39     1660       55.15     
2562.65    1987.888   233.41     1660       55.15     
2562.85    1391.076   233.44     1660.012   55.14     
2563.05    1795.924   233.46     1725.988   55.13     
2563.25    1388.969   233.47     1660       55.12     
2563.45    1226.128   233.49     1660       55.11     
2563.65    1910.02    233.5      1660       55.1      
2563.85    2016.95    233.52     1659.993   55.08     
2564.05    1752.946   233.54     1625.003   55.08     
2564.25    1464.999   233.57     1641.004   55.06     
2564.45    1459.073   233.59     1660       55.06     
2564.65    1848.816   233.59     1660       55.05     
2564.85    6195.592   233.62     1660       55.04     
2565.05    4021.736   233.65     1660       55.04     
2565.25    2617.837   233.67     1660       55.03     
2565.45    1749.916   233.69     1660       55.02     
2565.65    1300.923   233.7      1660       55.02     
2565.85    893.006    233.73     1660       55.01     
2566.05    924.958    233.73     1660       55        
2566.25    699.005    233.75     1660       54.99     
2566.45    724.994    233.78     1660       54.98     
2566.65    695.003    233.8      1660       54.97     
2566.85    708.972    233.82     1660       54.96     
2567.05    560.976    233.83     1660       54.95     
2567.25    432.993    233.86     1660       54.94     
2567.45    394        233.88     1659.995   54.94     
2567.65    393        233.89     1632.994   54.93     
2567.85    391.994    233.91     1600.008   54.92     
2568.05    359.001    233.93     1640.004   54.92     
2568.25    363.014    233.96     1660       54.91     
2568.45    436.999    233.99     1660       54.9      
2568.65    431.994    233.99     1660       54.89     
2568.85    400.022    234.01     1660       54.88     
2569.05    517.01     234.04     1660       54.87     
2569.25    569.001    234.07     1660       54.87     
2569.45    575.024    234.08     1660       54.86     
2569.65    702.033    234.1      1660       54.85     
2569.85    874.991    234.12     1660       54.85     
2570.05    825.984    234.15     1660       54.84     
2570.25    743.053    234.15     1660       54.84     
2570.45    1022.957   234.18     1660.007   54.83     
2570.65    791.995    234.2      1694.998   54.83     
2570.85    767.012    234.21     1686.995   54.82     
2571.05    831.992    234.24     1659.991   54.81     
2571.25    790.987    234.27     1613.021   54.8      
2571.45    720.997    234.29     1721.977   54.79     
2571.65    705.998    234.32     1600.001   54.78     
2571.85    695.006    234.34     1604.011   54.77     
2572.05    727.027    234.34     1660       54.76     
2572.25    871.013    234.37     1660       54.75     
2572.45    938.977    234.39     1659.993   54.73     
2572.65    817.018    234.4      1624.995   54.72     
2572.85    910.993    234.42     1600.008   54.71     
2573.05    872.011    234.45     1644.003   54.7      
2573.25    930.969    234.37     1660       54.69     
2573.45    765.012    234.47     1660       54.68     
2573.65    829.013    234.5      1660       54.67     
2573.85    898.972    234.52     1660       54.65     
2574.05    748.018    234.53     1660.005   54.64     
2574.25    845        234.55     1686.996   54.63     
2574.45    842.982    234.58     1667.987   54.62     
2574.65    745.013    234.58     1600.008   54.62     
2574.85    814.966    234.6      1640.004   54.61     
2575.05    634.108    234.63     1660.011   54.6      
2575.25    6512.56    234.65     1719.002   54.59     
2575.45    4178.714   234.66     1729.976   54.58     
2575.65    2660.836   234.68     1603.011   54.56     
2575.85    1788.879   234.71     1660       54.55     
2576.05    1145.942   234.72     1660       54.55     
2576.25    840.969    234.73     1660       54.54     
2576.45    673.977    234.76     1660       54.53     
2576.65    553.02     234.79     1660       54.52     
2576.85    656.982    234.81     1660       54.51     
2577.05    562.986    234.81     1660       54.51     
2577.25    487.979    234.84     1660       54.49     
2577.45    378.991    234.86     1659.989   54.48     
2577.65    330.002    234.88     1600.003   54.48     
2577.85    338.02     234.89     1616.008   54.47     
2578.05    444.992    234.92     1660       54.46     
2578.25    401        234.94     1660       54.45     
2578.45    399.018    234.95     1660       54.45     
2578.65    492.01     234.99     1660       54.44     
2578.85    545.987    235        1660       54.43     
2579.05    475.017    235.02     1660       54.42     
2579.25    563.996    235.05     1659.989   54.41     
2579.45    542.983    235.07     1600       54.41     
2579.65    455.005    235.08     1600.009   54.4      
2579.85    483.01     235.1      1647.002   54.39     
2580.05    537.041    235.13     1660.012   54.39     
2580.25    752.971    235.15     1725.988   54.38     
2580.45    602.004    235.16     1660       54.37     
2580.65    621.019    235.18     1660       54.36     
2580.85    723.019    235.2      1660       54.34     
2581.05    820.986    235.23     1660       54.32     
2581.25    746.005    235.24     1659.993   54.31     
2581.45    774.004    235.27     1625.003   54.3      
2581.65    795.981    235.3      1642.003   54.3      
2581.85    695.995    235.3      1660       54.29     
2582.05    671.994    235.32     1660       54.29     
2582.25    638.021    235.35     1660       54.28     
2582.45    751.007    235.37     1660       54.26     
2582.65    790.021    235.38     1660       54.26     
2582.85    898.954    235.4      1660       54.25     
2583.05    655.972    235.43     1660       54.24     
2583.25    506.995    235.45     1660       54.23     
2583.45    483.012    235.46     1660       54.22     
2583.65    547.985    235.48     1660       54.21     
2583.85    467.001    235.51     1660       54.2      
2584.05    472        235.53     1659.999   54.19     
2584.25    473.049    235.53     1655.992   54.18     
2584.45    730.989    235.56     1613.009   54.17     
2584.65    670.986    235.58     1660       54.16     
2584.85    596.984    235.61     1660       54.15     
2585.05    510.002    235.62     1660       54.14     
2585.25    519.012    235.64     1660       54.13     
2585.45    580.015    235.66     1660       54.12     
2585.65    660.518    235.66     1660       54.11     
2585.85    3396.135   235.69     1660       54.09     
2586.05    4108.71    235.72     1660       54.08     
2586.25    2577.821   235.74     1660       54.07     
2586.45    1634.895   235.76     1660       54.06     
2586.65    1080.969   235.77     1660       54.05     
2586.85    915.945    235.79     1660       54.04     
2587.05    626.979    235.8      1660       54.03     
2587.25    513.987    235.82     1660       54.03     
2587.45    446.994    235.85     1660       54.02     
2587.65    413.983    235.87     1660       54.01     
2587.85    322.02     235.88     1660       54        
2588.05    424.988    235.92     1660       53.99     
2588.25    364.002    235.92     1660       53.99     
2588.45    375.988    235.95     1660       53.98     
2588.65    314.033    235.96     1660       53.97     
2588.85    488.978    235.98     1660       53.96     
2589.05    374.991    236        1660       53.95     
